{"type":"FeatureCollection","data_type":"Dataset","url_type":null,"permissions":[{"permissions":{"download":true,"view":true},"group_id":"everyone"}],"classification":null,"title":"Nissin Dealers","count":182,"stream_id":267092,"contributor":{"url":"http://geocommons.com/users/48792","name":"Minox USA"},"data_attributes":null,"calculation_params":null,"icon_link":null,"link":"http://geocommons.com/overlays/267092.json","extent":[-155.121,19.6945,-70.2897,47.7593],"geometry_types":["point"],"unique_name":null,"name":"Nissin Dealers","feature_count":182,"description":"","next_feature":null,"is_raster":false,"short_classification":"Y","stats":{},"features":[{"properties":{"city":"New York","name":"17th Street Photo","geo_score":1.0,"zip code":"10011","phone":"212-366-9870","id":"a7sfwf0k0yw1","geo_precision":"range","address":"34 W 17th St","state":"NY"},"type":"Feature","geometry":{"type":"Point","coordinates":[-73.994669,40.738754]}},{"properties":{"city":"New York","name":"42 Street Photo","geo_score":0.916,"zip code":"10018","phone":"212-594-6565","id":"a7sfwf3kutgn","geo_precision":"range","address":"378 5th Ave","state":"NY"},"type":"Feature","geometry":{"type":"Point","coordinates":[-73.983801,40.749553]}},{"properties":{"city":"New York","name":"51st Computers &amp; Electronics","geo_score":1.0,"zip code":"10019","phone":null,"id":"a7sfwf9od3f8","geo_precision":"range","address":"750 7th Ave","state":"NY"},"type":"Feature","geometry":{"type":"Point","coordinates":[-73.983486,40.760847]}},{"properties":{"city":"Ashburn","name":"Ace Photo","geo_score":0.488,"zip code":"20147","phone":"703-430-3333","id":"a7sfwfc6c8te","geo_precision":"street","address":"44710 Cape Ct","state":"VA"},"type":"Feature","geometry":{"type":"Point","coordinates":[-77.59624,39.049611]}},{"properties":{"city":"Roseville","name":"Action Camera","geo_score":0.514,"zip code":"95661","phone":"916-786-2288","id":"a7sfwf1286ne","geo_precision":"street","address":"1000 Sunrise #4B","state":"CA"},"type":"Feature","geometry":{"type":"Point","coordinates":[-121.266359,38.743432]}},{"properties":{"city":"New York","name":"Adorama Camera Inc","geo_score":1.0,"zip code":"10011","phone":"212-741-0401","id":"a7sfwf2xlyhy","geo_precision":"range","address":"42 West 18th St","state":"NY"},"type":"Feature","geometry":{"type":"Point","coordinates":[-73.994038,40.739229]}},{"properties":{"city":"Portland","name":"Advance Camera Repair Inc","geo_score":0.989,"zip code":"97225","phone":"503-292-6996","id":"a7sfwex7a819","geo_precision":"range","address":"8124 SW Beaverton Hillsdale Hwy","state":"OR"},"type":"Feature","geometry":{"type":"Point","coordinates":[-122.757527,45.486099]}},{"properties":{"city":"Oxford","name":"Akces Media LLC","geo_score":1.0,"zip code":"6478","phone":"203-744-7909","id":"a7sfwf1ajhea","geo_precision":"range","address":"6 Benson Rd","state":"CT"},"type":"Feature","geometry":{"type":"Point","coordinates":[-73.141178,41.487015]}},{"properties":{"city":"Orem","name":"Allen's Camera","geo_score":1.0,"zip code":"84057","phone":"801-224-0006","id":"a7sfwf04klkm","geo_precision":"range","address":"626 North State St","state":"UT"},"type":"Feature","geometry":{"type":"Point","coordinates":[-111.700362,40.309439]}},{"properties":{"city":"Des Plaines","name":"Alpine Camera","geo_score":1.0,"zip code":"60016","phone":"847-229-6181","id":"a7sfwexvmwy5","geo_precision":"range","address":"686 Lee St","state":"IL"},"type":"Feature","geometry":{"type":"Point","coordinates":[-87.888439,42.040873]}},{"properties":{"city":"Seattle","name":"Amazon.com","geo_score":0.857,"zip code":"98108","phone":"206-266-2107","id":"a7sfwf7a279e","geo_precision":"zip","address":"PO Box 80378","state":"WA"},"type":"Feature","geometry":{"type":"Point","coordinates":[-121.803388,47.432251]}},{"properties":{"city":"Tulsa","name":"Apertures Inc","geo_score":0.604,"zip code":"74112","phone":null,"id":"a7sfwexfcv2d","geo_precision":"street","address":"1936 So. Harvard Ave","state":"OK"},"type":"Feature","geometry":{"type":"Point","coordinates":[-95.940287,36.159918]}},{"properties":{"city":"San Clemente","name":"Arcade Photo","geo_score":0.955,"zip code":"92672","phone":"949-492-7111","id":"a7sfwex8mzoe","geo_precision":"range","address":"131 A Avenida Del Mar","state":"CA"},"type":"Feature","geometry":{"type":"Point","coordinates":[-117.613617,33.426994]}},{"properties":{"city":"Arlington","name":"Arlington Camera Inc","geo_score":1.0,"zip code":"76011","phone":"817-261-8131","id":"a7sfwf5jhpuu","geo_precision":"range","address":"544 W Randol Mill Rd","state":"TX"},"type":"Feature","geometry":{"type":"Point","coordinates":[-97.113369,32.749991]}},{"properties":{"city":"Lubbock","name":"Armadillo Camera","geo_score":0.833,"zip code":"79413","phone":"806-795-6405","id":"a7sfwf0c4jdn","geo_precision":"range","address":"3824 West 50th St","state":"TX"},"type":"Feature","geometry":{"type":"Point","coordinates":[-101.896911,33.54883]}},{"properties":{"city":"Glendale","name":"Armato's Photo Service","geo_score":0.707,"zip code":"11385","phone":"718-628-6800","id":"a7sfweyjvl5a","geo_precision":"street","address":"6701 Myrtle Ave","state":"NY"},"type":"Feature","geometry":{"type":"Point","coordinates":[-73.901415,40.700491]}},{"properties":{"city":"Las Vegas","name":"B&amp;C Camera","geo_score":0.902,"zip code":"89102","phone":"702-871-1100","id":"a7sfwf50dwpx","geo_precision":"range","address":"4511 W Sahara","state":"NV"},"type":"Feature","geometry":{"type":"Point","coordinates":[-115.200747,36.144406]}},{"properties":{"city":"New York","name":"B&amp;H Photo Video Pro Audio Inc","geo_score":1.0,"zip code":"10001","phone":"212-239-7500","id":"a7sfwf38uvdu","geo_precision":"range","address":"420 Ninth Ave","state":"NY"},"type":"Feature","geometry":{"type":"Point","coordinates":[-73.996483,40.752908]}},{"properties":{"city":"Edison","name":"Beach Camera","geo_score":1.0,"zip code":"8817","phone":"732-424-9060","id":"a7sfwfa4doef","geo_precision":"range","address":"86 Carter Dr","state":"NJ"},"type":"Feature","geometry":{"type":"Point","coordinates":[-74.39948,40.528578]}},{"properties":{"city":"Springdale","name":"Bedford Camera","geo_score":0.883,"zip code":"72764","phone":null,"id":"a7sfwf6gt7xf","geo_precision":"range","address":"610 W Emma","state":"AR"},"type":"Feature","geometry":{"type":"Point","coordinates":[-94.134977,36.185195]}},{"properties":{"city":"Brockton","name":"Benner's Camera","geo_score":1.0,"zip code":"2301","phone":"508-583-1058","id":"a7sfwf37bcax","geo_precision":"range","address":"995 Main St","state":"MA"},"type":"Feature","geometry":{"type":"Point","coordinates":[-71.016437,42.066235]}},{"properties":{"city":"Westwood","name":"Bergen County Camera","geo_score":1.0,"zip code":"7675","phone":"201-664-4113","id":"a7sfwf39m5cq","geo_precision":"range","address":"270 Westwood Ave","state":"NJ"},"type":"Feature","geometry":{"type":"Point","coordinates":[-74.030182,40.992999]}},{"properties":{"city":"Pittsburgh","name":"Bernie's Photo Center","geo_score":1.0,"zip code":"15212","phone":"412-231-1717","id":"a7sfwf6dfzbc","geo_precision":"range","address":"525 East Ohio St","state":"PA"},"type":"Feature","geometry":{"type":"Point","coordinates":[-79.999477,40.453611]}},{"properties":{"city":"New York","name":"Best Price Optics","geo_score":0.592,"zip code":"10118","phone":"646-367-6050","id":"a7sfwf8ny04m","geo_precision":"street","address":"350 5th Ave, Suite 5110","state":"NY"},"type":"Feature","geometry":{"type":"Point","coordinates":[-73.973968,40.762966]}},{"properties":{"city":"Flemington","name":"Black Lab Studio","geo_score":1.0,"zip code":"8822","phone":"908-751-5131","id":"a7sfwf8r9ref","geo_precision":"range","address":"24A Main St","state":"NJ"},"type":"Feature","geometry":{"type":"Point","coordinates":[-74.859018,40.511893]}},{"properties":{"city":"Breckenridge","name":"Breckenridge Photographics","geo_score":0.442,"zip code":"80424","phone":"970-547-1518","id":"a7sfwf4v9z4i","geo_precision":"street","address":"PO Box 6609","state":"CO"},"type":"Feature","geometry":{"type":"Point","coordinates":[-105.528716,39.500385]}},{"properties":{"city":"Boston","name":"Bromfield Camera","geo_score":1.0,"zip code":"2108","phone":"617-426-5230","id":"a7sfwf3ufa00","geo_precision":"range","address":"10 Bromfield St","state":"MA"},"type":"Feature","geometry":{"type":"Point","coordinates":[-71.060075,42.356593]}},{"properties":{"city":"Chicago","name":"Calumet Photographic","geo_score":0.805,"zip code":"60642","phone":"312-944-2774","id":"a7sfwezz30z6","geo_precision":"range","address":"900 West Bliss St","state":"IL"},"type":"Feature","geometry":{"type":"Point","coordinates":[-87.65099,41.901703]}},{"properties":{"city":"Burbank","name":"Cam Photo &amp; Imaging","geo_score":1.0,"zip code":"91502","phone":"818-841-5011","id":"a7sfwewixljq","geo_precision":"range","address":"519 N Glenoaks Blvd","state":"CA"},"type":"Feature","geometry":{"type":"Point","coordinates":[-118.310569,34.186249]}},{"properties":{"city":"Hartford","name":"Camera Bar","geo_score":1.0,"zip code":"6103","phone":"860-525-2158","id":"a7sfwfae5vlt","geo_precision":"range","address":"75 Asylum St","state":"CT"},"type":"Feature","geometry":{"type":"Point","coordinates":[-72.675131,41.766932]}},{"properties":{"city":"Vestavia Hills","name":"Camera Brookwood","geo_score":0.663,"zip code":"35216","phone":"205-822-2106","id":"a7sfwf1y4piw","geo_precision":"street","address":"1425 Montgomery Hwy, Ste 85","state":"AL"},"type":"Feature","geometry":{"type":"Point","coordinates":[-86.779967,33.461315]}},{"properties":{"city":"Oshkosh","name":"Camera Casino","geo_score":0.967,"zip code":"54901","phone":"920-233-2424","id":"a7sfwf96afmk","geo_precision":"range","address":"439 West Main St","state":"WI"},"type":"Feature","geometry":{"type":"Point","coordinates":[-88.5376,44.019506]}},{"properties":{"city":"Houston","name":"Camera Co-op","geo_score":0.902,"zip code":"77007","phone":"713-522-7837","id":"a7sfweyvp05p","geo_precision":"range","address":"801 Durham","state":"TX"},"type":"Feature","geometry":{"type":"Point","coordinates":[-95.410579,29.769703]}},{"properties":{"city":"Green Bay","name":"Camera Corner","geo_score":0.339,"zip code":"54305","phone":"920-435-5353","id":"a7sfweyyh7vn","geo_precision":"street","address":"PO Box 248, 529 N. Monroe","state":"WI"},"type":"Feature","geometry":{"type":"Point","coordinates":[-88.067323,44.49116]}},{"properties":{"city":"No Hollywoord","name":"Camera Craft","geo_score":0.974,"zip code":"91601","phone":"818-766-5186","id":"a7sfwf80tgdz","geo_precision":"range","address":"4800 Lankershim Blvd","state":"CA"},"type":"Feature","geometry":{"type":"Point","coordinates":[-118.370421,34.157956]}},{"properties":{"city":"Rockford","name":"Camera Craft Inc","geo_score":0.767,"zip code":"61114","phone":"815-877-3686","id":"a7sfwf3dnnzu","geo_precision":"street","address":"3801 Perryville Rd","state":"IL"},"type":"Feature","geometry":{"type":"Point","coordinates":[-88.980398,42.312269]}},{"properties":{"city":"Tulsa","name":"Camera Gallery Inc","geo_score":0.74,"zip code":"74166","phone":"918-252-3652","id":"a7sfwf6j1h5o","geo_precision":"range","address":"8172 E 68th St","state":"OK"},"type":"Feature","geometry":{"type":"Point","coordinates":[-95.883772,36.065509]}},{"properties":{"city":"Pontiac","name":"Camera Mart Inc","geo_score":1.0,"zip code":"48341","phone":"248-334-9944","id":"a7sfwf2vumk6","geo_precision":"range","address":"11 South Telegraph Rd","state":"MI"},"type":"Feature","geometry":{"type":"Point","coordinates":[-83.325583,42.634534]}},{"properties":{"city":"Santa Clarita","name":"Camera West","geo_score":0.879,"zip code":"91321","phone":"661-291-1692","id":"a7sfwf79gd4o","geo_precision":"street","address":"23236 Lyons Ave, Suite 206","state":"CA"},"type":"Feature","geometry":{"type":"Point","coordinates":[-118.528952,34.381831]}},{"properties":{"city":"Stamford","name":"Camera Wholesalers","geo_score":0.52,"zip code":"6905","phone":"203-357-0467","id":"a7sfwf7pabaq","geo_precision":"street","address":"1034 High Ridge Rd","state":"CT"},"type":"Feature","geometry":{"type":"Point","coordinates":[-73.572296,41.109532]}},{"properties":{"city":"Greenville","name":"Cameras Unlimtied","geo_score":1.0,"zip code":"29609","phone":"864-271-2029","id":"a7sfwf4y0zfi","geo_precision":"range","address":"641 Wade Hampton Blvd","state":"SC"},"type":"Feature","geometry":{"type":"Point","coordinates":[-82.37873,34.867223]}},{"properties":{"city":"Seattle","name":"Cameratechs, Inc","geo_score":1.0,"zip code":"98107","phone":"206-782-2433","id":"a7sfwf3ptr3p","geo_precision":"range","address":"2034 NW Market St","state":"WA"},"type":"Feature","geometry":{"type":"Point","coordinates":[-122.382761,47.668749]}},{"properties":{"city":"Colorado Springs","name":"Cameraworks","geo_score":0.979,"zip code":"80918","phone":"719-594-6966","id":"a7sfwf1yoslh","geo_precision":"range","address":"5030 North Acadamy Blvd","state":"CO"},"type":"Feature","geometry":{"type":"Point","coordinates":[-104.781635,38.906769]}},{"properties":{"city":"Amityville","name":"Cameta Camera","geo_score":0.403,"zip code":"17001","phone":"631-389-2116","id":"a7sfwezyyhd5","geo_precision":"street","address":"8400 New Horizons Blvd","state":"NY"},"type":"Feature","geometry":{"type":"Point","coordinates":[-76.457878,40.358519]}},{"properties":{"city":"Las Vegas","name":"Casey's Camera","geo_score":0.707,"zip code":"89119","phone":null,"id":"a7sfwfabf700","geo_precision":"range","address":"1550 E Tropicana Ave #1","state":"NV"},"type":"Feature","geometry":{"type":"Point","coordinates":[-115.16987,36.100863]}},{"properties":{"city":"Cayman Islands","name":"Cathy Church's Photo Centre","geo_score":0.449,"zip code":null,"phone":"345-949-7415","id":"a7sfwf4uw5fj","geo_precision":"range","address":"PO Box 479 Grand Cayman KY - 1106","state":null},"type":"Feature","geometry":{"type":"Point","coordinates":[-155.121235,19.694519]}},{"properties":{"city":"Chicago","name":"Central Camera Co","geo_score":1.0,"zip code":"60604","phone":"312-427-5580","id":"a7sfwf0ik5wk","geo_precision":"range","address":"230 S Wabash Ave","state":"IL"},"type":"Feature","geometry":{"type":"Point","coordinates":[-87.626184,41.879247]}},{"properties":{"city":"Des Moines","name":"Christian Photo","geo_score":0.912,"zip code":"50322","phone":"515-270-8030","id":"a7sfweyan1xy","geo_precision":"range","address":"6721 Douglas Ave","state":"IA"},"type":"Feature","geometry":{"type":"Point","coordinates":[-93.709625,41.629459]}},{"properties":{"city":"Dallas","name":"Competitive Cameras Ltd","geo_score":0.415,"zip code":"75207","phone":"214-744-5511","id":"a7sfwf3xtxu6","geo_precision":"street","address":"2025 Irving Blvd, #107","state":"TX"},"type":"Feature","geometry":{"type":"Point","coordinates":[-96.822402,32.791852]}},{"properties":{"city":"Concord","name":"Concord Camera","geo_score":1.0,"zip code":"3301","phone":"603-225-5891","id":"a7sfwey1xz2p","geo_precision":"range","address":"29 N Main St","state":"NH"},"type":"Feature","geometry":{"type":"Point","coordinates":[-71.536046,43.205072]}},{"properties":{"city":"New Bedford","name":"Converse Photo","geo_score":0.927,"zip code":"2740","phone":"508-992-3910","id":"a7sfwf79imu9","geo_precision":"range","address":"10-12 N Sixth St","state":"MA"},"type":"Feature","geometry":{"type":"Point","coordinates":[-70.92767,41.634398]}},{"properties":{"city":"Columbus","name":"Cord Camera","geo_score":1.0,"zip code":"43204","phone":"614-824-2673","id":"a7sfwf1jt5ev","geo_precision":"range","address":"745 Harrison Dr","state":"OH"},"type":"Feature","geometry":{"type":"Point","coordinates":[-83.073427,39.969405]}},{"properties":{"city":"St Louis","name":"Creve Coeur Camera","geo_score":0.973,"zip code":"63132","phone":"314-872-7557","id":"a7sfwf3a0dl2","geo_precision":"range","address":"1155 North Warson Rd","state":"MO"},"type":"Feature","geometry":{"type":"Point","coordinates":[-90.39475,38.679991]}},{"properties":{"city":"Redding","name":"Crown Camera","geo_score":1.0,"zip code":"96001","phone":"530-243-8333","id":"a7sfwez6enuw","geo_precision":"range","address":"1365 Market St","state":"CA"},"type":"Feature","geometry":{"type":"Point","coordinates":[-122.391341,40.586005]}},{"properties":{"city":"Paradise","name":"Dave's Camera &amp; Video","geo_score":0.837,"zip code":"95969","phone":"530-872-1975","id":"a7sfwf9do2vi","geo_precision":"range","address":"6020 Skyway","state":"CA"},"type":"Feature","geometry":{"type":"Point","coordinates":[-121.627938,39.754464]}},{"properties":{"city":"Delray Beach","name":"Delray Camera Shop","geo_score":0.912,"zip code":"33444","phone":"561-278-3331","id":"a7sfwf0zmxzt","geo_precision":"range","address":"186 N E 2nd Ave","state":"FL"},"type":"Feature","geometry":{"type":"Point","coordinates":[-80.071206,26.463693]}},{"properties":{"city":"Denver","name":"Denver Pro Photo","geo_score":1.0,"zip code":"80223","phone":"303-698-1790","id":"a7sfwfals2ou","geo_precision":"range","address":"235 S Cherokee St","state":"CO"},"type":"Feature","geometry":{"type":"Point","coordinates":[-104.992453,39.712765]}},{"properties":{"city":"San Francisco","name":"Discount Camera","geo_score":1.0,"zip code":"94108","phone":"415-392-1100","id":"a7sfwf6wa6dz","geo_precision":"range","address":"33 Kearny St","state":"CA"},"type":"Feature","geometry":{"type":"Point","coordinates":[-122.403733,37.78887]}},{"properties":{"city":"Falls Church","name":"Dominion Photo","geo_score":1.0,"zip code":"22046","phone":"703-532-6700","id":"a7sfwf0hlt8v","geo_precision":"range","address":"112 W Broad St","state":"VA"},"type":"Feature","geometry":{"type":"Point","coordinates":[-77.172045,38.882903]}},{"properties":{"city":"Douglas","name":"Douglas Business Center","geo_score":0.927,"zip code":"82633","phone":"307-358-6811","id":"a7sfwexi1vrb","geo_precision":"range","address":"100 North 3rd St","state":"WY"},"type":"Feature","geometry":{"type":"Point","coordinates":[-105.3841,42.759589]}},{"properties":{"city":"Nashville","name":"Dury's","geo_score":1.0,"zip code":"37203","phone":"615-2553456","id":"a7sfwf58tzke","geo_precision":"range","address":"701 Ewing Ave","state":"TN"},"type":"Feature","geometry":{"type":"Point","coordinates":[-86.775686,36.15097]}},{"properties":{"city":"Boston","name":"E.P. Levine Inc","geo_score":0.585,"zip code":"2210","phone":"617-951-1499","id":"a7sfwf767s92","geo_precision":"zip","address":"23 Drydock Ave","state":"MA"},"type":"Feature","geometry":{"type":"Point","coordinates":[-71.040645,42.347547]}},{"properties":{"city":"Washington","name":"Embassy Camera","geo_score":0.951,"zip code":"20009","phone":"202-483-4144","id":"a7sfwewbdqp0","geo_precision":"range","address":"1735 Connecticut Ave","state":"DC"},"type":"Feature","geometry":{"type":"Point","coordinates":[-77.045719,38.913601]}},{"properties":{"city":"Redlands","name":"Empire Camera Inc","geo_score":0.571,"zip code":"92373","phone":"909-798-6677","id":"a7sfwf5rn5xc","geo_precision":"street","address":"410 Alabama St, Suite 103","state":"CA"},"type":"Feature","geometry":{"type":"Point","coordinates":[-117.208722,34.05199]}},{"properties":{"city":"Oklahoma City","name":"Epperson Photo Inc","geo_score":1.0,"zip code":"73112","phone":"405-945-1047","id":"a7sfwf0zuc8j","geo_precision":"range","address":"3110 North May Ave","state":"OK"},"type":"Feature","geometry":{"type":"Point","coordinates":[-97.565589,35.501102]}},{"properties":{"city":"Florham Park","name":"Florham Village Camera","geo_score":1.0,"zip code":"7932","phone":"973-822-2626","id":"a7sfwf9pbcf4","geo_precision":"range","address":"186 Columbia Tpke","state":"NJ"},"type":"Feature","geometry":{"type":"Point","coordinates":[-74.392119,40.788465]}},{"properties":{"city":"Dallas","name":"Focal Point Photograph","geo_score":0.585,"zip code":"97338","phone":"503-623-6300","id":"a7sfwfce2orq","geo_precision":"zip","address":"161 W Ellensdale Ave","state":"OR"},"type":"Feature","geometry":{"type":"Point","coordinates":[-123.352883,44.995672]}},{"properties":{"city":"Brooklyn","name":"Focus Camera","geo_score":1.0,"zip code":"11218","phone":"718-437-8800","id":"a7sfwfajgcia","geo_precision":"range","address":"895-905 McDonald Ave","state":"NY"},"type":"Feature","geometry":{"type":"Point","coordinates":[-73.977232,40.631752]}},{"properties":{"city":"Fort Worth","name":"Fort Worth Camera","geo_score":0.927,"zip code":"76107","phone":"817-335-3456","id":"a7sfwf6isp7v","geo_precision":"range","address":"2900 West 6th St","state":"TX"},"type":"Feature","geometry":{"type":"Point","coordinates":[-97.360148,32.752142]}},{"properties":{"city":"Fullerton","name":"Fullerton Camera","geo_score":1.0,"zip code":"92832","phone":"714-441-2443","id":"a7sfwezgp14l","geo_precision":"range","address":"809 N Harbor Blvd","state":"CA"},"type":"Feature","geometry":{"type":"Point","coordinates":[-117.92429,33.877439]}},{"properties":{"city":"Seattle","name":"Gary Fong","geo_score":0.585,"zip code":"98109","phone":"800-906-6447","id":"a7sfwfbhr3em","geo_precision":"zip","address":"93 S Jackson St #74641","state":"WA"},"type":"Feature","geometry":{"type":"Point","coordinates":[-122.052333,47.583868]}},{"properties":{"city":"Seattle","name":"Glazer's Camera Supply","geo_score":0.935,"zip code":"98109","phone":"206-624-1100","id":"a7sfwf9r4j74","geo_precision":"range","address":"430 8th Ave N","state":"WA"},"type":"Feature","geometry":{"type":"Point","coordinates":[-122.340984,47.622859]}},{"properties":{"city":"Harrisonburg","name":"Glens Fair Price Store","geo_score":1.0,"zip code":"22802","phone":"540-434-8272","id":"a7sfwez3cx0n","geo_precision":"range","address":"227 N Main St","state":"VA"},"type":"Feature","geometry":{"type":"Point","coordinates":[-78.867951,38.452137]}},{"properties":{"city":"Reno","name":"Gordon's Photo Service","geo_score":0.585,"zip code":"89502","phone":"775-826-6488","id":"a7sfwew4ao4p","geo_precision":"zip","address":"5067 South McCarran Blvd","state":"NV"},"type":"Feature","geometry":{"type":"Point","coordinates":[-119.717965,39.491856]}},{"properties":{"city":"Waterbury","name":"Green Mountain Camera","geo_score":0.957,"zip code":"5677","phone":"802-244-0883","id":"a7sfwf82797n","geo_precision":"range","address":"PO Box 328 / 14 Sunset Dr","state":"VT"},"type":"Feature","geometry":{"type":"Point","coordinates":[-72.721295,44.382418]}},{"properties":{"city":"Des Moines","name":"H. B. Leiserowitz Co","geo_score":0.916,"zip code":"50309","phone":"515-244-5195","id":"a7sfwf5zh9hn","geo_precision":"range","address":"213 13th St","state":"IA"},"type":"Feature","geometry":{"type":"Point","coordinates":[-93.633087,41.583988]}},{"properties":{"city":"Rochester","name":"Hahn Photographic","geo_score":0.357,"zip code":"14613","phone":"585-254-5705","id":"a7sfwf3c5nji","geo_precision":"street","address":"PO Box 13439","state":"NY"},"type":"Feature","geometry":{"type":"Point","coordinates":[-77.726323,43.191922]}},{"properties":{"city":"Bridge Hampton","name":"Hampton Phot-Arts","geo_score":0.865,"zip code":"11932","phone":"631-537-7373","id":"a7sfwexxfi3w","geo_precision":"range","address":"70 Bridge Hampton Commons","state":"NY"},"type":"Feature","geometry":{"type":"Point","coordinates":[-72.299909,40.957227]}},{"properties":{"city":"Sioux Falls","name":"Harold's Photo Center","geo_score":0.857,"zip code":"57101","phone":"605-336-0879","id":"a7sfwf6ikan3","geo_precision":"zip","address":"PO Box 1466","state":"SD"},"type":"Feature","geometry":{"type":"Point","coordinates":[-96.69063,43.546358]}},{"properties":{"city":"Chicago","name":"Helix","geo_score":1.0,"zip code":"60607","phone":"312-421-6000","id":"a7sfwezp86hs","geo_precision":"range","address":"310 South Racine Ave","state":"IL"},"type":"Feature","geometry":{"type":"Point","coordinates":[-87.657083,41.877224]}},{"properties":{"city":"Bakersfield","name":"Henley's Photo","geo_score":1.0,"zip code":"93301","phone":"661-324-0471","id":"a7sfwf69uulo","geo_precision":"range","address":"2000 H St","state":"CA"},"type":"Feature","geometry":{"type":"Point","coordinates":[-119.021179,35.378153]}},{"properties":{"city":"Chatsworth","name":"Hooper Camera &amp; Imaging","geo_score":1.0,"zip code":"91311","phone":"818-709-0016","id":"a7sfwf2eudma","geo_precision":"range","address":"21902 Devonshire St","state":"CA"},"type":"Feature","geometry":{"type":"Point","coordinates":[-118.606035,34.257152]}},{"properties":{"city":"Fresno","name":"Horn Photo","geo_score":0.585,"zip code":"93720","phone":"559-225-5080","id":"a7sfwf21s507","geo_precision":"zip","address":"7945 N Blackstone","state":"CA"},"type":"Feature","geometry":{"type":"Point","coordinates":[-119.802227,36.850729]}},{"properties":{"city":"Houston","name":"Houston Camera Exchange","geo_score":1.0,"zip code":"77057","phone":"713-789-6901","id":"a7sfwf14kvio","geo_precision":"range","address":"5900 Richmond Ave","state":"TX"},"type":"Feature","geometry":{"type":"Point","coordinates":[-95.482799,29.731588]}},{"properties":{"city":"Orange","name":"Infocus Camera &amp; Imaging","geo_score":0.723,"zip code":"77630","phone":"409-882-0044","id":"a7sfwf99ltwb","geo_precision":"street","address":"401 16th St","state":"TX"},"type":"Feature","geometry":{"type":"Point","coordinates":[-93.746883,30.093207]}},{"properties":{"city":"New York","name":"J&amp;R Electronics Inc","geo_score":1.0,"zip code":"10038","phone":"212-238-9000","id":"a7sfwez21cez","geo_precision":"range","address":"23 Park Row","state":"NY"},"type":"Feature","geometry":{"type":"Point","coordinates":[-74.007814,40.711418]}},{"properties":{"city":"Fort Pierce","name":"Jiffy Photo Center","geo_score":0.784,"zip code":"34950","phone":"772-461-0872","id":"a7sfwf5nk602","geo_precision":"range","address":"940 South Federal Hwy","state":"FL"},"type":"Feature","geometry":{"type":"Point","coordinates":[-80.252397,27.190685]}},{"properties":{"city":"Blacksburg","name":"Johns Camera Corner","geo_score":1.0,"zip code":"24060","phone":"540-552-2319","id":"a7sfweywj8s4","geo_precision":"range","address":"213 Draper Rd NW","state":"VA"},"type":"Feature","geometry":{"type":"Point","coordinates":[-80.416268,37.22993]}},{"properties":{"city":"Bradenton","name":"Johnson Photo Imaging","geo_score":0.765,"zip code":"34203","phone":"941-752-0550","id":"a7sfwf8v4d2u","geo_precision":"range","address":"6709 State Rd 70 East","state":"FL"},"type":"Feature","geometry":{"type":"Point","coordinates":[-82.472714,27.445197]}},{"properties":{"city":"Kenmore","name":"Kenmore Camera Inc","geo_score":0.947,"zip code":"98028","phone":"425-485-7447","id":"a7sfwfbwed77","geo_precision":"range","address":"18031 67th Ave NE","state":"WA"},"type":"Feature","geometry":{"type":"Point","coordinates":[-122.251687,47.759262]}},{"properties":{"city":"Vancouver","name":"Knight Camera","geo_score":1.0,"zip code":"98664","phone":"360-253-8181","id":"a7sfwf6z4ytw","geo_precision":"range","address":"103 SE 105th Ave","state":"WA"},"type":"Feature","geometry":{"type":"Point","coordinates":[-122.564394,45.620244]}},{"properties":{"city":"Palm Harbor","name":"Lake Shore Camera Exchange Inc","geo_score":1.0,"zip code":"34684","phone":"727-938-6594","id":"a7sfwf9m903i","geo_precision":"range","address":"36637 US Hwy 19 North","state":"FL"},"type":"Feature","geometry":{"type":"Point","coordinates":[-82.739703,28.102975]}},{"properties":{"city":"Sierra Vista","name":"Landmark Photo","geo_score":1.0,"zip code":"85635","phone":"520-458-0907","id":"a7sfwf68lov8","geo_precision":"range","address":"400 W Fry Blvd","state":"AZ"},"type":"Feature","geometry":{"type":"Point","coordinates":[-110.305461,31.554222]}},{"properties":{"city":"Springfield","name":"Lawrence Photo &amp; Video","geo_score":1.0,"zip code":"65807","phone":"417-883-8300","id":"a7sfwf8dry8c","geo_precision":"range","address":"2550 S Campbell Ave","state":"MO"},"type":"Feature","geometry":{"type":"Point","coordinates":[-93.295393,37.168578]}},{"properties":{"city":"Burington","name":"LE ZOT Camera","geo_score":0.99,"zip code":"5401","phone":"802-652-2400","id":"a7sfwf31ztl0","geo_precision":"range","address":"34 Church St","state":"VT"},"type":"Feature","geometry":{"type":"Point","coordinates":[-73.212687,44.480073]}},{"properties":{"city":"Springfield","name":"Mack Camera","geo_score":1.0,"zip code":"7081","phone":"973-467-2291","id":"a7sfwf6d992i","geo_precision":"range","address":"200 Morris Ave","state":"NJ"},"type":"Feature","geometry":{"type":"Point","coordinates":[-74.31003,40.710922]}},{"properties":{"city":"Auburndale","name":"Marshalls Camera","geo_score":1.0,"zip code":"33823","phone":"863-967-3942","id":"a7sfwf500rze","geo_precision":"range","address":"202 East Lake Ave","state":"FL"},"type":"Feature","geometry":{"type":"Point","coordinates":[-81.784835,28.062834]}},{"properties":{"city":"LaCrosse","name":"May's Photo Center","geo_score":0.989,"zip code":"54601","phone":null,"id":"a7sfweyt7jf8","geo_precision":"range","address":"425 Main St","state":"WI"},"type":"Feature","geometry":{"type":"Point","coordinates":[-91.250185,43.812108]}},{"properties":{"city":"Melbourne","name":"Melbourne Camera","geo_score":1.0,"zip code":"32904","phone":"321-733-4412","id":"a7sfwew81y89","geo_precision":"range","address":"3146 W New Haven Ave","state":"FL"},"type":"Feature","geometry":{"type":"Point","coordinates":[-80.672568,28.078987]}},{"properties":{"city":"Memphis","name":"Memphis Photo Supply","geo_score":1.0,"zip code":"38117","phone":"901-767-2702","id":"a7sfwf7w5qqs","geo_precision":"range","address":"561 Erin Dr","state":"TN"},"type":"Feature","geometry":{"type":"Point","coordinates":[-89.898852,35.115664]}},{"properties":{"city":"Wichita Falls","name":"Metro Photo &amp; Imaging","geo_score":0.947,"zip code":"76308","phone":"940-691-4012","id":"a7sfwezvpxls","geo_precision":"range","address":"3911 A Kell Blvd","state":"TX"},"type":"Feature","geometry":{"type":"Point","coordinates":[-98.544446,33.879097]}},{"properties":{"city":"Terre Haute","name":"Mics Pics Photo &amp; Digital LLC","geo_score":0.922,"zip code":"47802","phone":"812-232-7427","id":"a7sfwfb9jmao","geo_precision":"range","address":"670 East Spring Dr","state":"IN"},"type":"Feature","geometry":{"type":"Point","coordinates":[-87.407293,39.412486]}},{"properties":{"city":"Columbus","name":"Midwest Camera Exchange","geo_score":0.397,"zip code":"43202","phone":"614-261-1264","id":"a7sfwf560r3j","geo_precision":"street","address":"3313 North High St","state":"OH"},"type":"Feature","geometry":{"type":"Point","coordinates":[-83.041606,40.1287]}},{"properties":{"city":"Brookfield","name":"Mike Crivello's Camera Center","geo_score":1.0,"zip code":"53045","phone":"262-782-5096","id":"a7sfwf70vn1p","geo_precision":"range","address":"18110 West Bluemound Rd","state":"WI"},"type":"Feature","geometry":{"type":"Point","coordinates":[-88.137703,43.036885]}},{"properties":{"city":"Boulder","name":"Mike's Camera","geo_score":1.0,"zip code":"80302","phone":"303-443-1715","id":"a7sfwf56imsm","geo_precision":"range","address":"2500 Pearl St","state":"CO"},"type":"Feature","geometry":{"type":"Point","coordinates":[-105.260893,40.021799]}},{"properties":{"city":"Visalia","name":"Mike's Quality Cameras","geo_score":1.0,"zip code":"93291","phone":"559-733-3882","id":"a7sfwfa50tzm","geo_precision":"range","address":"105 East Main St","state":"CA"},"type":"Feature","geometry":{"type":"Point","coordinates":[-119.291217,36.330086]}},{"properties":{"city":"Milford","name":"Milford Photo","geo_score":0.927,"zip code":"6460","phone":"203-882-3415","id":"a7sfwezpri6f","geo_precision":"range","address":"22 River St","state":"CT"},"type":"Feature","geometry":{"type":"Point","coordinates":[-73.056888,41.222528]}},{"properties":{"city":"Wishita","name":"Moler's Camera","geo_score":0.896,"zip code":"67211","phone":"316-685-1114","id":"a7sfweyji30z","geo_precision":"range","address":"2609 E Douglas","state":"KS"},"type":"Feature","geometry":{"type":"Point","coordinates":[-97.304726,37.686189]}},{"properties":{"city":"Keene","name":"Monadnock Imaging","geo_score":1.0,"zip code":"3431","phone":"603-352-3456","id":"a7sfwfa51e07","geo_precision":"range","address":"64 Main St","state":"NH"},"type":"Feature","geometry":{"type":"Point","coordinates":[-72.278155,42.932295]}},{"properties":{"city":"Golden Valley","name":"Nation Camera Exchange","geo_score":1.0,"zip code":"55427","phone":"763-546-6831","id":"a7sfwfadofga","geo_precision":"range","address":"9300 Olson Memorial Hwy","state":"MN"},"type":"Feature","geometry":{"type":"Point","coordinates":[-93.393942,44.984142]}},{"properties":{"city":"Garden City","name":"Neptune Photo","geo_score":0.429,"zip code":"11530","phone":"516-741-4484","id":"a7sfwf60ovfv","geo_precision":"street","address":"PO Box 68","state":"NY"},"type":"Feature","geometry":{"type":"Point","coordinates":[-73.72751,40.635802]}},{"properties":{"city":"Arlington","name":"New England Photo","geo_score":0.805,"zip code":"2174","phone":"781-643-1463","id":"a7sfwf48ba1x","geo_precision":"range","address":"432 Massachusetts Ave","state":"MA"},"type":"Feature","geometry":{"type":"Point","coordinates":[-71.082535,42.341369]}},{"properties":{"city":"Newtonville","name":"Newtonville Camera","geo_score":1.0,"zip code":"2460","phone":"617-965-1240","id":"a7sfwezvsrfj","geo_precision":"range","address":"249 Walnut St","state":"MA"},"type":"Feature","geometry":{"type":"Point","coordinates":[-71.207517,42.351886]}},{"properties":{"city":"Kalamazoo","name":"Norman Camera Exchange Inc","geo_score":0.742,"zip code":"49008","phone":"269-343-0460","id":"a7sfwf2373z5","geo_precision":"street","address":"3602 S Westnedge","state":"MI"},"type":"Feature","geometry":{"type":"Point","coordinates":[-85.589102,42.2826]}},{"properties":{"city":"Tampa","name":"North Tampa Photography","geo_score":1.0,"zip code":"33612","phone":"813-935-9339","id":"a7sfwf46o27e","geo_precision":"range","address":"1020 West Busch Blvd","state":"FL"},"type":"Feature","geometry":{"type":"Point","coordinates":[-82.471526,28.033331]}},{"properties":{"city":"Bellevue","name":"Omega Photo","geo_score":0.707,"zip code":"98004","phone":"425-455-2126","id":"a7sfwezcrf40","geo_precision":"range","address":"1100 Bellevue Way NE #6","state":"WA"},"type":"Feature","geometry":{"type":"Point","coordinates":[-122.201457,47.611168]}},{"properties":{"city":"Northbrook","name":"Optics Planet","geo_score":1.0,"zip code":"60062","phone":"847-513-6201","id":"a7sfwf6bv8sp","geo_precision":"range","address":"3150 Commercial Ave","state":"IL"},"type":"Feature","geometry":{"type":"Point","coordinates":[-87.858243,42.146566]}},{"properties":{"city":"Sacramento","name":"Pardee's Cameras","geo_score":0.932,"zip code":"95821","phone":"916-483-3435","id":"a7sfwewfld9l","geo_precision":"range","address":"3335 El Camino Ave","state":"CA"},"type":"Feature","geometry":{"type":"Point","coordinates":[-121.385846,38.610558]}},{"properties":{"city":"Watertown","name":"Park Square Camera","geo_score":1.0,"zip code":"2472","phone":"617-482-8356","id":"a7sfwf43v860","geo_precision":"range","address":"30 Barnard Ave","state":"MA"},"type":"Feature","geometry":{"type":"Point","coordinates":[-71.176674,42.371255]}},{"properties":{"city":"New Port Richey","name":"Pasco Camera Exchange","geo_score":1.0,"zip code":"34652","phone":"727-844-0904","id":"a7sfwfbm3sz2","geo_precision":"range","address":"5405 Main St","state":"FL"},"type":"Feature","geometry":{"type":"Point","coordinates":[-82.72518,28.250308]}},{"properties":{"city":"Peterborough","name":"Peterborough Camera","geo_score":0.429,"zip code":"3458","phone":"603-924-7032","id":"a7sfwf2390a2","geo_precision":"street","address":"19 Wilson Rd, Suite 14","state":"NH"},"type":"Feature","geometry":{"type":"Point","coordinates":[-72.13513,42.947824]}},{"properties":{"city":"Hatfield","name":"Philly Photo Supply","geo_score":1.0,"zip code":"19440","phone":"215-412-0172","id":"a7sfwfcdeyrq","geo_precision":"range","address":"1219 Cowpath Rd","state":"PA"},"type":"Feature","geometry":{"type":"Point","coordinates":[-75.282908,40.269525]}},{"properties":{"city":"Lilburn","name":"Photo Barn Inc","geo_score":0.937,"zip code":"30047","phone":"770-921-9500","id":"a7sfwf5seusz","geo_precision":"range","address":"4400 Business Park Ct SW","state":"GA"},"type":"Feature","geometry":{"type":"Point","coordinates":[-84.11831,33.892054]}},{"properties":{"city":"Burke","name":"Photo Craft","geo_score":0.983,"zip code":"22015","phone":"763-250-5555","id":"a7sfwf1lfg31","geo_precision":"range","address":"6025 Burke Center Pkwy","state":"VA"},"type":"Feature","geometry":{"type":"Point","coordinates":[-77.296932,38.78613]}},{"properties":{"city":"Burlington","name":"Photo Garden","geo_score":0.963,"zip code":"5403","phone":"802-863-1256","id":"a7sfwf373sdm","geo_precision":"range","address":"10 Dorset St","state":"VT"},"type":"Feature","geometry":{"type":"Point","coordinates":[-73.181297,44.467107]}},{"properties":{"city":"Portland","name":"Photo Market","geo_score":1.0,"zip code":"04103-3363","phone":"207-797-7100","id":"a7sfwfak80e3","geo_precision":"range","address":"945 Forest Ave","state":"ME"},"type":"Feature","geometry":{"type":"Point","coordinates":[-70.289687,43.681208]}},{"properties":{"city":"Arlington","name":"Photo Scope","geo_score":0.585,"zip code":"22207","phone":null,"id":"a7sfwey0e4tu","geo_precision":"zip","address":"5040 Levi Way","state":"VA"},"type":"Feature","geometry":{"type":"Point","coordinates":[-77.122344,38.907416]}},{"properties":{"city":"Chino","name":"Photo Solutions","geo_score":0.688,"zip code":"91710","phone":"909-464-9304","id":"a7sfwf4rtrbu","geo_precision":"street","address":"3926 Grand Ave","state":"CA"},"type":"Feature","geometry":{"type":"Point","coordinates":[-117.698611,34.016115]}},{"properties":{"city":"Parsippany","name":"Photo Zone","geo_score":0.604,"zip code":"7054","phone":"973-334-9200","id":"a7sfwf2uglb0","geo_precision":"street","address":"1115 Rt 46 Troy Hills","state":"NJ"},"type":"Feature","geometry":{"type":"Point","coordinates":[-74.392436,40.853995]}},{"properties":{"city":"Mechanicsburg","name":"Photogearfinder","geo_score":1.0,"zip code":"17055","phone":"717-802-6438","id":"a7sfwfbxzzhs","geo_precision":"range","address":"337 W Main St","state":"PA"},"type":"Feature","geometry":{"type":"Point","coordinates":[-77.014182,40.211406]}},{"properties":{"city":"Chicopee","name":"Piepul's Camera Center","geo_score":1.0,"zip code":"1013","phone":"413-598-8042","id":"a7sfwf16cwsq","geo_precision":"range","address":"44 Center St","state":"MA"},"type":"Feature","geometry":{"type":"Point","coordinates":[-72.607049,42.147476]}},{"properties":{"city":"Marion","name":"Porter's Digital Cameras &amp; Imaging","geo_score":0.585,"zip code":"52302","phone":"319-447-1670","id":"a7sfwf57olfw","geo_precision":"zip","address":"6201 South Gateway Dr","state":"IA"},"type":"Feature","geometry":{"type":"Point","coordinates":[-91.573963,42.056938]}},{"properties":{"city":"Cavina","name":"Powell Camera Shop","geo_score":0.585,"zip code":"91723","phone":"626-332-1253","id":"a7sfwf60xy03","geo_precision":"zip","address":"160 West Basdillo St","state":"CA"},"type":"Feature","geometry":{"type":"Point","coordinates":[-118.298662,33.786594]}},{"properties":{"city":"Austin","name":"Precision Camera &amp; Video","geo_score":1.0,"zip code":"78756","phone":"800-677-1023","id":"a7sfwewh881y","geo_precision":"range","address":"3801 Medical Parkway","state":"TX"},"type":"Feature","geometry":{"type":"Point","coordinates":[-97.743488,30.306811]}},{"properties":{"city":"Washington","name":"Pro Photo","geo_score":1.0,"zip code":"20006","phone":"202-223-1292","id":"a7sfwf1zts5i","geo_precision":"range","address":"1902 I Street NW","state":"DC"},"type":"Feature","geometry":{"type":"Point","coordinates":[-77.044879,38.901262]}},{"properties":{"city":"West Palm Beach","name":"Pro Shop for Photographers","geo_score":1.0,"zip code":"33401","phone":"561-276-7766","id":"a7sfwf7xub1s","geo_precision":"range","address":"417 Clematis St","state":"FL"},"type":"Feature","geometry":{"type":"Point","coordinates":[-80.054663,26.713463]}},{"properties":{"city":"Oconomowoc","name":"Pro Studio Supply Inc","geo_score":1.0,"zip code":"53066","phone":"262-567-8047","id":"a7sfwf8puybv","geo_precision":"range","address":"140 S Park St","state":"WI"},"type":"Feature","geometry":{"type":"Point","coordinates":[-88.510131,43.112339]}},{"properties":{"city":"Toms River","name":"Rands Camera","geo_score":1.0,"zip code":"8753","phone":"732-255-3213","id":"a7sfwfaxdg6j","geo_precision":"range","address":"1841 Hooper Ave","state":"NJ"},"type":"Feature","geometry":{"type":"Point","coordinates":[-74.146936,40.010529]}},{"properties":{"city":"New York","name":"RCS Camera Inc","geo_score":1.0,"zip code":"10022","phone":"212-888-7877","id":"a7sfwf43tiqk","geo_precision":"range","address":"575 Madison Ave","state":"NY"},"type":"Feature","geometry":{"type":"Point","coordinates":[-73.972362,40.762129]}},{"properties":{"city":"Amagansett","name":"Reeds Photo Shop","geo_score":0.857,"zip code":"11930","phone":"631-324-1067","id":"a7sfwfbwdwbs","geo_precision":"zip","address":"PO Box 484","state":"NY"},"type":"Feature","geometry":{"type":"Point","coordinates":[-72.06813,41.009546]}},{"properties":{"city":"Omaha","name":"Rockbrook Camera &amp; Video","geo_score":0.545,"zip code":"68130","phone":"402-691-0003","id":"a7sfwf7ocfhj","geo_precision":"street","address":"2909 S 169th Plaz, Suite 100","state":"KS"},"type":"Feature","geometry":{"type":"Point","coordinates":[-96.178693,41.2433]}},{"properties":{"city":"Laverne","name":"Sals Camera","geo_score":0.988,"zip code":"91750","phone":"909-593-1328","id":"a7sfwfaopmiy","geo_precision":"range","address":"1147 Foothill Blvd","state":"CA"},"type":"Feature","geometry":{"type":"Point","coordinates":[-117.782147,34.119102]}},{"properties":{"city":"Los Angelas","name":"Samy's Camera Inc","geo_score":0.991,"zip code":"90066","phone":"310-591-2100","id":"a7sfwf3fb1zl","geo_precision":"range","address":"12636 Beatrice St","state":"CA"},"type":"Feature","geometry":{"type":"Point","coordinates":[-118.416991,33.980035]}},{"properties":{"city":"Lebanon","name":"Sandrian Camera &amp; Imaging","geo_score":0.585,"zip code":"8833","phone":"908-236-7299","id":"a7sfwf3r0rh3","geo_precision":"zip","address":"6 McCatharn Rd","state":"NJ"},"type":"Feature","geometry":{"type":"Point","coordinates":[-74.829976,40.635369]}},{"properties":{"city":"Santa Clarita","name":"Santa Clarita Camera Inc","geo_score":0.944,"zip code":"91350","phone":"661-288-2101","id":"a7sfwewy8snv","geo_precision":"range","address":"21515 Soledad Canyon Rd 116","state":"CA"},"type":"Feature","geometry":{"type":"Point","coordinates":[-118.512008,34.416751]}},{"properties":{"city":"Atlanta","name":"Showcase Inc","geo_score":0.951,"zip code":"30324","phone":"404-321-7676","id":"a7sfwf84njrv","geo_precision":"range","address":"2323 Cheshire Bridge Rd","state":"GA"},"type":"Feature","geometry":{"type":"Point","coordinates":[-84.351271,33.82031]}},{"properties":{"city":"Santa Rosa","name":"Shutterbug Camera Shops","geo_score":0.771,"zip code":"95407","phone":"707-546-3456","id":"a7sfwew2ztnn","geo_precision":"street","address":"3011-C Santa Rosa Ave","state":"CA"},"type":"Feature","geometry":{"type":"Point","coordinates":[-122.71346,38.36698]}},{"properties":{"city":"Torrance","name":"Silvio's Photoworks","geo_score":1.0,"zip code":"90505","phone":"310-791-7100","id":"a7sfwf6dkewk","geo_precision":"range","address":"22409 Hawthorne Blvd","state":"CA"},"type":"Feature","geometry":{"type":"Point","coordinates":[-118.351323,33.82533]}},{"properties":{"city":"East Hartford","name":"Simond's Photographic","geo_score":1.0,"zip code":"6108","phone":"860-291-0442","id":"a7sfwfaq50wg","geo_precision":"range","address":"96 Thomas St","state":"CT"},"type":"Feature","geometry":{"type":"Point","coordinates":[-72.652904,41.773524]}},{"properties":{"city":"Hollywood","name":"Simon's Camera","geo_score":0.585,"zip code":"90038","phone":"323-463-8585","id":"a7sfwf5vh5v8","geo_precision":"zip","address":"1213 N Highland Ave","state":"CA"},"type":"Feature","geometry":{"type":"Point","coordinates":[-118.298662,33.786594]}},{"properties":{"city":"Raleigh","name":"Southeastern Camera","geo_score":0.585,"zip code":"27604","phone":"919-890-4484","id":"a7sfwf4pdclo","geo_precision":"zip","address":"2410 Altantic Ave","state":"NC"},"type":"Feature","geometry":{"type":"Point","coordinates":[-78.510001,35.883207]}},{"properties":{"city":"Huntsville","name":"Southerland Photo","geo_score":0.883,"zip code":"35801","phone":"256-539-9627","id":"a7sfwf4m0t0x","geo_precision":"range","address":"2357 Whitesberg","state":"AL"},"type":"Feature","geometry":{"type":"Point","coordinates":[-86.57497,34.713273]}},{"properties":{"city":"Melbourne","name":"Southern Photo Inc","geo_score":0.707,"zip code":"32901","phone":"321-254-4224","id":"a7sfwf814ggf","geo_precision":"range","address":"125 E NASA Blvd, #101","state":"FL"},"type":"Feature","geometry":{"type":"Point","coordinates":[-80.624972,28.093249]}},{"properties":{"city":"St Cloud","name":"St Cloud Camera &amp; Photo","geo_score":0.973,"zip code":"56301","phone":"320-258-5557","id":"a7sfwf4birsc","geo_precision":"range","address":"212 Waite Ave South","state":"MN"},"type":"Feature","geometry":{"type":"Point","coordinates":[-94.213733,45.549522]}},{"properties":{"city":"Vinelano","name":"T&amp;F Camera Shop Inc","geo_score":0.988,"zip code":"8360","phone":"856-691-5328","id":"a7sfwey2ivyk","geo_precision":"range","address":"1362 S Delsea Dr","state":"NJ"},"type":"Feature","geometry":{"type":"Point","coordinates":[-75.044944,39.465992]}},{"properties":{"city":"Tallahassee","name":"Tallahassee Photo","geo_score":1.0,"zip code":"32301","phone":"850-877-1152","id":"a7sfwf03yn1j","geo_precision":"range","address":"2880 Apalachee Pkwy","state":"FL"},"type":"Feature","geometry":{"type":"Point","coordinates":[-84.232152,30.42711]}},{"properties":{"city":"Mercer Island","name":"Tall's Camera","geo_score":0.857,"zip code":"98040","phone":"206-988-5008","id":"a7sfwf55mgcd","geo_precision":"zip","address":"PO Box 1359","state":"WA"},"type":"Feature","geometry":{"type":"Point","coordinates":[-122.228083,47.56025]}},{"properties":{"city":"Lafayette","name":"The Camera Center","geo_score":0.61,"zip code":"70503","phone":"337-981-7431","id":"a7sfwf38snxb","geo_precision":"street","address":"5413 Johnson St","state":"LA"},"type":"Feature","geometry":{"type":"Point","coordinates":[-92.661332,30.23819]}},{"properties":{"city":"Modesto","name":"The Camera Center","geo_score":1.0,"zip code":"95354","phone":"209-524-8051","id":"a7sfwf0f6pjj","geo_precision":"range","address":"1220 J St","state":"CA"},"type":"Feature","geometry":{"type":"Point","coordinates":[-120.99756,37.642475]}},{"properties":{"city":"Madison","name":"The Camera Company","geo_score":1.0,"zip code":"53719","phone":"608-833-1411","id":"a7sfwf7qk1bz","geo_precision":"range","address":"6742 Odana Rd","state":"WI"},"type":"Feature","geometry":{"type":"Point","coordinates":[-89.50062,43.056679]}},{"properties":{"city":"Bricktown","name":"The Photo Center","geo_score":0.713,"zip code":"8724","phone":"732-840-1333","id":"a7sfwf3f1q6j","geo_precision":"street","address":"1930 Route 88","state":"NJ"},"type":"Feature","geometry":{"type":"Point","coordinates":[-74.118884,40.071859]}},{"properties":{"city":"Princeton","name":"TPE LLC","geo_score":1.0,"zip code":"8540","phone":"609-799-0081","id":"a7sfwf8inlq2","geo_precision":"range","address":"654 Nassau Park Blvd","state":"NJ"},"type":"Feature","geometry":{"type":"Point","coordinates":[-74.676622,40.303568]}},{"properties":{"city":"Alexandria","name":"Trans Camera Inc","geo_score":1.0,"zip code":"22314","phone":"703-628-1278","id":"a7sfwfb0qo24","geo_precision":"range","address":"12 Wolfe St","state":"VA"},"type":"Feature","geometry":{"type":"Point","coordinates":[-77.040917,38.800716]}},{"properties":{"city":"Brooklyn","name":"Tri-State (Warehouse)","geo_score":1.0,"zip code":"11231","phone":"212-633-2454","id":"a7sfwf0jf86z","geo_precision":"range","address":"150 Sullivan St","state":"NY"},"type":"Feature","geometry":{"type":"Point","coordinates":[-74.014457,40.679306]}},{"properties":{"city":"Long Beach","name":"Tuttle Camera","geo_score":1.0,"zip code":"90807","phone":"562-424-8633","id":"a7sfwf2ym5s8","geo_precision":"range","address":"4019 Atlantic Ave","state":"CA"},"type":"Feature","geometry":{"type":"Point","coordinates":[-118.185076,33.831574]}},{"properties":{"city":"Fairfield","name":"Unique Photo","geo_score":1.0,"zip code":"7004","phone":"973-377-5555","id":"a7sfwfbya2aw","geo_precision":"range","address":"123 US Hwy 46","state":"NJ"},"type":"Feature","geometry":{"type":"Point","coordinates":[-74.306018,40.871093]}},{"properties":{"city":"Appleton","name":"Valley Camera","geo_score":1.0,"zip code":"54915","phone":"920-731-8187","id":"a7sfwf3oqrx3","geo_precision":"range","address":"2521 S Memorial Dr","state":"WI"},"type":"Feature","geometry":{"type":"Point","coordinates":[-88.423667,44.238684]}},{"properties":{"city":"Valley Village","name":"Valley Photo Service","geo_score":0.585,"zip code":"91607","phone":"818-762-0355","id":"a7sfwfc2nm2f","geo_precision":"zip","address":"12466 Magnolia Blvd","state":"CA"},"type":"Feature","geometry":{"type":"Point","coordinates":[-118.298662,33.786594]}},{"properties":{"city":"Miami","name":"Video &amp; Camera Center","geo_score":0.935,"zip code":"33131","phone":"305-530-1835","id":"a7sfwf8azdhi","geo_precision":"range","address":"113 SE 1st St","state":"FL"},"type":"Feature","geometry":{"type":"Point","coordinates":[-80.190373,25.773469]}},{"properties":{"city":"Melrose","name":"W.B. Hunt Co, Inc","geo_score":0.81,"zip code":"2176","phone":"781-462-2366","id":"a7sfwf4c5u0i","geo_precision":"street","address":"100 Main St","state":"MA"},"type":"Feature","geometry":{"type":"Point","coordinates":[-71.067677,42.440456]}},{"properties":{"city":"Minneapolis","name":"West Photo","geo_score":1.0,"zip code":"55413","phone":"612-379-2321","id":"a7sfwf4xfa6z","geo_precision":"range","address":"21 University Ave NE","state":"MN"},"type":"Feature","geometry":{"type":"Point","coordinates":[-93.256893,44.988834]}},{"properties":{"city":"Midland Park","name":"Wholesale Photo Supply","geo_score":1.0,"zip code":"7432","phone":"201-444-4442","id":"a7sfwex7txs6","geo_precision":"range","address":"85 Godwin Ave","state":"NJ"},"type":"Feature","geometry":{"type":"Point","coordinates":[-74.138171,40.984773]}},{"properties":{"city":"St. Louis","name":"Schiller's Camera and Video","geo_score":0.965,"zip code":"63144","phone":"314- 968-3650","id":"a7sfwf6i8px2","geo_precision":"range","address":"9240 Manchester Rd","state":"MO"},"type":"Feature","geometry":{"type":"Point","coordinates":[-90.356683,38.611771]}},{"properties":{"city":"Saint Louis","name":"Creve Coeur Camera Inc","geo_score":1.0,"zip code":"63141","phone":"314-567-3456","id":"a7sfwfajssrw","geo_precision":"range","address":"11615 Olive Boulevard","state":"MO"},"type":"Feature","geometry":{"type":"Point","coordinates":[-90.435617,38.671151]}},{"properties":{"city":"Ellisville","name":"Creve Coeur Camera Inc","geo_score":1.0,"zip code":"63011","phone":"636-394-6563","id":"a7sfwf2n3nrw","geo_precision":"range","address":"7 Clarkson Road","state":"MO"},"type":"Feature","geometry":{"type":"Point","coordinates":[-90.585807,38.593271]}},{"properties":{"city":"St. Charles","name":"Creve Coeur Camera Inc","geo_score":0.97,"zip code":"63303","phone":"636-947-3456","id":"a7sfwevzmdiz","geo_precision":"range","address":"1987 Zumbehl Road","state":"MO"},"type":"Feature","geometry":{"type":"Point","coordinates":[-90.533105,38.787302]}},{"properties":{"city":"Ladue","name":"Creve Coeur Camera Inc","geo_score":1.0,"zip code":"63124","phone":"314-862-5450","id":"a7sfwf3k5wr3","geo_precision":"range","address":"8855 Ladue Road","state":"MO"},"type":"Feature","geometry":{"type":"Point","coordinates":[-90.350896,38.65341]}},{"properties":{"city":"Oakville","name":"Creve Coeur Camera Inc","geo_score":1.0,"zip code":"63129","phone":"314-892-2282","id":"a7sfwf8fzxhb","geo_precision":"range","address":"5549 Telegraph Road","state":"MO"},"type":"Feature","geometry":{"type":"Point","coordinates":[-90.304613,38.471878]}},{"properties":{"city":"Crestwood","name":"Creve Coeur Camera Inc","geo_score":0.872,"zip code":"63126","phone":"314-842-0404","id":"a7sfwf3bowaa","geo_precision":"range","address":"9560 Watson Road unit H","state":"MO"},"type":"Feature","geometry":{"type":"Point","coordinates":[-90.380715,38.557377]}},{"properties":{"city":"O'Fallon","name":"Creve Coeur Camera Inc","geo_score":0.741,"zip code":"62269","phone":"618-622-3456","id":"a7sfwf51g5wl","geo_precision":"street","address":"2020 West Highway 50","state":"IL"},"type":"Feature","geometry":{"type":"Point","coordinates":[-89.874077,38.583298]}},{"properties":{"city":"Edwardsville","name":"Creve Coeur Camera Inc","geo_score":1.0,"zip code":"62025","phone":"618-307-2022","id":"a7sfwf8gqvlj","geo_precision":"range","address":"104 South Buchanan St.","state":"IL"},"type":"Feature","geometry":{"type":"Point","coordinates":[-89.952769,38.810873]}},{"properties":{"city":"Columbia","name":"Creve Coeur Camera Inc","geo_score":0.625,"zip code":"65201","phone":"573-443-0503","id":"a7sfwey1f18w","geo_precision":"street","address":"111 S. 9th St.","state":"MO"},"type":"Feature","geometry":{"type":"Point","coordinates":[-92.32749,38.95257]}}],"is_temporal":false,"author":{"url":"","metadata":"","contact_name":"","contact_address":"","source":"","contact_phone":""},"source":"","pagination":{"sort":null,"start":0,"total":182,"limit":1000000},"state":"complete","tags":"","published":"2014-08-15T00:37:27-04:00","id":267092}