{"type":"FeatureCollection","data_type":"Dataset","url_type":null,"permissions":[{"permissions":{"download":true,"view":true},"group_id":"everyone"}],"classification":null,"title":"2010 Mulch Orders Fixed CSV","count":162,"stream_id":267478,"contributor":{"url":"http://geocommons.com/users/36286","name":"ruka1121"},"data_attributes":null,"calculation_params":null,"icon_link":null,"link":"http://geocommons.com/overlays/267478.json","extent":[-77.4372,37.2063,-77.1211,38.918],"geometry_types":["point"],"unique_name":null,"name":"2010 Mulch Orders Fixed CSV","feature_count":162,"description":"","next_feature":null,"is_raster":false,"short_classification":"Y","stats":{"numbags":{"max":70,"variance":174.516064718964,"mean":18.2345679012346,"stdev":13.210452858209,"min":0,"median":15}},"features":[{"properties":{"city":"Falls Church","zip":"22043","geo_score":1.0,"numbags":20,"id":"a7ujlgx44g86","address":"7603 Bent Oak Ct","geo_precision":"range","state":"VA"},"type":"Feature","geometry":{"type":"Point","coordinates":[-77.207732,38.886609]}},{"properties":{"city":"Falls Church","zip":"22043","geo_score":1.0,"numbags":10,"id":"a7ujlgrh0rzp","address":"7303 Gordons Rd","geo_precision":"range","state":"VA"},"type":"Feature","geometry":{"type":"Point","coordinates":[-77.197651,38.895203]}},{"properties":{"city":"Falls Church","zip":"22046","geo_score":1.0,"numbags":50,"id":"a7ujlgy8ahhn","address":"7237 Allan Ave","geo_precision":"range","state":"VA"},"type":"Feature","geometry":{"type":"Point","coordinates":[-77.196044,38.88678]}},{"properties":{"city":"Falls Church","zip":"22046","geo_score":1.0,"numbags":10,"id":"a7ujlgpbhq6w","address":"6700 Fisher Ave","geo_precision":"range","state":"VA"},"type":"Feature","geometry":{"type":"Point","coordinates":[-77.177561,38.898638]}},{"properties":{"city":"Arlington","zip":"22046","geo_score":0.762,"numbags":5,"id":"a7ujlh0pfibw","address":"6411 11th St North","geo_precision":"range","state":"VA"},"type":"Feature","geometry":{"type":"Point","coordinates":[-77.154788,38.87968]}},{"properties":{"city":"Arlington","zip":null,"geo_score":0.581,"numbags":30,"id":"a7ujlgr173xq","address":"4952 Terrell St","geo_precision":"street","state":"VA"},"type":"Feature","geometry":{"type":"Point","coordinates":[-77.437176,37.206275]}},{"properties":{"city":"Arlington","zip":"22207","geo_score":0.619,"numbags":7,"id":"a7ujlgtbne4q","address":"4940 N. 35th St","geo_precision":"street","state":"VA"},"type":"Feature","geometry":{"type":"Point","coordinates":[-77.121062,38.917975]}},{"properties":{"city":"Falls Church","zip":"22042","geo_score":1.0,"numbags":6,"id":"a7ujlgy3dz29","address":"2806 Prince Albert Ct","geo_precision":"range","state":"VA"},"type":"Feature","geometry":{"type":"Point","coordinates":[-77.175524,38.8768]}},{"properties":{"city":"Falls Church","zip":"22042","geo_score":0.973,"numbags":10,"id":"a7ujlgs9dw5e","address":"2753 Marshal St","geo_precision":"range","state":"VA"},"type":"Feature","geometry":{"type":"Point","coordinates":[-77.184338,38.877954]}},{"properties":{"city":"Falls Church","zip":"22044","geo_score":0.732,"numbags":10,"id":"a7ujlgkxtzv0","address":"2602 Faber Ct","geo_precision":"street","state":"VA"},"type":"Feature","geometry":{"type":"Point","coordinates":[-77.160462,38.86481]}},{"properties":{"city":"Falls Church","zip":"22046","geo_score":1.0,"numbags":25,"id":"a7ujlglalzbg","address":"2532 Stuart Place","geo_precision":"range","state":"VA"},"type":"Feature","geometry":{"type":"Point","coordinates":[-77.196368,38.887729]}},{"properties":{"city":"Falls Church","zip":"22046","geo_score":1.0,"numbags":12,"id":"a7ujlgrsy0vi","address":"2323 Grove Ave","geo_precision":"range","state":"VA"},"type":"Feature","geometry":{"type":"Point","coordinates":[-77.185752,38.898575]}},{"properties":{"city":"Falls Church","zip":"22046","geo_score":1.0,"numbags":20,"id":"a7ujlgs96rjx","address":"2238 Casemont Dr","geo_precision":"range","state":"VA"},"type":"Feature","geometry":{"type":"Point","coordinates":[-77.17756,38.899967]}},{"properties":{"city":"Falls Church","zip":"22043","geo_score":1.0,"numbags":20,"id":"a7ujlgxky1p5","address":"2119 Natahoa Ct","geo_precision":"range","state":"VA"},"type":"Feature","geometry":{"type":"Point","coordinates":[-77.163396,38.90525]}},{"properties":{"city":"Arlington","zip":"22205","geo_score":0.602,"numbags":4,"id":"a7ujlgoy1xnq","address":"1915 N. Van Buren","geo_precision":"street","state":"VA"},"type":"Feature","geometry":{"type":"Point","coordinates":[-77.159101,38.883311]}},{"properties":{"city":"Falls Church","zip":"22043","geo_score":1.0,"numbags":30,"id":"a7ujlguusoqk","address":"1842 Griffith Rd","geo_precision":"range","state":"VA"},"type":"Feature","geometry":{"type":"Point","coordinates":[-77.206632,38.91704]}},{"properties":{"city":"Falls Church","zip":"22046","geo_score":1.0,"numbags":45,"id":"a7ujlgmmp7hk","address":"1508 Crane St","geo_precision":"range","state":"VA"},"type":"Feature","geometry":{"type":"Point","coordinates":[-77.192629,38.888934]}},{"properties":{"city":"Falls Church","zip":"22046","geo_score":1.0,"numbags":10,"id":"a7ujlgwleq0f","address":"1306 Gibson Pl","geo_precision":"range","state":"VA"},"type":"Feature","geometry":{"type":"Point","coordinates":[-77.189434,38.879555]}},{"properties":{"city":"Falls Church","zip":"22046","geo_score":1.0,"numbags":10,"id":"a7ujlh0kjd8o","address":"1304 Robinson Pl.","geo_precision":"range","state":"VA"},"type":"Feature","geometry":{"type":"Point","coordinates":[-77.190102,38.881308]}},{"properties":{"city":"Falls Church","zip":"22046","geo_score":1.0,"numbags":12,"id":"a7ujlgmjni8d","address":"1215 Ellison St","geo_precision":"range","state":"VA"},"type":"Feature","geometry":{"type":"Point","coordinates":[-77.187732,38.891223]}},{"properties":{"city":"Falls Church","zip":"22046","geo_score":0.967,"numbags":30,"id":"a7ujlgyf7l8p","address":"1208 Seaton La","geo_precision":"range","state":"VA"},"type":"Feature","geometry":{"type":"Point","coordinates":[-77.188037,38.88287]}},{"properties":{"city":"Falls Church","zip":"22046","geo_score":1.0,"numbags":15,"id":"a7ujlgwt79vz","address":"1113 Lincoln Ave","geo_precision":"range","state":"VA"},"type":"Feature","geometry":{"type":"Point","coordinates":[-77.182459,38.89322]}},{"properties":{"city":"Falls Church","zip":"22046","geo_score":0.967,"numbags":30,"id":"a7ujlgoe2pc6","address":"1110 Seaton La","geo_precision":"range","state":"VA"},"type":"Feature","geometry":{"type":"Point","coordinates":[-77.186712,38.883041]}},{"properties":{"city":"Falls Church","zip":"22046","geo_score":0.585,"numbags":6,"id":"a7ujlgpifx15","address":"1108 Jackson Ct.","geo_precision":"zip","state":"VA"},"type":"Feature","geometry":{"type":"Point","coordinates":[-77.200259,38.884278]}},{"properties":{"city":"Falls Church","zip":"22046","geo_score":0.967,"numbags":0,"id":"a7ujlgxc7i5h","address":"1104 Seaton La","geo_precision":"range","state":"VA"},"type":"Feature","geometry":{"type":"Point","coordinates":[-77.186833,38.883031]}},{"properties":{"city":"Falls Church","zip":"22046","geo_score":0.857,"numbags":40,"id":"a7ujlgw603bq","address":"1100 N. Tuckahoe St","geo_precision":"zip","state":"VA"},"type":"Feature","geometry":{"type":"Point","coordinates":[-77.200259,38.884278]}},{"properties":{"city":"Falls Church","zip":"22046","geo_score":1.0,"numbags":10,"id":"a7ujlgpbta1d","address":"1020 Spruce St","geo_precision":"range","state":"VA"},"type":"Feature","geometry":{"type":"Point","coordinates":[-77.186125,38.894584]}},{"properties":{"city":"Falls Church","zip":"22046","geo_score":1.0,"numbags":15,"id":"a7ujlgovj5ai","address":"1020 Ellison Sq","geo_precision":"range","state":"VA"},"type":"Feature","geometry":{"type":"Point","coordinates":[-77.185358,38.894307]}},{"properties":{"city":"Falls Church","zip":"22046","geo_score":1.0,"numbags":10,"id":"a7ujlgoo6ju5","address":"1016 Ellison Sq","geo_precision":"range","state":"VA"},"type":"Feature","geometry":{"type":"Point","coordinates":[-77.185358,38.894276]}},{"properties":{"city":"Falls Church","zip":"22046","geo_score":1.0,"numbags":20,"id":"a7ujlgzvbr7n","address":"1012 Parker St","geo_precision":"range","state":"VA"},"type":"Feature","geometry":{"type":"Point","coordinates":[-77.189105,38.890195]}},{"properties":{"city":"Falls Church","zip":"22046","geo_score":0.857,"numbags":20,"id":"a7ujlgms7r41","address":"1011 N. Tuckahoe St","geo_precision":"zip","state":"VA"},"type":"Feature","geometry":{"type":"Point","coordinates":[-77.200259,38.884278]}},{"properties":{"city":"Falls Church","zip":"22046","geo_score":0.971,"numbags":2,"id":"a7ujlh0ov156","address":"1010 Madison La","geo_precision":"range","state":"VA"},"type":"Feature","geometry":{"type":"Point","coordinates":[-77.190646,38.890379]}},{"properties":{"city":"Falls Church","zip":"22046","geo_score":1.0,"numbags":10,"id":"a7ujlgvuo3x9","address":"920 Park Ave","geo_precision":"range","state":"VA"},"type":"Feature","geometry":{"type":"Point","coordinates":[-77.182366,38.891129]}},{"properties":{"city":"Falls Church","zip":"22046","geo_score":0.805,"numbags":10,"id":"a7ujlgtpl6fi","address":"915 Hillwood Ave","geo_precision":"street","state":"VA"},"type":"Feature","geometry":{"type":"Point","coordinates":[-77.168116,38.877445]}},{"properties":{"city":"Falls Church","zip":"22046","geo_score":1.0,"numbags":10,"id":"a7ujlgn9yw5r","address":"910 Park Ave","geo_precision":"range","state":"VA"},"type":"Feature","geometry":{"type":"Point","coordinates":[-77.182558,38.891286]}},{"properties":{"city":"Falls Church","zip":"22046","geo_score":1.0,"numbags":4,"id":"a7ujlgnrkbsd","address":"910 Lincoln Ave","geo_precision":"range","state":"VA"},"type":"Feature","geometry":{"type":"Point","coordinates":[-77.181174,38.89214]}},{"properties":{"city":"Falls Church","zip":"22046","geo_score":1.0,"numbags":25,"id":"a7ujlgocpey7","address":"819 Fulton Ave","geo_precision":"range","state":"VA"},"type":"Feature","geometry":{"type":"Point","coordinates":[-77.179386,38.890705]}},{"properties":{"city":"Falls Church","zip":"22046","geo_score":1.0,"numbags":15,"id":"a7ujlgqmwku8","address":"813 Fulton Ave","geo_precision":"range","state":"VA"},"type":"Feature","geometry":{"type":"Point","coordinates":[-77.179457,38.890765]}},{"properties":{"city":"Falls Church","zip":"22046","geo_score":1.0,"numbags":20,"id":"a7ujlgwrhh3p","address":"807 Lincoln Ave","geo_precision":"range","state":"VA"},"type":"Feature","geometry":{"type":"Point","coordinates":[-77.179305,38.891681]}},{"properties":{"city":"Falls Church","zip":"22046","geo_score":0.805,"numbags":6,"id":"a7ujlglkrlzh","address":"802 Berry St","geo_precision":"range","state":"VA"},"type":"Feature","geometry":{"type":"Point","coordinates":[-77.162683,38.876112]}},{"properties":{"city":"Falls Church","zip":"22046","geo_score":1.0,"numbags":60,"id":"a7ujlgu2p904","address":"709 Parker Ave","geo_precision":"range","state":"VA"},"type":"Feature","geometry":{"type":"Point","coordinates":[-77.185361,38.886303]}},{"properties":{"city":"Falls Church","zip":"22046","geo_score":1.0,"numbags":6,"id":"a7ujlgnjdbbu","address":"709 Poplar Dr","geo_precision":"range","state":"VA"},"type":"Feature","geometry":{"type":"Point","coordinates":[-77.192452,38.88715]}},{"properties":{"city":"Falls Church","zip":"22046","geo_score":1.0,"numbags":70,"id":"a7ujlgmdwdih","address":"707 Poplar Dr","geo_precision":"range","state":"VA"},"type":"Feature","geometry":{"type":"Point","coordinates":[-77.192455,38.887161]}},{"properties":{"city":"Falls Church","zip":"22046","geo_score":1.0,"numbags":40,"id":"a7ujlgqj5d2n","address":"704 Park Ave","geo_precision":"range","state":"VA"},"type":"Feature","geometry":{"type":"Point","coordinates":[-77.179008,38.889046]}},{"properties":{"city":"Falls Church","zip":"22046","geo_score":1.0,"numbags":30,"id":"a7ujlgyiq2xo","address":"704 Lincoln Ave","geo_precision":"range","state":"VA"},"type":"Feature","geometry":{"type":"Point","coordinates":[-77.177386,38.891521]}},{"properties":{"city":"Falls Church","zip":"22046","geo_score":1.0,"numbags":10,"id":"a7ujlgptsz7y","address":"703 Randolph St","geo_precision":"range","state":"VA"},"type":"Feature","geometry":{"type":"Point","coordinates":[-77.19006,38.886805]}},{"properties":{"city":"Falls Church","zip":"22046","geo_score":1.0,"numbags":15,"id":"a7ujlgvmasoj","address":"702 Lincoln Ave","geo_precision":"range","state":"VA"},"type":"Feature","geometry":{"type":"Point","coordinates":[-77.177413,38.891527]}},{"properties":{"city":"Falls Church","zip":"22046","geo_score":0.967,"numbags":30,"id":"a7ujlgspkhbp","address":"701 Timber La","geo_precision":"range","state":"VA"},"type":"Feature","geometry":{"type":"Point","coordinates":[-77.192579,38.883123]}},{"properties":{"city":"Falls Church","zip":"22046","geo_score":1.0,"numbags":30,"id":"a7ujlgqaw8hy","address":"701 Poplar Dr","geo_precision":"range","state":"VA"},"type":"Feature","geometry":{"type":"Point","coordinates":[-77.192394,38.887215]}},{"properties":{"city":"Falls Church","zip":"22046","geo_score":0.973,"numbags":10,"id":"a7ujlgsq1i3k","address":"610 Langston La","geo_precision":"range","state":"VA"},"type":"Feature","geometry":{"type":"Point","coordinates":[-77.172978,38.892622]}},{"properties":{"city":"Falls Church","zip":"22046","geo_score":0.619,"numbags":10,"id":"a7ujlh043nxq","address":"609 N. West St","geo_precision":"street","state":"VA"},"type":"Feature","geometry":{"type":"Point","coordinates":[-77.183852,38.891403]}},{"properties":{"city":"Falls Church","zip":"22046","geo_score":1.0,"numbags":20,"id":"a7ujlgn0ft84","address":"607 Lincoln Ave","geo_precision":"range","state":"VA"},"type":"Feature","geometry":{"type":"Point","coordinates":[-77.175684,38.891093]}},{"properties":{"city":"Falls Church","zip":"22046","geo_score":0.973,"numbags":30,"id":"a7ujlgqj3vrc","address":"606 Langston La","geo_precision":"range","state":"VA"},"type":"Feature","geometry":{"type":"Point","coordinates":[-77.172978,38.892663]}},{"properties":{"city":"Falls Church","zip":"22046","geo_score":1.0,"numbags":25,"id":"a7ujlgxd62rk","address":"606 Greenwich St","geo_precision":"range","state":"VA"},"type":"Feature","geometry":{"type":"Point","coordinates":[-77.178204,38.894327]}},{"properties":{"city":"Falls Church","zip":"22046","geo_score":0.614,"numbags":10,"id":"a7ujlgvayaol","address":"604 E. Broad St","geo_precision":"street","state":"VA"},"type":"Feature","geometry":{"type":"Point","coordinates":[-77.17011,38.881592]}},{"properties":{"city":"Falls Church","zip":"22046","geo_score":1.0,"numbags":30,"id":"a7ujlgyvfy33","address":"603 Dorchester Rd","geo_precision":"range","state":"VA"},"type":"Feature","geometry":{"type":"Point","coordinates":[-77.174061,38.891421]}},{"properties":{"city":"Falls Church","zip":"22046","geo_score":0.614,"numbags":4,"id":"a7ujlgqpx5cy","address":"602 E. Broad St","geo_precision":"street","state":"VA"},"type":"Feature","geometry":{"type":"Point","coordinates":[-77.17011,38.881592]}},{"properties":{"city":"Falls Church","zip":"22046","geo_score":1.0,"numbags":10,"id":"a7ujlgrb4sh2","address":"601 Lincoln Ave","geo_precision":"range","state":"VA"},"type":"Feature","geometry":{"type":"Point","coordinates":[-77.17576,38.891188]}},{"properties":{"city":"Falls Church","zip":"22046","geo_score":1.0,"numbags":4,"id":"a7ujlgo90htn","address":"527 Great Falls St","geo_precision":"range","state":"VA"},"type":"Feature","geometry":{"type":"Point","coordinates":[-77.174586,38.891972]}},{"properties":{"city":"Falls Church","zip":"22046","geo_score":1.0,"numbags":20,"id":"a7ujlgo6botf","address":"523 Poplar Dr","geo_precision":"range","state":"VA"},"type":"Feature","geometry":{"type":"Point","coordinates":[-77.190984,38.883143]}},{"properties":{"city":"Falls Church","zip":"22046","geo_score":0.967,"numbags":12,"id":"a7ujlgss1bic","address":"521 Timber La","geo_precision":"range","state":"VA"},"type":"Feature","geometry":{"type":"Point","coordinates":[-77.189239,38.883535]}},{"properties":{"city":"Falls Church","zip":"22046","geo_score":1.0,"numbags":20,"id":"a7ujlgmmw0gg","address":"515 Greenwich St","geo_precision":"range","state":"VA"},"type":"Feature","geometry":{"type":"Point","coordinates":[-77.177005,38.893106]}},{"properties":{"city":"Falls Church","zip":"22046","geo_score":1.0,"numbags":12,"id":"a7ujlgq51ef7","address":"515 Great Falls St","geo_precision":"range","state":"VA"},"type":"Feature","geometry":{"type":"Point","coordinates":[-77.174447,38.891684]}},{"properties":{"city":"Falls Church","zip":"22046","geo_score":1.0,"numbags":20,"id":"a7ujlgkv5s67","address":"508 Greenwich St","geo_precision":"range","state":"VA"},"type":"Feature","geometry":{"type":"Point","coordinates":[-77.176935,38.893309]}},{"properties":{"city":"Falls Church","zip":"22046","geo_score":1.0,"numbags":60,"id":"a7ujlgz6hz4h","address":"503 Dorchester Rd","geo_precision":"range","state":"VA"},"type":"Feature","geometry":{"type":"Point","coordinates":[-77.173011,38.891649]}},{"properties":{"city":"Falls Church","zip":"22046","geo_score":0.604,"numbags":20,"id":"a7ujlgpc8t34","address":"503 E. Columbia St","geo_precision":"street","state":"VA"},"type":"Feature","geometry":{"type":"Point","coordinates":[-77.166497,38.884966]}},{"properties":{"city":"Falls Church","zip":"22046","geo_score":0.619,"numbags":40,"id":"a7ujlh0f00oj","address":"503 N. West St","geo_precision":"street","state":"VA"},"type":"Feature","geometry":{"type":"Point","coordinates":[-77.183852,38.891403]}},{"properties":{"city":"Falls Church","zip":"22046","geo_score":1.0,"numbags":40,"id":"a7ujlgq81oxk","address":"501 Dorchester Rd","geo_precision":"range","state":"VA"},"type":"Feature","geometry":{"type":"Point","coordinates":[-77.173034,38.891723]}},{"properties":{"city":"Falls Church","zip":"22046","geo_score":1.0,"numbags":6,"id":"a7ujlgthmo4o","address":"501 Great Falls St","geo_precision":"range","state":"VA"},"type":"Feature","geometry":{"type":"Point","coordinates":[-77.173104,38.8896]}},{"properties":{"city":"Falls Church","zip":"22046","geo_score":0.6,"numbags":10,"id":"a7ujlgro6a2h","address":"501 W. Westmoreland Rd","geo_precision":"street","state":"VA"},"type":"Feature","geometry":{"type":"Point","coordinates":[-77.1694,38.899808]}},{"properties":{"city":"Falls Church","zip":"22046","geo_score":0.604,"numbags":35,"id":"a7ujlglrkcuu","address":"500 E. Columbia St","geo_precision":"street","state":"VA"},"type":"Feature","geometry":{"type":"Point","coordinates":[-77.166497,38.884966]}},{"properties":{"city":"Falls Church","zip":"22046","geo_score":1.0,"numbags":16,"id":"a7ujlgl3g9jg","address":"422 Sherrow Ave","geo_precision":"range","state":"VA"},"type":"Feature","geometry":{"type":"Point","coordinates":[-77.181065,38.883499]}},{"properties":{"city":"Falls Church","zip":"22046","geo_score":1.0,"numbags":20,"id":"a7ujlgpk3tbr","address":"421 Poplar Dr","geo_precision":"range","state":"VA"},"type":"Feature","geometry":{"type":"Point","coordinates":[-77.190607,38.882173]}},{"properties":{"city":"Falls Church","zip":"22046","geo_score":1.0,"numbags":3,"id":"a7ujlgqas57t","address":"419 Rollins St","geo_precision":"range","state":"VA"},"type":"Feature","geometry":{"type":"Point","coordinates":[-77.180201,38.883757]}},{"properties":{"city":"Falls Church","zip":"22046","geo_score":0.602,"numbags":20,"id":"a7ujlgokif2b","address":"415 E. Jefferson St","geo_precision":"street","state":"VA"},"type":"Feature","geometry":{"type":"Point","coordinates":[-77.164746,38.885629]}},{"properties":{"city":"Falls Church","zip":"22046","geo_score":1.0,"numbags":8,"id":"a7ujlh0wx57s","address":"414 Lincoln Ave","geo_precision":"range","state":"VA"},"type":"Feature","geometry":{"type":"Point","coordinates":[-77.171707,38.890333]}},{"properties":{"city":"Falls Church","zip":"22046","geo_score":0.61,"numbags":10,"id":"a7ujlgm2typm","address":"412 N. Cherry St","geo_precision":"street","state":"VA"},"type":"Feature","geometry":{"type":"Point","coordinates":[-77.165816,38.879497]}},{"properties":{"city":"Falls Church","zip":"22046","geo_score":0.633,"numbags":60,"id":"a7ujlgxfdgxw","address":"412 S. West St.","geo_precision":"street","state":"VA"},"type":"Feature","geometry":{"type":"Point","coordinates":[-77.19434,38.886064]}},{"properties":{"city":"Falls Church","zip":"22046","geo_score":1.0,"numbags":36,"id":"a7ujlgr3sbuk","address":"411 Midvale St","geo_precision":"range","state":"VA"},"type":"Feature","geometry":{"type":"Point","coordinates":[-77.164239,38.87956]}},{"properties":{"city":"Falls Church","zip":"22046","geo_score":0.967,"numbags":20,"id":"a7ujlgrje6a6","address":"401 Timber La","geo_precision":"range","state":"VA"},"type":"Feature","geometry":{"type":"Point","coordinates":[-77.186453,38.884177]}},{"properties":{"city":"Falls Church","zip":"22046","geo_score":1.0,"numbags":10,"id":"a7ujlgygho9g","address":"347 James St","geo_precision":"range","state":"VA"},"type":"Feature","geometry":{"type":"Point","coordinates":[-77.176524,38.883262]}},{"properties":{"city":"Falls Church","zip":"22046","geo_score":1.0,"numbags":15,"id":"a7ujlgm1epwd","address":"345 Little Falls St","geo_precision":"range","state":"VA"},"type":"Feature","geometry":{"type":"Point","coordinates":[-77.168029,38.887456]}},{"properties":{"city":"Falls Church","zip":"22046","geo_score":1.0,"numbags":6,"id":"a7ujlgyo2xmf","address":"341 James St.","geo_precision":"range","state":"VA"},"type":"Feature","geometry":{"type":"Point","coordinates":[-77.176515,38.883393]}},{"properties":{"city":"Falls Church","zip":"22046","geo_score":0.958,"numbags":20,"id":"a7ujlgwo7w9k","address":"324 Van Buren St","geo_precision":"range","state":"VA"},"type":"Feature","geometry":{"type":"Point","coordinates":[-77.158591,38.880834]}},{"properties":{"city":"Falls Church","zip":"22046","geo_score":0.958,"numbags":25,"id":"a7ujlgozqv6d","address":"322 Van Buren St","geo_precision":"range","state":"VA"},"type":"Feature","geometry":{"type":"Point","coordinates":[-77.158584,38.880876]}},{"properties":{"city":"Falls Church","zip":"22046","geo_score":1.0,"numbags":20,"id":"a7ujlgqrgxy5","address":"320 Wrens Way","geo_precision":"range","state":"VA"},"type":"Feature","geometry":{"type":"Point","coordinates":[-77.167107,38.878966]}},{"properties":{"city":"Falls Church","zip":"22046","geo_score":1.0,"numbags":25,"id":"a7ujlgmvcyps","address":"319 Grove Ave","geo_precision":"range","state":"VA"},"type":"Feature","geometry":{"type":"Point","coordinates":[-77.184176,38.894036]}},{"properties":{"city":"Falls Church","zip":"22046","geo_score":0.958,"numbags":20,"id":"a7ujlgy3ehq5","address":"318 Van Buren St","geo_precision":"range","state":"VA"},"type":"Feature","geometry":{"type":"Point","coordinates":[-77.158574,38.880972]}},{"properties":{"city":"Falls Church","zip":"22046","geo_score":0.602,"numbags":10,"id":"a7ujlgtbbkxw","address":"317 N. Van Buren St","geo_precision":"street","state":"VA"},"type":"Feature","geometry":{"type":"Point","coordinates":[-77.158649,38.87929]}},{"properties":{"city":"Falls Church","zip":"22046","geo_score":0.602,"numbags":20,"id":"a7ujlgzljmp3","address":"315 N. Underwood St","geo_precision":"street","state":"VA"},"type":"Feature","geometry":{"type":"Point","coordinates":[-77.157491,38.879383]}},{"properties":{"city":"Falls Church","zip":"22046","geo_score":1.0,"numbags":40,"id":"a7ujlgvg9jas","address":"312 Grove Ave","geo_precision":"range","state":"VA"},"type":"Feature","geometry":{"type":"Point","coordinates":[-77.184255,38.893747]}},{"properties":{"city":"Falls Church","zip":"22046","geo_score":0.325,"numbags":5,"id":"a7ujlgzoau3x","address":"311 N. Virginia Ave.","geo_precision":"street","state":"VA"},"type":"Feature","geometry":{"type":"Point","coordinates":[-77.321885,38.577317]}},{"properties":{"city":"Falls Church","zip":"22046","geo_score":0.585,"numbags":20,"id":"a7ujlgsus6k7","address":"309 Buxton Rd","geo_precision":"zip","state":"VA"},"type":"Feature","geometry":{"type":"Point","coordinates":[-77.200259,38.884278]}},{"properties":{"city":"Falls Church","zip":"22046","geo_score":1.0,"numbags":20,"id":"a7ujlgqzetgp","address":"309 Sycamore St","geo_precision":"range","state":"VA"},"type":"Feature","geometry":{"type":"Point","coordinates":[-77.18236,38.895065]}},{"properties":{"city":"Falls Church","zip":"22046","geo_score":0.325,"numbags":10,"id":"a7ujlgywitgw","address":"308 N. Virginia Ave","geo_precision":"street","state":"VA"},"type":"Feature","geometry":{"type":"Point","coordinates":[-77.321885,38.577317]}},{"properties":{"city":"Falls Church","zip":"22046","geo_score":1.0,"numbags":5,"id":"a7ujlgrzbppt","address":"307 Walnut St","geo_precision":"range","state":"VA"},"type":"Feature","geometry":{"type":"Point","coordinates":[-77.181089,38.894561]}},{"properties":{"city":"Falls Church","zip":"22046","geo_score":1.0,"numbags":20,"id":"a7ujlgs7kedg","address":"306 Rollins St","geo_precision":"range","state":"VA"},"type":"Feature","geometry":{"type":"Point","coordinates":[-77.178777,38.882275]}},{"properties":{"city":"Falls Church","zip":"22046","geo_score":0.602,"numbags":20,"id":"a7ujlgmk54yq","address":"306 N. Underwood St","geo_precision":"street","state":"VA"},"type":"Feature","geometry":{"type":"Point","coordinates":[-77.157491,38.879383]}},{"properties":{"city":"Falls Church","zip":"22046","geo_score":1.0,"numbags":12,"id":"a7ujlgs122zs","address":"305 Pine St","geo_precision":"range","state":"VA"},"type":"Feature","geometry":{"type":"Point","coordinates":[-77.180495,38.893723]}},{"properties":{"city":"Falls Church","zip":"22046","geo_score":1.0,"numbags":30,"id":"a7ujlgsunykl","address":"305 Fellows Ct","geo_precision":"range","state":"VA"},"type":"Feature","geometry":{"type":"Point","coordinates":[-77.185358,38.883358]}},{"properties":{"city":"Falls Church","zip":"22046","geo_score":1.0,"numbags":12,"id":"a7ujlgszn9j2","address":"304 Gundry Dr","geo_precision":"range","state":"VA"},"type":"Feature","geometry":{"type":"Point","coordinates":[-77.176684,38.882544]}},{"properties":{"city":"Falls Church","zip":"22046","geo_score":1.0,"numbags":5,"id":"a7ujlgu32swi","address":"301 Parker Ave","geo_precision":"range","state":"VA"},"type":"Feature","geometry":{"type":"Point","coordinates":[-77.185249,38.884858]}},{"properties":{"city":"Falls Church","zip":"22046","geo_score":1.0,"numbags":10,"id":"a7ujlguvi3t3","address":"301 Sycamore St","geo_precision":"range","state":"VA"},"type":"Feature","geometry":{"type":"Point","coordinates":[-77.182221,38.895059]}},{"properties":{"city":"Falls Church","zip":"22046","geo_score":0.633,"numbags":40,"id":"a7ujlgkvb1ya","address":"300 S. West St","geo_precision":"street","state":"VA"},"type":"Feature","geometry":{"type":"Point","coordinates":[-77.19434,38.886064]}},{"properties":{"city":"Falls Church","zip":"22046","geo_score":1.0,"numbags":20,"id":"a7ujlgmkyyyq","address":"300 Sycamore St","geo_precision":"range","state":"VA"},"type":"Feature","geometry":{"type":"Point","coordinates":[-77.182221,38.895059]}},{"properties":{"city":"Falls Church","zip":"22046","geo_score":1.0,"numbags":50,"id":"a7ujlgz0ugkd","address":"300 Poplar Dr","geo_precision":"range","state":"VA"},"type":"Feature","geometry":{"type":"Point","coordinates":[-77.190163,38.881226]}},{"properties":{"city":"Falls Church","zip":"22046","geo_score":1.0,"numbags":20,"id":"a7ujlgwfeapp","address":"300 Grove Ave","geo_precision":"range","state":"VA"},"type":"Feature","geometry":{"type":"Point","coordinates":[-77.184067,38.892716]}},{"properties":{"city":"Falls Church","zip":"22046","geo_score":1.0,"numbags":10,"id":"a7ujlgx7uswo","address":"255 Gundry Dr","geo_precision":"range","state":"VA"},"type":"Feature","geometry":{"type":"Point","coordinates":[-77.17544,38.882968]}},{"properties":{"city":"Falls Church","zip":"22046","geo_score":1.0,"numbags":12,"id":"a7ujlgvm91b5","address":"232 Kent St","geo_precision":"range","state":"VA"},"type":"Feature","geometry":{"type":"Point","coordinates":[-77.186195,38.88884]}},{"properties":{"city":"Falls Church","zip":"22046","geo_score":1.0,"numbags":13,"id":"a7ujlgq42sam","address":"226 Noland St","geo_precision":"range","state":"VA"},"type":"Feature","geometry":{"type":"Point","coordinates":[-77.16136,38.881429]}},{"properties":{"city":"Falls Church","zip":"22046","geo_score":0.325,"numbags":10,"id":"a7ujlgnr6493","address":"226 S. Virginia Ave.","geo_precision":"street","state":"VA"},"type":"Feature","geometry":{"type":"Point","coordinates":[-77.295009,38.84417]}},{"properties":{"city":"Falls Church","zip":"22046","geo_score":0.607,"numbags":25,"id":"a7ujlgoi257i","address":"221 W. Cameron Rd","geo_precision":"street","state":"VA"},"type":"Feature","geometry":{"type":"Point","coordinates":[-77.18132,38.879079]}},{"properties":{"city":"Falls Church","zip":"22046","geo_score":1.0,"numbags":3,"id":"a7ujlgx9yuqc","address":"219 James Thurber Ct","geo_precision":"range","state":"VA"},"type":"Feature","geometry":{"type":"Point","coordinates":[-77.168516,38.886364]}},{"properties":{"city":"Falls Church","zip":"22046","geo_score":1.0,"numbags":10,"id":"a7ujlgvdgli2","address":"218 James Thurber Ct","geo_precision":"range","state":"VA"},"type":"Feature","geometry":{"type":"Point","coordinates":[-77.16838,38.886427]}},{"properties":{"city":"Falls Church","zip":"22046","geo_score":0.6,"numbags":6,"id":"a7ujlglg6ikk","address":"218 W. Greenway Blvd","geo_precision":"street","state":"VA"},"type":"Feature","geometry":{"type":"Point","coordinates":[-77.182487,38.879023]}},{"properties":{"city":"Falls Church","zip":"22046","geo_score":0.602,"numbags":30,"id":"a7ujlgv0ja3z","address":"215 N. Van Buren St","geo_precision":"street","state":"VA"},"type":"Feature","geometry":{"type":"Point","coordinates":[-77.158649,38.87929]}},{"properties":{"city":"Falls Church","zip":"22046","geo_score":1.0,"numbags":10,"id":"a7ujlgq4b2by","address":"214 Midvale St","geo_precision":"range","state":"VA"},"type":"Feature","geometry":{"type":"Point","coordinates":[-77.16259,38.880779]}},{"properties":{"city":"Falls Church","zip":"22046","geo_score":1.0,"numbags":30,"id":"a7ujlgrzdlqb","address":"214 Lawton St","geo_precision":"range","state":"VA"},"type":"Feature","geometry":{"type":"Point","coordinates":[-77.168532,38.88156]}},{"properties":{"city":"Falls Church","zip":"22046","geo_score":0.604,"numbags":3,"id":"a7ujlgqblcjs","address":"213 W. Columbia St","geo_precision":"street","state":"VA"},"type":"Feature","geometry":{"type":"Point","coordinates":[-77.166497,38.884966]}},{"properties":{"city":"Falls Church","zip":"22046","geo_score":1.0,"numbags":4,"id":"a7ujlgyn2m4r","address":"213 Gundry Dr","geo_precision":"range","state":"VA"},"type":"Feature","geometry":{"type":"Point","coordinates":[-77.175268,38.883053]}},{"properties":{"city":"Falls Church","zip":"22046","geo_score":1.0,"numbags":50,"id":"a7ujlh0u95cn","address":"212 Midvale St","geo_precision":"range","state":"VA"},"type":"Feature","geometry":{"type":"Point","coordinates":[-77.162518,38.880736]}},{"properties":{"city":"Falls Church","zip":"22046","geo_score":0.633,"numbags":8,"id":"a7ujlgxjvdgv","address":"210 S. West St.","geo_precision":"street","state":"VA"},"type":"Feature","geometry":{"type":"Point","coordinates":[-77.19434,38.886064]}},{"properties":{"city":"Falls Church","zip":"22046","geo_score":1.0,"numbags":35,"id":"a7ujlgoylh30","address":"210 Noland St","geo_precision":"range","state":"VA"},"type":"Feature","geometry":{"type":"Point","coordinates":[-77.162449,38.87976]}},{"properties":{"city":"Falls Church","zip":"22046","geo_score":0.597,"numbags":4,"id":"a7ujlgxvg4gb","address":"209 W. George Mason Rd","geo_precision":"street","state":"VA"},"type":"Feature","geometry":{"type":"Point","coordinates":[-77.183863,38.882534]}},{"properties":{"city":"Falls Church","zip":"22046","geo_score":0.633,"numbags":10,"id":"a7ujlgplxrdo","address":"208 S. West St","geo_precision":"street","state":"VA"},"type":"Feature","geometry":{"type":"Point","coordinates":[-77.19434,38.886064]}},{"properties":{"city":"Falls Church","zip":"22046","geo_score":0.6,"numbags":10,"id":"a7ujlgvdhgoc","address":"208 W. Greenway Blvd","geo_precision":"street","state":"VA"},"type":"Feature","geometry":{"type":"Point","coordinates":[-77.182487,38.879023]}},{"properties":{"city":"Falls Church","zip":"22046","geo_score":1.0,"numbags":3,"id":"a7ujlgo2x6h1","address":"207 Gundry Dr","geo_precision":"range","state":"VA"},"type":"Feature","geometry":{"type":"Point","coordinates":[-77.175337,38.882975]}},{"properties":{"city":"Falls Church","zip":"22046","geo_score":0.585,"numbags":15,"id":"a7ujlgw281m9","address":"207 Buxton Rd","geo_precision":"zip","state":"VA"},"type":"Feature","geometry":{"type":"Point","coordinates":[-77.200259,38.884278]}},{"properties":{"city":"Falls Church","zip":"22046","geo_score":0.6,"numbags":40,"id":"a7ujlgwpo3sq","address":"206 W. Greenway Blvd","geo_precision":"street","state":"VA"},"type":"Feature","geometry":{"type":"Point","coordinates":[-77.182487,38.879023]}},{"properties":{"city":"Falls Church","zip":"22046","geo_score":1.0,"numbags":10,"id":"a7ujlgtdshio","address":"206 Forest Dr","geo_precision":"range","state":"VA"},"type":"Feature","geometry":{"type":"Point","coordinates":[-77.159922,38.880221]}},{"properties":{"city":"Falls Church","zip":"22046","geo_score":0.625,"numbags":25,"id":"a7ujlgqmwks2","address":"205 N. Lee St","geo_precision":"street","state":"VA"},"type":"Feature","geometry":{"type":"Point","coordinates":[-77.178942,38.887295]}},{"properties":{"city":"Falls Church","zip":"22046","geo_score":0.625,"numbags":10,"id":"a7ujlh0lhkab","address":"205 S. Oak St","geo_precision":"street","state":"VA"},"type":"Feature","geometry":{"type":"Point","coordinates":[-77.179909,38.887921]}},{"properties":{"city":"Falls Church","zip":"22046","geo_score":0.597,"numbags":3,"id":"a7ujlgs2bleb","address":"204 W. George Mason Rd","geo_precision":"street","state":"VA"},"type":"Feature","geometry":{"type":"Point","coordinates":[-77.183863,38.882534]}},{"properties":{"city":"Falls Church","zip":"22046","geo_score":0.597,"numbags":20,"id":"a7ujlgxhvmkb","address":"204 W. George Mason Rd","geo_precision":"street","state":"VA"},"type":"Feature","geometry":{"type":"Point","coordinates":[-77.183863,38.882534]}},{"properties":{"city":"Falls Church","zip":"22046","geo_score":0.805,"numbags":20,"id":"a7ujlgu9btku","address":"202 Brook Dr","geo_precision":"range","state":"VA"},"type":"Feature","geometry":{"type":"Point","coordinates":[-77.164719,38.877081]}},{"properties":{"city":"Falls Church","zip":"22046","geo_score":0.607,"numbags":12,"id":"a7ujlgygvgj3","address":"201 W. Cameron Rd","geo_precision":"street","state":"VA"},"type":"Feature","geometry":{"type":"Point","coordinates":[-77.18132,38.879079]}},{"properties":{"city":"Falls Church","zip":"22046","geo_score":0.585,"numbags":6,"id":"a7ujlgtbeg3h","address":"201 Buxton Rd","geo_precision":"zip","state":"VA"},"type":"Feature","geometry":{"type":"Point","coordinates":[-77.200259,38.884278]}},{"properties":{"city":"Falls Church","zip":"22046","geo_score":0.625,"numbags":30,"id":"a7ujlgpj9omt","address":"200 S. Oak St","geo_precision":"street","state":"VA"},"type":"Feature","geometry":{"type":"Point","coordinates":[-77.179909,38.887921]}},{"properties":{"city":"Falls Church","zip":"22046","geo_score":0.604,"numbags":30,"id":"a7ujlgr3iz5d","address":"200 W. Rosemary La","geo_precision":"street","state":"VA"},"type":"Feature","geometry":{"type":"Point","coordinates":[-77.187558,38.878761]}},{"properties":{"city":"Falls Church","zip":"22046","geo_score":0.597,"numbags":10,"id":"a7ujlgsu78j4","address":"200 W. George Mason Rd","geo_precision":"street","state":"VA"},"type":"Feature","geometry":{"type":"Point","coordinates":[-77.183863,38.882534]}},{"properties":{"city":"Falls Church","zip":"22046","geo_score":0.625,"numbags":5,"id":"a7ujlgzeuoq8","address":"198 S. Lee St.","geo_precision":"street","state":"VA"},"type":"Feature","geometry":{"type":"Point","coordinates":[-77.178942,38.887295]}},{"properties":{"city":"Falls Church","zip":"22046","geo_score":0.619,"numbags":20,"id":"a7ujlgzawdwy","address":"149 S. Spring St","geo_precision":"street","state":"VA"},"type":"Feature","geometry":{"type":"Point","coordinates":[-77.184147,38.886278]}},{"properties":{"city":"Falls Church","zip":"22046","geo_score":0.857,"numbags":20,"id":"a7ujlgpxsufm","address":"134 N. Fairfax St.","geo_precision":"zip","state":"VA"},"type":"Feature","geometry":{"type":"Point","coordinates":[-77.200259,38.884278]}},{"properties":{"city":"Falls Church","zip":"22046","geo_score":0.857,"numbags":20,"id":"a7ujlgor3zg0","address":"131 N. Fairfax St","geo_precision":"zip","state":"VA"},"type":"Feature","geometry":{"type":"Point","coordinates":[-77.200259,38.884278]}},{"properties":{"city":"Falls Church","zip":"22046","geo_score":0.625,"numbags":30,"id":"a7ujlh0ucsx3","address":"124 S. Oak St","geo_precision":"street","state":"VA"},"type":"Feature","geometry":{"type":"Point","coordinates":[-77.179909,38.887921]}},{"properties":{"city":"Falls Church","zip":"22046","geo_score":0.604,"numbags":30,"id":"a7ujlgtfsaqu","address":"124 W. Marshall St","geo_precision":"street","state":"VA"},"type":"Feature","geometry":{"type":"Point","coordinates":[-77.184632,38.878903]}},{"properties":{"city":"Falls Church","zip":"22046","geo_score":0.607,"numbags":25,"id":"a7ujlh0hsnbv","address":"120 W. Cameron Rd","geo_precision":"street","state":"VA"},"type":"Feature","geometry":{"type":"Point","coordinates":[-77.18132,38.879079]}},{"properties":{"city":"Falls Church","zip":"22046","geo_score":0.857,"numbags":15,"id":"a7ujlgqlkvv9","address":"120 N. Fairfax St","geo_precision":"zip","state":"VA"},"type":"Feature","geometry":{"type":"Point","coordinates":[-77.200259,38.884278]}},{"properties":{"city":"Falls Church","zip":"22046","geo_score":0.625,"numbags":20,"id":"a7ujlgz3j7cx","address":"119 S. Oak St.","geo_precision":"street","state":"VA"},"type":"Feature","geometry":{"type":"Point","coordinates":[-77.179909,38.887921]}},{"properties":{"city":"Falls Church","zip":"22046","geo_score":0.602,"numbags":15,"id":"a7ujlgvf9b0a","address":"118 E. Jefferson St","geo_precision":"street","state":"VA"},"type":"Feature","geometry":{"type":"Point","coordinates":[-77.164746,38.885629]}},{"properties":{"city":"Falls Church","zip":"22046","geo_score":0.602,"numbags":8,"id":"a7ujlgrsmlxr","address":"117 W. Annandale Rd","geo_precision":"street","state":"VA"},"type":"Feature","geometry":{"type":"Point","coordinates":[-77.174989,38.884753]}},{"properties":{"city":"Falls Church","zip":"22046","geo_score":0.607,"numbags":6,"id":"a7ujlgls99bw","address":"115 W. Cameron Rd","geo_precision":"street","state":"VA"},"type":"Feature","geometry":{"type":"Point","coordinates":[-77.18132,38.879079]}},{"properties":{"city":"Falls Church","zip":"22046","geo_score":0.6,"numbags":40,"id":"a7ujlgmu2osr","address":"115 W. Greenway Blvd","geo_precision":"street","state":"VA"},"type":"Feature","geometry":{"type":"Point","coordinates":[-77.182487,38.879023]}},{"properties":{"city":"Falls Church","zip":"22046","geo_score":0.619,"numbags":10,"id":"a7ujlgp8nbts","address":"112 S. Spring St","geo_precision":"street","state":"VA"},"type":"Feature","geometry":{"type":"Point","coordinates":[-77.184147,38.886278]}},{"properties":{"city":"Falls Church","zip":"22046","geo_score":0.602,"numbags":20,"id":"a7ujlgns1r5f","address":"110 E. Jefferson St","geo_precision":"street","state":"VA"},"type":"Feature","geometry":{"type":"Point","coordinates":[-77.164746,38.885629]}},{"properties":{"city":"Falls Church","zip":"22046","geo_score":0.619,"numbags":5,"id":"a7ujlgp3zc5u","address":"108 S. Spring St","geo_precision":"street","state":"VA"},"type":"Feature","geometry":{"type":"Point","coordinates":[-77.184147,38.886278]}},{"properties":{"city":"Falls Church","zip":"22046","geo_score":1.0,"numbags":5,"id":"a7ujlgvwk1f0","address":"106 Dulany Pl","geo_precision":"range","state":"VA"},"type":"Feature","geometry":{"type":"Point","coordinates":[-77.185826,38.881554]}},{"properties":{"city":"Falls Church","zip":"22046","geo_score":0.963,"numbags":2,"id":"a7ujlgrn7ixz","address":"106 Grace La","geo_precision":"range","state":"VA"},"type":"Feature","geometry":{"type":"Point","coordinates":[-77.169781,38.87865]}},{"properties":{"city":"Falls Church","zip":"22046","geo_score":0.6,"numbags":5,"id":"a7ujlgp57ld9","address":"105 W. Greenway Blvd","geo_precision":"street","state":"VA"},"type":"Feature","geometry":{"type":"Point","coordinates":[-77.182487,38.879023]}},{"properties":{"city":"Falls Church","zip":"22046","geo_score":0.625,"numbags":20,"id":"a7ujlgkpu350","address":"105 S. Lee St.","geo_precision":"street","state":"VA"},"type":"Feature","geometry":{"type":"Point","coordinates":[-77.178942,38.887295]}},{"properties":{"city":"Falls Church","zip":"22046","geo_score":0.604,"numbags":10,"id":"a7ujlh0la32k","address":"102 W. Rosemary La","geo_precision":"street","state":"VA"},"type":"Feature","geometry":{"type":"Point","coordinates":[-77.187558,38.878761]}},{"properties":{"city":"Falls Church","zip":"22046","geo_score":1.0,"numbags":20,"id":"a7ujlgm9m3sh","address":"101 Poplar Dr","geo_precision":"range","state":"VA"},"type":"Feature","geometry":{"type":"Point","coordinates":[-77.189516,38.879473]}}],"is_temporal":false,"author":{"url":"","metadata":"","contact_name":"","contact_address":"","source":"","contact_phone":""},"source":"","pagination":{"sort":null,"start":0,"total":162,"limit":1000000},"state":"complete","tags":"","published":"2014-08-15T01:05:16-04:00","id":267478}