{"type":"FeatureCollection","data_type":"Data Feed","url_type":"csv","permissions":[{"permissions":{"download":true,"edit":true,"view":true},"group_id":51244},{"permissions":{"download":true,"view":true},"group_id":"everyone"}],"classification":null,"title":"Baltimore Layer 9","count":103,"stream_id":267750,"contributor":{"url":"http://geocommons.com/users/46684","name":"agmsb108"},"data_attributes":null,"calculation_params":null,"icon_link":null,"link":"http://geocommons.com/overlays/267750.json","extent":[-76.7057,39.2536,-76.531,39.3669],"geometry_types":["point"],"unique_name":null,"name":"Baltimore Layer 9","feature_count":103,"description":"","next_feature":null,"is_raster":false,"short_classification":"Y","stats":{"latitude":{"max":39.366931,"variance":0.000585948841443738,"mean":39.3128647087379,"stdev":0.0242063801805172,"min":39.253566,"median":39.312492},"longitude":{"max":-76.530987,"variance":0.00181356229481131,"mean":-76.6233209514563,"stdev":0.0425859401071682,"min":-76.70566,"median":-76.618349},"effect":{"max":7,"variance":3.28250523510375,"mean":3.85436893203884,"stdev":1.81176853794952,"min":1,"median":4},"affect":{"max":7,"variance":4.48695983247668,"mean":4.30097087378641,"stdev":2.1182445166875,"min":1,"median":4},"school number":{"max":860,"variance":52117.6556253569,"mean":289.407766990291,"stdev":228.292916283789,"min":4,"median":341}},"features":[{"properties":{"name":"MD Academy of Technology and Health Sciences Middle/High","latitude":39.344618,"zip":"21209","column_12":null,"principal: last name":"Ghosh","area":"S","phone":"410-545-0955","longitude":-76.658839,"principal: first name":"Rebekah","grades taught":"6 - 11.","id":"a7v846o4x5fd","address":"4701 Greenspring Avenue","school number":331,"state":"MD","affect":2,"effect":3},"type":"Feature","geometry":{"type":"Point","coordinates":[-76.658839,39.344618]}},{"properties":{"name":"The Green School Elementary","latitude":39.324589,"zip":"21213","column_12":null,"principal: last name":"Primm","area":"E","phone":"410-485-2102","longitude":-76.573105,"principal: first name":"Katherine","grades taught":"K - 5.","id":"a7v846px7v03","address":"2800 Brendan Ave","school number":332,"state":"MD","affect":3,"effect":4},"type":"Feature","geometry":{"type":"Point","coordinates":[-76.573105,39.324589]}},{"properties":{"name":"Independence School Local I High","latitude":39.330706,"zip":"21211","column_12":null,"principal: last name":"French","area":"S","phone":"410-467-1090","longitude":-76.636452,"principal: first name":"Chris","grades taught":"9 - 12.","id":"a7v8474arah7","address":"1250 W 36th Street","school number":333,"state":"MD","affect":1,"effect":5},"type":"Feature","geometry":{"type":"Point","coordinates":[-76.636452,39.330706]}},{"properties":{"name":"Bluford Drew Jemison MST Academy Middle","latitude":39.303459,"zip":"21213","column_12":null,"principal: last name":"Gordon","area":"S","phone":"410-276-3095","longitude":-76.598094,"principal: first name":"James","grades taught":"6 - 8.","id":"a7v846xgtju5","address":"1130 N Caroline Street","school number":334,"state":"MD","affect":5,"effect":5},"type":"Feature","geometry":{"type":"Point","coordinates":[-76.598094,39.303459]}},{"properties":{"name":"Baltimore International Academy Elem/Middle","latitude":39.366931,"zip":"21236","column_12":null,"principal: last name":"Lokounia","area":"E","phone":"410-426-3650","longitude":-76.535341,"principal: first name":"Elena","grades taught":"K - 7.","id":"a7v8473l0kwq","address":"3515 Taylor Ave","school number":335,"state":"MD","affect":6,"effect":4},"type":"Feature","geometry":{"type":"Point","coordinates":[-76.535341,39.366931]}},{"properties":{"name":"Baltimore Montessori Public Charter Elementary","latitude":39.307959,"zip":"21202","column_12":null,"principal: last name":"Shecter","area":"E","phone":"410-528-5393","longitude":-76.612314,"principal: first name":"Allison","grades taught":"Pre-K - 5.","id":"a7v847109buz","address":"1600 Guilford Ave","school number":336,"state":"MD","affect":4,"effect":3},"type":"Feature","geometry":{"type":"Point","coordinates":[-76.612314,39.307959]}},{"properties":{"name":"Afya Public Charter Middle","latitude":39.324589,"zip":"21213","column_12":null,"principal: last name":"McKenna","area":"S","phone":"410-485-2103","longitude":-76.573105,"principal: first name":"William","grades taught":"6 - 7.","id":"a7v8470oj1iv","address":"2800 Brendan Ave","school number":337,"state":"MD","affect":7,"effect":1},"type":"Feature","geometry":{"type":"Point","coordinates":[-76.573105,39.324589]}},{"properties":{"name":"Friendship Academy of Science &amp; Technology Middle/High","latitude":39.283418,"zip":"21202","column_12":null,"principal: last name":"Roberts","area":"S","phone":"443-642-3182","longitude":-76.568736,"principal: first name":"Ian","grades taught":"6 - 7,9 - 10.","id":"a7v846z9508v","address":"801 S Highland Ave","school number":338,"state":"MD","affect":2,"effect":2},"type":"Feature","geometry":{"type":"Point","coordinates":[-76.568736,39.283418]}},{"properties":{"name":"Friendship Academy of Engineering &amp; Technology Middle/High","latitude":39.366839,"zip":"21214","column_12":null,"principal: last name":"Wheeler","area":"S","phone":"443-642-5616","longitude":-76.562391,"principal: first name":"Susan","grades taught":"6 - 7,9 - 10.","id":"a7v846ob9mir","address":"2500 E Northern Pkwy","school number":339,"state":"MD","affect":3,"effect":6},"type":"Feature","geometry":{"type":"Point","coordinates":[-76.562391,39.366839]}},{"properties":{"name":"Charles Carroll Barrister Elementary","latitude":39.280228,"zip":"21230","column_12":null,"principal: last name":"Dean","area":"E","phone":"410-396-5973","longitude":-76.635705,"principal: first name":"Bridget","grades taught":"Pre-K - 5.","id":"a7v846zeehsm","address":"1327 Washington Boulevard","school number":34,"state":"MD","affect":1,"effect":7},"type":"Feature","geometry":{"type":"Point","coordinates":[-76.635705,39.280228]}},{"properties":{"name":"The Reach Middle/High","latitude":39.316279,"zip":"21213","column_12":null,"principal: last name":"Frederick","area":"S","phone":"443-642-2291","longitude":-76.589442,"principal: first name":"Michael","grades taught":"6 - 7,9 - 10.","id":"a7v846wrz67j","address":"2801 Saint Lo Drive","school number":341,"state":"MD","affect":5,"effect":7},"type":"Feature","geometry":{"type":"Point","coordinates":[-76.589442,39.316279]}},{"properties":{"name":"KASA Middle/High","latitude":39.282743,"zip":"21229","column_12":null,"principal: last name":"Edwards","area":"S","phone":"443-642-2670","longitude":-76.70566,"principal: first name":"Tony","grades taught":"6 - 7,9 - 10.","id":"a7v8471ui5um","address":"201 North Bend Road","school number":342,"state":"MD","affect":6,"effect":3},"type":"Feature","geometry":{"type":"Point","coordinates":[-76.70566,39.282743]}},{"properties":{"name":"Civitas Middle/High","latitude":39.344618,"zip":"21209","column_12":null,"principal: last name":"Wernsdorfer","area":"S","phone":"443-642-2938","longitude":-76.658839,"principal: first name":"Matthew","grades taught":"6 - 7,9 - 10.","id":"a7v846u9ewmk","address":"4701 Greenspring Ave","school number":343,"state":"MD","affect":4,"effect":2},"type":"Feature","geometry":{"type":"Point","coordinates":[-76.658839,39.344618]}},{"properties":{"name":"Baltimore Rising Star Academy@Laurence G. Paquin","latitude":39.314406,"zip":"21213","column_12":null,"principal: last name":"Shaw","area":"S","phone":"443-642-2126","longitude":-76.587489,"principal: first name":"Patricia","grades taught":"6 - 8.","id":"a7v846o1kdo2","address":"2200 Sinclair Lane","school number":344,"state":"MD","affect":7,"effect":1},"type":"Feature","geometry":{"type":"Point","coordinates":[-76.587489,39.314406]}},{"properties":{"name":"New Hope Academy","latitude":39.298504,"zip":"21201","column_12":null,"principal: last name":"Young","area":"S","phone":"410-396-0774","longitude":-76.624476,"principal: first name":"James","grades taught":"6 - 12.","id":"a7v8470zgh0a","address":"900 Druid Hill Avenue","school number":345,"state":"MD","affect":2,"effect":5},"type":"Feature","geometry":{"type":"Point","coordinates":[-76.624476,39.298504]}},{"properties":{"name":"City Neighbors Hamilton","latitude":39.350408,"zip":"21214","column_12":null,"principal: last name":"Abdal Rahim","area":null,"phone":"443-642-2052","longitude":-76.555403,"principal: first name":"Candice","grades taught":"K - 3.","id":"a7v846zvw6uv","address":"5609 Sefton Avenue","school number":346,"state":"MD","affect":3,"effect":4},"type":"Feature","geometry":{"type":"Point","coordinates":[-76.555403,39.350408]}},{"properties":{"name":"KIPP Harmony","latitude":39.333859,"zip":"21215","column_12":null,"principal: last name":"Walters","area":null,"phone":"443-642-2027","longitude":-76.664189,"principal: first name":"Natalia","grades taught":"K.","id":"a7v846svnxzr","address":"2810 Shirley Avenue","school number":347,"state":"MD","affect":1,"effect":3},"type":"Feature","geometry":{"type":"Point","coordinates":[-76.664189,39.333859]}},{"properties":{"name":"Baltimore Leadership School for Young Women","latitude":39.346122,"zip":"21209","column_12":null,"principal: last name":"Hanley","area":null,"phone":"443-642-2048","longitude":-76.641326,"principal: first name":"Lorna","grades taught":"6","id":"a7v846w76gnp","address":"4600 Falls Rd","school number":348,"state":"MD","affect":5,"effect":4},"type":"Feature","geometry":{"type":"Point","coordinates":[-76.641326,39.346122]}},{"properties":{"name":"NACA Freedom and Democracy II","latitude":39.366839,"zip":"21214","column_12":null,"principal: last name":"McCrea","area":null,"phone":"443-642-2031","longitude":-76.562391,"principal: first name":"Mary","grades taught":"6,9.","id":"a7v846rx3b70","address":"2500 E Northern Pkwy","school number":349,"state":"MD","affect":6,"effect":5},"type":"Feature","geometry":{"type":"Point","coordinates":[-76.562391,39.366839]}},{"properties":{"name":"Harlem Park Elem/Middle","latitude":39.298929,"zip":"21217","column_12":null,"principal: last name":"Akintillo","area":"E","phone":"410-396-0633","longitude":-76.640203,"principal: first name":"Joyce","grades taught":"Pre-K - 8.","id":"a7v846woodar","address":"1401 W Lafayette Avenue","school number":35,"state":"MD","affect":4,"effect":5},"type":"Feature","geometry":{"type":"Point","coordinates":[-76.640203,39.298929]}},{"properties":{"name":"Bluford Drew Jemison STEM Academy West","latitude":39.282115,"zip":"21223","column_12":null,"principal: last name":"Dailey","area":null,"phone":"443-642-2110","longitude":-76.637585,"principal: first name":"Monica","grades taught":"6","id":"a7v846vgv9br","address":"1300 Herkimer St","school number":364,"state":"MD","affect":7,"effect":4},"type":"Feature","geometry":{"type":"Point","coordinates":[-76.637585,39.282115]}},{"properties":{"name":"Baltimore Liberation Diploma Plus High School","latitude":39.321057,"zip":"21216","column_12":null,"principal: last name":"Cooper-Hall","area":null,"phone":"443-642-2055","longitude":-76.664894,"principal: first name":"Teresa","grades taught":"9","id":"a7v846nxfsb5","address":"2801 N Dukeland St","school number":365,"state":"MD","affect":7,"effect":3},"type":"Feature","geometry":{"type":"Point","coordinates":[-76.664894,39.321057]}},{"properties":{"name":"Baltimore Antioch Diploma Plus High School","latitude":39.318733,"zip":"21218","column_12":null,"principal: last name":"Green","area":null,"phone":"443-642-2021","longitude":-76.592952,"principal: first name":"Danielle","grades taught":"9","id":"a7v846ztp4l5","address":"2555 Harford Rd","school number":366,"state":"MD","affect":2,"effect":1},"type":"Feature","geometry":{"type":"Point","coordinates":[-76.592952,39.318733]}},{"properties":{"name":"Baltimore Community School","latitude":39.284894,"zip":"21224","column_12":null,"principal: last name":"Jones","area":null,"phone":"443-642-2035","longitude":-76.530987,"principal: first name":"Brian","grades taught":"8 - 9.","id":"a7v846xuwhgy","address":"6820 Fait Ave","school number":367,"state":"MD","affect":3,"effect":2},"type":"Feature","geometry":{"type":"Point","coordinates":[-76.530987,39.284894]}},{"properties":{"name":"East Baltimore Community School","latitude":39.303452,"zip":"21213","column_12":null,"principal: last name":"Miles","area":null,"phone":"443-642-2060","longitude":-76.591103,"principal: first name":"Cathleen","grades taught":"K - 1,5.","id":"a7v8472o2j87","address":"1101 N Wolfe Street","school number":368,"state":"MD","affect":1,"effect":6},"type":"Feature","geometry":{"type":"Point","coordinates":[-76.591103,39.303452]}},{"properties":{"name":"Harford Heights Elementary","latitude":39.312492,"zip":"21213","column_12":null,"principal: last name":"Thomas","area":"E","phone":"410-396-9341","longitude":-76.594913,"principal: first name":"Damia","grades taught":"Pre-K - 5.","id":"a7v846qubdpf","address":"1919 N Broadway","school number":37,"state":"MD","affect":5,"effect":7},"type":"Feature","geometry":{"type":"Point","coordinates":[-76.594913,39.312492]}},{"properties":{"name":"Eager Street Academy","latitude":39.30112,"zip":"21202","column_12":null,"principal: last name":"Scofield","area":"S","phone":"410-209-4091","longitude":-76.61064,"principal: first name":"James","grades taught":null,"id":"a7v846qtl03d","address":"401 E Eager Street","school number":370,"state":"MD","affect":6,"effect":7},"type":"Feature","geometry":{"type":"Point","coordinates":[-76.61064,39.30112]}},{"properties":{"name":"Dallas F. Nicholas Sr. Elementary","latitude":39.313247,"zip":"21218","column_12":null,"principal: last name":"Patterson","area":"E","phone":"410-396-4525","longitude":-76.613755,"principal: first name":"Regina","grades taught":"Pre-K - 5.","id":"a7v8473lpv0i","address":"201 E 21St Street","school number":39,"state":"MD","affect":4,"effect":3},"type":"Feature","geometry":{"type":"Point","coordinates":[-76.613755,39.313247]}},{"properties":{"name":"Steuart Hill Academic Academy Middle","latitude":39.287128,"zip":"21223","column_12":null,"principal: last name":"Martin","area":"E","phone":"410-396-1387","longitude":-76.642466,"principal: first name":"Gregory","grades taught":"Pre-K - 8.","id":"a7v846vlx54d","address":"30 S Gilmor Street","school number":4,"state":"MD","affect":7,"effect":2},"type":"Feature","geometry":{"type":"Point","coordinates":[-76.642466,39.287128]}},{"properties":{"name":"Edmondson-Westside High","latitude":39.291918,"zip":"21229","column_12":null,"principal: last name":"Lowe Gould","area":"S","phone":"410-396-0685","longitude":-76.68911,"principal: first name":"Patricia","grades taught":"9 - 12.","id":"a7v846xf0m4m","address":"501 Athol Ave","school number":400,"state":"MD","affect":7,"effect":1},"type":"Feature","geometry":{"type":"Point","coordinates":[-76.68911,39.291918]}},{"properties":{"name":"Northwestern High","latitude":39.364837,"zip":"21215","column_12":null,"principal: last name":"Hartling","area":"S","phone":"410-396-0646","longitude":-76.702898,"principal: first name":"Jason","grades taught":"9 - 12.","id":"a7v846tl0e6w","address":"6900 Park Heights Avenue","school number":401,"state":"MD","affect":2,"effect":5},"type":"Feature","geometry":{"type":"Point","coordinates":[-76.702898,39.364837]}},{"properties":{"name":"Baltimore Polytechnic Institute","latitude":39.345068,"zip":"21209","column_12":null,"principal: last name":"Wilson","area":"S","phone":"410-396-7026","longitude":-76.642961,"principal: first name":"Barney","grades taught":"9 - 12.","id":"a7v8473rs7ln","address":"1400 W Cold Spring Lane","school number":403,"state":"MD","affect":3,"effect":4},"type":"Feature","geometry":{"type":"Point","coordinates":[-76.642961,39.345068]}},{"properties":{"name":"Patterson High","latitude":39.29493,"zip":"21224","column_12":null,"principal: last name":"D'Anna","area":"S","phone":"410-396-9276","longitude":-76.533644,"principal: first name":"Laura","grades taught":"9 - 12.","id":"a7v846zp9kgv","address":"100 Kane Street","school number":405,"state":"MD","affect":1,"effect":3},"type":"Feature","geometry":{"type":"Point","coordinates":[-76.533644,39.29493]}},{"properties":{"name":"Forest Park High","latitude":39.331763,"zip":"21207","column_12":null,"principal: last name":"Hill","area":"S","phone":"410-396-0753","longitude":-76.690335,"principal: first name":"Thomas","grades taught":"9 - 12.","id":"a7v846omx4fk","address":"3701 Eldorado Avenue","school number":406,"state":"MD","affect":5,"effect":4},"type":"Feature","geometry":{"type":"Point","coordinates":[-76.690335,39.331763]}},{"properties":{"name":"Western High","latitude":39.346122,"zip":"21209","column_12":null,"principal: last name":"Matthews","area":"S","phone":"410-396-7040","longitude":-76.641326,"principal: first name":"Eleanor","grades taught":"9 - 12.","id":"a7v846uwxv3u","address":"4600 Falls Road","school number":407,"state":"MD","affect":6,"effect":5},"type":"Feature","geometry":{"type":"Point","coordinates":[-76.641326,39.346122]}},{"properties":{"name":"Mergenthaler Vocational-Technical High","latitude":39.331143,"zip":"21218","column_12":null,"principal: last name":"Rivers","area":"S","phone":"410-396-6496","longitude":-76.589268,"principal: first name":"Craig","grades taught":"9 - 12.","id":"a7v846t1aa5t","address":"3500 Hillen Road","school number":410,"state":"MD","affect":4,"effect":5},"type":"Feature","geometry":{"type":"Point","coordinates":[-76.589268,39.331143]}},{"properties":{"name":"Achievement Academy @ Harbor City High","latitude":39.318733,"zip":"21218","column_12":null,"principal: last name":"Gross","area":"S","phone":"410-396-6241","longitude":-76.592952,"principal: first name":"Tajah","grades taught":"9 - 12.","id":"a7v847490n07","address":"2555 Harford Road","school number":413,"state":"MD","affect":7,"effect":4},"type":"Feature","geometry":{"type":"Point","coordinates":[-76.592952,39.318733]}},{"properties":{"name":"Paul Laurence Dunbar High","latitude":39.295177,"zip":"21231","column_12":null,"principal: last name":"Colbert","area":"S","phone":"443-642-4478","longitude":-76.598592,"principal: first name":"Stephen","grades taught":"9 - 12.","id":"a7v8473bk6n0","address":"1400 Orleans St","school number":414,"state":"MD","affect":7,"effect":3},"type":"Feature","geometry":{"type":"Point","coordinates":[-76.598592,39.295177]}},{"properties":{"name":"Baltimore School For The Arts High","latitude":39.298256,"zip":"21201","column_12":null,"principal: last name":"Shepard","area":"S","phone":"443-642-5165","longitude":-76.617088,"principal: first name":"Leslie","grades taught":"9 - 12.","id":"a7v846q5nonm","address":"712 Cathedral Street","school number":415,"state":"MD","affect":2,"effect":1},"type":"Feature","geometry":{"type":"Point","coordinates":[-76.617088,39.298256]}},{"properties":{"name":"Digital Harbor High School","latitude":39.277247,"zip":"21230","column_12":null,"principal: last name":"Eyer","area":"S","phone":"443-984-1256","longitude":-76.607172,"principal: first name":"Brian","grades taught":"9 - 12.","id":"a7v846r3tw0b","address":"1100 Covington St","school number":416,"state":"MD","affect":3,"effect":2},"type":"Feature","geometry":{"type":"Point","coordinates":[-76.607172,39.277247]}},{"properties":{"name":"W.E.B. DuBois High","latitude":39.366223,"zip":"21214","column_12":null,"principal: last name":"Berry","area":"S","phone":"410-396-6435","longitude":-76.570691,"principal: first name":"Delores","grades taught":"9 - 12.","id":"a7v846pytfo0","address":"2201 Pinewood Avenue","school number":418,"state":"MD","affect":1,"effect":6},"type":"Feature","geometry":{"type":"Point","coordinates":[-76.570691,39.366223]}},{"properties":{"name":"Reginald F. Lewis High School","latitude":39.364763,"zip":"21214","column_12":null,"principal: last name":"Hall","area":"S","phone":"410-545-1746","longitude":-76.572169,"principal: first name":"Sylvia","grades taught":"9 - 12.","id":"a7v846zpfgwj","address":"6401 Pioneer Drive","school number":419,"state":"MD","affect":5,"effect":7},"type":"Feature","geometry":{"type":"Point","coordinates":[-76.572169,39.364763]}},{"properties":{"name":"Garrison Middle","latitude":39.331554,"zip":"21207","column_12":null,"principal: last name":"Hill","area":"S","phone":"410-396-0735","longitude":-76.683007,"principal: first name":"Sylvia","grades taught":"6 - 8.","id":"a7v846paho1a","address":"3910 Barrington Road","school number":42,"state":"MD","affect":6,"effect":7},"type":"Feature","geometry":{"type":"Point","coordinates":[-76.683007,39.331554]}},{"properties":{"name":"National Academy Foundation High","latitude":39.29624,"zip":"21205","column_12":null,"principal: last name":"Webber-Ndour","area":"S","phone":"443-984-1594","longitude":-76.597584,"principal: first name":"Karen","grades taught":"9 - 12.","id":"a7v846oih4vg","address":"500 N Caroline St","school number":421,"state":"MD","affect":4,"effect":3},"type":"Feature","geometry":{"type":"Point","coordinates":[-76.597584,39.29624]}},{"properties":{"name":"New Era Academy High","latitude":39.253566,"zip":"21225","column_12":null,"principal: last name":"Covington","area":"S","phone":"443-984-2415","longitude":-76.620486,"principal: first name":"Paul","grades taught":"6,9 - 12.","id":"a7v847330xko","address":"2700 Seamon Avenue","school number":422,"state":"MD","affect":7,"effect":2},"type":"Feature","geometry":{"type":"Point","coordinates":[-76.620486,39.253566]}},{"properties":{"name":"Baltimore Freedom Academy Middle/High","latitude":39.290144,"zip":"21231","column_12":null,"principal: last name":"Caple","area":"S","phone":"443-642-2158","longitude":-76.596161,"principal: first name":"Pamela","grades taught":"6 - 12.","id":"a7v846pn0076","address":"1601 E Lombard Street","school number":423,"state":"MD","affect":7,"effect":1},"type":"Feature","geometry":{"type":"Point","coordinates":[-76.596161,39.290144]}},{"properties":{"name":"Heritage High School","latitude":39.316279,"zip":"21213","column_12":null,"principal: last name":"Lawrence","area":"S","phone":"410-396-6637","longitude":-76.589442,"principal: first name":"Karen","grades taught":"9 - 12.","id":"a7v846rodfs7","address":"2801 Saint Lo Drive","school number":425,"state":"MD","affect":2,"effect":5},"type":"Feature","geometry":{"type":"Point","coordinates":[-76.589442,39.316279]}},{"properties":{"name":"Doris M. Johnson High","latitude":39.316279,"zip":"21213","column_12":null,"principal: last name":"Powell","area":"S","phone":"410-396-6643","longitude":-76.589442,"principal: first name":"Sandra","grades taught":"9 - 12.","id":"a7v846ve0jie","address":"2801 Saint Lo Drive","school number":426,"state":"MD","affect":3,"effect":4},"type":"Feature","geometry":{"type":"Point","coordinates":[-76.589442,39.316279]}},{"properties":{"name":"Academy for College and Career Exploration High","latitude":39.33039,"zip":"21211","column_12":null,"principal: last name":"Mitchell","area":"S","phone":"410-396-7607","longitude":-76.637592,"principal: first name":"Ivor","grades taught":"9 - 12.","id":"a7v846vxb303","address":"1300 W 36th Street","school number":427,"state":"MD","affect":1,"effect":3},"type":"Feature","geometry":{"type":"Point","coordinates":[-76.637592,39.33039]}},{"properties":{"name":"Baltimore Talent Development High","latitude":39.296584,"zip":"21217","column_12":null,"principal: last name":"Robinson","area":"S","phone":"443-984-2744","longitude":-76.642879,"principal: first name":"Jeffrey","grades taught":"9 - 12.","id":"a7v846y4o52i","address":"1500 Harlem Avenue","school number":428,"state":"MD","affect":5,"effect":4},"type":"Feature","geometry":{"type":"Point","coordinates":[-76.642879,39.296584]}},{"properties":{"name":"Vivien T. Thomas Medical Arts Academy High","latitude":39.289824,"zip":"21223","column_12":null,"principal: last name":"Jackson","area":"S","phone":"443-984-2831","longitude":-76.639737,"principal: first name":"Starletta","grades taught":"9 - 12.","id":"a7v846vvkyvn","address":"100 N Calhoun Street","school number":429,"state":"MD","affect":6,"effect":5},"type":"Feature","geometry":{"type":"Point","coordinates":[-76.639737,39.289824]}},{"properties":{"name":"Augusta Fells Savage Institute of Visual Arts High","latitude":39.296584,"zip":"21217","column_12":null,"principal: last name":"Manning","area":"S","phone":"410-396-7701","longitude":-76.642879,"principal: first name":"Michael","grades taught":"9 - 12.","id":"a7v846v32y29","address":"1500 Harlem Avenue","school number":430,"state":"MD","affect":4,"effect":5},"type":"Feature","geometry":{"type":"Point","coordinates":[-76.642879,39.296584]}},{"properties":{"name":"Maritime Industries Academy High","latitude":39.321749,"zip":"21206","column_12":null,"principal: last name":"Savage","area":"S","phone":"410-396-0242","longitude":-76.547922,"principal: first name":"Joy","grades taught":"9 - 12.","id":"a7v846vow56z","address":"5001 Sinclair Ln","school number":431,"state":"MD","affect":7,"effect":4},"type":"Feature","geometry":{"type":"Point","coordinates":[-76.547922,39.321749]}},{"properties":{"name":"Coppin Academy High","latitude":39.309519,"zip":"21216","column_12":null,"principal: last name":"Carey","area":"S","phone":"410-951-2600","longitude":-76.657304,"principal: first name":"Ronnel","grades taught":"9 - 12.","id":"a7v84704hae4","address":"2500 W North Avenue","school number":432,"state":"MD","affect":7,"effect":3},"type":"Feature","geometry":{"type":"Point","coordinates":[-76.657304,39.309519]}},{"properties":{"name":"Renaissance Academy High","latitude":39.302712,"zip":"21217","column_12":null,"principal: last name":"Perry","area":"S","phone":"443-984-3164","longitude":-76.627817,"principal: first name":"Karl","grades taught":"9 - 12.","id":"a7v846vcgh94","address":"1301 McCulloh Street","school number":433,"state":"MD","affect":2,"effect":1},"type":"Feature","geometry":{"type":"Point","coordinates":[-76.627817,39.302712]}},{"properties":{"name":"Institute of Business and Entrepreneurship High","latitude":39.321057,"zip":"21216","column_12":null,"principal: last name":"Williams","area":"S","phone":"443-984-3330","longitude":-76.664894,"principal: first name":"Janice","grades taught":"9 - 12.","id":"a7v846xwbp3y","address":"2801 N Dukeland St","school number":435,"state":"MD","affect":3,"effect":2},"type":"Feature","geometry":{"type":"Point","coordinates":[-76.664894,39.321057]}},{"properties":{"name":"Montebello Elementary/Middle","latitude":39.327494,"zip":"21218","column_12":null,"principal: last name":"Bell","area":"E","phone":"410-235-4801","longitude":-76.586231,"principal: first name":"Camille","grades taught":"Pre-K - 8.","id":"a7v8470n85jn","address":"2040 E 32nd St","school number":44,"state":"MD","affect":1,"effect":6},"type":"Feature","geometry":{"type":"Point","coordinates":[-76.586231,39.327494]}},{"properties":{"name":"Federal Hill Prep Middle","latitude":39.277492,"zip":"21230","column_12":null,"principal: last name":"VanDyke","area":"E","phone":"410-396-1207","longitude":-76.610809,"principal: first name":"Sharon","grades taught":"Pre-K - 8.","id":"a7v846q7oenw","address":"1040 William Street","school number":45,"state":"MD","affect":5,"effect":7},"type":"Feature","geometry":{"type":"Point","coordinates":[-76.610809,39.277492]}},{"properties":{"name":"Frederick Douglass High","latitude":39.315417,"zip":"21217","column_12":null,"principal: last name":"Montgomery","area":"S","phone":"410-396-7821","longitude":-76.65481,"principal: first name":"Clark","grades taught":"9 - 12.","id":"a7v84726ez7b","address":"2301 Gwynns Falls Parkway","school number":450,"state":"MD","affect":6,"effect":7},"type":"Feature","geometry":{"type":"Point","coordinates":[-76.65481,39.315417]}},{"properties":{"name":"Carver Vocational-Technical High","latitude":39.30496,"zip":"21216","column_12":null,"principal: last name":"Sykes","area":"S","phone":"410-396-0553","longitude":-76.652566,"principal: first name":"Kirk","grades taught":"9 - 12.","id":"a7v846ylg0fp","address":"2201 W Presstman Street","school number":454,"state":"MD","affect":4,"effect":3},"type":"Feature","geometry":{"type":"Point","coordinates":[-76.652566,39.30496]}},{"properties":{"name":"Chinquapin Middle","latitude":39.354765,"zip":"21212","column_12":null,"principal: last name":"Parson","area":"S","phone":"410-396-6424","longitude":-76.60216,"principal: first name":"Andre","grades taught":"6 - 8.","id":"a7v846xsbcmo","address":"900 Woodbourne Avenue","school number":46,"state":"MD","affect":7,"effect":2},"type":"Feature","geometry":{"type":"Point","coordinates":[-76.60216,39.354765]}},{"properties":{"name":"Hampstead Hill Academy Elem/Middle","latitude":39.286158,"zip":"21224","column_12":null,"principal: last name":"Hornbeck","area":"E","phone":"410-396-9146","longitude":-76.575896,"principal: first name":"Matthew","grades taught":"Pre-K - 8.","id":"a7v846si9k3w","address":"500 S Linwood Avenue","school number":47,"state":"MD","affect":7,"effect":1},"type":"Feature","geometry":{"type":"Point","coordinates":[-76.575896,39.286158]}},{"properties":{"name":"Baltimore City College High","latitude":39.327262,"zip":"21218","column_12":null,"principal: last name":"Dawson","area":"S","phone":"410-396-6557","longitude":-76.594966,"principal: first name":"Timothy","grades taught":"9 - 12.","id":"a7v846xaz7ae","address":"3220 The Alameda","school number":480,"state":"MD","affect":2,"effect":5},"type":"Feature","geometry":{"type":"Point","coordinates":[-76.594966,39.327262]}},{"properties":{"name":"Northeast Middle","latitude":39.324607,"zip":"21206","column_12":null,"principal: last name":"Young","area":"S","phone":"410-396-9220","longitude":-76.550782,"principal: first name":"Wanda","grades taught":"6 - 8.","id":"a7v846zu83v5","address":"5001 Moravia Road","school number":49,"state":"MD","affect":3,"effect":4},"type":"Feature","geometry":{"type":"Point","coordinates":[-76.550782,39.324607]}},{"properties":{"name":"Langston Hughes Elementary","latitude":39.342603,"zip":"21215","column_12":null,"principal: last name":"Pulley","area":"E","phone":"410-396-7827","longitude":-76.68044,"principal: first name":"Gloria","grades taught":"Pre-K - 5.","id":"a7v846w1ufg4","address":"5011 Arbutus Avenue","school number":5,"state":"MD","affect":1,"effect":3},"type":"Feature","geometry":{"type":"Point","coordinates":[-76.68044,39.342603]}},{"properties":{"name":"Abbottston Elementary","latitude":39.324788,"zip":"21218","column_12":null,"principal: last name":"Lewis Faltz","area":"E","phone":"443-984-2685","longitude":-76.600082,"principal: first name":"Angela","grades taught":"Pre-K - 5.","id":"a7v846swa10c","address":"1300 Gorsuch Avenue","school number":50,"state":"MD","affect":5,"effect":4},"type":"Feature","geometry":{"type":"Point","coordinates":[-76.600082,39.324788]}},{"properties":{"name":"Waverly Elem/Middle","latitude":39.329927,"zip":"21218","column_12":null,"principal: last name":"Ferris","area":"E","phone":"410-396-6394","longitude":-76.60365,"principal: first name":"Michelle","grades taught":"Pre-K - 8.","id":"a7v8473qimqm","address":"3400 Ellerslie Avenue","school number":51,"state":"MD","affect":6,"effect":5},"type":"Feature","geometry":{"type":"Point","coordinates":[-76.60365,39.329927]}},{"properties":{"name":"Margaret Brent Elem/Middle","latitude":39.319538,"zip":"21218","column_12":null,"principal: last name":"Waters Scofield","area":"E","phone":"410-396-6509","longitude":-76.61592,"principal: first name":"Jacqueline","grades taught":"Pre-K - 8.","id":"a7v846ys6o9a","address":"100 E 26Th Street","school number":53,"state":"MD","affect":4,"effect":5},"type":"Feature","geometry":{"type":"Point","coordinates":[-76.61592,39.319538]}},{"properties":{"name":"Barclay Elementary/Middle","latitude":39.323581,"zip":"21218","column_12":null,"principal: last name":"Heinbaugh","area":"E","phone":"410-396-6387","longitude":-76.61125,"principal: first name":"Jenny","grades taught":"Pre-K - 8.","id":"a7v846s6u0vh","address":"2900 Barclay Street","school number":54,"state":"MD","affect":7,"effect":4},"type":"Feature","geometry":{"type":"Point","coordinates":[-76.61125,39.323581]}},{"properties":{"name":"Hampden Elem/Middle","latitude":39.331774,"zip":"21211","column_12":null,"principal: last name":"Thomas","area":"E","phone":"410-396-6004","longitude":-76.629563,"principal: first name":"Judith","grades taught":"Pre-K - 8.","id":"a7v846ysst26","address":"3608 Chestnut Avenue","school number":55,"state":"MD","affect":7,"effect":3},"type":"Feature","geometry":{"type":"Point","coordinates":[-76.629563,39.331774]}},{"properties":{"name":"Dr. Nathan A. Pitts-Ashburton Elementary/Middle","latitude":39.330012,"zip":"21215","column_12":null,"principal: last name":"Lee","area":"E","phone":"410-396-0636","longitude":-76.668359,"principal: first name":"Otis","grades taught":"Pre-K - 8.","id":"a7v8471ukg0f","address":"3935 Hilton Rd","school number":58,"state":"MD","affect":2,"effect":1},"type":"Feature","geometry":{"type":"Point","coordinates":[-76.668359,39.330012]}},{"properties":{"name":"Gwynns Falls Elementary","latitude":39.314956,"zip":"21216","column_12":null,"principal: last name":"Johnson","area":"E","phone":"410-396-0638","longitude":-76.661934,"principal: first name":"Hartavia","grades taught":"Pre-K - 5.","id":"a7v846w12lt8","address":"2700 Gwynns Falls Parkway","school number":60,"state":"MD","affect":3,"effect":2},"type":"Feature","geometry":{"type":"Point","coordinates":[-76.661934,39.314956]}},{"properties":{"name":"John Eager Howard Elementary","latitude":39.31111,"zip":"21217","column_12":null,"principal: last name":"Jefferson","area":"E","phone":"410-396-0837","longitude":-76.632712,"principal: first name":"Erma","grades taught":"Pre-K - 5.","id":"a7v846z3kat7","address":"2011 Linden Avenue","school number":61,"state":"MD","affect":1,"effect":6},"type":"Feature","geometry":{"type":"Point","coordinates":[-76.632712,39.31111]}},{"properties":{"name":"Edgecombe Circle Elem/Middle","latitude":39.344931,"zip":"21215","column_12":null,"principal: last name":"Miller","area":"E","phone":"410-396-0550","longitude":-76.66333,"principal: first name":"Herbert","grades taught":"Pre-K - 8.","id":"a7v846rwppon","address":"2835 Virginia Avenue","school number":62,"state":"MD","affect":5,"effect":7},"type":"Feature","geometry":{"type":"Point","coordinates":[-76.66333,39.344931]}},{"properties":{"name":"Rosemont Elem/Middle","latitude":39.3046,"zip":"21216","column_12":null,"principal: last name":"Wheeler","area":"E","phone":"410-396-0574","longitude":-76.663649,"principal: first name":"Dwayne","grades taught":"Pre-K - 8.","id":"a7v846u0pr7w","address":"2777 Prestman Street","school number":63,"state":"MD","affect":6,"effect":7},"type":"Feature","geometry":{"type":"Point","coordinates":[-76.663649,39.3046]}},{"properties":{"name":"Liberty Elementary","latitude":39.326086,"zip":"21207","column_12":null,"principal: last name":"Woolford","area":"E","phone":"410-396-0571","longitude":-76.683073,"principal: first name":"Beverly","grades taught":"Pre-K - 5.","id":"a7v8471bcw07","address":"3901 Maine Avenue","school number":64,"state":"MD","affect":4,"effect":3},"type":"Feature","geometry":{"type":"Point","coordinates":[-76.683073,39.326086]}},{"properties":{"name":"Mount Royal Elementary/Middle","latitude":39.309008,"zip":"21217","column_12":null,"principal: last name":"Freeland","area":"E","phone":"410-396-0864","longitude":-76.624933,"principal: first name":"Carolyn","grades taught":"K - 8.","id":"a7v846x3hs4m","address":"121 McMechen Street","school number":66,"state":"MD","affect":7,"effect":2},"type":"Feature","geometry":{"type":"Point","coordinates":[-76.624933,39.309008]}},{"properties":{"name":"Edgewood Elementary","latitude":39.308956,"zip":"21216","column_12":null,"principal: last name":"Sollers","area":"E","phone":"410-396-0532","longitude":-76.676017,"principal: first name":"Kimberly","grades taught":"Pre-K - 5.","id":"a7v846s9psfr","address":"1900 Edgewood Street","school number":67,"state":"MD","affect":7,"effect":1},"type":"Feature","geometry":{"type":"Point","coordinates":[-76.676017,39.308956]}},{"properties":{"name":"Cecil Elementary","latitude":39.312833,"zip":"21218","column_12":null,"principal: last name":"Forr","area":"E","phone":"410-396-6385","longitude":-76.605359,"principal: first name":"Roxanne","grades taught":"Pre-K - 5.","id":"a7v846v5k2l7","address":"2000 Cecil Avenue","school number":7,"state":"MD","affect":2,"effect":5},"type":"Feature","geometry":{"type":"Point","coordinates":[-76.605359,39.312833]}},{"properties":{"name":"Sarah M. Roach Elementary","latitude":39.282406,"zip":"21229","column_12":null,"principal: last name":"Plummer","area":"E","phone":"410-396-0511","longitude":-76.674391,"principal: first name":"Renata","grades taught":"Pre-K - 5.","id":"a7v846p61iu8","address":"3434 Old Frederick Road","school number":73,"state":"MD","affect":3,"effect":4},"type":"Feature","geometry":{"type":"Point","coordinates":[-76.674391,39.282406]}},{"properties":{"name":"Middle Alternative Program @ Lombard","latitude":39.28913,"zip":"21207","column_12":null,"principal: last name":"Shishmanian","area":"S","phone":"410-396-1720","longitude":-76.594633,"principal: first name":"Ara","grades taught":"6 - 8.","id":"a7v846r5yksz","address":"1601 E Pratt Street","school number":734,"state":"MD","affect":1,"effect":3},"type":"Feature","geometry":{"type":"Point","coordinates":[-76.594633,39.28913]}},{"properties":{"name":"Calverton Elementary/Middle","latitude":39.300613,"zip":"21216","column_12":null,"principal: last name":"Green","area":"E","phone":"410-396-0581","longitude":-76.658301,"principal: first name":"Tanya","grades taught":"Pre-K - 8.","id":"a7v846nzhjdl","address":"1100 Whitmore Avenue","school number":75,"state":"MD","affect":5,"effect":4},"type":"Feature","geometry":{"type":"Point","coordinates":[-76.658301,39.300613]}},{"properties":{"name":"Francis Scott Key Elementary/Middle","latitude":39.26913,"zip":"21230","column_12":null,"principal: last name":"Booker","area":"E","phone":"410-396-1503","longitude":-76.594326,"principal: first name":"Mary","grades taught":"Pre-K - 8.","id":"a7v846xj2p0u","address":"1425 E Fort Avenue","school number":76,"state":"MD","affect":6,"effect":5},"type":"Feature","geometry":{"type":"Point","coordinates":[-76.594326,39.26913]}},{"properties":{"name":"City Springs Elem/Middle","latitude":39.290118,"zip":"21231","column_12":null,"principal: last name":"Richetta","area":"E","phone":"410-396-9165","longitude":-76.597211,"principal: first name":"Rhonda","grades taught":"Pre-K - 8.","id":"a7v8473c5obu","address":"100 S Caroline Street","school number":8,"state":"MD","affect":4,"effect":5},"type":"Feature","geometry":{"type":"Point","coordinates":[-76.597211,39.290118]}},{"properties":{"name":"West Baltimore Middle","latitude":39.282743,"zip":"21229","column_12":null,"principal: last name":"Chong Qui","area":"S","phone":"410-396-0700","longitude":-76.70566,"principal: first name":"Eugene","grades taught":"6 - 8.","id":"a7v846uzd1zc","address":"201 North Bend Road","school number":80,"state":"MD","affect":7,"effect":4},"type":"Feature","geometry":{"type":"Point","coordinates":[-76.70566,39.282743]}},{"properties":{"name":"North Bend Elementary/Middle","latitude":39.28221,"zip":"21229","column_12":null,"principal: last name":"Burrell","area":"E","phone":"410-396-0376","longitude":-76.705454,"principal: first name":"Patricia","grades taught":"Pre-K - 8.","id":"a7v846qv5ewk","address":"181 North Bend Road","school number":81,"state":"MD","affect":7,"effect":3},"type":"Feature","geometry":{"type":"Point","coordinates":[-76.705454,39.28221]}},{"properties":{"name":"William Paca Elementary","latitude":39.294782,"zip":"21224","column_12":null,"principal: last name":"Place","area":"E","phone":"410-396-9148","longitude":-76.579316,"principal: first name":"Stacey","grades taught":"Pre-K - 5.","id":"a7v846rz2at2","address":"200 N Lakewood Ave","school number":83,"state":"MD","affect":2,"effect":1},"type":"Feature","geometry":{"type":"Point","coordinates":[-76.579316,39.294782]}},{"properties":{"name":"Thomas Johnson Elem/Middle","latitude":39.27067,"zip":"21230","column_12":null,"principal: last name":"Dendinger","area":"E","phone":"410-396-1575","longitude":-76.611466,"principal: first name":"James","grades taught":"Pre-K - 8.","id":"a7v8474d88bp","address":"100 E Heath Street","school number":84,"state":"MD","affect":3,"effect":2},"type":"Feature","geometry":{"type":"Point","coordinates":[-76.611466,39.27067]}},{"properties":{"name":"Fort Worthington Elementary","latitude":39.307958,"zip":"21213","column_12":null,"principal: last name":"Todd","area":"E","phone":"410-396-9161","longitude":-76.579874,"principal: first name":"Shaylin","grades taught":"1 - 5.","id":"a7v846t4j0c3","address":"2701 E Oliver Street","school number":85,"state":"MD","affect":1,"effect":6},"type":"Feature","geometry":{"type":"Point","coordinates":[-76.579874,39.307958]}},{"properties":{"name":"Career Academy","latitude":39.316213,"zip":"21218","column_12":null,"principal: last name":"Herrington","area":"S","phone":"410-396-7454","longitude":-76.618349,"principal: first name":"Gus","grades taught":"11 - 12.","id":"a7v846x7dt1t","address":"101 W 24th St","school number":854,"state":"MD","affect":5,"effect":7},"type":"Feature","geometry":{"type":"Point","coordinates":[-76.618349,39.316213]}},{"properties":{"name":"Success Academy Program","latitude":39.311311,"zip":"21202","column_12":null,"principal: last name":"Brooks","area":"S","phone":"443-642-2101","longitude":-76.61373,"principal: first name":"Kevin","grades taught":"6 - 7.","id":"a7v846zbhwm2","address":"200 E North Ave","school number":855,"state":"MD","affect":6,"effect":7},"type":"Feature","geometry":{"type":"Point","coordinates":[-76.61373,39.311311]}},{"properties":{"name":"Baltimore City Community College","latitude":39.287961,"zip":"21202","column_12":null,"principal: last name":"McFarlene","area":"S","phone":"410-986-5449","longitude":-76.60591,"principal: first name":"Anthony","grades taught":"9 - 12.","id":"a7v846pco73o","address":"710 E Lombard St","school number":856,"state":"MD","affect":4,"effect":3},"type":"Feature","geometry":{"type":"Point","coordinates":[-76.60591,39.287961]}},{"properties":{"name":"Learning Inc.","latitude":39.330764,"zip":"21211","column_12":null,"principal: last name":"Friedman","area":"S","phone":"410-662-8049","longitude":-76.636157,"principal: first name":"Judith","grades taught":"9 - 12.","id":"a7v846oogatf","address":"1234 W 36th St","school number":857,"state":"MD","affect":7,"effect":2},"type":"Feature","geometry":{"type":"Point","coordinates":[-76.636157,39.330764]}},{"properties":{"name":"Youth Opportunity","latitude":39.298955,"zip":"21217","column_12":null,"principal: last name":"Alexander","area":"S","phone":"410-962-1905","longitude":-76.642316,"principal: first name":"Rhonda","grades taught":"9 - 12.","id":"a7v846zha0fe","address":"1510 W Lafayette Ave","school number":858,"state":"MD","affect":7,"effect":1},"type":"Feature","geometry":{"type":"Point","coordinates":[-76.642316,39.298955]}},{"properties":{"name":"Alternative Elementary School","latitude":39.319304,"zip":"21216","column_12":null,"principal: last name":"Goodwin","area":"S","phone":"443-642-3536","longitude":-76.673142,"principal: first name":"Sonya","grades taught":"6 - 8.","id":"a7v846orgori","address":"3301 Carlisle Ave","school number":859,"state":"MD","affect":2,"effect":5},"type":"Feature","geometry":{"type":"Point","coordinates":[-76.673142,39.319304]}},{"properties":{"name":"Lakewood Elementary","latitude":39.308877,"zip":"21213","column_12":null,"principal: last name":"Harris","area":"E","phone":"410-396-9158","longitude":-76.581079,"principal: first name":"Iris","grades taught":"Pre-K - K.","id":"a7v846ztle49","address":"2625 Federal Street","school number":86,"state":"MD","affect":3,"effect":4},"type":"Feature","geometry":{"type":"Point","coordinates":[-76.581079,39.308877]}},{"properties":{"name":"Middle Alternative Program @ Lemmel","latitude":39.330581,"zip":"21207","column_12":null,"principal: last name":"TBD","area":"S","phone":"410-361-9445","longitude":-76.699224,"principal: first name":"TBD","grades taught":"6 - 8.","id":"a7v846qtmosm","address":"5000 Gwynn Oak Ave","school number":860,"state":"MD","affect":1,"effect":3},"type":"Feature","geometry":{"type":"Point","coordinates":[-76.699224,39.330581]}},{"properties":{"name":"Windsor Hills Elem/Middle","latitude":39.31687,"zip":"21216","column_12":null,"principal: last name":"Holmes","area":"E","phone":"410-396-0595","longitude":-76.682814,"principal: first name":"Carmen","grades taught":"Pre-K - 8.","id":"a7v846ut6l48","address":"4001 Alto Road","school number":87,"state":"MD","affect":5,"effect":4},"type":"Feature","geometry":{"type":"Point","coordinates":[-76.682814,39.31687]}},{"properties":{"name":"Lyndhurst Elementary","latitude":39.294259,"zip":"21229","column_12":null,"principal: last name":"Wilson","area":"E","phone":"410-396-0503","longitude":-76.683708,"principal: first name":"Tanya","grades taught":"Pre-K - 5.","id":"a7v8473l3qgg","address":"621 Wildwood Parkway","school number":88,"state":"MD","affect":6,"effect":5},"type":"Feature","geometry":{"type":"Point","coordinates":[-76.683708,39.294259]}},{"properties":{"name":"Rognel Heights Elementary/Middle","latitude":39.298256,"zip":"21229","column_12":null,"principal: last name":"Hill","area":"E","phone":"410-396-0528","longitude":-76.691642,"principal: first name":"Ivy","grades taught":"Pre-K - 8.","id":"a7v846onyhsg","address":"4300 Sidehill Road","school number":89,"state":"MD","affect":4,"effect":5},"type":"Feature","geometry":{"type":"Point","coordinates":[-76.691642,39.298256]}},{"properties":{"name":"Franklin Square Elem/Middle","latitude":39.29089,"zip":"21223","column_12":null,"principal: last name":"Patton","area":"E","phone":"410-396-0795","longitude":-76.639828,"principal: first name":"Terry","grades taught":"Pre-K - 8.","id":"a7v846ph4cug","address":"1400 W Lexington Street","school number":95,"state":"MD","affect":7,"effect":4},"type":"Feature","geometry":{"type":"Point","coordinates":[-76.639828,39.29089]}},{"properties":{"name":"Collington Square Elem/Middle","latitude":39.307125,"zip":"21213","column_12":null,"principal: last name":"Chapman","area":"E","phone":"410-396-9198","longitude":-76.587041,"principal: first name":"D Andrea","grades taught":"Pre-K - 8.","id":"a7v846z3ur5y","address":"1409 N Collington Ave","school number":97,"state":"MD","affect":7,"effect":3},"type":"Feature","geometry":{"type":"Point","coordinates":[-76.587041,39.307125]}},{"properties":{"name":"Samuel F. B. Morse Elementary","latitude":39.282139,"zip":"21223","column_12":null,"principal: last name":"Cheatham","area":"E","phone":"410-396-1355","longitude":-76.649848,"principal: first name":"Michael","grades taught":"Pre-K - 5.","id":"a7v846qecdvo","address":"424 S Pulaski Street","school number":98,"state":"MD","affect":2,"effect":1},"type":"Feature","geometry":{"type":"Point","coordinates":[-76.649848,39.282139]}}],"is_temporal":false,"author":{"url":"","metadata":"","contact_name":"","contact_address":"","source":"","contact_phone":""},"source":"","pagination":{"sort":null,"start":0,"total":103,"limit":1000000},"state":"complete","tags":"","published":"2014-08-15T01:21:35-04:00","id":267750}