{"type":"FeatureCollection","data_type":"Data Feed","url_type":"csv","permissions":[{"permissions":{"download":true,"edit":true,"view":true},"group_id":51244},{"permissions":{"download":true,"view":true},"group_id":"everyone"}],"classification":null,"title":"Baltimore Layer 7","count":99,"stream_id":267723,"contributor":{"url":"http://geocommons.com/users/50248","name":"baltimoresigns"},"data_attributes":null,"calculation_params":null,"icon_link":null,"link":"http://geocommons.com/overlays/267723.json","extent":[-76.7048,39.226,-76.5347,39.3677],"geometry_types":["point"],"unique_name":null,"name":"Baltimore Layer 7","feature_count":99,"description":"","next_feature":null,"is_raster":false,"short_classification":"Y","stats":{"latitude":{"max":39.367664,"variance":0.00120691991623831,"mean":39.3084400808081,"stdev":0.0347407529601521,"min":39.225997,"median":39.305481},"longitude":{"max":-76.534738,"variance":0.00209710998909088,"mean":-76.6203616363636,"stdev":0.0457942134891613,"min":-76.704778,"median":-76.623931},"effect":{"max":7,"variance":3.71057513914657,"mean":4.39393939393939,"stdev":1.92628532132355,"min":1,"median":4},"affect":{"max":7,"variance":4.09090909090909,"mean":3.96969696969697,"stdev":2.02259958738973,"min":1,"median":4},"school number":{"max":330,"variance":8613.49907235622,"mean":196.030303030303,"stdev":92.8089385369546,"min":10,"median":219}},"features":[{"properties":{"name":"James McHenry Elementary","latitude":39.287517,"zip":"21223","principal: last name":"Dixon","area":"E","phone":"410-396-1621","longitude":-76.63353,"principal: first name":"Judith","grades taught":"Pre-K - 5.","id":"a7v78h19x8hv","address":"31 S Schroeder Street","school number":10,"state":"MD","affect":1,"effect":5},"type":"Feature","geometry":{"type":"Point","coordinates":[-76.63353,39.287517]}},{"properties":{"name":"Moravia Park Elementary/Middle","latitude":39.318064,"zip":"21206","principal: last name":"Sawyer","area":"E","phone":"410-396-9096","longitude":-76.540102,"principal: first name":"Barbara","grades taught":"Pre-K - 8.","id":"a7v78gweclyh","address":"6201 Frankford Avenue","school number":105,"state":"MD","affect":2,"effect":4},"type":"Feature","geometry":{"type":"Point","coordinates":[-76.540102,39.318064]}},{"properties":{"name":"Gilmor Elementary","latitude":39.303413,"zip":"21217","principal: last name":"Hernandez","area":"E","phone":"410-396-0820","longitude":-76.643131,"principal: first name":"Ledonnis","grades taught":"Pre-K - 5.","id":"a7v78grk9ciz","address":"1311 N Gilmor Street","school number":107,"state":"MD","affect":3,"effect":6},"type":"Feature","geometry":{"type":"Point","coordinates":[-76.643131,39.303413]}},{"properties":{"name":"Eutaw-Marshburn Elementary","latitude":39.306381,"zip":"21217","principal: last name":"Jackson","area":"E","phone":"410-396-0779","longitude":-76.629567,"principal: first name":"Marilyn","grades taught":"Pre-K - 5.","id":"a7v78gn4upnd","address":"1624 Eutaw Place","school number":11,"state":"MD","affect":4,"effect":3},"type":"Feature","geometry":{"type":"Point","coordinates":[-76.629567,39.306381]}},{"properties":{"name":"Lakeland Elementary/Middle","latitude":39.254065,"zip":"21230","principal: last name":"Ferris","area":"E","phone":"410-396-1406","longitude":-76.645141,"principal: first name":"Jacqueline","grades taught":"Pre-K - 8.","id":"a7v78gpp3qdp","address":"2921 Stranden Road","school number":12,"state":"MD","affect":5,"effect":1},"type":"Feature","geometry":{"type":"Point","coordinates":[-76.645141,39.254065]}},{"properties":{"name":"Samuel Coleridge-Taylor Elementary","latitude":39.299287,"zip":"21201","principal: last name":"Graves","area":"E","phone":"410-396-0783","longitude":-76.625756,"principal: first name":"Sandra","grades taught":"Pre-K - 5.","id":"a7v78h0zwsmh","address":"507 W Preston Street","school number":122,"state":"MD","affect":6,"effect":2},"type":"Feature","geometry":{"type":"Point","coordinates":[-76.625756,39.299287]}},{"properties":{"name":"Bay-Brook Elem/Middle","latitude":39.227246,"zip":"21225","principal: last name":"Custis","area":"E","phone":"410-396-1357","longitude":-76.599244,"principal: first name":"Ann","grades taught":"Pre-K - 8.","id":"a7v78gyav8x6","address":"4301 Tenth Street","school number":124,"state":"MD","affect":7,"effect":7},"type":"Feature","geometry":{"type":"Point","coordinates":[-76.599244,39.227246]}},{"properties":{"name":"Furman L. Templeton Elementary","latitude":39.299575,"zip":"21217","principal: last name":"Cherry","area":"E","phone":"410-396-0882","longitude":-76.629988,"principal: first name":"Kenneth","grades taught":"Pre-K - 5.","id":"a7v78gyfk223","address":"1200 N Pennsylvania Ave","school number":125,"state":"MD","affect":1,"effect":7},"type":"Feature","geometry":{"type":"Point","coordinates":[-76.629988,39.299575]}},{"properties":{"name":"Tench Tilghman Elem/Middle","latitude":39.297734,"zip":"21205","principal: last name":"Yon","area":"E","phone":"410-396-9247","longitude":-76.585179,"principal: first name":"Jael","grades taught":"Pre-K - 8.","id":"a7v78gvo693m","address":"600 N Patterson Park Avenue","school number":13,"state":"MD","affect":2,"effect":4},"type":"Feature","geometry":{"type":"Point","coordinates":[-76.585179,39.297734]}},{"properties":{"name":"Booker T. Washington Middle","latitude":39.302712,"zip":"21217","principal: last name":"Edwards","area":"S","phone":"410-396-7734","longitude":-76.627817,"principal: first name":"Cassandra","grades taught":"6 - 8.","id":"a7v78gr5s3vq","address":"1301 McCulloh Street","school number":130,"state":"MD","affect":3,"effect":5},"type":"Feature","geometry":{"type":"Point","coordinates":[-76.627817,39.302712]}},{"properties":{"name":"Paul Laurence Dunbar Middle","latitude":39.29624,"zip":"21205","principal: last name":"TBD","area":"S","phone":"410-396-9296","longitude":-76.597584,"principal: first name":"TBD","grades taught":"6 - 8.","id":"a7v78gsmffi2","address":"500 N Caroline Street","school number":133,"state":"MD","affect":4,"effect":5},"type":"Feature","geometry":{"type":"Point","coordinates":[-76.597584,39.29624]}},{"properties":{"name":"Walter P. Carter Elem/Middle","latitude":39.342497,"zip":"21212","principal: last name":"Barton","area":"E","phone":"410-396-6271","longitude":-76.604524,"principal: first name":"Deborah","grades taught":"Pre-K - 8.","id":"a7v78gr616rx","address":"820 E 43rd Street","school number":134,"state":"MD","affect":5,"effect":4},"type":"Feature","geometry":{"type":"Point","coordinates":[-76.604524,39.342497]}},{"properties":{"name":"Robert W. Coleman Elementary","latitude":39.312341,"zip":"21216","principal: last name":"Allen","area":"E","phone":"410-396-0764","longitude":-76.655897,"principal: first name":"Brenda","grades taught":"Pre-K - 5.","id":"a7v78grup9wv","address":"2400 Windsor Avenue","school number":142,"state":"MD","affect":6,"effect":6},"type":"Feature","geometry":{"type":"Point","coordinates":[-76.655897,39.312341]}},{"properties":{"name":"James Mosher Elementary","latitude":39.299646,"zip":"21216","principal: last name":"Spears","area":"E","phone":"410-396-0506","longitude":-76.655221,"principal: first name":"Cascelia","grades taught":"Pre-K - 5.","id":"a7v78h1pqktb","address":"2400 W Mosher Street","school number":144,"state":"MD","affect":7,"effect":3},"type":"Feature","geometry":{"type":"Point","coordinates":[-76.655221,39.299646]}},{"properties":{"name":"Alexander Hamilton Elementary","latitude":39.297234,"zip":"21216","principal: last name":"Jackson","area":"E","phone":"410-396-0520","longitude":-76.665148,"principal: first name":"Charlotte","grades taught":"Pre-K - 5.","id":"a7v78gu7hb6w","address":"800 Poplar Grove Street","school number":145,"state":"MD","affect":1,"effect":1},"type":"Feature","geometry":{"type":"Point","coordinates":[-76.665148,39.297234]}},{"properties":{"name":"Stadium School Middle","latitude":39.324788,"zip":"21218","principal: last name":"Shelley","area":"S","phone":"443-984-2682","longitude":-76.600082,"principal: first name":"Ron","grades taught":"6 - 8.","id":"a7v78gy2tlme","address":"1300 Gorsuch Avenue","school number":15,"state":"MD","affect":2,"effect":2},"type":"Feature","geometry":{"type":"Point","coordinates":[-76.600082,39.324788]}},{"properties":{"name":"Mary Ann Winterling Elementary","latitude":39.29085,"zip":"21223","principal: last name":"Carter","area":"E","phone":"410-396-1385","longitude":-76.653184,"principal: first name":"Nikia","grades taught":"Pre-K - 5.","id":"a7v78gw69xoz","address":"220 N Bentalou Street","school number":150,"state":"MD","affect":3,"effect":7},"type":"Feature","geometry":{"type":"Point","coordinates":[-76.653184,39.29085]}},{"properties":{"name":"Cherry Hill Elementary/Middle","latitude":39.24825,"zip":"21225","principal: last name":"Stewart","area":"E","phone":"410-396-1392","longitude":-76.623931,"principal: first name":"Tifini","grades taught":"Pre-K - 8.","id":"a7v78gyh0pxg","address":"801 Bridgeview Road","school number":159,"state":"MD","affect":4,"effect":7},"type":"Feature","geometry":{"type":"Point","coordinates":[-76.623931,39.24825]}},{"properties":{"name":"Johnston Square Elem/Middle","latitude":39.302938,"zip":"21202","principal: last name":"Lyde","area":"E","phone":"410-396-1477","longitude":-76.604864,"principal: first name":"Laura","grades taught":"Pre-K - 5.","id":"a7v78gzf6115","address":"1101 Valley Street","school number":16,"state":"MD","affect":5,"effect":4},"type":"Feature","geometry":{"type":"Point","coordinates":[-76.604864,39.302938]}},{"properties":{"name":"Dr. Carter Godwin Woodson Elem/Middle","latitude":39.251956,"zip":"21225","principal: last name":"Harris","area":"E","phone":"410-396-1366","longitude":-76.622883,"principal: first name":"Patrick","grades taught":"Pre-K - 8.","id":"a7v78gyo9f3v","address":"2501 Seabury Road","school number":160,"state":"MD","affect":6,"effect":5},"type":"Feature","geometry":{"type":"Point","coordinates":[-76.622883,39.251956]}},{"properties":{"name":"Diggs-Johnson Middle","latitude":39.282115,"zip":"21223","principal: last name":"Wallace","area":"S","phone":"410-396-1572","longitude":-76.637585,"principal: first name":"Esther","grades taught":"6 - 8.","id":"a7v78gm24duj","address":"1300 Herkimer Street","school number":162,"state":"MD","affect":7,"effect":5},"type":"Feature","geometry":{"type":"Point","coordinates":[-76.637585,39.282115]}},{"properties":{"name":"Patapsco Elementary/Middle","latitude":39.246585,"zip":"21225","principal: last name":"Darden","area":"E","phone":"410-396-1400","longitude":-76.622723,"principal: first name":"Marvin","grades taught":"Pre-K - 8.","id":"a7v78gwk8slr","address":"844 Roundview Road","school number":163,"state":"MD","affect":1,"effect":4},"type":"Feature","geometry":{"type":"Point","coordinates":[-76.622723,39.246585]}},{"properties":{"name":"Arundel Elementary/Middle","latitude":39.252497,"zip":"21225","principal: last name":"Carpenter","area":"E","phone":"410-396-1379","longitude":-76.627169,"principal: first name":"Matthew","grades taught":"Pre-K - 8.","id":"a7v78gsgd2q6","address":"2400 Round Road","school number":164,"state":"MD","affect":2,"effect":6},"type":"Feature","geometry":{"type":"Point","coordinates":[-76.627169,39.252497]}},{"properties":{"name":"George W. F. McMechen Middle/High","latitude":39.337114,"zip":"21215","principal: last name":"Mc Clain Brooks","area":"S","phone":"410-396-0980","longitude":-76.68457,"principal: first name":"Gwendolyn","grades taught":"9 - 12.","id":"a7v78grtm3tb","address":"4411 Garrison Boulevard","school number":177,"state":"MD","affect":3,"effect":3},"type":"Feature","geometry":{"type":"Point","coordinates":[-76.68457,39.337114]}},{"properties":{"name":"Excel Academy @ Francis M. Wood High","latitude":39.292341,"zip":"21223","principal: last name":"Seaton","area":"S","phone":"410-396-1290","longitude":-76.634128,"principal: first name":"Angela","grades taught":"9 - 12.","id":"a7v78grv2fgx","address":"1001 W Saratoga Street","school number":178,"state":"MD","affect":4,"effect":1},"type":"Feature","geometry":{"type":"Point","coordinates":[-76.634128,39.292341]}},{"properties":{"name":"Southside Academy High","latitude":39.253566,"zip":"21225","principal: last name":"Gordon","area":"S","phone":"410-545-3528","longitude":-76.620486,"principal: first name":"Denise","grades taught":"9 - 12.","id":"a7v78gnr61ii","address":"2700 Seamon Avenue","school number":181,"state":"MD","affect":5,"effect":2},"type":"Feature","geometry":{"type":"Point","coordinates":[-76.620486,39.253566]}},{"properties":{"name":"Dickey Hill Elementary/Middle","latitude":39.311573,"zip":"21207","principal: last name":"Clark","area":"E","phone":"410-396-0610","longitude":-76.703243,"principal: first name":"Aaron","grades taught":"Pre-K - 8.","id":"a7v78gr8335o","address":"5025 Dickey Hill Road","school number":201,"state":"MD","affect":6,"effect":7},"type":"Feature","geometry":{"type":"Point","coordinates":[-76.703243,39.311573]}},{"properties":{"name":"Maree G. Farring Elem/Middle","latitude":39.236746,"zip":"21225","principal: last name":"Brewster","area":"E","phone":"410-396-1404","longitude":-76.607328,"principal: first name":"Linda","grades taught":"Pre-K - 7.","id":"a7v78gwtqu6f","address":"300 Pontiac Avenue","school number":203,"state":"MD","affect":7,"effect":7},"type":"Feature","geometry":{"type":"Point","coordinates":[-76.607328,39.236746]}},{"properties":{"name":"Mary E. Rodman Elementary","latitude":39.291993,"zip":"21229","principal: last name":"Butler","area":"E","phone":"410-396-0508","longitude":-76.675697,"principal: first name":"Jerome","grades taught":"Pre-K - 5.","id":"a7v78gscb39c","address":"3510 W Mulberry Street","school number":204,"state":"MD","affect":1,"effect":4},"type":"Feature","geometry":{"type":"Point","coordinates":[-76.675697,39.291993]}},{"properties":{"name":"Woodhome Elementary/Middle","latitude":39.367664,"zip":"21234","principal: last name":"Skowrunski","area":"E","phone":"410-396-6398","longitude":-76.539152,"principal: first name":"Christine","grades taught":"Pre-K - 8.","id":"a7v78gplm56u","address":"7300 Moyer Avenue","school number":205,"state":"MD","affect":2,"effect":5},"type":"Feature","geometry":{"type":"Point","coordinates":[-76.539152,39.367664]}},{"properties":{"name":"Furley Elementary","latitude":39.329434,"zip":"21206","principal: last name":"Cephas","area":"E","phone":"410-396-9094","longitude":-76.55367,"principal: first name":"Greta","grades taught":"K - 5.","id":"a7v78gtgiihy","address":"4633 Furley Avenue","school number":206,"state":"MD","affect":3,"effect":5},"type":"Feature","geometry":{"type":"Point","coordinates":[-76.55367,39.329434]}},{"properties":{"name":"Curtis Bay Elem/Middle","latitude":39.225997,"zip":"21225","principal: last name":"Pryor","area":"E","phone":"410-396-1397","longitude":-76.593532,"principal: first name":"Barbara","grades taught":"Pre-K - 7.","id":"a7v78gvpes1r","address":"4301 West Bay Avenue","school number":207,"state":"MD","affect":4,"effect":4},"type":"Feature","geometry":{"type":"Point","coordinates":[-76.593532,39.225997]}},{"properties":{"name":"Winston Middle","latitude":39.349002,"zip":"21212","principal: last name":"Thomas","area":"S","phone":"410-396-6356","longitude":-76.600203,"principal: first name":"Eldon","grades taught":"6 - 8.","id":"a7v78guno5k7","address":"1101 Winston Avenue","school number":209,"state":"MD","affect":5,"effect":6},"type":"Feature","geometry":{"type":"Point","coordinates":[-76.600203,39.349002]}},{"properties":{"name":"Hilton Elementary","latitude":39.319304,"zip":"21216","principal: last name":"Goodwyn","area":"E","phone":"410-396-0634","longitude":-76.673142,"principal: first name":"Sonya","grades taught":"Pre-K - 5.","id":"a7v78grz0utp","address":"3301 Carlisle Avenue","school number":21,"state":"MD","affect":6,"effect":3},"type":"Feature","geometry":{"type":"Point","coordinates":[-76.673142,39.319304]}},{"properties":{"name":"Hazelwood Elem/Middle","latitude":39.338851,"zip":"21206","principal: last name":"Twiggs","area":"E","phone":"410-396-9098","longitude":-76.539601,"principal: first name":"Sidney","grades taught":"K - 8.","id":"a7v78gv3xn56","address":"4517 Hazelwood Avenue","school number":210,"state":"MD","affect":7,"effect":1},"type":"Feature","geometry":{"type":"Point","coordinates":[-76.539601,39.338851]}},{"properties":{"name":"Gardenville Elementary","latitude":39.337633,"zip":"21206","principal: last name":"McIntire-Miller","area":"E","phone":"410-396-6382","longitude":-76.552429,"principal: first name":"Tammie","grades taught":"K - 5.","id":"a7v78gtcvhh7","address":"5300 Belair Road","school number":211,"state":"MD","affect":1,"effect":2},"type":"Feature","geometry":{"type":"Point","coordinates":[-76.552429,39.337633]}},{"properties":{"name":"Garrett Heights Elem/Middle","latitude":39.348401,"zip":"21214","principal: last name":"Ola-Niyi","area":"E","phone":"410-396-6361","longitude":-76.568281,"principal: first name":"Omatayo","grades taught":"Pre-K - 8.","id":"a7v78h0cfnt0","address":"2800 Ailsa Avenue","school number":212,"state":"MD","affect":2,"effect":7},"type":"Feature","geometry":{"type":"Point","coordinates":[-76.568281,39.348401]}},{"properties":{"name":"Govans Elementary","latitude":39.36036,"zip":"21212","principal: last name":"Taylor","area":"E","phone":"410-396-6396","longitude":-76.609873,"principal: first name":"Linda","grades taught":"Pre-K - 5.","id":"a7v78gxrwum5","address":"5801 York Road","school number":213,"state":"MD","affect":3,"effect":7},"type":"Feature","geometry":{"type":"Point","coordinates":[-76.609873,39.36036]}},{"properties":{"name":"Guilford Elementary/Middle","latitude":39.344065,"zip":"21212","principal: last name":"Myers","area":"E","phone":"410-396-6358","longitude":-76.609579,"principal: first name":"Sheilah","grades taught":"Pre-K - 8.","id":"a7v78gs4xvhr","address":"4520 York Road","school number":214,"state":"MD","affect":4,"effect":4},"type":"Feature","geometry":{"type":"Point","coordinates":[-76.609579,39.344065]}},{"properties":{"name":"Highlandtown Elem/Middle","latitude":39.290012,"zip":"21224","principal: last name":"Fagan","area":"E","phone":"410-396-9381","longitude":-76.570804,"principal: first name":"Nancy","grades taught":"Pre-K - 8.","id":"a7v78h06463k","address":"3223 E Pratt Street","school number":215,"state":"MD","affect":5,"effect":5},"type":"Feature","geometry":{"type":"Point","coordinates":[-76.570804,39.290012]}},{"properties":{"name":"Belmont Elementary","latitude":39.303828,"zip":"21216","principal: last name":"Gibbs","area":"E","phone":"410-396-0579","longitude":-76.670795,"principal: first name":"C","grades taught":"Pre-K - 5.","id":"a7v78go73418","address":"1406 N Ellamont Street","school number":217,"state":"MD","affect":6,"effect":5},"type":"Feature","geometry":{"type":"Point","coordinates":[-76.670795,39.303828]}},{"properties":{"name":"Yorkwood Elementary","latitude":39.362598,"zip":"21239","principal: last name":"Sharpe","area":"E","phone":"410-396-6364","longitude":-76.583983,"principal: first name":"Deborah","grades taught":"Pre-K - 5.","id":"a7v78h04tf2i","address":"5931 Yorkwood Road","school number":219,"state":"MD","affect":7,"effect":4},"type":"Feature","geometry":{"type":"Point","coordinates":[-76.583983,39.362598]}},{"properties":{"name":"George Washington Elementary","latitude":39.281119,"zip":"21230","principal: last name":"Rice","area":"E","phone":"410-396-1445","longitude":-76.628779,"principal: first name":"Amanda","grades taught":"Pre-K - 5.","id":"a7v78gttcrbh","address":"800 Scott Street","school number":22,"state":"MD","affect":1,"effect":6},"type":"Feature","geometry":{"type":"Point","coordinates":[-76.628779,39.281119]}},{"properties":{"name":"Morrell Park Elementary/Middle","latitude":39.263938,"zip":"21230","principal: last name":"Conley","area":"E","phone":"410-396-3426","longitude":-76.650889,"principal: first name":"Sean","grades taught":"Pre-K - 8.","id":"a7v78h0rjklz","address":"2601 Tolley Street","school number":220,"state":"MD","affect":2,"effect":3},"type":"Feature","geometry":{"type":"Point","coordinates":[-76.650889,39.263938]}},{"properties":{"name":"Mount Washington Elementary","latitude":39.366058,"zip":"21209","principal: last name":"Torr","area":"E","phone":"410-396-6354","longitude":-76.654708,"principal: first name":"Sue","grades taught":"Pre-K - 5.","id":"a7v78h1kie48","address":"1801 Sulgrave Avenue","school number":221,"state":"MD","affect":3,"effect":1},"type":"Feature","geometry":{"type":"Point","coordinates":[-76.654708,39.366058]}},{"properties":{"name":"Pimlico Elem/Middle","latitude":39.347906,"zip":"21215","principal: last name":"Jones","area":"E","phone":"410-396-0876","longitude":-76.668594,"principal: first name":"Elneeta","grades taught":"Pre-K - 8.","id":"a7v78gvnzm7b","address":"4849 Pimlico Road","school number":223,"state":"MD","affect":4,"effect":2},"type":"Feature","geometry":{"type":"Point","coordinates":[-76.668594,39.347906]}},{"properties":{"name":"Grove Park Elem/Middle","latitude":39.342417,"zip":"21215","principal: last name":"Jackson","area":"E","phone":"410-396-0822","longitude":-76.699496,"principal: first name":"Carla","grades taught":"Pre-K - 8.","id":"a7v78gyp057r","address":"5545 Kennison Avenue","school number":224,"state":"MD","affect":5,"effect":7},"type":"Feature","geometry":{"type":"Point","coordinates":[-76.699496,39.342417]}},{"properties":{"name":"Westport Academy Elem/Middle","latitude":39.262609,"zip":"21230","principal: last name":"Irick","area":"E","phone":"410-396-3396","longitude":-76.637832,"principal: first name":"Felecia","grades taught":"Pre-K - 8.","id":"a7v78gnyst76","address":"2401 Nevada Street","school number":225,"state":"MD","affect":6,"effect":7},"type":"Feature","geometry":{"type":"Point","coordinates":[-76.637832,39.262609]}},{"properties":{"name":"Violetville Elementary/Middle","latitude":39.267953,"zip":"21229","principal: last name":"Reinholdt","area":"E","phone":"410-396-1416","longitude":-76.674574,"principal: first name":"Catherine","grades taught":"Pre-K - 8.","id":"a7v78gtzjo1z","address":"1207 Pine Heights Avenue","school number":226,"state":"MD","affect":7,"effect":4},"type":"Feature","geometry":{"type":"Point","coordinates":[-76.674574,39.267953]}},{"properties":{"name":"John Ruhrah Elem/Middle","latitude":39.285002,"zip":"21224","principal: last name":"Donnelly","area":"E","phone":"410-396-9125","longitude":-76.552692,"principal: first name":"Mary","grades taught":"Pre-K - 8.","id":"a7v78h0f562e","address":"701 S Rappolla Street","school number":228,"state":"MD","affect":1,"effect":5},"type":"Feature","geometry":{"type":"Point","coordinates":[-76.552692,39.285002]}},{"properties":{"name":"Holabird Elem/Middle","latitude":39.276269,"zip":"21224","principal: last name":"Krey","area":"E","phone":"410-396-9086","longitude":-76.538167,"principal: first name":"Lindsay","grades taught":"Pre-K - 8.","id":"a7v78gs2qnlw","address":"1500 Imla Street","school number":229,"state":"MD","affect":2,"effect":5},"type":"Feature","geometry":{"type":"Point","coordinates":[-76.538167,39.276269]}},{"properties":{"name":"Wolfe Street Academy Elementary","latitude":39.288657,"zip":"21231","principal: last name":"Gaither","area":"E","phone":"410-396-9140","longitude":-76.59009,"principal: first name":"Mark","grades taught":"Pre-K - 5.","id":"a7v78gvc31rk","address":"245 S Wolfe Street","school number":23,"state":"MD","affect":3,"effect":4},"type":"Feature","geometry":{"type":"Point","coordinates":[-76.59009,39.288657]}},{"properties":{"name":"Brehms Lane Elementary","latitude":39.321029,"zip":"21213","principal: last name":"Hamlin","area":"E","phone":"410-396-9150","longitude":-76.566579,"principal: first name":"Wendy","grades taught":"Pre-K - 5.","id":"a7v78gnx91ul","address":"3536 Brehms Lane","school number":231,"state":"MD","affect":4,"effect":6},"type":"Feature","geometry":{"type":"Point","coordinates":[-76.566579,39.321029]}},{"properties":{"name":"Thomas Jefferson Elem/Middle","latitude":39.294996,"zip":"21229","principal: last name":"Leishear","area":"E","phone":"410-396-0534","longitude":-76.699029,"principal: first name":"Wendy","grades taught":"Pre-K - 8.","id":"a7v78gnx9wus","address":"605 Dryden Drive","school number":232,"state":"MD","affect":5,"effect":3},"type":"Feature","geometry":{"type":"Point","coordinates":[-76.699029,39.294996]}},{"properties":{"name":"Roland Park Elementary/Middle","latitude":39.356814,"zip":"21210","principal: last name":"Cole","area":"E","phone":"410-396-6420","longitude":-76.634605,"principal: first name":"Carolyn","grades taught":"K - 8.","id":"a7v78gr538q5","address":"5207 Roland Avenue","school number":233,"state":"MD","affect":6,"effect":1},"type":"Feature","geometry":{"type":"Point","coordinates":[-76.634605,39.356814]}},{"properties":{"name":"Arlington Elem/Middle","latitude":39.35079,"zip":"21215","principal: last name":"Gray","area":"E","phone":"410-396-0567","longitude":-76.684781,"principal: first name":"Terrelle","grades taught":"Pre-K - 8.","id":"a7v78gzr2avs","address":"3705 W Rogers Avenue","school number":234,"state":"MD","affect":7,"effect":2},"type":"Feature","geometry":{"type":"Point","coordinates":[-76.684781,39.35079]}},{"properties":{"name":"Glenmount Elementary/Middle","latitude":39.35159,"zip":"21206","principal: last name":"Williams","area":"E","phone":"410-396-6366","longitude":-76.542729,"principal: first name":"Charlotte","grades taught":"Pre-K - 8.","id":"a7v78gp6o3ep","address":"6211 Walther Avenue","school number":235,"state":"MD","affect":1,"effect":7},"type":"Feature","geometry":{"type":"Point","coordinates":[-76.542729,39.35159]}},{"properties":{"name":"Hamilton Elementary/Middle","latitude":39.359089,"zip":"21214","principal: last name":"Murphy","area":"E","phone":"410-396-6375","longitude":-76.558155,"principal: first name":"William","grades taught":"Pre-K - 8.","id":"a7v78gz2aldi","address":"6101 Old Harford Road","school number":236,"state":"MD","affect":2,"effect":7},"type":"Feature","geometry":{"type":"Point","coordinates":[-76.558155,39.359089]}},{"properties":{"name":"Highlandtown Elem/Middle","latitude":39.28535,"zip":"21224","principal: last name":"Moore","area":"E","phone":"443-642-2792","longitude":-76.550706,"principal: first name":"Prentiss","grades taught":"Pre-K - 8.","id":"a7v78gs91ypa","address":"231 SEaton Street","school number":237,"state":"MD","affect":3,"effect":4},"type":"Feature","geometry":{"type":"Point","coordinates":[-76.550706,39.28535]}},{"properties":{"name":"Masonville Cove Community Academy","latitude":39.232844,"zip":"21225","principal: last name":"Carmon","area":"S","phone":"410-396-1373","longitude":-76.593305,"principal: first name":"Rosa","grades taught":"8 - 10.","id":"a7v78gyc8az3","address":"1201 Cambria Street","school number":239,"state":"MD","affect":4,"effect":5},"type":"Feature","geometry":{"type":"Point","coordinates":[-76.593305,39.232844]}},{"properties":{"name":"Westside Elementary","latitude":39.314046,"zip":"21217","principal: last name":"Pluim","area":"E","phone":"410-396-0628","longitude":-76.645322,"principal: first name":"Brian","grades taught":"Pre-K - 5.","id":"a7v78gprwyj4","address":"2235 N Fulton Avenue","school number":24,"state":"MD","affect":5,"effect":5},"type":"Feature","geometry":{"type":"Point","coordinates":[-76.645322,39.314046]}},{"properties":{"name":"Graceland-O'Donnell Heights Elem/Middle","latitude":39.281694,"zip":"21224","principal: last name":"Law","area":"E","phone":"410-396-9083","longitude":-76.540258,"principal: first name":"Wayne","grades taught":"Pre-K - 8.","id":"a7v78gvfoo07","address":"6300 O'Donnell Street","school number":240,"state":"MD","affect":6,"effect":4},"type":"Feature","geometry":{"type":"Point","coordinates":[-76.540258,39.281694]}},{"properties":{"name":"Fallstaff Elem/Middle","latitude":39.363116,"zip":"21215","principal: last name":"Hibbert","area":"E","phone":"410-396-0682","longitude":-76.704778,"principal: first name":"Faith","grades taught":"Pre-K - 8.","id":"a7v78grj7ksr","address":"3801 Fallstaff Road","school number":241,"state":"MD","affect":7,"effect":6},"type":"Feature","geometry":{"type":"Point","coordinates":[-76.704778,39.363116]}},{"properties":{"name":"Northwood Elementary","latitude":39.352345,"zip":"21239","principal: last name":"Adams","area":"E","phone":"410-396-6377","longitude":-76.59016,"principal: first name":"Erita","grades taught":"Pre-K - 5.","id":"a7v78gqzxohp","address":"5201 Loch Raven Boulevard","school number":242,"state":"MD","affect":1,"effect":3},"type":"Feature","geometry":{"type":"Point","coordinates":[-76.59016,39.352345]}},{"properties":{"name":"Armistead Gardens Elem/Middle","latitude":39.304229,"zip":"21205","principal: last name":"Bongiovanni","area":"E","phone":"410-396-9090","longitude":-76.554229,"principal: first name":"Mark","grades taught":"Pre-K - 8.","id":"a7v78gwia8yy","address":"5001 E Eager Street","school number":243,"state":"MD","affect":2,"effect":1},"type":"Feature","geometry":{"type":"Point","coordinates":[-76.554229,39.304229]}},{"properties":{"name":"Leith Walk Elementary","latitude":39.365685,"zip":"21239","principal: last name":"Greer","area":"E","phone":"410-396-6380","longitude":-76.591883,"principal: first name":"Edna","grades taught":"Pre-K - 5.","id":"a7v78gwdudla","address":"1235 Sherwood Avenue","school number":245,"state":"MD","affect":3,"effect":2},"type":"Feature","geometry":{"type":"Point","coordinates":[-76.591883,39.365685]}},{"properties":{"name":"Beechfield Elem/Middle","latitude":39.281197,"zip":"21229","principal: last name":"Walker-Browning","area":"E","phone":"410-396-0525","longitude":-76.693618,"principal: first name":"Rene","grades taught":"Pre-K - 8.","id":"a7v78gr9wlvo","address":"301 S Beechfield Avenue","school number":246,"state":"MD","affect":4,"effect":7},"type":"Feature","geometry":{"type":"Point","coordinates":[-76.693618,39.281197]}},{"properties":{"name":"Cross Country Elem/Middle","latitude":39.362296,"zip":"21215","principal: last name":"Riley Jr.","area":"E","phone":"410-396-0602","longitude":-76.686811,"principal: first name":"Matthew","grades taught":"Pre-K - 8.","id":"a7v78gycs25d","address":"6100 Cross Country Boulevard","school number":247,"state":"MD","affect":5,"effect":7},"type":"Feature","geometry":{"type":"Point","coordinates":[-76.686811,39.362296]}},{"properties":{"name":"Sinclair Lane Elementary","latitude":39.314714,"zip":"21213","principal: last name":"Thorn-Lumpkins","area":"E","phone":"410-396-9117","longitude":-76.560894,"principal: first name":"Roxanne","grades taught":"Pre-K - 5.","id":"a7v78gruayuk","address":"3880 Sinclair Lane","school number":248,"state":"MD","affect":6,"effect":4},"type":"Feature","geometry":{"type":"Point","coordinates":[-76.560894,39.314714]}},{"properties":{"name":"Medfield Heights Elementary","latitude":39.340409,"zip":"21211","principal: last name":"Japzon","area":"E","phone":"410-396-6460","longitude":-76.642045,"principal: first name":"Ramon","grades taught":"Pre-K - 5.","id":"a7v78gy5bhz4","address":"4300 Buchanan Avenue","school number":249,"state":"MD","affect":7,"effect":5},"type":"Feature","geometry":{"type":"Point","coordinates":[-76.642045,39.340409]}},{"properties":{"name":"Dr. Rayner Browne Elem/Middle","latitude":39.303381,"zip":"21213","principal: last name":"Eason","area":"E","phone":"410-396-9239","longitude":-76.584022,"principal: first name":"Lisa","grades taught":"Pre-K - 8.","id":"a7v78guwrt6s","address":"1000 N Montford Avenue","school number":25,"state":"MD","affect":1,"effect":5},"type":"Feature","geometry":{"type":"Point","coordinates":[-76.584022,39.303381]}},{"properties":{"name":"Dr. Bernard Harris, Sr. Elementary","latitude":39.30638,"zip":"21213","principal: last name":"McCaskill","area":"E","phone":"410-396-1452","longitude":-76.598214,"principal: first name":"Loren","grades taught":"Pre-K - 5.","id":"a7v78h1bbdcl","address":"1400 N Caroline Street","school number":250,"state":"MD","affect":2,"effect":4},"type":"Feature","geometry":{"type":"Point","coordinates":[-76.598214,39.30638]}},{"properties":{"name":"Callaway Elementary","latitude":39.336834,"zip":"21215","principal: last name":"Middleton","area":"E","phone":"410-396-0604","longitude":-76.677801,"principal: first name":"Joyce","grades taught":"Pre-K - 5.","id":"a7v78gzluekn","address":"3701 Fernhill Avenue","school number":251,"state":"MD","affect":3,"effect":6},"type":"Feature","geometry":{"type":"Point","coordinates":[-76.677801,39.336834]}},{"properties":{"name":"Dr. Martin Luther King, Jr. Elem/Middle","latitude":39.33334,"zip":"21211","principal: last name":"Bullock","area":"E","phone":"410-396-0756","longitude":-76.656089,"principal: first name":"Sharon","grades taught":"Pre-K - 8.","id":"a7v78gtrceqo","address":"3750 Greenspring Avenue","school number":254,"state":"MD","affect":4,"effect":3},"type":"Feature","geometry":{"type":"Point","coordinates":[-76.656089,39.33334]}},{"properties":{"name":"Calvin M. Rodwell Elementary","latitude":39.329972,"zip":"21207","principal: last name":"Spratley Adams","area":"E","phone":"410-396-0940","longitude":-76.694718,"principal: first name":"Saundra","grades taught":"Pre-K - 5.","id":"a7v78guupfg1","address":"3501 Hillsdale Road","school number":256,"state":"MD","affect":5,"effect":1},"type":"Feature","geometry":{"type":"Point","coordinates":[-76.694718,39.329972]}},{"properties":{"name":"Frederick Elementary","latitude":39.283222,"zip":"21223","principal: last name":"Byrd","area":"E","phone":"410-396-0830","longitude":-76.655977,"principal: first name":"Gwendolyn","grades taught":"Pre-K - 5.","id":"a7v78guwgkip","address":"2501 Frederick Avenue","school number":260,"state":"MD","affect":6,"effect":2},"type":"Feature","geometry":{"type":"Point","coordinates":[-76.655977,39.283222]}},{"properties":{"name":"Lockerman Bundy Elementary","latitude":39.291982,"zip":"21223","principal: last name":"Cunningham","area":"E","phone":"410-396-1364","longitude":-76.650171,"principal: first name":"Cynthia","grades taught":"Pre-K - 5.","id":"a7v78gr21g33","address":"301 N Pulaski Street","school number":261,"state":"MD","affect":7,"effect":7},"type":"Feature","geometry":{"type":"Point","coordinates":[-76.650171,39.291982]}},{"properties":{"name":"Empowerment Academy Elem/Middle","latitude":39.297391,"zip":"21216","principal: last name":"Smith","area":"E","phone":"443-984-2381","longitude":-76.659356,"principal: first name":"Carolyn","grades taught":"Pre-K - 8.","id":"a7v78grafn1s","address":"851 Braddish Avenue","school number":262,"state":"MD","affect":1,"effect":7},"type":"Feature","geometry":{"type":"Point","coordinates":[-76.659356,39.297391]}},{"properties":{"name":"William C. March Middle","latitude":39.314205,"zip":"21213","principal: last name":"Matthews","area":"S","phone":"443-984-3699","longitude":-76.591893,"principal: first name":"Angela","grades taught":"6 - 8.","id":"a7v78grfginz","address":"2050 N Wolfe St","school number":263,"state":"MD","affect":2,"effect":4},"type":"Feature","geometry":{"type":"Point","coordinates":[-76.591893,39.314205]}},{"properties":{"name":"Commodore John Rodgers Elem/Middle","latitude":39.293023,"zip":"21231","principal: last name":"Davage","area":"E","phone":"410-396-9300","longitude":-76.587624,"principal: first name":"Eunice","grades taught":"Pre-K - 8.","id":"a7v78gtd99bc","address":"100 N Chester Street","school number":27,"state":"MD","affect":3,"effect":5},"type":"Feature","geometry":{"type":"Point","coordinates":[-76.587624,39.293023]}},{"properties":{"name":"William Pinderhughes Elementary","latitude":39.306746,"zip":"21217","principal: last name":"Adams","area":"E","phone":"410-396-0761","longitude":-76.640323,"principal: first name":"Federico","grades taught":"Pre-K - 8.","id":"a7v78gxa84go","address":"701 Gold Street","school number":28,"state":"MD","affect":4,"effect":5},"type":"Feature","geometry":{"type":"Point","coordinates":[-76.640323,39.306746]}},{"properties":{"name":"Matthew A. Henson Elementary","latitude":39.306672,"zip":"21217","principal: last name":"Lambirth","area":"E","phone":"410-396-0776","longitude":-76.649848,"principal: first name":"Yolonda","grades taught":"Pre-K - 5.","id":"a7v78gugh97e","address":"1600 N Payson Street","school number":29,"state":"MD","affect":5,"effect":4},"type":"Feature","geometry":{"type":"Point","coordinates":[-76.649848,39.306672]}},{"properties":{"name":"William S. Baer School","latitude":39.311098,"zip":"21216","principal: last name":"Crouse","area":"E","phone":"410-396-0833","longitude":-76.657107,"principal: first name":"Patrick","grades taught":"Pre-K - 12.","id":"a7v78gyiohdh","address":"2001 N Warwick Avenue","school number":301,"state":"MD","affect":6,"effect":6},"type":"Feature","geometry":{"type":"Point","coordinates":[-76.657107,39.311098]}},{"properties":{"name":"Home and Hospital Program","latitude":39.364837,"zip":"21215","principal: last name":"Johnson","area":"ES","phone":"410-396-0775","longitude":-76.702898,"principal: first name":"Florence","grades taught":"k - 12.","id":"a7v78gochpgx","address":"6900 Park Heights Ave","school number":303,"state":"MD","affect":7,"effect":3},"type":"Feature","geometry":{"type":"Point","coordinates":[-76.702898,39.364837]}},{"properties":{"name":"Claremont High","latitude":39.303837,"zip":"21205","principal: last name":"Butt","area":"S","phone":"410-545-3380","longitude":-76.555011,"principal: first name":"John","grades taught":"9 - 12.","id":"a7v78grfcnrk","address":"5301 Erdman Avenue","school number":307,"state":"MD","affect":1,"effect":1},"type":"Feature","geometry":{"type":"Point","coordinates":[-76.555011,39.303837]}},{"properties":{"name":"Coldstream Park Elem/Middle","latitude":39.320462,"zip":"21218","principal: last name":"Saunders","area":"E","phone":"410-396-6443","longitude":-76.601543,"principal: first name":"Edwin","grades taught":"Pre-K - 5.","id":"a7v78h1lxkgx","address":"1400 Exeter Hall Avenue","school number":31,"state":"MD","affect":2,"effect":2},"type":"Feature","geometry":{"type":"Point","coordinates":[-76.601543,39.320462]}},{"properties":{"name":"Lois T. Murray Elem/Middle","latitude":39.346667,"zip":"21239","principal: last name":"Canosa","area":"E","phone":"410-396-7463","longitude":-76.58896,"principal: first name":"Roslyn","grades taught":"K - 8.","id":"a7v78gpe7sz4","address":"1600 Arlington Avenue","school number":313,"state":"MD","affect":3,"effect":7},"type":"Feature","geometry":{"type":"Point","coordinates":[-76.58896,39.346667]}},{"properties":{"name":"Sharp-Leadenhall Elementary","latitude":39.276155,"zip":"21230","principal: last name":"Linde","area":"E","phone":"410-396-4325","longitude":-76.61866,"principal: first name":"James","grades taught":"K - 5.","id":"a7v78gsgljd6","address":"150 W West Street","school number":314,"state":"MD","affect":4,"effect":7},"type":"Feature","geometry":{"type":"Point","coordinates":[-76.61866,39.276155]}},{"properties":{"name":"Midtown Academy Elem/Middle","latitude":39.308291,"zip":"21217","principal: last name":"OHanlon","area":"E","phone":"410-225-3257","longitude":-76.621941,"principal: first name":"Kathleen","grades taught":"K - 8.","id":"a7v78gqmxn0h","address":"1398 Mount Royal Ave","school number":321,"state":"MD","affect":5,"effect":4},"type":"Feature","geometry":{"type":"Point","coordinates":[-76.621941,39.308291]}},{"properties":{"name":"New Song Academy Elem/Middle","latitude":39.305481,"zip":"21217","principal: last name":"Tibbels","area":"E","phone":"410-728-2091","longitude":-76.642728,"principal: first name":"Susan","grades taught":"Pre-K - 8.","id":"a7v78h0akqx3","address":"1530 Presstman Street","school number":322,"state":"MD","affect":6,"effect":5},"type":"Feature","geometry":{"type":"Point","coordinates":[-76.642728,39.305481]}},{"properties":{"name":"The Crossroads School Elem/Middle","latitude":39.282264,"zip":"21231","principal: last name":"Martin","area":"S","phone":"410-276-4924","longitude":-76.596684,"principal: first name":"Marc","grades taught":"6 - 8.","id":"a7v78h2fnkro","address":"802 South Caroline Street","school number":323,"state":"MD","affect":7,"effect":5},"type":"Feature","geometry":{"type":"Point","coordinates":[-76.596684,39.282264]}},{"properties":{"name":"KIPP Ujima Village Academy Elem/ Middle","latitude":39.344618,"zip":"21209","principal: last name":"Toler","area":"S","phone":"410-545-3669","longitude":-76.658839,"principal: first name":"Shawn","grades taught":"5 - 8.","id":"a7v78gof50kt","address":"4701 Greenspring Avenue","school number":324,"state":"MD","affect":1,"effect":4},"type":"Feature","geometry":{"type":"Point","coordinates":[-76.658839,39.344618]}},{"properties":{"name":"ConneXions Community Leadership Academy Middle/High","latitude":39.321057,"zip":"21216","principal: last name":"Polson","area":"S","phone":"443-984-1418","longitude":-76.664894,"principal: first name":"Dana","grades taught":"6 - 12.","id":"a7v78gz00933","address":"2801 N Dukeland St","school number":325,"state":"MD","affect":2,"effect":6},"type":"Feature","geometry":{"type":"Point","coordinates":[-76.664894,39.321057]}},{"properties":{"name":"ConneXions Community Leadership Academy Middle/High","latitude":39.321057,"zip":"21216","principal: last name":"Wilson","area":null,"phone":"443-984-1418","longitude":-76.664894,"principal: first name":"Cynthia","grades taught":"6 - 12.","id":"a7v78gy7l187","address":"2801 N Dukeland St","school number":325,"state":"MD","affect":3,"effect":3},"type":"Feature","geometry":{"type":"Point","coordinates":[-76.664894,39.321057]}},{"properties":{"name":"City Neighbors Charter Elem/Middle","latitude":39.349055,"zip":"21206","principal: last name":"Chalupa","area":"E","phone":"410-325-2627","longitude":-76.534738,"principal: first name":"Micheal","grades taught":"K - 8.","id":"a7v78gypb6fk","address":"4301 Raspe Avenue","school number":326,"state":"MD","affect":4,"effect":1},"type":"Feature","geometry":{"type":"Point","coordinates":[-76.534738,39.349055]}},{"properties":{"name":"Patterson Park Public Charter Elem/Middle","latitude":39.292469,"zip":"21224","principal: last name":"Kramer","area":"E","phone":"410-558-1230","longitude":-76.578854,"principal: first name":"Charles","grades taught":"K - 8.","id":"a7v78gurat6n","address":"27 North Lakewood Avenue","school number":327,"state":"MD","affect":5,"effect":2},"type":"Feature","geometry":{"type":"Point","coordinates":[-76.578854,39.292469]}},{"properties":{"name":"Southwest Baltimore Charter Elementary","latitude":39.287517,"zip":"21223","principal: last name":"Nilsson","area":"E","phone":"443-984-3385","longitude":-76.63353,"principal: first name":"Keturah","grades taught":"K - 5.","id":"a7v78gml08zv","address":"31 S Schroeder Street","school number":328,"state":"MD","affect":6,"effect":7},"type":"Feature","geometry":{"type":"Point","coordinates":[-76.63353,39.287517]}},{"properties":{"name":"Inner Harbor East Academy Elem","latitude":39.293658,"zip":"21202","principal: last name":"Manigo","area":"E","phone":"410-537-5890","longitude":-76.599995,"principal: first name":"Beverly","grades taught":"Pre-K - 7.","id":"a7v78grihlfh","address":"200 N Central Avenue","school number":329,"state":"MD","affect":7,"effect":7},"type":"Feature","geometry":{"type":"Point","coordinates":[-76.599995,39.293658]}},{"properties":{"name":"Northwood Appold Community Academy Elementary","latitude":39.345323,"zip":"21218","principal: last name":"Gooden","area":"E","phone":"410-323-9546","longitude":-76.592036,"principal: first name":"Michele","grades taught":"K - 6.","id":"a7v78guw2ojs","address":"4417 Loch Raven Boulevard","school number":330,"state":"MD","affect":1,"effect":4},"type":"Feature","geometry":{"type":"Point","coordinates":[-76.592036,39.345323]}}],"is_temporal":false,"author":{"url":"","metadata":"","contact_name":"","contact_address":"","source":"","contact_phone":""},"source":"","pagination":{"sort":null,"start":0,"total":99,"limit":1000000},"state":"complete","tags":"","published":"2014-08-15T01:19:10-04:00","id":267723}