{"type":"FeatureCollection","data_type":"Dataset","url_type":null,"permissions":[{"permissions":{"download":true,"view":true},"group_id":"everyone"}],"classification":null,"title":"Tester UK2","count":569,"stream_id":268141,"contributor":{"url":"http://geocommons.com/users/50509","name":"mayer.abbo"},"data_attributes":null,"calculation_params":null,"icon_link":null,"link":"http://geocommons.com/overlays/268141.json","extent":[-7.06667,49.9667,1.62053,60.4],"geometry_types":["point"],"unique_name":null,"name":"Tester UK2","feature_count":569,"description":"","next_feature":null,"is_raster":false,"short_classification":"Y","stats":{"gold":{"max":1,"variance":0.190227480878241,"mean":0.254833040421793,"stdev":0.4361507547606,"min":0,"median":0},"jsg":{"max":1,"variance":0.00175746924428822,"mean":0.00175746924428822,"stdev":0.0419221808150318,"min":0,"median":0},"toning":{"max":2,"variance":0.218866803633755,"mean":0.312829525483304,"stdev":0.467832025019402,"min":0,"median":0},"zumbatomic":{"max":3,"variance":0.260569568553676,"mean":0.379613356766257,"stdev":0.510460153737464,"min":0,"median":0},"sentao":{"max":1,"variance":0.0547290774524128,"mean":0.0579964850615114,"stdev":0.233942466115951,"min":0,"median":0},"aqua":{"max":1,"variance":0.0986348671996842,"mean":0.110720562390158,"stdev":0.314061884347152,"min":0,"median":0},"zumba basic 2":{"max":2,"variance":0.217536325156561,"mean":0.309314586994728,"stdev":0.466407895684198,"min":0,"median":0}},"features":[{"properties":{"city":"Nuneaton Warwickshire","postal_code":"CV116JE","gold":0,"geo_score":0.857,"user_id":"000354fc-f7b9-11df-88fb-123139181c25","toning":1,"jsg":0,"id":"a7vwwglcrbm0","zumbatomic":1,"geo_precision":"zip","zumba basic 2":1,"aqua":0,"sentao":0},"type":"Feature","geometry":{"type":"Point","coordinates":[-1.8333333,51.9]}},{"properties":{"city":"Torquay","postal_code":"TQ11NE","gold":0,"geo_score":0.857,"user_id":"00114382-f7b9-11df-88fb-123139181c25","toning":0,"jsg":0,"id":"a7vwwgq5aetu","zumbatomic":1,"geo_precision":"zip","zumba basic 2":0,"aqua":0,"sentao":0},"type":"Feature","geometry":{"type":"Point","coordinates":[-3.4333333,54.3666667]}},{"properties":{"city":"Kent","postal_code":"CT92JN","gold":1,"geo_score":0.857,"user_id":"00114e68-f7b9-11df-88fb-123139181c25","toning":0,"jsg":0,"id":"a7vwwgmlr4ua","zumbatomic":0,"geo_precision":"zip","zumba basic 2":1,"aqua":0,"sentao":0},"type":"Feature","geometry":{"type":"Point","coordinates":[-3.75,56.0666667]}},{"properties":{"city":"London","postal_code":"E175AY","gold":1,"geo_score":0.857,"user_id":"001181c6-f7b9-11df-88fb-123139181c25","toning":0,"jsg":0,"id":"a7vwwgjrf8k8","zumbatomic":0,"geo_precision":"zip","zumba basic 2":0,"aqua":0,"sentao":0},"type":"Feature","geometry":{"type":"Point","coordinates":[-2.8508333,51.7316667]}},{"properties":{"city":"Dunfermline","postal_code":"KY118HZ","gold":1,"geo_score":0.857,"user_id":"00118c0c-f7b9-11df-88fb-123139181c25","toning":1,"jsg":0,"id":"a7vwwgjkvlzi","zumbatomic":0,"geo_precision":"zip","zumba basic 2":1,"aqua":1,"sentao":0},"type":"Feature","geometry":{"type":"Point","coordinates":[-3.4666667,56.0833333]}},{"properties":{"city":"Nottingham","postal_code":"NG55UZ","gold":0,"geo_score":0.857,"user_id":"0015ce46-1fde-11e0-8b28-123139181c25","toning":0,"jsg":0,"id":"a7vwwgewzfo8","zumbatomic":0,"geo_precision":"zip","zumba basic 2":0,"aqua":0,"sentao":0},"type":"Feature","geometry":{"type":"Point","coordinates":[-2.63543,53.44457]}},{"properties":{"city":"ELY","postal_code":"CB74JL","gold":1,"geo_score":0.857,"user_id":"001c3afc-3522-11e0-8b28-123139181c25","toning":0,"jsg":0,"id":"a7vwwgjc9rsf","zumbatomic":0,"geo_precision":"zip","zumba basic 2":0,"aqua":0,"sentao":0},"type":"Feature","geometry":{"type":"Point","coordinates":[-2.82228469848633,56.1925706654807]}},{"properties":{"city":"canvey island","postal_code":"ss87ea","gold":0,"geo_score":0.857,"user_id":"0028c020-f7b9-11df-88fb-123139181c25","toning":1,"jsg":0,"id":"a7vwwgqknvul","zumbatomic":0,"geo_precision":"zip","zumba basic 2":1,"aqua":0,"sentao":0},"type":"Feature","geometry":{"type":"Point","coordinates":[-2.2333333,56.8666667]}},{"properties":{"city":"Essex","postal_code":"ss88hb","gold":1,"geo_score":0.0,"user_id":"002901b6-f7b9-11df-88fb-123139181c25","toning":0,"jsg":0,"id":"a7vwwgg45uzo","zumbatomic":2,"geo_precision":"unmatched","zumba basic 2":1,"aqua":0,"sentao":0},"type":"Feature","geometry":null},{"properties":{"city":"Hereford","postal_code":"hr26rj","gold":0,"geo_score":0.857,"user_id":"002a093c-4109-11e0-8b28-123139181c25","toning":0,"jsg":0,"id":"a7vwwgmh31sh","zumbatomic":0,"geo_precision":"zip","zumba basic 2":0,"aqua":0,"sentao":0},"type":"Feature","geometry":{"type":"Point","coordinates":[-2.7166667,52.05]}},{"properties":{"city":"Bournemouth","postal_code":"BH76HJ","gold":0,"geo_score":0.857,"user_id":"003a4e62-f7b9-11df-88fb-123139181c25","toning":0,"jsg":0,"id":"a7vwwgeugy6c","zumbatomic":0,"geo_precision":"zip","zumba basic 2":0,"aqua":0,"sentao":0},"type":"Feature","geometry":{"type":"Point","coordinates":[-2.0833333,55.85]}},{"properties":{"city":"Canary Wharf","postal_code":"E149BS","gold":0,"geo_score":0.857,"user_id":"003ac752-f7b9-11df-88fb-123139181c25","toning":0,"jsg":0,"id":"a7vwwghf6goy","zumbatomic":0,"geo_precision":"zip","zumba basic 2":0,"aqua":0,"sentao":0},"type":"Feature","geometry":{"type":"Point","coordinates":[-0.0192261,51.5036]}},{"properties":{"city":"Darlington","postal_code":"DL38TJ","gold":0,"geo_score":0.857,"user_id":"00776d5e-3c53-11e0-8b28-123139181c25","toning":0,"jsg":0,"id":"a7vwwgh0zaao","zumbatomic":0,"geo_precision":"zip","zumba basic 2":0,"aqua":0,"sentao":0},"type":"Feature","geometry":{"type":"Point","coordinates":[-2.2,56.9]}},{"properties":{"city":"Milton Keynes","postal_code":"MK43BW","gold":0,"geo_score":0.857,"user_id":"007ef5e4-181b-11e0-8b28-123139181c25","toning":0,"jsg":0,"id":"a7vwwgs5bvcs","zumbatomic":0,"geo_precision":"zip","zumba basic 2":0,"aqua":0,"sentao":0},"type":"Feature","geometry":{"type":"Point","coordinates":[-0.755825042724609,52.0417219233052]}},{"properties":{"city":"Wiltshire","postal_code":"ba120ae","gold":0,"geo_score":0.857,"user_id":"008f9cdc-f7b9-11df-88fb-123139181c25","toning":0,"jsg":0,"id":"a7vwwgmkny62","zumbatomic":1,"geo_precision":"zip","zumba basic 2":0,"aqua":0,"sentao":0},"type":"Feature","geometry":{"type":"Point","coordinates":[-2.20668,51.27684]}},{"properties":{"city":"Chester-le-Street","postal_code":"DH23SQ","gold":0,"geo_score":0.857,"user_id":"00905690-1e6f-11e0-8b28-123139181c25","toning":0,"jsg":0,"id":"a7vwwgil9mm6","zumbatomic":0,"geo_precision":"zip","zumba basic 2":0,"aqua":0,"sentao":0},"type":"Feature","geometry":{"type":"Point","coordinates":[-1.5666667,54.85]}},{"properties":{"city":"essex","postal_code":"cm07bl","gold":0,"geo_score":0.0,"user_id":"0095de3a-f7b9-11df-88fb-123139181c25","toning":0,"jsg":0,"id":"a7vwwgoyb8kg","zumbatomic":0,"geo_precision":"unmatched","zumba basic 2":0,"aqua":0,"sentao":0},"type":"Feature","geometry":null},{"properties":{"city":"Surrey","postal_code":"KT109UA","gold":0,"geo_score":0.857,"user_id":"00961a8a-f7b9-11df-88fb-123139181c25","toning":0,"jsg":0,"id":"a7vwwgrgmpov","zumbatomic":0,"geo_precision":"zip","zumba basic 2":0,"aqua":0,"sentao":0},"type":"Feature","geometry":{"type":"Point","coordinates":[-4.2333333,58.3666667]}},{"properties":{"city":"Oxfordshire","postal_code":"OX169QA","gold":1,"geo_score":0.857,"user_id":"00a14fea-f7b9-11df-88fb-123139181c25","toning":0,"jsg":0,"id":"a7vwwgj552yq","zumbatomic":0,"geo_precision":"zip","zumba basic 2":0,"aqua":0,"sentao":0},"type":"Feature","geometry":{"type":"Point","coordinates":[-3.55,50.9833333]}},{"properties":{"city":"Paignton","postal_code":"tq33ty","gold":1,"geo_score":0.0,"user_id":"00a7b2c2-f7b9-11df-88fb-123139181c25","toning":0,"jsg":0,"id":"a7vwwgm3a8ao","zumbatomic":0,"geo_precision":"unmatched","zumba basic 2":0,"aqua":1,"sentao":0},"type":"Feature","geometry":null},{"properties":{"city":"Newport","postal_code":"np197ds","gold":0,"geo_score":0.857,"user_id":"00ae9c4a-f7b9-11df-88fb-123139181c25","toning":1,"jsg":0,"id":"a7vwwgixjbba","zumbatomic":0,"geo_precision":"zip","zumba basic 2":0,"aqua":0,"sentao":0},"type":"Feature","geometry":{"type":"Point","coordinates":[0.25,51.9833333]}},{"properties":{"city":"Widnes","postal_code":"WA87DQ","gold":0,"geo_score":0.857,"user_id":"00bb425c-43e9-11e0-8b28-123139181c25","toning":0,"jsg":0,"id":"a7vwwgfk4dnt","zumbatomic":1,"geo_precision":"zip","zumba basic 2":0,"aqua":0,"sentao":0},"type":"Feature","geometry":{"type":"Point","coordinates":[-2.7333333,53.35]}},{"properties":{"city":"lincolnshire","postal_code":"ln76lg","gold":0,"geo_score":0.857,"user_id":"00c09d14-f7b9-11df-88fb-123139181c25","toning":1,"jsg":0,"id":"a7vwwgki2lvq","zumbatomic":0,"geo_precision":"zip","zumba basic 2":0,"aqua":0,"sentao":0},"type":"Feature","geometry":{"type":"Point","coordinates":[-4.0086111,51.565]}},{"properties":{"city":"Ash Vale","postal_code":"GU125ND","gold":0,"geo_score":0.857,"user_id":"00c0b70e-f7b9-11df-88fb-123139181c25","toning":1,"jsg":0,"id":"a7vwwgg2ddeo","zumbatomic":1,"geo_precision":"zip","zumba basic 2":1,"aqua":0,"sentao":0},"type":"Feature","geometry":{"type":"Point","coordinates":[-0.8,60.4]}},{"properties":{"city":"Newport","postal_code":"np115fL","gold":1,"geo_score":0.857,"user_id":"00c175ae-f7b9-11df-88fb-123139181c25","toning":1,"jsg":0,"id":"a7vwwgfqfr5b","zumbatomic":1,"geo_precision":"zip","zumba basic 2":1,"aqua":0,"sentao":0},"type":"Feature","geometry":{"type":"Point","coordinates":[0.25,51.9833333]}},{"properties":{"city":"London Borough of Croydon","postal_code":"se193sw","gold":0,"geo_score":0.857,"user_id":"00ccb9f0-f7b9-11df-88fb-123139181c25","toning":1,"jsg":0,"id":"a7vwwgoovfed","zumbatomic":1,"geo_precision":"zip","zumba basic 2":0,"aqua":1,"sentao":0},"type":"Feature","geometry":{"type":"Point","coordinates":[-0.0829124450683594,53.8003466774013]}},{"properties":{"city":"Southampton","postal_code":"SO451WZ","gold":0,"geo_score":0.857,"user_id":"00d4370c-f7b9-11df-88fb-123139181c25","toning":0,"jsg":0,"id":"a7vwwgn6qg58","zumbatomic":1,"geo_precision":"zip","zumba basic 2":0,"aqua":0,"sentao":1},"type":"Feature","geometry":{"type":"Point","coordinates":[-1.4,50.9]}},{"properties":{"city":"Caistor Lincolnshire","postal_code":"LN76RG","gold":1,"geo_score":0.857,"user_id":"00d43da6-f7b9-11df-88fb-123139181c25","toning":0,"jsg":0,"id":"a7vwwgjypyny","zumbatomic":0,"geo_precision":"zip","zumba basic 2":1,"aqua":0,"sentao":0},"type":"Feature","geometry":{"type":"Point","coordinates":[-4.0086111,51.565]}},{"properties":{"city":"Winchcombe","postal_code":"GL545JS","gold":1,"geo_score":0.857,"user_id":"00db14be-f7b9-11df-88fb-123139181c25","toning":0,"jsg":0,"id":"a7vwwgo1rolc","zumbatomic":0,"geo_precision":"zip","zumba basic 2":0,"aqua":0,"sentao":0},"type":"Feature","geometry":{"type":"Point","coordinates":[-1.97644472122192,51.9493437994359]}},{"properties":{"city":"Plymouth","postal_code":"PL22JJ","gold":1,"geo_score":0.857,"user_id":"00db7e4a-f7b9-11df-88fb-123139181c25","toning":0,"jsg":0,"id":"a7vwwgnivdhn","zumbatomic":0,"geo_precision":"zip","zumba basic 2":1,"aqua":1,"sentao":0},"type":"Feature","geometry":{"type":"Point","coordinates":[-4.11666666666667,50.35]}},{"properties":{"city":"Middlesbrough","postal_code":"TS57AR","gold":0,"geo_score":0.857,"user_id":"00e25fb6-4c92-11e0-8b28-123139181c25","toning":0,"jsg":0,"id":"a7vwwgqq7f0e","zumbatomic":0,"geo_precision":"zip","zumba basic 2":0,"aqua":0,"sentao":0},"type":"Feature","geometry":{"type":"Point","coordinates":[-1.217,54.5778]}},{"properties":{"city":"Manchester","postal_code":"M276PJ","gold":0,"geo_score":0.857,"user_id":"00e573da-342e-11e0-8b28-123139181c25","toning":0,"jsg":0,"id":"a7vwwgo6djtc","zumbatomic":0,"geo_precision":"zip","zumba basic 2":0,"aqua":0,"sentao":0},"type":"Feature","geometry":{"type":"Point","coordinates":[-2.23743438720703,53.4809464283615]}},{"properties":{"city":"Birmingham","postal_code":"B302XH","gold":0,"geo_score":0.857,"user_id":"00e9a81c-f7b9-11df-88fb-123139181c25","toning":0,"jsg":0,"id":"a7vwwgjxgsv2","zumbatomic":0,"geo_precision":"zip","zumba basic 2":0,"aqua":0,"sentao":0},"type":"Feature","geometry":{"type":"Point","coordinates":[-1.9166667,52.4666667]}},{"properties":{"city":"Surrey","postal_code":"CR20RD","gold":0,"geo_score":0.857,"user_id":"00e9c0a4-f7b9-11df-88fb-123139181c25","toning":0,"jsg":0,"id":"a7vwwgeczbuh","zumbatomic":0,"geo_precision":"zip","zumba basic 2":0,"aqua":0,"sentao":0},"type":"Feature","geometry":{"type":"Point","coordinates":[-4.2333333,58.3666667]}},{"properties":{"city":"Brighton, Saltdean","postal_code":"BN28SQ","gold":1,"geo_score":0.857,"user_id":"00e9c838-f7b9-11df-88fb-123139181c25","toning":0,"jsg":0,"id":"a7vwwgixwl6k","zumbatomic":0,"geo_precision":"zip","zumba basic 2":1,"aqua":0,"sentao":0},"type":"Feature","geometry":{"type":"Point","coordinates":[-0.55954,53.56535]}},{"properties":{"city":"Milton Keynes","postal_code":"MK44GB","gold":0,"geo_score":0.857,"user_id":"00e9d404-f7b9-11df-88fb-123139181c25","toning":0,"jsg":0,"id":"a7vwwgn799me","zumbatomic":1,"geo_precision":"zip","zumba basic 2":1,"aqua":0,"sentao":0},"type":"Feature","geometry":{"type":"Point","coordinates":[-0.755825042724609,52.0417219233052]}},{"properties":{"city":"Penarth","postal_code":"CF643RN","gold":0,"geo_score":0.857,"user_id":"00e9e4ca-15c9-11e0-8b28-123139181c25","toning":0,"jsg":0,"id":"a7vwwgmqvlyt","zumbatomic":0,"geo_precision":"zip","zumba basic 2":0,"aqua":0,"sentao":0},"type":"Feature","geometry":{"type":"Point","coordinates":[-2.7333333,54.65]}},{"properties":{"city":"Nottinghamshire","postal_code":"NG196AB","gold":1,"geo_score":0.857,"user_id":"00e9f9ca-f7b9-11df-88fb-123139181c25","toning":1,"jsg":0,"id":"a7vwwgj7ioau","zumbatomic":1,"geo_precision":"zip","zumba basic 2":1,"aqua":0,"sentao":1},"type":"Feature","geometry":{"type":"Point","coordinates":[-2.63543,53.44457]}},{"properties":{"city":"Crawley","postal_code":"rh108hz","gold":0,"geo_score":0.857,"user_id":"00fb35fa-f7b9-11df-88fb-123139181c25","toning":1,"jsg":0,"id":"a7vwwgsmgly4","zumbatomic":0,"geo_precision":"zip","zumba basic 2":0,"aqua":0,"sentao":0},"type":"Feature","geometry":{"type":"Point","coordinates":[-2.5666667,52.3666667]}},{"properties":{"city":"London","postal_code":"NW95ED","gold":0,"geo_score":0.857,"user_id":"0102c2f2-f7b9-11df-88fb-123139181c25","toning":0,"jsg":0,"id":"a7vwwgkxioxv","zumbatomic":0,"geo_precision":"zip","zumba basic 2":0,"aqua":1,"sentao":0},"type":"Feature","geometry":{"type":"Point","coordinates":[-2.8508333,51.7316667]}},{"properties":{"city":"Coventry","postal_code":"CV78RG","gold":1,"geo_score":0.857,"user_id":"010cb578-f7b9-11df-88fb-123139181c25","toning":1,"jsg":0,"id":"a7vwwgrjbpg4","zumbatomic":1,"geo_precision":"zip","zumba basic 2":1,"aqua":0,"sentao":0},"type":"Feature","geometry":{"type":"Point","coordinates":[-1.4337,52.4365]}},{"properties":{"city":"Peterborough","postal_code":"PE67LG","gold":0,"geo_score":0.857,"user_id":"010d861a-f7b9-11df-88fb-123139181c25","toning":0,"jsg":0,"id":"a7vwwgsfpalp","zumbatomic":1,"geo_precision":"zip","zumba basic 2":1,"aqua":0,"sentao":0},"type":"Feature","geometry":{"type":"Point","coordinates":[-0.31996,52.57278]}},{"properties":{"city":"Sheffield","postal_code":"S56QR","gold":0,"geo_score":0.857,"user_id":"010d90b2-36c3-11e0-8b28-123139181c25","toning":0,"jsg":0,"id":"a7vwwgu6z038","zumbatomic":0,"geo_precision":"zip","zumba basic 2":0,"aqua":0,"sentao":0},"type":"Feature","geometry":{"type":"Point","coordinates":[-1.46590232849121,53.3829700049879]}},{"properties":{"city":"Godalming","postal_code":"GU71TG","gold":1,"geo_score":0.857,"user_id":"01144c52-f7b9-11df-88fb-123139181c25","toning":0,"jsg":0,"id":"a7vwwgqijd5a","zumbatomic":0,"geo_precision":"zip","zumba basic 2":0,"aqua":0,"sentao":0},"type":"Feature","geometry":{"type":"Point","coordinates":[-0.61897873878479,51.1865087022077]}},{"properties":{"city":"Weymouth","postal_code":"DT35JU","gold":1,"geo_score":0.857,"user_id":"0114540e-f7b9-11df-88fb-123139181c25","toning":1,"jsg":0,"id":"a7vwwgtz275v","zumbatomic":1,"geo_precision":"zip","zumba basic 2":0,"aqua":0,"sentao":0},"type":"Feature","geometry":{"type":"Point","coordinates":[-2.45,50.6]}},{"properties":{"city":"Hurst","postal_code":"RG100TR","gold":1,"geo_score":0.857,"user_id":"011ac91a-f7b9-11df-88fb-123139181c25","toning":0,"jsg":0,"id":"a7vwwgo9dwp4","zumbatomic":0,"geo_precision":"zip","zumba basic 2":0,"aqua":0,"sentao":0},"type":"Feature","geometry":{"type":"Point","coordinates":[-0.85,51.4333333]}},{"properties":{"city":"Bognor Regis West Sussex","postal_code":"Po212by","gold":1,"geo_score":0.857,"user_id":"011f6686-309a-11e0-8b28-123139181c25","toning":1,"jsg":0,"id":"a7vwwgsa92re","zumbatomic":1,"geo_precision":"zip","zumba basic 2":0,"aqua":0,"sentao":0},"type":"Feature","geometry":{"type":"Point","coordinates":[-0.771,50.84664]}},{"properties":{"city":"Runcorn","postal_code":"WA76NN","gold":1,"geo_score":0.857,"user_id":"0133f160-f7b9-11df-88fb-123139181c25","toning":0,"jsg":0,"id":"a7vwwgnzfi0z","zumbatomic":0,"geo_precision":"zip","zumba basic 2":1,"aqua":0,"sentao":0},"type":"Feature","geometry":{"type":"Point","coordinates":[-2.75,53.3333333]}},{"properties":{"city":"Wigan","postal_code":"WN58AL","gold":0,"geo_score":0.857,"user_id":"0135f926-23e0-11e0-8b28-123139181c25","toning":0,"jsg":0,"id":"a7vwwgkr2r7r","zumbatomic":0,"geo_precision":"zip","zumba basic 2":0,"aqua":0,"sentao":0},"type":"Feature","geometry":{"type":"Point","coordinates":[-2.6166667,53.5333333]}},{"properties":{"city":"Trowbridge","postal_code":"BA149GA","gold":0,"geo_score":0.857,"user_id":"015c93ae-2a4f-11e0-8b28-123139181c25","toning":0,"jsg":0,"id":"a7vwwgms9093","zumbatomic":0,"geo_precision":"zip","zumba basic 2":1,"aqua":0,"sentao":0},"type":"Feature","geometry":{"type":"Point","coordinates":[-2.2086111,51.3188889]}},{"properties":{"city":"maidenhead","postal_code":"sl61hg","gold":1,"geo_score":0.857,"user_id":"016efb9c-3775-11e0-8b28-123139181c25","toning":0,"jsg":0,"id":"a7vwwghcu5u1","zumbatomic":1,"geo_precision":"zip","zumba basic 2":0,"aqua":0,"sentao":0},"type":"Feature","geometry":{"type":"Point","coordinates":[-0.71986198425293,51.522789913029]}},{"properties":{"city":"Sompting, West Sussex","postal_code":"BN150LT","gold":1,"geo_score":0.857,"user_id":"017da24c-3107-11e0-8b28-123139181c25","toning":0,"jsg":0,"id":"a7vwwgjl2txm","zumbatomic":0,"geo_precision":"zip","zumba basic 2":1,"aqua":0,"sentao":0},"type":"Feature","geometry":{"type":"Point","coordinates":[-0.342378616333008,50.8346192043696]}},{"properties":{"city":"Bedale","postal_code":"DL81BL","gold":0,"geo_score":0.857,"user_id":"0185adaa-fbf8-11df-8b28-123139181c25","toning":1,"jsg":0,"id":"a7vwwgolsa6q","zumbatomic":0,"geo_precision":"zip","zumba basic 2":0,"aqua":0,"sentao":0},"type":"Feature","geometry":{"type":"Point","coordinates":[-2.3666667,53.0333333]}},{"properties":{"city":"Beaconsfield Bucks","postal_code":"HP92TH","gold":0,"geo_score":0.857,"user_id":"01aa03e6-f7b9-11df-88fb-123139181c25","toning":1,"jsg":0,"id":"a7vwwggtsebe","zumbatomic":0,"geo_precision":"zip","zumba basic 2":1,"aqua":0,"sentao":1},"type":"Feature","geometry":{"type":"Point","coordinates":[-0.6333333,51.6]}},{"properties":{"city":"Wrexham","postal_code":"LL130LE","gold":0,"geo_score":0.857,"user_id":"01b10fd8-f7b9-11df-88fb-123139181c25","toning":1,"jsg":0,"id":"a7vwwgtv2brl","zumbatomic":1,"geo_precision":"zip","zumba basic 2":1,"aqua":0,"sentao":0},"type":"Feature","geometry":{"type":"Point","coordinates":[0.801658630371094,52.224224288994]}},{"properties":{"city":"Bracknell","postal_code":"RG422PR","gold":0,"geo_score":0.0,"user_id":"01b121d0-f7b9-11df-88fb-123139181c25","toning":1,"jsg":0,"id":"a7vwwgein7yt","zumbatomic":1,"geo_precision":"unmatched","zumba basic 2":1,"aqua":0,"sentao":0},"type":"Feature","geometry":null},{"properties":{"city":"STONEHAVEN","postal_code":"AB392BZ","gold":1,"geo_score":0.857,"user_id":"01bfe0b2-f7b9-11df-88fb-123139181c25","toning":0,"jsg":0,"id":"a7vwwgmc2pg9","zumbatomic":1,"geo_precision":"zip","zumba basic 2":1,"aqua":0,"sentao":0},"type":"Feature","geometry":{"type":"Point","coordinates":[-2.2,56.9666667]}},{"properties":{"city":"Stonehaven","postal_code":"AB392PG","gold":0,"geo_score":0.857,"user_id":"01bfe95e-f7b9-11df-88fb-123139181c25","toning":1,"jsg":0,"id":"a7vwwgiqadda","zumbatomic":0,"geo_precision":"zip","zumba basic 2":1,"aqua":0,"sentao":1},"type":"Feature","geometry":{"type":"Point","coordinates":[-2.2,56.9666667]}},{"properties":{"city":"Penn","postal_code":"HP108BP","gold":0,"geo_score":0.857,"user_id":"01c0250e-f7b9-11df-88fb-123139181c25","toning":1,"jsg":0,"id":"a7vwwgq1t1le","zumbatomic":0,"geo_precision":"zip","zumba basic 2":1,"aqua":0,"sentao":1},"type":"Feature","geometry":{"type":"Point","coordinates":[-0.6833333,51.6166667]}},{"properties":{"city":"Eastbourne EAST SUSSEX","postal_code":"bn246bn","gold":0,"geo_score":0.857,"user_id":"01c19cd8-3506-11e0-8b28-123139181c25","toning":0,"jsg":0,"id":"a7vwwgm80qi8","zumbatomic":0,"geo_precision":"zip","zumba basic 2":0,"aqua":0,"sentao":0},"type":"Feature","geometry":{"type":"Point","coordinates":[1.0166667,51.9666667]}},{"properties":{"city":"Cirencester","postal_code":"GL75QY","gold":1,"geo_score":0.857,"user_id":"01c70fc2-f7b9-11df-88fb-123139181c25","toning":0,"jsg":0,"id":"a7vwwgpji6rs","zumbatomic":1,"geo_precision":"zip","zumba basic 2":1,"aqua":0,"sentao":0},"type":"Feature","geometry":{"type":"Point","coordinates":[-1.9833333,51.7333333]}},{"properties":{"city":"Bradford","postal_code":"BD23JN","gold":0,"geo_score":0.857,"user_id":"01c90210-0b6d-11e0-8b28-123139181c25","toning":0,"jsg":0,"id":"a7vwwgfbnbis","zumbatomic":0,"geo_precision":"zip","zumba basic 2":0,"aqua":0,"sentao":0},"type":"Feature","geometry":{"type":"Point","coordinates":[-2.8666667,56.4666667]}},{"properties":{"city":"Mitcham","postal_code":"CR43AD","gold":0,"geo_score":0.857,"user_id":"01d579e8-3e6f-11e0-8b28-123139181c25","toning":0,"jsg":0,"id":"a7vwwgk7fgyt","zumbatomic":0,"geo_precision":"zip","zumba basic 2":0,"aqua":0,"sentao":0},"type":"Feature","geometry":{"type":"Point","coordinates":[-0.1666667,51.4]}},{"properties":{"city":"Lymington","postal_code":"SO410GX","gold":0,"geo_score":0.857,"user_id":"01e3a2f4-f7b9-11df-88fb-123139181c25","toning":0,"jsg":0,"id":"a7vwwgpln3j8","zumbatomic":0,"geo_precision":"zip","zumba basic 2":0,"aqua":0,"sentao":0},"type":"Feature","geometry":{"type":"Point","coordinates":[-3.6166667,55.55]}},{"properties":{"city":"Dungannon","postal_code":"BT716LT","gold":0,"geo_score":0.857,"user_id":"01e3d7ba-f7b9-11df-88fb-123139181c25","toning":1,"jsg":0,"id":"a7vwwgtoyo1n","zumbatomic":0,"geo_precision":"zip","zumba basic 2":0,"aqua":0,"sentao":0},"type":"Feature","geometry":{"type":"Point","coordinates":[-6.76723480224609,54.503442674456]}},{"properties":{"city":"Stirling","postal_code":"FK78GB","gold":1,"geo_score":0.857,"user_id":"01e3e1c4-f7b9-11df-88fb-123139181c25","toning":1,"jsg":0,"id":"a7vwwgpog0q5","zumbatomic":1,"geo_precision":"zip","zumba basic 2":1,"aqua":0,"sentao":1},"type":"Feature","geometry":{"type":"Point","coordinates":[-3.3291666,54.5308333]}},{"properties":{"city":"Manchester","postal_code":"M345PG","gold":1,"geo_score":0.857,"user_id":"01ea99ec-f7b9-11df-88fb-123139181c25","toning":1,"jsg":0,"id":"a7vwwgt1b07u","zumbatomic":1,"geo_precision":"zip","zumba basic 2":1,"aqua":0,"sentao":0},"type":"Feature","geometry":{"type":"Point","coordinates":[-2.23743438720703,53.4809464283615]}},{"properties":{"city":"Sheffield south yorkshire","postal_code":"S350DG","gold":1,"geo_score":0.857,"user_id":"01ea9f28-f7b9-11df-88fb-123139181c25","toning":0,"jsg":0,"id":"a7vwwgitu0tr","zumbatomic":0,"geo_precision":"zip","zumba basic 2":0,"aqua":0,"sentao":0},"type":"Feature","geometry":{"type":"Point","coordinates":[-1.46590232849121,53.3829700049879]}},{"properties":{"city":"Ipswich","postal_code":"IP92HL","gold":0,"geo_score":0.857,"user_id":"01eaf0fe-f7b9-11df-88fb-123139181c25","toning":0,"jsg":0,"id":"a7vwwgoi4qkt","zumbatomic":0,"geo_precision":"zip","zumba basic 2":0,"aqua":0,"sentao":0},"type":"Feature","geometry":{"type":"Point","coordinates":[1.19716644287109,52.0580321019272]}},{"properties":{"city":"Ipswich","postal_code":"IP92JG","gold":0,"geo_score":0.857,"user_id":"01eaf8ce-f7b9-11df-88fb-123139181c25","toning":0,"jsg":0,"id":"a7vwwgu5acja","zumbatomic":0,"geo_precision":"zip","zumba basic 2":0,"aqua":0,"sentao":0},"type":"Feature","geometry":{"type":"Point","coordinates":[1.19716644287109,52.0580321019272]}},{"properties":{"city":"Flintshire","postal_code":"CH54BJ","gold":1,"geo_score":0.0,"user_id":"01f25d4e-f7b9-11df-88fb-123139181c25","toning":1,"jsg":0,"id":"a7vwwgk4aav5","zumbatomic":1,"geo_precision":"unmatched","zumba basic 2":1,"aqua":1,"sentao":0},"type":"Feature","geometry":null},{"properties":{"city":"London Borough of Barnet","postal_code":"n31da","gold":0,"geo_score":0.857,"user_id":"01f27b26-f7b9-11df-88fb-123139181c25","toning":0,"jsg":0,"id":"a7vwwgqv7zvd","zumbatomic":1,"geo_precision":"zip","zumba basic 2":0,"aqua":0,"sentao":0},"type":"Feature","geometry":{"type":"Point","coordinates":[-0.2666667,51.55]}},{"properties":{"city":"London","postal_code":"W148EA","gold":0,"geo_score":0.857,"user_id":"01f28850-f7b9-11df-88fb-123139181c25","toning":0,"jsg":0,"id":"a7vwwgljnopv","zumbatomic":1,"geo_precision":"zip","zumba basic 2":0,"aqua":0,"sentao":0},"type":"Feature","geometry":{"type":"Point","coordinates":[-2.8508333,51.7316667]}},{"properties":{"city":"County Antrim","postal_code":"BT294FS","gold":0,"geo_score":0.857,"user_id":"01f28fa8-f7b9-11df-88fb-123139181c25","toning":1,"jsg":0,"id":"a7vwwgggo3g5","zumbatomic":1,"geo_precision":"zip","zumba basic 2":1,"aqua":0,"sentao":0},"type":"Feature","geometry":{"type":"Point","coordinates":[-3.75,56.0666667]}},{"properties":{"city":"TULLIBODY","postal_code":"FK102PX","gold":0,"geo_score":0.857,"user_id":"01f90acc-f7b9-11df-88fb-123139181c25","toning":1,"jsg":0,"id":"a7vwwgh7svih","zumbatomic":0,"geo_precision":"zip","zumba basic 2":1,"aqua":0,"sentao":0},"type":"Feature","geometry":{"type":"Point","coordinates":[-3.8333333,54.9333333]}},{"properties":{"city":"Renfrewshire","postal_code":"Pa48az","gold":0,"geo_score":0.857,"user_id":"02070668-f7b9-11df-88fb-123139181c25","toning":0,"jsg":0,"id":"a7vwwge8as5e","zumbatomic":1,"geo_precision":"zip","zumba basic 2":1,"aqua":0,"sentao":0},"type":"Feature","geometry":{"type":"Point","coordinates":[-4.5,55.8333333]}},{"properties":{"city":"Pinner","postal_code":"HA53UT","gold":1,"geo_score":0.857,"user_id":"02072e40-f7b9-11df-88fb-123139181c25","toning":1,"jsg":0,"id":"a7vwwgnkf7x5","zumbatomic":1,"geo_precision":"zip","zumba basic 2":1,"aqua":0,"sentao":1},"type":"Feature","geometry":{"type":"Point","coordinates":[-0.38215845823288,51.5938370164925]}},{"properties":{"city":"Houghton Regis","postal_code":"Lv550x","gold":0,"geo_score":0.857,"user_id":"02073414-f9bf-11df-8b28-123139181c25","toning":0,"jsg":0,"id":"a7vwwgp130na","zumbatomic":0,"geo_precision":"zip","zumba basic 2":0,"aqua":0,"sentao":0},"type":"Feature","geometry":{"type":"Point","coordinates":[-0.865688323974609,53.742061487395]}},{"properties":{"city":"London Borough of Ealing","postal_code":"W71BU","gold":1,"geo_score":0.857,"user_id":"020740b0-f7b9-11df-88fb-123139181c25","toning":1,"jsg":0,"id":"a7vwwgniz0qp","zumbatomic":1,"geo_precision":"zip","zumba basic 2":1,"aqua":1,"sentao":1},"type":"Feature","geometry":{"type":"Point","coordinates":[0.1508,52.19712]}},{"properties":{"city":"Swadlincote  Derbyshire","postal_code":"DE117BB","gold":1,"geo_score":0.857,"user_id":"020e1fca-f7b9-11df-88fb-123139181c25","toning":1,"jsg":0,"id":"a7vwwgemndsm","zumbatomic":0,"geo_precision":"zip","zumba basic 2":0,"aqua":0,"sentao":0},"type":"Feature","geometry":{"type":"Point","coordinates":[-1.55,52.7666667]}},{"properties":{"city":"Yeovil","postal_code":"BA213TW","gold":0,"geo_score":0.857,"user_id":"0215158c-f7b9-11df-88fb-123139181c25","toning":0,"jsg":0,"id":"a7vwwgtkccjm","zumbatomic":0,"geo_precision":"zip","zumba basic 2":0,"aqua":0,"sentao":0},"type":"Feature","geometry":{"type":"Point","coordinates":[-1.7166667,52.95]}},{"properties":{"city":"Nottinghamshire","postal_code":"NG41FP","gold":0,"geo_score":0.857,"user_id":"0215308a-f7b9-11df-88fb-123139181c25","toning":0,"jsg":0,"id":"a7vwwgl81q73","zumbatomic":1,"geo_precision":"zip","zumba basic 2":0,"aqua":0,"sentao":0},"type":"Feature","geometry":{"type":"Point","coordinates":[-2.63543,53.44457]}},{"properties":{"city":"Harrogate","postal_code":"HG12BB","gold":1,"geo_score":0.857,"user_id":"021ed256-241a-11e0-8b28-123139181c25","toning":0,"jsg":0,"id":"a7vwwgpicrtq","zumbatomic":0,"geo_precision":"zip","zumba basic 2":0,"aqua":0,"sentao":0},"type":"Feature","geometry":{"type":"Point","coordinates":[-2.7088889,51.0647222]}},{"properties":{"city":"Telford Shropshire","postal_code":"TF34AW","gold":0,"geo_score":0.857,"user_id":"023be9f2-35dd-11e0-8b28-123139181c25","toning":0,"jsg":0,"id":"a7vwwgn0q3e6","zumbatomic":1,"geo_precision":"zip","zumba basic 2":0,"aqua":0,"sentao":0},"type":"Feature","geometry":{"type":"Point","coordinates":[-2.8833333,53.2833333]}},{"properties":{"city":"NOTTINGHAM","postal_code":"NG184AY","gold":1,"geo_score":0.857,"user_id":"023c3a4c-1e31-11e0-8b28-123139181c25","toning":0,"jsg":0,"id":"a7vwwgqt3xo0","zumbatomic":0,"geo_precision":"zip","zumba basic 2":0,"aqua":0,"sentao":0},"type":"Feature","geometry":{"type":"Point","coordinates":[-2.63543,53.44457]}},{"properties":{"city":"London","postal_code":"SE109RA","gold":0,"geo_score":0.857,"user_id":"023de9ee-f7b9-11df-88fb-123139181c25","toning":0,"jsg":0,"id":"a7vwwgs9lwm6","zumbatomic":0,"geo_precision":"zip","zumba basic 2":0,"aqua":0,"sentao":0},"type":"Feature","geometry":{"type":"Point","coordinates":[-2.8508333,51.7316667]}},{"properties":{"city":"Orpington","postal_code":"BR60SF","gold":0,"geo_score":0.857,"user_id":"0242d9b2-f7ce-11df-8b28-123139181c25","toning":0,"jsg":0,"id":"a7vwwgl37meo","zumbatomic":0,"geo_precision":"zip","zumba basic 2":0,"aqua":0,"sentao":0},"type":"Feature","geometry":{"type":"Point","coordinates":[0.08888840675354,51.3734011738892]}},{"properties":{"city":"Taunton Somerset","postal_code":"TA35FA","gold":1,"geo_score":0.857,"user_id":"024515d0-348f-11e0-8b28-123139181c25","toning":0,"jsg":0,"id":"a7vwwgk5vws0","zumbatomic":0,"geo_precision":"zip","zumba basic 2":0,"aqua":0,"sentao":0},"type":"Feature","geometry":{"type":"Point","coordinates":[-0.1914,51.5136]}},{"properties":{"city":"Bishop Stortford","postal_code":"cm235lw","gold":0,"geo_score":0.857,"user_id":"024549a0-f7b9-11df-88fb-123139181c25","toning":0,"jsg":0,"id":"a7vwwgk3puyd","zumbatomic":1,"geo_precision":"zip","zumba basic 2":0,"aqua":0,"sentao":0},"type":"Feature","geometry":{"type":"Point","coordinates":[-2.5947222,51.3344444]}},{"properties":{"city":"Biggar","postal_code":"ML126NA","gold":1,"geo_score":0.857,"user_id":"024556c0-f7b9-11df-88fb-123139181c25","toning":0,"jsg":0,"id":"a7vwwgf1yr6p","zumbatomic":0,"geo_precision":"zip","zumba basic 2":1,"aqua":0,"sentao":0},"type":"Feature","geometry":{"type":"Point","coordinates":[-3.5166667,55.6166667]}},{"properties":{"city":"wales","postal_code":"g743es","gold":0,"geo_score":0.857,"user_id":"024bf14c-f7b9-11df-88fb-123139181c25","toning":0,"jsg":0,"id":"a7vwwgmnewek","zumbatomic":1,"geo_precision":"zip","zumba basic 2":1,"aqua":0,"sentao":0},"type":"Feature","geometry":{"type":"Point","coordinates":[-0.9833333,60.3333333]}},{"properties":{"city":"South Lanarkshire","postal_code":"g742as","gold":0,"geo_score":0.857,"user_id":"024bf4f8-f7b9-11df-88fb-123139181c25","toning":0,"jsg":0,"id":"a7vwwgrw06gz","zumbatomic":0,"geo_precision":"zip","zumba basic 2":0,"aqua":0,"sentao":0},"type":"Feature","geometry":{"type":"Point","coordinates":[-3.8333333,55.5833333]}},{"properties":{"city":"Hinckley","postal_code":"LE102UA","gold":0,"geo_score":0.857,"user_id":"024c1c26-f7b9-11df-88fb-123139181c25","toning":1,"jsg":0,"id":"a7vwwgtrwe1k","zumbatomic":0,"geo_precision":"zip","zumba basic 2":1,"aqua":0,"sentao":0},"type":"Feature","geometry":{"type":"Point","coordinates":[-2.5,53.0]}},{"properties":{"city":"MARGATE","postal_code":"CT92ST","gold":0,"geo_score":0.857,"user_id":"024c579a-f7b9-11df-88fb-123139181c25","toning":0,"jsg":0,"id":"a7vwwghy15zf","zumbatomic":0,"geo_precision":"zip","zumba basic 2":1,"aqua":0,"sentao":0},"type":"Feature","geometry":{"type":"Point","coordinates":[-0.637035369873047,52.5966874731547]}},{"properties":{"city":"Basingstoke","postal_code":"RG225UF","gold":0,"geo_score":0.857,"user_id":"024f3b56-3ab5-11e0-8b28-123139181c25","toning":0,"jsg":0,"id":"a7vwwgpldiwg","zumbatomic":0,"geo_precision":"zip","zumba basic 2":0,"aqua":0,"sentao":0},"type":"Feature","geometry":{"type":"Point","coordinates":[-0.9874,51.14041]}},{"properties":{"city":"Glasgow","postal_code":"G133RA","gold":0,"geo_score":0.857,"user_id":"025a0318-f7b9-11df-88fb-123139181c25","toning":1,"jsg":0,"id":"a7vwwgfczalu","zumbatomic":1,"geo_precision":"zip","zumba basic 2":1,"aqua":0,"sentao":0},"type":"Feature","geometry":{"type":"Point","coordinates":[-4.25763130187988,55.8651497187961]}},{"properties":{"city":"EDINBURGH","postal_code":"EH111ST","gold":1,"geo_score":0.857,"user_id":"025a0e9e-f7b9-11df-88fb-123139181c25","toning":2,"jsg":0,"id":"a7vwwghqmibd","zumbatomic":1,"geo_precision":"zip","zumba basic 2":1,"aqua":1,"sentao":0},"type":"Feature","geometry":{"type":"Point","coordinates":[-3.3725,55.95]}},{"properties":{"city":"Edinburgh","postal_code":"EH39LS","gold":0,"geo_score":0.857,"user_id":"025a142a-f7b9-11df-88fb-123139181c25","toning":0,"jsg":0,"id":"a7vwwgm78f4q","zumbatomic":1,"geo_precision":"zip","zumba basic 2":1,"aqua":0,"sentao":0},"type":"Feature","geometry":{"type":"Point","coordinates":[-3.3725,55.95]}},{"properties":{"city":"Middlesex","postal_code":"TW75HU","gold":1,"geo_score":0.857,"user_id":"026a9154-215a-11e0-8b28-123139181c25","toning":0,"jsg":0,"id":"a7vwwgjfiinb","zumbatomic":0,"geo_precision":"zip","zumba basic 2":0,"aqua":0,"sentao":0},"type":"Feature","geometry":{"type":"Point","coordinates":[-0.97056,50.90454]}},{"properties":{"city":"Essex","postal_code":"rm14ah","gold":0,"geo_score":0.0,"user_id":"0276ef8e-4401-11e0-8b28-123139181c25","toning":0,"jsg":0,"id":"a7vwwgku4qv5","zumbatomic":0,"geo_precision":"unmatched","zumba basic 2":0,"aqua":0,"sentao":0},"type":"Feature","geometry":null},{"properties":{"city":"Batley","postal_code":"WF170DA","gold":0,"geo_score":0.857,"user_id":"02a4881a-2dfc-11e0-8b28-123139181c25","toning":0,"jsg":0,"id":"a7vwwgmzm913","zumbatomic":0,"geo_precision":"zip","zumba basic 2":0,"aqua":1,"sentao":0},"type":"Feature","geometry":{"type":"Point","coordinates":[-2.3666667,53.0333333]}},{"properties":{"city":"Middlesex and North West London","postal_code":"HA52NJ","gold":0,"geo_score":0.857,"user_id":"02d4198a-31fe-11e0-8b28-123139181c25","toning":0,"jsg":0,"id":"a7vwwgntp50w","zumbatomic":0,"geo_precision":"zip","zumba basic 2":0,"aqua":0,"sentao":0},"type":"Feature","geometry":{"type":"Point","coordinates":[-2.8508333,51.7316667]}},{"properties":{"city":"Tiverton","postal_code":"EX167NY","gold":1,"geo_score":0.857,"user_id":"02e03144-394b-11e0-8b28-123139181c25","toning":0,"jsg":0,"id":"a7vwwgeytguq","zumbatomic":0,"geo_precision":"zip","zumba basic 2":0,"aqua":0,"sentao":0},"type":"Feature","geometry":{"type":"Point","coordinates":[-2.6666667,53.1333333]}},{"properties":{"city":"Cumbernauld","postal_code":"G674EP","gold":0,"geo_score":0.857,"user_id":"030bed80-f7b9-11df-88fb-123139181c25","toning":0,"jsg":0,"id":"a7vwwgksqnh8","zumbatomic":1,"geo_precision":"zip","zumba basic 2":1,"aqua":0,"sentao":0},"type":"Feature","geometry":{"type":"Point","coordinates":[-3.2,57.3]}},{"properties":{"city":"Hull","postal_code":"HU106LN","gold":0,"geo_score":0.857,"user_id":"03197984-1f30-11e0-8b28-123139181c25","toning":0,"jsg":0,"id":"a7vwwggka72l","zumbatomic":1,"geo_precision":"zip","zumba basic 2":0,"aqua":1,"sentao":0},"type":"Feature","geometry":{"type":"Point","coordinates":[-3.2,56.7666667]}},{"properties":{"city":"London","postal_code":"W140SY","gold":1,"geo_score":0.857,"user_id":"032050c2-f7b9-11df-88fb-123139181c25","toning":1,"jsg":0,"id":"a7vwwgjxzj4t","zumbatomic":0,"geo_precision":"zip","zumba basic 2":1,"aqua":0,"sentao":0},"type":"Feature","geometry":{"type":"Point","coordinates":[-2.8508333,51.7316667]}},{"properties":{"city":"Airdrie","postal_code":"ML60EB","gold":0,"geo_score":0.857,"user_id":"03209b0e-f7b9-11df-88fb-123139181c25","toning":1,"jsg":0,"id":"a7vwwgjnhzek","zumbatomic":0,"geo_precision":"zip","zumba basic 2":1,"aqua":0,"sentao":0},"type":"Feature","geometry":{"type":"Point","coordinates":[-6.6833333,54.6333333]}},{"properties":{"city":"Forest Town","postal_code":"NG190DE","gold":1,"geo_score":0.857,"user_id":"033a9d06-395e-11e0-8b28-123139181c25","toning":0,"jsg":0,"id":"a7vwwgom3nqf","zumbatomic":0,"geo_precision":"zip","zumba basic 2":0,"aqua":0,"sentao":0},"type":"Feature","geometry":{"type":"Point","coordinates":[-1.7333333,54.5]}},{"properties":{"city":"Rayleigh Essex","postal_code":"SS69LW","gold":0,"geo_score":0.0,"user_id":"033c743c-f7b9-11df-88fb-123139181c25","toning":1,"jsg":0,"id":"a7vwwgsclgh6","zumbatomic":1,"geo_precision":"unmatched","zumba basic 2":1,"aqua":0,"sentao":0},"type":"Feature","geometry":null},{"properties":{"city":"London","postal_code":"TW107NN","gold":0,"geo_score":0.857,"user_id":"033ca33a-f7b9-11df-88fb-123139181c25","toning":0,"jsg":0,"id":"a7vwwgs8v6p0","zumbatomic":1,"geo_precision":"zip","zumba basic 2":1,"aqua":0,"sentao":1},"type":"Feature","geometry":{"type":"Point","coordinates":[-2.8508333,51.7316667]}},{"properties":{"city":"Falkirk","postal_code":"FK29FH","gold":0,"geo_score":0.857,"user_id":"0351c0c6-f7b9-11df-88fb-123139181c25","toning":0,"jsg":0,"id":"a7vwwgqirc4j","zumbatomic":1,"geo_precision":"zip","zumba basic 2":1,"aqua":0,"sentao":1},"type":"Feature","geometry":{"type":"Point","coordinates":[-3.75,56.0]}},{"properties":{"city":"Cheltenham","postal_code":"GL522HA","gold":0,"geo_score":0.857,"user_id":"0351eaa6-f7b9-11df-88fb-123139181c25","toning":0,"jsg":0,"id":"a7vwwgsj9kkp","zumbatomic":0,"geo_precision":"zip","zumba basic 2":1,"aqua":0,"sentao":0},"type":"Feature","geometry":{"type":"Point","coordinates":[-2.0833333,51.9]}},{"properties":{"city":"Verwood","postal_code":"BH316HX","gold":1,"geo_score":0.857,"user_id":"035c361e-f7b9-11df-88fb-123139181c25","toning":0,"jsg":0,"id":"a7vwwgfwt8b7","zumbatomic":1,"geo_precision":"zip","zumba basic 2":1,"aqua":0,"sentao":0},"type":"Feature","geometry":{"type":"Point","coordinates":[-1.8666667,50.8666667]}},{"properties":{"city":"York","postal_code":"YO16DE","gold":0,"geo_score":0.857,"user_id":"035cda56-f7b9-11df-88fb-123139181c25","toning":0,"jsg":0,"id":"a7vwwgn2nocp","zumbatomic":0,"geo_precision":"zip","zumba basic 2":0,"aqua":0,"sentao":0},"type":"Feature","geometry":{"type":"Point","coordinates":[-1.0833333,53.9666667]}},{"properties":{"city":"Glasgow","postal_code":"G732BJ","gold":0,"geo_score":0.857,"user_id":"0363bfe2-f7b9-11df-88fb-123139181c25","toning":0,"jsg":0,"id":"a7vwwgee886j","zumbatomic":1,"geo_precision":"zip","zumba basic 2":0,"aqua":0,"sentao":0},"type":"Feature","geometry":{"type":"Point","coordinates":[-4.25763130187988,55.8651497187961]}},{"properties":{"city":"East Molesey","postal_code":"KT11HY","gold":0,"geo_score":0.857,"user_id":"0363c726-f7b9-11df-88fb-123139181c25","toning":0,"jsg":0,"id":"a7vwwgu76xun","zumbatomic":0,"geo_precision":"zip","zumba basic 2":0,"aqua":0,"sentao":0},"type":"Feature","geometry":{"type":"Point","coordinates":[-0.35,51.4]}},{"properties":{"city":"tarporley","postal_code":"cw60hz","gold":0,"geo_score":0.857,"user_id":"0363d68a-f7b9-11df-88fb-123139181c25","toning":0,"jsg":0,"id":"a7vwwgsgebnw","zumbatomic":1,"geo_precision":"zip","zumba basic 2":1,"aqua":0,"sentao":0},"type":"Feature","geometry":{"type":"Point","coordinates":[-2.66677,53.15922]}},{"properties":{"city":"Lancashire and Yorkshire","postal_code":"Bb126pp","gold":0,"geo_score":0.857,"user_id":"0369c19e-4e4e-11e0-8b28-123139181c25","toning":0,"jsg":0,"id":"a7vwwgtgb3ye","zumbatomic":1,"geo_precision":"zip","zumba basic 2":0,"aqua":1,"sentao":0},"type":"Feature","geometry":{"type":"Point","coordinates":[-1.818,53.832]}},{"properties":{"city":"Motherwell","postal_code":"ML13DW","gold":0,"geo_score":0.857,"user_id":"036a63ce-f7b9-11df-88fb-123139181c25","toning":0,"jsg":0,"id":"a7vwwghcboxe","zumbatomic":0,"geo_precision":"zip","zumba basic 2":0,"aqua":0,"sentao":0},"type":"Feature","geometry":{"type":"Point","coordinates":[-4.0,55.7833333]}},{"properties":{"city":"south benfleet","postal_code":"ss74bq","gold":0,"geo_score":0.857,"user_id":"036a8908-f7b9-11df-88fb-123139181c25","toning":0,"jsg":0,"id":"a7vwwgjlyfhp","zumbatomic":0,"geo_precision":"zip","zumba basic 2":0,"aqua":0,"sentao":0},"type":"Feature","geometry":{"type":"Point","coordinates":[-0.925941467285156,51.5006218025177]}},{"properties":{"city":"Blackburn","postal_code":"BB25ES","gold":0,"geo_score":0.857,"user_id":"036d04fc-4904-11e0-8b28-123139181c25","toning":0,"jsg":0,"id":"a7vwwgigfyzs","zumbatomic":0,"geo_precision":"zip","zumba basic 2":0,"aqua":0,"sentao":0},"type":"Feature","geometry":{"type":"Point","coordinates":[-3.35,57.1333333]}},{"properties":{"city":"Burntisland","postal_code":"KY30EW","gold":0,"geo_score":0.857,"user_id":"037fcd68-f7b9-11df-88fb-123139181c25","toning":0,"jsg":0,"id":"a7vwwgkr6pan","zumbatomic":1,"geo_precision":"zip","zumba basic 2":0,"aqua":0,"sentao":0},"type":"Feature","geometry":{"type":"Point","coordinates":[-3.20062637329102,55.9401156101871]}},{"properties":{"city":"Randalstown","postal_code":"BT413HB","gold":0,"geo_score":0.857,"user_id":"039885dc-4f53-11e0-8b28-123139181c25","toning":0,"jsg":0,"id":"a7vwwgkmn6xm","zumbatomic":1,"geo_precision":"zip","zumba basic 2":0,"aqua":0,"sentao":0},"type":"Feature","geometry":{"type":"Point","coordinates":[-6.3,54.75]}},{"properties":{"city":"Glasgow","postal_code":"G467UL","gold":0,"geo_score":0.857,"user_id":"03af1d68-183c-11e0-8b28-123139181c25","toning":0,"jsg":0,"id":"a7vwwgseaahu","zumbatomic":0,"geo_precision":"zip","zumba basic 2":0,"aqua":0,"sentao":0},"type":"Feature","geometry":{"type":"Point","coordinates":[-4.25763130187988,55.8651497187961]}},{"properties":{"city":"Edinburgh","postal_code":"EH112HX","gold":0,"geo_score":0.857,"user_id":"03b490d4-f7b9-11df-88fb-123139181c25","toning":1,"jsg":0,"id":"a7vwwgk66awu","zumbatomic":0,"geo_precision":"zip","zumba basic 2":1,"aqua":0,"sentao":0},"type":"Feature","geometry":{"type":"Point","coordinates":[-3.3725,55.95]}},{"properties":{"city":"Cheltenham","postal_code":"GL525GB","gold":0,"geo_score":0.857,"user_id":"03bb770a-f7b9-11df-88fb-123139181c25","toning":1,"jsg":0,"id":"a7vwwgjovwdk","zumbatomic":0,"geo_precision":"zip","zumba basic 2":0,"aqua":1,"sentao":0},"type":"Feature","geometry":{"type":"Point","coordinates":[-2.0833333,51.9]}},{"properties":{"city":"North East Lincolnshire","postal_code":"DN417QS","gold":0,"geo_score":0.857,"user_id":"03bb7ed0-f7b9-11df-88fb-123139181c25","toning":1,"jsg":0,"id":"a7vwwgnhvks2","zumbatomic":1,"geo_precision":"zip","zumba basic 2":1,"aqua":0,"sentao":0},"type":"Feature","geometry":{"type":"Point","coordinates":[-0.9166667,52.5166667]}},{"properties":{"city":"Manchester","postal_code":"M469AQ","gold":1,"geo_score":0.857,"user_id":"03c1dd0c-f7b9-11df-88fb-123139181c25","toning":1,"jsg":0,"id":"a7vwwgqgxyua","zumbatomic":1,"geo_precision":"zip","zumba basic 2":1,"aqua":0,"sentao":0},"type":"Feature","geometry":{"type":"Point","coordinates":[-2.23743438720703,53.4809464283615]}},{"properties":{"city":"Wembley","postal_code":"ha97et","gold":0,"geo_score":0.857,"user_id":"03c1f756-f7b9-11df-88fb-123139181c25","toning":0,"jsg":0,"id":"a7vwwgfvtlil","zumbatomic":1,"geo_precision":"zip","zumba basic 2":1,"aqua":0,"sentao":0},"type":"Feature","geometry":{"type":"Point","coordinates":[-0.2833333,51.55]}},{"properties":{"city":"Doncaster","postal_code":"DN31NG","gold":0,"geo_score":0.857,"user_id":"03c20228-f7b9-11df-88fb-123139181c25","toning":1,"jsg":0,"id":"a7vwwgu70gwt","zumbatomic":0,"geo_precision":"zip","zumba basic 2":1,"aqua":0,"sentao":1},"type":"Feature","geometry":{"type":"Point","coordinates":[-1.00542068481445,53.4818147283195]}},{"properties":{"city":"preston","postal_code":"pr42bf","gold":1,"geo_score":0.857,"user_id":"03c23e46-f7b9-11df-88fb-123139181c25","toning":0,"jsg":0,"id":"a7vwwgrcwppo","zumbatomic":1,"geo_precision":"zip","zumba basic 2":1,"aqua":0,"sentao":0},"type":"Feature","geometry":{"type":"Point","coordinates":[-1.15853,52.18953]}},{"properties":{"city":"Bedfordshire","postal_code":"MK427FF","gold":0,"geo_score":0.857,"user_id":"03c97d32-f7b9-11df-88fb-123139181c25","toning":0,"jsg":0,"id":"a7vwwgmh61nq","zumbatomic":0,"geo_precision":"zip","zumba basic 2":0,"aqua":0,"sentao":0},"type":"Feature","geometry":{"type":"Point","coordinates":[-4.2166667,51.0166667]}},{"properties":{"city":"Kent","postal_code":"CT67EN","gold":1,"geo_score":0.857,"user_id":"03d07d80-f7b9-11df-88fb-123139181c25","toning":0,"jsg":0,"id":"a7vwwgexzod5","zumbatomic":1,"geo_precision":"zip","zumba basic 2":0,"aqua":1,"sentao":0},"type":"Feature","geometry":{"type":"Point","coordinates":[-3.75,56.0666667]}},{"properties":{"city":"Stanwell","postal_code":"TW197SJ","gold":1,"geo_score":0.857,"user_id":"03d08500-f7b9-11df-88fb-123139181c25","toning":1,"jsg":0,"id":"a7vwwgr1swuz","zumbatomic":1,"geo_precision":"zip","zumba basic 2":0,"aqua":1,"sentao":1},"type":"Feature","geometry":{"type":"Point","coordinates":[-0.4833333,51.45]}},{"properties":{"city":"Sunbury on Thames","postal_code":"TW165EH","gold":1,"geo_score":0.857,"user_id":"03d78d82-f7b9-11df-88fb-123139181c25","toning":1,"jsg":0,"id":"a7vwwgkyv4di","zumbatomic":1,"geo_precision":"zip","zumba basic 2":0,"aqua":0,"sentao":0},"type":"Feature","geometry":{"type":"Point","coordinates":[-2.5333333,57.3166667]}},{"properties":{"city":"Leeds","postal_code":"LS260ZD","gold":0,"geo_score":0.857,"user_id":"03de7890-f7b9-11df-88fb-123139181c25","toning":0,"jsg":0,"id":"a7vwwgp0wzgj","zumbatomic":0,"geo_precision":"zip","zumba basic 2":0,"aqua":0,"sentao":0},"type":"Feature","geometry":{"type":"Point","coordinates":[0.6166667,51.2333333]}},{"properties":{"city":"Chatham Kent","postal_code":"ME57NE","gold":0,"geo_score":0.857,"user_id":"03e4bc6e-f7b9-11df-88fb-123139181c25","toning":1,"jsg":0,"id":"a7vwwgil0vh8","zumbatomic":0,"geo_precision":"zip","zumba basic 2":0,"aqua":1,"sentao":0},"type":"Feature","geometry":{"type":"Point","coordinates":[-3.75,56.0666667]}},{"properties":{"city":"Worcester","postal_code":"WR26PE","gold":0,"geo_score":0.857,"user_id":"03e508b8-f7b9-11df-88fb-123139181c25","toning":0,"jsg":0,"id":"a7vwwgpjh3wr","zumbatomic":0,"geo_precision":"zip","zumba basic 2":0,"aqua":0,"sentao":0},"type":"Feature","geometry":{"type":"Point","coordinates":[-2.3333333,52.1]}},{"properties":{"city":"Barry","postal_code":"cf627ad","gold":0,"geo_score":0.857,"user_id":"03f684b2-f7b9-11df-88fb-123139181c25","toning":0,"jsg":0,"id":"a7vwwgtbflew","zumbatomic":0,"geo_precision":"zip","zumba basic 2":1,"aqua":0,"sentao":0},"type":"Feature","geometry":{"type":"Point","coordinates":[-1.35,60.3833333]}},{"properties":{"city":"Hampton","postal_code":"TW123BG","gold":0,"geo_score":0.857,"user_id":"03f6b388-f7b9-11df-88fb-123139181c25","toning":1,"jsg":0,"id":"a7vwwgmnr3zb","zumbatomic":1,"geo_precision":"zip","zumba basic 2":0,"aqua":0,"sentao":0},"type":"Feature","geometry":{"type":"Point","coordinates":[-4.25199866294861,55.82587984411]}},{"properties":{"city":"Denham","postal_code":"UB95AU","gold":0,"geo_score":0.857,"user_id":"0412b3bc-f7b9-11df-88fb-123139181c25","toning":0,"jsg":0,"id":"a7vwwgjrxg8e","zumbatomic":0,"geo_precision":"zip","zumba basic 2":0,"aqua":0,"sentao":0},"type":"Feature","geometry":{"type":"Point","coordinates":[0.8166667,51.3333333]}},{"properties":{"city":"london","postal_code":"sw192rp","gold":0,"geo_score":0.857,"user_id":"042e6e22-f7b9-11df-88fb-123139181c25","toning":0,"jsg":0,"id":"a7vwwgs9gq65","zumbatomic":0,"geo_precision":"zip","zumba basic 2":0,"aqua":0,"sentao":0},"type":"Feature","geometry":{"type":"Point","coordinates":[-2.8508333,51.7316667]}},{"properties":{"city":"Cumbria","postal_code":"CA73DY","gold":0,"geo_score":0.857,"user_id":"042e769c-f7b9-11df-88fb-123139181c25","toning":1,"jsg":0,"id":"a7vwwgtal87o","zumbatomic":0,"geo_precision":"zip","zumba basic 2":0,"aqua":0,"sentao":0},"type":"Feature","geometry":{"type":"Point","coordinates":[0.797195434570312,50.9342000130637]}},{"properties":{"city":"London Borough of Brent","postal_code":"NW100AP","gold":0,"geo_score":0.857,"user_id":"042eb9a4-f7b9-11df-88fb-123139181c25","toning":1,"jsg":0,"id":"a7vwwgilodb7","zumbatomic":0,"geo_precision":"zip","zumba basic 2":0,"aqua":0,"sentao":0},"type":"Feature","geometry":{"type":"Point","coordinates":[-0.2666667,51.55]}},{"properties":{"city":"Cardiff","postal_code":"CF142DH","gold":0,"geo_score":0.857,"user_id":"0430dcb4-319a-11e0-8b28-123139181c25","toning":0,"jsg":0,"id":"a7vwwgp3m0e1","zumbatomic":0,"geo_precision":"zip","zumba basic 2":0,"aqua":0,"sentao":0},"type":"Feature","geometry":{"type":"Point","coordinates":[-3.18,51.48]}},{"properties":{"city":"Aberdeen","postal_code":"AB159NN","gold":0,"geo_score":0.857,"user_id":"0435f5fc-f7b9-11df-88fb-123139181c25","toning":1,"jsg":0,"id":"a7vwwgtyepxh","zumbatomic":1,"geo_precision":"zip","zumba basic 2":0,"aqua":0,"sentao":0},"type":"Feature","geometry":{"type":"Point","coordinates":[-1.0833333,57.1166667]}},{"properties":{"city":"North Yorkshire Selby","postal_code":"DN149PB","gold":0,"geo_score":0.857,"user_id":"04404430-f7b9-11df-88fb-123139181c25","toning":1,"jsg":0,"id":"a7vwwgspazzd","zumbatomic":0,"geo_precision":"zip","zumba basic 2":0,"aqua":0,"sentao":0},"type":"Feature","geometry":{"type":"Point","coordinates":[-2.3833333,54.4833333]}},{"properties":{"city":"Barnsley","postal_code":"S751NF","gold":1,"geo_score":0.857,"user_id":"04404dea-f7b9-11df-88fb-123139181c25","toning":0,"jsg":0,"id":"a7vwwghx6txx","zumbatomic":1,"geo_precision":"zip","zumba basic 2":1,"aqua":1,"sentao":0},"type":"Feature","geometry":{"type":"Point","coordinates":[-1.49729,53.54648]}},{"properties":{"city":"Haverhill","postal_code":"CB99JF","gold":0,"geo_score":0.857,"user_id":"04479410-f7b9-11df-88fb-123139181c25","toning":1,"jsg":0,"id":"a7vwwghxbkzy","zumbatomic":3,"geo_precision":"zip","zumba basic 2":1,"aqua":0,"sentao":0},"type":"Feature","geometry":{"type":"Point","coordinates":[0.4333333,52.0833333]}},{"properties":{"city":"Darwen","postal_code":"BB31NY","gold":0,"geo_score":0.857,"user_id":"04479a8c-f7b9-11df-88fb-123139181c25","toning":0,"jsg":0,"id":"a7vwwgmq2quk","zumbatomic":0,"geo_precision":"zip","zumba basic 2":0,"aqua":1,"sentao":0},"type":"Feature","geometry":{"type":"Point","coordinates":[-3.7333333,52.6]}},{"properties":{"city":"London","postal_code":"HA55LE","gold":0,"geo_score":0.857,"user_id":"04479dc0-f7b9-11df-88fb-123139181c25","toning":0,"jsg":0,"id":"a7vwwgest4ov","zumbatomic":1,"geo_precision":"zip","zumba basic 2":0,"aqua":1,"sentao":0},"type":"Feature","geometry":{"type":"Point","coordinates":[-2.8508333,51.7316667]}},{"properties":{"city":"Blackpool","postal_code":"FY37NJ","gold":0,"geo_score":0.0,"user_id":"0447a3f6-f7b9-11df-88fb-123139181c25","toning":0,"jsg":0,"id":"a7vwwgkdlkw3","zumbatomic":0,"geo_precision":"unmatched","zumba basic 2":0,"aqua":0,"sentao":0},"type":"Feature","geometry":null},{"properties":{"city":"Reading","postal_code":"RG14LZ","gold":1,"geo_score":0.857,"user_id":"0447aa54-f7b9-11df-88fb-123139181c25","toning":1,"jsg":0,"id":"a7vwwger7t59","zumbatomic":1,"geo_precision":"zip","zumba basic 2":1,"aqua":0,"sentao":0},"type":"Feature","geometry":{"type":"Point","coordinates":[-3.0833333,58.8333333]}},{"properties":{"city":"Prescot","postal_code":"L355AJ","gold":1,"geo_score":0.857,"user_id":"044e63b2-f7b9-11df-88fb-123139181c25","toning":0,"jsg":0,"id":"a7vwwgp7s89x","zumbatomic":0,"geo_precision":"zip","zumba basic 2":0,"aqua":1,"sentao":0},"type":"Feature","geometry":{"type":"Point","coordinates":[-2.80031204223633,53.4294807151018]}},{"properties":{"city":"Belfast","postal_code":"BT60GA","gold":0,"geo_score":0.857,"user_id":"045bc666-3962-11e0-8b28-123139181c25","toning":0,"jsg":0,"id":"a7vwwgfjawcs","zumbatomic":0,"geo_precision":"zip","zumba basic 2":0,"aqua":0,"sentao":0},"type":"Feature","geometry":{"type":"Point","coordinates":[-5.9333333,54.6]}},{"properties":{"city":"Doncaster","postal_code":"DN58BU","gold":0,"geo_score":0.857,"user_id":"04608890-342b-11e0-8b28-123139181c25","toning":0,"jsg":0,"id":"a7vwwgo5q7oq","zumbatomic":1,"geo_precision":"zip","zumba basic 2":0,"aqua":0,"sentao":0},"type":"Feature","geometry":{"type":"Point","coordinates":[-1.00542068481445,53.4818147283195]}},{"properties":{"city":"Co Tyrone","postal_code":"BT701TG","gold":0,"geo_score":0.857,"user_id":"0463f38a-2991-11e0-8b28-123139181c25","toning":0,"jsg":0,"id":"a7vwwgl96ivg","zumbatomic":1,"geo_precision":"zip","zumba basic 2":0,"aqua":0,"sentao":0},"type":"Feature","geometry":{"type":"Point","coordinates":[-6.0333333,57.2]}},{"properties":{"city":"London","postal_code":"Ub33pa","gold":0,"geo_score":0.857,"user_id":"047720a2-0134-11e0-8b28-123139181c25","toning":0,"jsg":0,"id":"a7vwwgq6eyzo","zumbatomic":0,"geo_precision":"zip","zumba basic 2":0,"aqua":0,"sentao":0},"type":"Feature","geometry":{"type":"Point","coordinates":[-2.8508333,51.7316667]}},{"properties":{"city":"Alton Hampshire","postal_code":"gu342ax","gold":0,"geo_score":0.857,"user_id":"047e59dc-f7b9-11df-88fb-123139181c25","toning":0,"jsg":0,"id":"a7vwwgt2rmgd","zumbatomic":0,"geo_precision":"zip","zumba basic 2":0,"aqua":0,"sentao":0},"type":"Feature","geometry":{"type":"Point","coordinates":[-5.1833333,57.8833333]}},{"properties":{"city":"Milton Keynes","postal_code":"MK57AX","gold":1,"geo_score":0.857,"user_id":"047e7d7c-f7b9-11df-88fb-123139181c25","toning":1,"jsg":0,"id":"a7vwwgji2ax6","zumbatomic":1,"geo_precision":"zip","zumba basic 2":0,"aqua":1,"sentao":1},"type":"Feature","geometry":{"type":"Point","coordinates":[-0.755825042724609,52.0417219233052]}},{"properties":{"city":"Rollesby","postal_code":"NR295HA","gold":0,"geo_score":0.857,"user_id":"049a5456-1cb8-11e0-8b28-123139181c25","toning":0,"jsg":0,"id":"a7vwwgovh2tn","zumbatomic":0,"geo_precision":"zip","zumba basic 2":0,"aqua":0,"sentao":0},"type":"Feature","geometry":{"type":"Point","coordinates":[1.62052631378174,52.6875173371805]}},{"properties":{"city":"AYRSHIRE","postal_code":"KA106RF","gold":0,"geo_score":0.857,"user_id":"04ac08e4-23cb-11e0-8b28-123139181c25","toning":0,"jsg":0,"id":"a7vwwgs9rq5s","zumbatomic":0,"geo_precision":"zip","zumba basic 2":0,"aqua":0,"sentao":0},"type":"Feature","geometry":{"type":"Point","coordinates":[-4.5,55.5]}},{"properties":{"city":"Manchester","postal_code":"WN25RR","gold":0,"geo_score":0.857,"user_id":"04b831d4-f7b9-11df-88fb-123139181c25","toning":0,"jsg":0,"id":"a7vwwgqt7yix","zumbatomic":0,"geo_precision":"zip","zumba basic 2":0,"aqua":0,"sentao":0},"type":"Feature","geometry":{"type":"Point","coordinates":[-2.23743438720703,53.4809464283615]}},{"properties":{"city":"East Kilbride","postal_code":"G741QZ","gold":0,"geo_score":0.857,"user_id":"04b87edc-f7b9-11df-88fb-123139181c25","toning":1,"jsg":0,"id":"a7vwwgq3vds8","zumbatomic":1,"geo_precision":"zip","zumba basic 2":1,"aqua":1,"sentao":0},"type":"Feature","geometry":{"type":"Point","coordinates":[-0.479621887207031,51.2536428425804]}},{"properties":{"city":"Sunderland","postal_code":"SR28JY","gold":1,"geo_score":0.857,"user_id":"04bf8c4a-f7b9-11df-88fb-123139181c25","toning":1,"jsg":0,"id":"a7vwwgslbbpi","zumbatomic":1,"geo_precision":"zip","zumba basic 2":1,"aqua":1,"sentao":0},"type":"Feature","geometry":{"type":"Point","coordinates":[-0.26733,51.53093]}},{"properties":{"city":"Reddingmuirhead","postal_code":"FK20FB","gold":1,"geo_score":0.857,"user_id":"04bf9334-f7b9-11df-88fb-123139181c25","toning":1,"jsg":0,"id":"a7vwwggcappg","zumbatomic":1,"geo_precision":"zip","zumba basic 2":0,"aqua":0,"sentao":0},"type":"Feature","geometry":{"type":"Point","coordinates":[-1.9666667,54.9333333]}},{"properties":{"city":"Barnsley SouthYorkshire","postal_code":"S711QE","gold":1,"geo_score":0.857,"user_id":"04bfb21a-f7b9-11df-88fb-123139181c25","toning":0,"jsg":0,"id":"a7vwwgu1t111","zumbatomic":0,"geo_precision":"zip","zumba basic 2":0,"aqua":0,"sentao":0},"type":"Feature","geometry":{"type":"Point","coordinates":[-1.49729,53.54648]}},{"properties":{"city":"Telford","postal_code":"TF35DA","gold":0,"geo_score":0.857,"user_id":"04c04822-315e-11e0-8b28-123139181c25","toning":0,"jsg":0,"id":"a7vwwgrwcf2k","zumbatomic":0,"geo_precision":"zip","zumba basic 2":0,"aqua":0,"sentao":0},"type":"Feature","geometry":{"type":"Point","coordinates":[-2.446,52.626]}},{"properties":{"city":"Preston","postal_code":"pr41xb","gold":0,"geo_score":0.857,"user_id":"04c6be52-f7b9-11df-88fb-123139181c25","toning":0,"jsg":0,"id":"a7vwwgngkxq7","zumbatomic":0,"geo_precision":"zip","zumba basic 2":0,"aqua":0,"sentao":0},"type":"Feature","geometry":{"type":"Point","coordinates":[-1.15853,52.18953]}},{"properties":{"city":"Preston","postal_code":"0","gold":0,"geo_score":0.857,"user_id":"04c6c4ce-f7b9-11df-88fb-123139181c25","toning":0,"jsg":0,"id":"a7vwwgm0b6oz","zumbatomic":0,"geo_precision":"zip","zumba basic 2":0,"aqua":1,"sentao":0},"type":"Feature","geometry":{"type":"Point","coordinates":[-1.15853,52.18953]}},{"properties":{"city":"Colchester Essex","postal_code":"SS87HE","gold":0,"geo_score":0.857,"user_id":"04c6c7da-f7b9-11df-88fb-123139181c25","toning":0,"jsg":0,"id":"a7vwwgfv3u92","zumbatomic":0,"geo_precision":"zip","zumba basic 2":0,"aqua":0,"sentao":0},"type":"Feature","geometry":{"type":"Point","coordinates":[0.90214,51.89044]}},{"properties":{"city":"London Borough of Lambeth","postal_code":"SW162SS","gold":0,"geo_score":0.857,"user_id":"04d062fe-f7b9-11df-88fb-123139181c25","toning":0,"jsg":0,"id":"a7vwwgsfv2sh","zumbatomic":0,"geo_precision":"zip","zumba basic 2":0,"aqua":0,"sentao":0},"type":"Feature","geometry":{"type":"Point","coordinates":[0.1508,52.19712]}},{"properties":{"city":"Hermitage Newbury","postal_code":"RG189TZ","gold":0,"geo_score":0.857,"user_id":"04d6cfe0-f7b9-11df-88fb-123139181c25","toning":0,"jsg":0,"id":"a7vwwgr233wd","zumbatomic":1,"geo_precision":"zip","zumba basic 2":0,"aqua":0,"sentao":0},"type":"Feature","geometry":{"type":"Point","coordinates":[-2.7833333,55.25]}},{"properties":{"city":"Lancashire","postal_code":"PR43HA","gold":0,"geo_score":0.0,"user_id":"04d768a6-f7b9-11df-88fb-123139181c25","toning":0,"jsg":0,"id":"a7vwwgkg6ziw","zumbatomic":1,"geo_precision":"unmatched","zumba basic 2":0,"aqua":0,"sentao":0},"type":"Feature","geometry":null},{"properties":{"city":"London Borough of Brent","postal_code":"nw25js","gold":0,"geo_score":0.857,"user_id":"04de350a-f7b9-11df-88fb-123139181c25","toning":0,"jsg":0,"id":"a7vwwge195c9","zumbatomic":0,"geo_precision":"zip","zumba basic 2":0,"aqua":0,"sentao":0},"type":"Feature","geometry":{"type":"Point","coordinates":[-0.2666667,51.55]}},{"properties":{"city":"Vale of Glamorgan","postal_code":"CF634AT","gold":0,"geo_score":0.857,"user_id":"04e52fcc-f7b9-11df-88fb-123139181c25","toning":1,"jsg":0,"id":"a7vwwgo1ohtd","zumbatomic":0,"geo_precision":"zip","zumba basic 2":0,"aqua":0,"sentao":1},"type":"Feature","geometry":{"type":"Point","coordinates":[-0.8,60.4]}},{"properties":{"city":"Berkshire","postal_code":"SL69LL","gold":0,"geo_score":0.857,"user_id":"04e54c6e-f7b9-11df-88fb-123139181c25","toning":0,"jsg":0,"id":"a7vwwgsq8m59","zumbatomic":0,"geo_precision":"zip","zumba basic 2":0,"aqua":0,"sentao":0},"type":"Feature","geometry":{"type":"Point","coordinates":[-1.25,51.5]}},{"properties":{"city":"Chafford Hundred","postal_code":"RM166BJ","gold":0,"geo_score":0.857,"user_id":"04e57f72-f7b9-11df-88fb-123139181c25","toning":0,"jsg":0,"id":"a7vwwgrme3ch","zumbatomic":0,"geo_precision":"zip","zumba basic 2":0,"aqua":0,"sentao":0},"type":"Feature","geometry":{"type":"Point","coordinates":[-1.3166667,51.0166667]}},{"properties":{"city":"Suffolk","postal_code":"CB80EA","gold":0,"geo_score":0.857,"user_id":"04ebe114-f7b9-11df-88fb-123139181c25","toning":0,"jsg":0,"id":"a7vwwghatlqv","zumbatomic":0,"geo_precision":"zip","zumba basic 2":0,"aqua":0,"sentao":0},"type":"Feature","geometry":{"type":"Point","coordinates":[0.7024,52.2758]}},{"properties":{"city":"Glasgow","postal_code":"G672JZ","gold":0,"geo_score":0.857,"user_id":"04ed59fe-f7b9-11df-88fb-123139181c25","toning":0,"jsg":0,"id":"a7vwwgmc8by4","zumbatomic":0,"geo_precision":"zip","zumba basic 2":1,"aqua":0,"sentao":0},"type":"Feature","geometry":{"type":"Point","coordinates":[-4.25763130187988,55.8651497187961]}},{"properties":{"city":"Boston","postal_code":"pe210n","gold":0,"geo_score":0.857,"user_id":"04ed60a2-f7b9-11df-88fb-123139181c25","toning":0,"jsg":0,"id":"a7vwwgnhf2rg","zumbatomic":0,"geo_precision":"zip","zumba basic 2":1,"aqua":0,"sentao":0},"type":"Feature","geometry":{"type":"Point","coordinates":[-2.0,55.6666667]}},{"properties":{"city":"Spalding","postal_code":"pe120ud","gold":0,"geo_score":0.857,"user_id":"04ed6ca0-f7b9-11df-88fb-123139181c25","toning":0,"jsg":0,"id":"a7vwwgkjudt5","zumbatomic":0,"geo_precision":"zip","zumba basic 2":1,"aqua":0,"sentao":0},"type":"Feature","geometry":{"type":"Point","coordinates":[-0.1,52.8166667]}},{"properties":{"city":"Derbyshire","postal_code":"DE757TP","gold":1,"geo_score":0.857,"user_id":"04f3ea44-f7b9-11df-88fb-123139181c25","toning":1,"jsg":0,"id":"a7vwwgh2960t","zumbatomic":1,"geo_precision":"zip","zumba basic 2":0,"aqua":0,"sentao":0},"type":"Feature","geometry":{"type":"Point","coordinates":[-1.46857,52.91421]}},{"properties":{"city":"Basingstoke","postal_code":"RG217LE","gold":0,"geo_score":0.857,"user_id":"04f4061e-f7b9-11df-88fb-123139181c25","toning":0,"jsg":0,"id":"a7vwwgoz6bup","zumbatomic":0,"geo_precision":"zip","zumba basic 2":0,"aqua":0,"sentao":0},"type":"Feature","geometry":{"type":"Point","coordinates":[-0.9874,51.14041]}},{"properties":{"city":"London","postal_code":"SE231JS","gold":0,"geo_score":0.857,"user_id":"04f43346-f7b9-11df-88fb-123139181c25","toning":0,"jsg":0,"id":"a7vwwggyy36e","zumbatomic":0,"geo_precision":"zip","zumba basic 2":0,"aqua":0,"sentao":0},"type":"Feature","geometry":{"type":"Point","coordinates":[-2.8508333,51.7316667]}},{"properties":{"city":"london","postal_code":"n88pt","gold":0,"geo_score":0.857,"user_id":"04f53770-3f5b-11e0-8b28-123139181c25","toning":0,"jsg":0,"id":"a7vwwgio9cp1","zumbatomic":0,"geo_precision":"zip","zumba basic 2":0,"aqua":0,"sentao":0},"type":"Feature","geometry":{"type":"Point","coordinates":[-2.8508333,51.7316667]}},{"properties":{"city":"Feltham Middlesex","postal_code":"tw148eu","gold":0,"geo_score":0.857,"user_id":"04fb3498-f7b9-11df-88fb-123139181c25","toning":0,"jsg":0,"id":"a7vwwgk8b495","zumbatomic":0,"geo_precision":"zip","zumba basic 2":0,"aqua":0,"sentao":0},"type":"Feature","geometry":{"type":"Point","coordinates":[-0.97056,50.90454]}},{"properties":{"city":"South Lanarkshie","postal_code":"G727NR","gold":0,"geo_score":0.857,"user_id":"04fc9222-35e7-11e0-8b28-123139181c25","toning":0,"jsg":0,"id":"a7vwwgiuljds","zumbatomic":0,"geo_precision":"zip","zumba basic 2":0,"aqua":0,"sentao":0},"type":"Feature","geometry":{"type":"Point","coordinates":[-3.8333333,55.5833333]}},{"properties":{"city":"Aylesbury","postal_code":"HP199PY","gold":0,"geo_score":0.857,"user_id":"05093476-f7b9-11df-88fb-123139181c25","toning":1,"jsg":0,"id":"a7vwwggtlc7q","zumbatomic":1,"geo_precision":"zip","zumba basic 2":1,"aqua":0,"sentao":0},"type":"Feature","geometry":{"type":"Point","coordinates":[-0.8,51.8333333]}},{"properties":{"city":"London Borough of Barnet","postal_code":"N120AR","gold":0,"geo_score":0.857,"user_id":"05099d30-f7b9-11df-88fb-123139181c25","toning":0,"jsg":0,"id":"a7vwwglmxbdm","zumbatomic":0,"geo_precision":"zip","zumba basic 2":0,"aqua":0,"sentao":0},"type":"Feature","geometry":{"type":"Point","coordinates":[-0.2666667,51.55]}},{"properties":{"city":"London","postal_code":"se208rl","gold":1,"geo_score":0.857,"user_id":"051edd94-f7b9-11df-88fb-123139181c25","toning":1,"jsg":0,"id":"a7vwwgnac6n6","zumbatomic":0,"geo_precision":"zip","zumba basic 2":0,"aqua":1,"sentao":0},"type":"Feature","geometry":{"type":"Point","coordinates":[-2.8508333,51.7316667]}},{"properties":{"city":"Ipswich","postal_code":"IP83QX","gold":0,"geo_score":0.857,"user_id":"052a6ca0-4ffb-11e0-8b28-123139181c25","toning":0,"jsg":0,"id":"a7vwwgnomc2f","zumbatomic":0,"geo_precision":"zip","zumba basic 2":0,"aqua":0,"sentao":0},"type":"Feature","geometry":{"type":"Point","coordinates":[1.19716644287109,52.0580321019272]}},{"properties":{"city":"Port Talbot","postal_code":"SA132RF","gold":0,"geo_score":0.857,"user_id":"052cc35a-f7b9-11df-88fb-123139181c25","toning":0,"jsg":0,"id":"a7vwwgob2jxu","zumbatomic":0,"geo_precision":"zip","zumba basic 2":1,"aqua":0,"sentao":0},"type":"Feature","geometry":{"type":"Point","coordinates":[-3.80233,51.59031]}},{"properties":{"city":"Edinburgh","postal_code":"EH65BB","gold":0,"geo_score":0.857,"user_id":"052cdb06-f7b9-11df-88fb-123139181c25","toning":0,"jsg":0,"id":"a7vwwgrs9e9y","zumbatomic":0,"geo_precision":"zip","zumba basic 2":1,"aqua":0,"sentao":0},"type":"Feature","geometry":{"type":"Point","coordinates":[-3.3725,55.95]}},{"properties":{"city":"Torfaen","postal_code":"np4-5sy","gold":0,"geo_score":0.857,"user_id":"052cde94-f7b9-11df-88fb-123139181c25","toning":0,"jsg":0,"id":"a7vwwgic1hlx","zumbatomic":0,"geo_precision":"zip","zumba basic 2":0,"aqua":0,"sentao":0},"type":"Feature","geometry":{"type":"Point","coordinates":[-5.1447222,51.9491667]}},{"properties":{"city":"Torfaen","postal_code":"np443jj","gold":0,"geo_score":0.857,"user_id":"052ce268-f7b9-11df-88fb-123139181c25","toning":1,"jsg":0,"id":"a7vwwgo652yw","zumbatomic":1,"geo_precision":"zip","zumba basic 2":0,"aqua":0,"sentao":0},"type":"Feature","geometry":{"type":"Point","coordinates":[-5.1447222,51.9491667]}},{"properties":{"city":"stoke on  trent","postal_code":"st31aj","gold":0,"geo_score":0.857,"user_id":"052e157e-2019-11e0-8b28-123139181c25","toning":0,"jsg":0,"id":"a7vwwgtp6nl6","zumbatomic":0,"geo_precision":"zip","zumba basic 2":0,"aqua":1,"sentao":0},"type":"Feature","geometry":{"type":"Point","coordinates":[-3.5333333,50.5166667]}},{"properties":{"city":"Warwickshire","postal_code":"CV93AX","gold":0,"geo_score":0.0,"user_id":"0533784e-f7b9-11df-88fb-123139181c25","toning":1,"jsg":0,"id":"a7vwwgqyv3jj","zumbatomic":0,"geo_precision":"unmatched","zumba basic 2":0,"aqua":0,"sentao":0},"type":"Feature","geometry":null},{"properties":{"city":"Warwickshire","postal_code":"CV120GL","gold":0,"geo_score":0.0,"user_id":"05338492-f7b9-11df-88fb-123139181c25","toning":1,"jsg":0,"id":"a7vwwgsnm7ar","zumbatomic":1,"geo_precision":"unmatched","zumba basic 2":0,"aqua":0,"sentao":0},"type":"Feature","geometry":null},{"properties":{"city":"REDDITCH","postal_code":"B988HN","gold":0,"geo_score":0.857,"user_id":"0533af8a-f7b9-11df-88fb-123139181c25","toning":1,"jsg":0,"id":"a7vwwgp9bowy","zumbatomic":1,"geo_precision":"zip","zumba basic 2":1,"aqua":1,"sentao":0},"type":"Feature","geometry":{"type":"Point","coordinates":[-1.9333333,52.3]}},{"properties":{"city":"Edinburgh","postal_code":"EH153RZ","gold":1,"geo_score":0.857,"user_id":"0533fcc4-f7b9-11df-88fb-123139181c25","toning":1,"jsg":0,"id":"a7vwwghkt7uf","zumbatomic":1,"geo_precision":"zip","zumba basic 2":1,"aqua":1,"sentao":0},"type":"Feature","geometry":{"type":"Point","coordinates":[-3.3725,55.95]}},{"properties":{"city":"Leicestershire","postal_code":"LE29NZ","gold":0,"geo_score":0.857,"user_id":"05340e26-f7b9-11df-88fb-123139181c25","toning":1,"jsg":0,"id":"a7vwwglld12t","zumbatomic":1,"geo_precision":"zip","zumba basic 2":1,"aqua":0,"sentao":0},"type":"Feature","geometry":{"type":"Point","coordinates":[-1.1348,52.62782]}},{"properties":{"city":"Nuneaton Warwickshire","postal_code":"CV107LZ","gold":0,"geo_score":0.857,"user_id":"0541b5b2-f7b9-11df-88fb-123139181c25","toning":0,"jsg":0,"id":"a7vwwgousbqk","zumbatomic":1,"geo_precision":"zip","zumba basic 2":1,"aqua":0,"sentao":0},"type":"Feature","geometry":{"type":"Point","coordinates":[-1.8333333,51.9]}},{"properties":{"city":"Chatham Kent","postal_code":"ME59JG","gold":0,"geo_score":0.857,"user_id":"0541c85e-f7b9-11df-88fb-123139181c25","toning":0,"jsg":0,"id":"a7vwwgk5pmjo","zumbatomic":0,"geo_precision":"zip","zumba basic 2":0,"aqua":0,"sentao":0},"type":"Feature","geometry":{"type":"Point","coordinates":[-3.75,56.0666667]}},{"properties":{"city":"Oban","postal_code":"PA344HS","gold":1,"geo_score":0.857,"user_id":"0541d5d8-f7b9-11df-88fb-123139181c25","toning":1,"jsg":0,"id":"a7vwwgsvhu2r","zumbatomic":1,"geo_precision":"zip","zumba basic 2":0,"aqua":0,"sentao":1},"type":"Feature","geometry":{"type":"Point","coordinates":[-5.4666667,56.4166667]}},{"properties":{"city":"Surrey","postal_code":"SM44PG","gold":1,"geo_score":0.857,"user_id":"0541f022-f7b9-11df-88fb-123139181c25","toning":1,"jsg":0,"id":"a7vwwgk03n3m","zumbatomic":1,"geo_precision":"zip","zumba basic 2":1,"aqua":1,"sentao":1},"type":"Feature","geometry":{"type":"Point","coordinates":[-4.2333333,58.3666667]}},{"properties":{"city":"Liversedge","postal_code":"WF156DJ","gold":0,"geo_score":0.857,"user_id":"05485c4c-2dff-11e0-8b28-123139181c25","toning":0,"jsg":0,"id":"a7vwwglxkhal","zumbatomic":0,"geo_precision":"zip","zumba basic 2":0,"aqua":0,"sentao":0},"type":"Feature","geometry":{"type":"Point","coordinates":[-1.69326782226562,53.7051412313028]}},{"properties":{"city":"Airdrie","postal_code":"ML68SE","gold":0,"geo_score":0.857,"user_id":"0548d05e-f7b9-11df-88fb-123139181c25","toning":0,"jsg":0,"id":"a7vwwgo2qgom","zumbatomic":0,"geo_precision":"zip","zumba basic 2":0,"aqua":0,"sentao":0},"type":"Feature","geometry":{"type":"Point","coordinates":[-6.6833333,54.6333333]}},{"properties":{"city":"Kings Lynn","postal_code":"PE339NZ","gold":1,"geo_score":0.857,"user_id":"054f1720-4af7-11e0-8b28-123139181c25","toning":0,"jsg":0,"id":"a7vwwgjtdjo9","zumbatomic":0,"geo_precision":"zip","zumba basic 2":0,"aqua":0,"sentao":0},"type":"Feature","geometry":{"type":"Point","coordinates":[-0.8666667,51.1166667]}},{"properties":{"city":"Gloucester","postal_code":"GL40TP","gold":0,"geo_score":0.857,"user_id":"055ce666-f7b9-11df-88fb-123139181c25","toning":0,"jsg":0,"id":"a7vwwgpfjb7s","zumbatomic":0,"geo_precision":"zip","zumba basic 2":1,"aqua":0,"sentao":0},"type":"Feature","geometry":{"type":"Point","coordinates":[-2.24309921264648,51.8656800532905]}},{"properties":{"city":"London Borough of Greenwich","postal_code":"SE182UQ","gold":1,"geo_score":0.857,"user_id":"055d3396-f7b9-11df-88fb-123139181c25","toning":0,"jsg":0,"id":"a7vwwgon7z2y","zumbatomic":0,"geo_precision":"zip","zumba basic 2":1,"aqua":0,"sentao":0},"type":"Feature","geometry":{"type":"Point","coordinates":[-0.0157392024993896,51.4780486631143]}},{"properties":{"city":"Surrey","postal_code":"sm67df","gold":0,"geo_score":0.857,"user_id":"055d3fbc-f7b9-11df-88fb-123139181c25","toning":0,"jsg":0,"id":"a7vwwgeoblmb","zumbatomic":0,"geo_precision":"zip","zumba basic 2":0,"aqua":0,"sentao":0},"type":"Feature","geometry":{"type":"Point","coordinates":[-4.2333333,58.3666667]}},{"properties":{"city":"Chard","postal_code":"ta204dd","gold":0,"geo_score":0.857,"user_id":"05677b08-f7b9-11df-88fb-123139181c25","toning":0,"jsg":0,"id":"a7vwwgspva0m","zumbatomic":0,"geo_precision":"zip","zumba basic 2":0,"aqua":0,"sentao":0},"type":"Feature","geometry":{"type":"Point","coordinates":[-2.9666667,50.8666667]}},{"properties":{"city":"Chard","postal_code":"ta201JQ","gold":0,"geo_score":0.857,"user_id":"05678bfc-f7b9-11df-88fb-123139181c25","toning":0,"jsg":0,"id":"a7vwwgjkw132","zumbatomic":1,"geo_precision":"zip","zumba basic 2":0,"aqua":0,"sentao":0},"type":"Feature","geometry":{"type":"Point","coordinates":[-2.9666667,50.8666667]}},{"properties":{"city":"REIGATE","postal_code":"RH27RE","gold":1,"geo_score":0.857,"user_id":"0567b708-f7b9-11df-88fb-123139181c25","toning":0,"jsg":0,"id":"a7vwwghp3s1a","zumbatomic":0,"geo_precision":"zip","zumba basic 2":0,"aqua":0,"sentao":0},"type":"Feature","geometry":{"type":"Point","coordinates":[-0.2166667,51.2333333]}},{"properties":{"city":"CO Durham","postal_code":"DH31RU","gold":1,"geo_score":0.857,"user_id":"05681c70-f7b9-11df-88fb-123139181c25","toning":1,"jsg":0,"id":"a7vwwgspcizr","zumbatomic":1,"geo_precision":"zip","zumba basic 2":1,"aqua":0,"sentao":1},"type":"Feature","geometry":{"type":"Point","coordinates":[-3.9333333,52.0333333]}},{"properties":{"city":"Lincolnshire","postal_code":"LN117SE","gold":0,"geo_score":0.857,"user_id":"056f2d26-f7b9-11df-88fb-123139181c25","toning":0,"jsg":0,"id":"a7vwwgslqfvy","zumbatomic":1,"geo_precision":"zip","zumba basic 2":0,"aqua":0,"sentao":0},"type":"Feature","geometry":{"type":"Point","coordinates":[-4.0086111,51.565]}},{"properties":{"city":"London","postal_code":"SW84JZ","gold":0,"geo_score":0.857,"user_id":"05757820-f7b9-11df-88fb-123139181c25","toning":0,"jsg":0,"id":"a7vwwggzodsc","zumbatomic":0,"geo_precision":"zip","zumba basic 2":0,"aqua":0,"sentao":0},"type":"Feature","geometry":{"type":"Point","coordinates":[-2.8508333,51.7316667]}},{"properties":{"city":"Knaresborough","postal_code":"hg58hl","gold":0,"geo_score":0.857,"user_id":"0575fb42-f7b9-11df-88fb-123139181c25","toning":1,"jsg":0,"id":"a7vwwghzy7zg","zumbatomic":1,"geo_precision":"zip","zumba basic 2":1,"aqua":0,"sentao":0},"type":"Feature","geometry":{"type":"Point","coordinates":[-1.4666667,54.0]}},{"properties":{"city":"Kent","postal_code":"CT70QP","gold":0,"geo_score":0.857,"user_id":"0576112c-f7b9-11df-88fb-123139181c25","toning":0,"jsg":0,"id":"a7vwwgp6h1ou","zumbatomic":0,"geo_precision":"zip","zumba basic 2":1,"aqua":0,"sentao":0},"type":"Feature","geometry":{"type":"Point","coordinates":[-3.75,56.0666667]}},{"properties":{"city":"East Sussex","postal_code":"BN200EW","gold":0,"geo_score":0.857,"user_id":"0590678c-316d-11e0-8b28-123139181c25","toning":0,"jsg":0,"id":"a7vwwgpuswb2","zumbatomic":0,"geo_precision":"zip","zumba basic 2":0,"aqua":0,"sentao":0},"type":"Feature","geometry":{"type":"Point","coordinates":[0.28327,50.77386]}},{"properties":{"city":"Wolverhampton","postal_code":"wv100su","gold":0,"geo_score":0.857,"user_id":"05a6a946-4407-11e0-8b28-123139181c25","toning":0,"jsg":0,"id":"a7vwwgsledt1","zumbatomic":0,"geo_precision":"zip","zumba basic 2":0,"aqua":0,"sentao":0},"type":"Feature","geometry":{"type":"Point","coordinates":[-2.1333333,52.5833333]}},{"properties":{"city":"Brigg","postal_code":"DN200NG","gold":0,"geo_score":0.857,"user_id":"05ab11c6-4f28-11e0-8b28-123139181c25","toning":0,"jsg":0,"id":"a7vwwgjutdv8","zumbatomic":1,"geo_precision":"zip","zumba basic 2":0,"aqua":0,"sentao":0},"type":"Feature","geometry":{"type":"Point","coordinates":[-0.4833333,53.55]}},{"properties":{"city":"Topsham","postal_code":"EX30AF","gold":0,"geo_score":0.857,"user_id":"05d99806-50a0-11e0-8b28-123139181c25","toning":0,"jsg":0,"id":"a7vwwgnqeeip","zumbatomic":0,"geo_precision":"zip","zumba basic 2":1,"aqua":0,"sentao":0},"type":"Feature","geometry":{"type":"Point","coordinates":[-3.45,50.6833333]}},{"properties":{"city":"Glossop Derbyshire","postal_code":"SK131QT","gold":0,"geo_score":0.857,"user_id":"05dc4b6e-22f6-11e0-8b28-123139181c25","toning":0,"jsg":0,"id":"a7vwwgheuhsl","zumbatomic":1,"geo_precision":"zip","zumba basic 2":0,"aqua":0,"sentao":0},"type":"Feature","geometry":{"type":"Point","coordinates":[-1.46857,52.91421]}},{"properties":{"city":"Craigavon","postal_code":"BT623JE","gold":0,"geo_score":0.857,"user_id":"05e1bf2a-4a76-11e0-8b28-123139181c25","toning":0,"jsg":0,"id":"a7vwwgitlwbg","zumbatomic":0,"geo_precision":"zip","zumba basic 2":0,"aqua":0,"sentao":0},"type":"Feature","geometry":{"type":"Point","coordinates":[-6.3333333,54.5]}},{"properties":{"city":"Haxby","postal_code":"y0322d9","gold":0,"geo_score":0.0,"user_id":"0608321e-fe3f-11df-8b28-123139181c25","toning":0,"jsg":0,"id":"a7vwwgjm6d7g","zumbatomic":0,"geo_precision":"unmatched","zumba basic 2":0,"aqua":0,"sentao":0},"type":"Feature","geometry":null},{"properties":{"city":"Wednesbury","postal_code":"WS100QD","gold":0,"geo_score":0.857,"user_id":"0615f240-1443-11e0-8b28-123139181c25","toning":1,"jsg":0,"id":"a7vwwgudnkav","zumbatomic":0,"geo_precision":"zip","zumba basic 2":0,"aqua":0,"sentao":0},"type":"Feature","geometry":{"type":"Point","coordinates":[-2.0166667,52.55]}},{"properties":{"city":"London","postal_code":"SE63JH","gold":1,"geo_score":0.857,"user_id":"0621dfca-f7b9-11df-88fb-123139181c25","toning":0,"jsg":0,"id":"a7vwwgh6l1gh","zumbatomic":1,"geo_precision":"zip","zumba basic 2":0,"aqua":0,"sentao":0},"type":"Feature","geometry":{"type":"Point","coordinates":[-2.8508333,51.7316667]}},{"properties":{"city":"Northallerton","postal_code":"dl61as","gold":0,"geo_score":0.857,"user_id":"062b5ea0-012e-11e0-8b28-123139181c25","toning":0,"jsg":0,"id":"a7vwwgqknlfe","zumbatomic":0,"geo_precision":"zip","zumba basic 2":0,"aqua":0,"sentao":0},"type":"Feature","geometry":{"type":"Point","coordinates":[-1.44594,54.34119]}},{"properties":{"city":"High Wycombe","postal_code":"HP136FU","gold":0,"geo_score":0.857,"user_id":"06364b52-3e88-11e0-8b28-123139181c25","toning":0,"jsg":0,"id":"a7vwwgmcd5he","zumbatomic":0,"geo_precision":"zip","zumba basic 2":0,"aqua":0,"sentao":0},"type":"Feature","geometry":{"type":"Point","coordinates":[-0.1833333,50.8333333]}},{"properties":{"city":"Penistone south yorkshire","postal_code":"s366dl","gold":1,"geo_score":0.857,"user_id":"063b455a-f7b9-11df-88fb-123139181c25","toning":1,"jsg":0,"id":"a7vwwgryqsm5","zumbatomic":1,"geo_precision":"zip","zumba basic 2":1,"aqua":0,"sentao":0},"type":"Feature","geometry":{"type":"Point","coordinates":[-1.63026809692383,53.5257173054989]}},{"properties":{"city":"Cheltenham","postal_code":"GL522AA","gold":0,"geo_score":0.857,"user_id":"063b52e8-f7b9-11df-88fb-123139181c25","toning":0,"jsg":0,"id":"a7vwwghbe0o7","zumbatomic":1,"geo_precision":"zip","zumba basic 2":1,"aqua":0,"sentao":0},"type":"Feature","geometry":{"type":"Point","coordinates":[-2.0833333,51.9]}},{"properties":{"city":"Nottinghamshire","postal_code":"NG190ER","gold":1,"geo_score":0.857,"user_id":"06494420-f7b9-11df-88fb-123139181c25","toning":0,"jsg":0,"id":"a7vwwgktj2b5","zumbatomic":1,"geo_precision":"zip","zumba basic 2":0,"aqua":0,"sentao":0},"type":"Feature","geometry":{"type":"Point","coordinates":[-2.63543,53.44457]}},{"properties":{"city":"Surbiton","postal_code":"KT64EA","gold":0,"geo_score":0.857,"user_id":"0649652c-f7b9-11df-88fb-123139181c25","toning":0,"jsg":0,"id":"a7vwwgmnaa0o","zumbatomic":0,"geo_precision":"zip","zumba basic 2":0,"aqua":0,"sentao":0},"type":"Feature","geometry":{"type":"Point","coordinates":[-0.30238151550293,51.3918153021481]}},{"properties":{"city":"Windsor","postal_code":"SL41HR","gold":1,"geo_score":0.857,"user_id":"0653ef60-f7b9-11df-88fb-123139181c25","toning":1,"jsg":0,"id":"a7vwwgsg7y6k","zumbatomic":1,"geo_precision":"zip","zumba basic 2":1,"aqua":0,"sentao":1},"type":"Feature","geometry":{"type":"Point","coordinates":[-2.35370707511902,51.3833694458008]}},{"properties":{"city":"Bedford","postal_code":"MK420NX","gold":1,"geo_score":0.857,"user_id":"0653f744-f7b9-11df-88fb-123139181c25","toning":0,"jsg":0,"id":"a7vwwglf1kor","zumbatomic":0,"geo_precision":"zip","zumba basic 2":0,"aqua":0,"sentao":0},"type":"Feature","geometry":{"type":"Point","coordinates":[-4.2166667,51.0166667]}},{"properties":{"city":"Battersea","postal_code":"SW115SN","gold":0,"geo_score":0.857,"user_id":"065ae446-f7b9-11df-88fb-123139181c25","toning":0,"jsg":0,"id":"a7vwwgkqylg0","zumbatomic":0,"geo_precision":"zip","zumba basic 2":0,"aqua":0,"sentao":0},"type":"Feature","geometry":{"type":"Point","coordinates":[-0.163722038269043,51.4731771711338]}},{"properties":{"city":"Reading","postal_code":"RG109YR","gold":0,"geo_score":0.857,"user_id":"065ae798-f7b9-11df-88fb-123139181c25","toning":0,"jsg":0,"id":"a7vwwgfsyt7m","zumbatomic":0,"geo_precision":"zip","zumba basic 2":1,"aqua":0,"sentao":0},"type":"Feature","geometry":{"type":"Point","coordinates":[-3.0833333,58.8333333]}},{"properties":{"city":"Maesteg","postal_code":"CF349PE","gold":0,"geo_score":0.857,"user_id":"065af102-f7b9-11df-88fb-123139181c25","toning":0,"jsg":0,"id":"a7vwwgf06fas","zumbatomic":0,"geo_precision":"zip","zumba basic 2":0,"aqua":1,"sentao":0},"type":"Feature","geometry":{"type":"Point","coordinates":[-3.6508333,51.605]}},{"properties":{"city":"London","postal_code":"SE218NG","gold":0,"geo_score":0.857,"user_id":"065af472-f7b9-11df-88fb-123139181c25","toning":1,"jsg":0,"id":"a7vwwgl6qc4j","zumbatomic":1,"geo_precision":"zip","zumba basic 2":1,"aqua":0,"sentao":0},"type":"Feature","geometry":{"type":"Point","coordinates":[-2.8508333,51.7316667]}},{"properties":{"city":"Partington","postal_code":"M314PU","gold":0,"geo_score":0.857,"user_id":"06610464-4b26-11e0-8b28-123139181c25","toning":0,"jsg":0,"id":"a7vwwgt2ap6p","zumbatomic":0,"geo_precision":"zip","zumba basic 2":0,"aqua":0,"sentao":0},"type":"Feature","geometry":{"type":"Point","coordinates":[-2.42815017700195,53.4188424867048]}},{"properties":{"city":"Carluke","postal_code":"ML85SS","gold":0,"geo_score":0.857,"user_id":"06618418-f7b9-11df-88fb-123139181c25","toning":0,"jsg":0,"id":"a7vwwglhnai1","zumbatomic":1,"geo_precision":"zip","zumba basic 2":0,"aqua":0,"sentao":0},"type":"Feature","geometry":{"type":"Point","coordinates":[-3.8333333,55.7166667]}},{"properties":{"city":"Mansfield","postal_code":"NG196TZ","gold":0,"geo_score":0.857,"user_id":"06622a00-3560-11e0-8b28-123139181c25","toning":0,"jsg":0,"id":"a7vwwgju7sld","zumbatomic":0,"geo_precision":"zip","zumba basic 2":0,"aqua":0,"sentao":0},"type":"Feature","geometry":{"type":"Point","coordinates":[-4.061193,57.806777]}},{"properties":{"city":"London","postal_code":"SE162BJ","gold":1,"geo_score":0.857,"user_id":"06686404-f7b9-11df-88fb-123139181c25","toning":1,"jsg":0,"id":"a7vwwgryvqeh","zumbatomic":0,"geo_precision":"zip","zumba basic 2":1,"aqua":0,"sentao":0},"type":"Feature","geometry":{"type":"Point","coordinates":[-2.8508333,51.7316667]}},{"properties":{"city":"London borough Lewisham","postal_code":"se232tp","gold":0,"geo_score":0.857,"user_id":"06732d76-f7b9-11df-88fb-123139181c25","toning":1,"jsg":0,"id":"a7vwwgnkjp0n","zumbatomic":0,"geo_precision":"zip","zumba basic 2":0,"aqua":0,"sentao":0},"type":"Feature","geometry":{"type":"Point","coordinates":[-2.8508333,51.7316667]}},{"properties":{"city":"Glasgow","postal_code":"g776un","gold":0,"geo_score":0.857,"user_id":"06733d52-f7b9-11df-88fb-123139181c25","toning":0,"jsg":0,"id":"a7vwwgtg80rp","zumbatomic":0,"geo_precision":"zip","zumba basic 2":1,"aqua":0,"sentao":0},"type":"Feature","geometry":{"type":"Point","coordinates":[-4.25763130187988,55.8651497187961]}},{"properties":{"city":"Thornton","postal_code":"KY14BL","gold":0,"geo_score":0.857,"user_id":"06735850-f7b9-11df-88fb-123139181c25","toning":1,"jsg":0,"id":"a7vwwge1q4b1","zumbatomic":1,"geo_precision":"zip","zumba basic 2":1,"aqua":0,"sentao":0},"type":"Feature","geometry":{"type":"Point","coordinates":[-2.8333333,53.2666667]}},{"properties":{"city":"Glasgow","postal_code":"G718PE","gold":0,"geo_score":0.857,"user_id":"0673b4bc-f7b9-11df-88fb-123139181c25","toning":0,"jsg":0,"id":"a7vwwgs353d3","zumbatomic":0,"geo_precision":"zip","zumba basic 2":0,"aqua":1,"sentao":0},"type":"Feature","geometry":{"type":"Point","coordinates":[-4.25763130187988,55.8651497187961]}},{"properties":{"city":"Berkshire","postal_code":"RG127DN","gold":0,"geo_score":0.857,"user_id":"067a9f52-f7b9-11df-88fb-123139181c25","toning":0,"jsg":0,"id":"a7vwwgjyzblj","zumbatomic":0,"geo_precision":"zip","zumba basic 2":1,"aqua":0,"sentao":0},"type":"Feature","geometry":{"type":"Point","coordinates":[-1.25,51.5]}},{"properties":{"city":"Sandhurst","postal_code":"GU478JT","gold":1,"geo_score":0.857,"user_id":"0681c6a6-f7b9-11df-88fb-123139181c25","toning":1,"jsg":0,"id":"a7vwwgi5jdu3","zumbatomic":1,"geo_precision":"zip","zumba basic 2":1,"aqua":0,"sentao":0},"type":"Feature","geometry":{"type":"Point","coordinates":[0.562276840209961,51.0266046355581]}},{"properties":{"city":"Barnes","postal_code":"SW139BS","gold":1,"geo_score":0.857,"user_id":"0681fae0-f7b9-11df-88fb-123139181c25","toning":1,"jsg":0,"id":"a7vwwgln23q2","zumbatomic":1,"geo_precision":"zip","zumba basic 2":0,"aqua":0,"sentao":0},"type":"Feature","geometry":{"type":"Point","coordinates":[-1.4333333,60.3833333]}},{"properties":{"city":"Feltham Middlesex","postal_code":"TW132DA","gold":0,"geo_score":0.857,"user_id":"06882c8a-f7b9-11df-88fb-123139181c25","toning":0,"jsg":0,"id":"a7vwwgsj7nd1","zumbatomic":0,"geo_precision":"zip","zumba basic 2":0,"aqua":0,"sentao":0},"type":"Feature","geometry":{"type":"Point","coordinates":[-0.97056,50.90454]}},{"properties":{"city":"Penzance","postal_code":"tr183nh","gold":1,"geo_score":0.857,"user_id":"0688403a-f7b9-11df-88fb-123139181c25","toning":0,"jsg":0,"id":"a7vwwgty4y95","zumbatomic":0,"geo_precision":"zip","zumba basic 2":1,"aqua":1,"sentao":0},"type":"Feature","geometry":{"type":"Point","coordinates":[-5.53715229034424,50.1186106488431]}},{"properties":{"city":"Hamilton","postal_code":"ml37dq","gold":0,"geo_score":0.857,"user_id":"068866c8-f7b9-11df-88fb-123139181c25","toning":0,"jsg":0,"id":"a7vwwgueri54","zumbatomic":0,"geo_precision":"zip","zumba basic 2":0,"aqua":0,"sentao":0},"type":"Feature","geometry":{"type":"Point","coordinates":[-6.5333333,54.3333333]}},{"properties":{"city":"Ascot Berkshire","postal_code":"SL57BY","gold":0,"geo_score":0.857,"user_id":"06886e8e-f7b9-11df-88fb-123139181c25","toning":0,"jsg":0,"id":"a7vwwgp4mv5c","zumbatomic":0,"geo_precision":"zip","zumba basic 2":0,"aqua":0,"sentao":0},"type":"Feature","geometry":{"type":"Point","coordinates":[-1.25,51.5]}},{"properties":{"city":"London","postal_code":"w1t5dx","gold":0,"geo_score":0.857,"user_id":"0697e56e-3f29-11e0-8b28-123139181c25","toning":0,"jsg":0,"id":"a7vwwgdzo4j2","zumbatomic":0,"geo_precision":"zip","zumba basic 2":0,"aqua":0,"sentao":0},"type":"Feature","geometry":{"type":"Point","coordinates":[-2.8508333,51.7316667]}},{"properties":{"city":"Musselburgh","postal_code":"EH216RR","gold":0,"geo_score":0.857,"user_id":"06a45298-f7b9-11df-88fb-123139181c25","toning":1,"jsg":0,"id":"a7vwwgfinz6n","zumbatomic":0,"geo_precision":"zip","zumba basic 2":1,"aqua":0,"sentao":0},"type":"Feature","geometry":{"type":"Point","coordinates":[-3.0833333,55.9666667]}},{"properties":{"city":"Scotland","postal_code":"ML67FH","gold":0,"geo_score":0.857,"user_id":"06a46bb6-f7b9-11df-88fb-123139181c25","toning":1,"jsg":0,"id":"a7vwwgq3dc9o","zumbatomic":0,"geo_precision":"zip","zumba basic 2":1,"aqua":0,"sentao":0},"type":"Feature","geometry":{"type":"Point","coordinates":[-4.0,56.0]}},{"properties":{"city":"Worcester","postal_code":"WR52AG","gold":0,"geo_score":0.857,"user_id":"06b36152-f7b9-11df-88fb-123139181c25","toning":0,"jsg":0,"id":"a7vwwgmia3b3","zumbatomic":0,"geo_precision":"zip","zumba basic 2":0,"aqua":1,"sentao":0},"type":"Feature","geometry":{"type":"Point","coordinates":[-2.3333333,52.1]}},{"properties":{"city":"Slough","postal_code":"SL12DE","gold":1,"geo_score":0.857,"user_id":"06ba6d94-f7b9-11df-88fb-123139181c25","toning":1,"jsg":0,"id":"a7vwwgturu6u","zumbatomic":1,"geo_precision":"zip","zumba basic 2":1,"aqua":0,"sentao":0},"type":"Feature","geometry":{"type":"Point","coordinates":[-1.4,60.2]}},{"properties":{"city":"Finchley north london","postal_code":"n33sj","gold":1,"geo_score":0.857,"user_id":"06c11590-f7b9-11df-88fb-123139181c25","toning":0,"jsg":0,"id":"a7vwwgmv2rlm","zumbatomic":0,"geo_precision":"zip","zumba basic 2":0,"aqua":0,"sentao":0},"type":"Feature","geometry":{"type":"Point","coordinates":[-2.8508333,51.7316667]}},{"properties":{"city":"Newcastle upon Tyne","postal_code":"ne35rd","gold":1,"geo_score":0.857,"user_id":"06c15b9a-f7b9-11df-88fb-123139181c25","toning":1,"jsg":0,"id":"a7vwwgno8bwn","zumbatomic":1,"geo_precision":"zip","zumba basic 2":2,"aqua":1,"sentao":1},"type":"Feature","geometry":{"type":"Point","coordinates":[-2.80325,51.85137]}},{"properties":{"city":"London","postal_code":"n228de","gold":0,"geo_score":0.857,"user_id":"06c890b8-f7b9-11df-88fb-123139181c25","toning":0,"jsg":0,"id":"a7vwwgo1bipy","zumbatomic":0,"geo_precision":"zip","zumba basic 2":0,"aqua":0,"sentao":0},"type":"Feature","geometry":{"type":"Point","coordinates":[-2.8508333,51.7316667]}},{"properties":{"city":"Cardiff","postal_code":"CF110SJ","gold":0,"geo_score":0.857,"user_id":"06cf838c-f7b9-11df-88fb-123139181c25","toning":0,"jsg":0,"id":"a7vwwgectakx","zumbatomic":0,"geo_precision":"zip","zumba basic 2":0,"aqua":0,"sentao":0},"type":"Feature","geometry":{"type":"Point","coordinates":[-3.18,51.48]}},{"properties":{"city":"Edinburgh","postal_code":"EH92BW","gold":0,"geo_score":0.857,"user_id":"06cfb1f4-f7b9-11df-88fb-123139181c25","toning":1,"jsg":0,"id":"a7vwwgpijwpq","zumbatomic":1,"geo_precision":"zip","zumba basic 2":0,"aqua":0,"sentao":0},"type":"Feature","geometry":{"type":"Point","coordinates":[-3.3725,55.95]}},{"properties":{"city":"Nottingham","postal_code":"NG146RG","gold":0,"geo_score":0.857,"user_id":"06cfb8fc-f7b9-11df-88fb-123139181c25","toning":0,"jsg":0,"id":"a7vwwgl3b2fv","zumbatomic":0,"geo_precision":"zip","zumba basic 2":1,"aqua":0,"sentao":0},"type":"Feature","geometry":{"type":"Point","coordinates":[-2.63543,53.44457]}},{"properties":{"city":"Larkhall","postal_code":"Ml93BQ","gold":0,"geo_score":0.857,"user_id":"06cfc5c2-f7b9-11df-88fb-123139181c25","toning":0,"jsg":0,"id":"a7vwwgoowtbl","zumbatomic":1,"geo_precision":"zip","zumba basic 2":0,"aqua":0,"sentao":0},"type":"Feature","geometry":{"type":"Point","coordinates":[-2.8166667,57.5833333]}},{"properties":{"city":"Hamilton","postal_code":"ML38AS","gold":0,"geo_score":0.857,"user_id":"06cfd24c-f7b9-11df-88fb-123139181c25","toning":0,"jsg":0,"id":"a7vwwgpsasw9","zumbatomic":0,"geo_precision":"zip","zumba basic 2":1,"aqua":0,"sentao":0},"type":"Feature","geometry":{"type":"Point","coordinates":[-6.5333333,54.3333333]}},{"properties":{"city":"Manchester","postal_code":"OL114DG","gold":1,"geo_score":0.857,"user_id":"06cfd576-f7b9-11df-88fb-123139181c25","toning":1,"jsg":0,"id":"a7vwwgm0jjnm","zumbatomic":1,"geo_precision":"zip","zumba basic 2":0,"aqua":1,"sentao":0},"type":"Feature","geometry":{"type":"Point","coordinates":[-2.23743438720703,53.4809464283615]}},{"properties":{"city":"Glasgow","postal_code":"G744TB","gold":0,"geo_score":0.857,"user_id":"06d6b26a-f7b9-11df-88fb-123139181c25","toning":0,"jsg":0,"id":"a7vwwgrr07qv","zumbatomic":1,"geo_precision":"zip","zumba basic 2":1,"aqua":0,"sentao":0},"type":"Feature","geometry":{"type":"Point","coordinates":[-4.25763130187988,55.8651497187961]}},{"properties":{"city":"Buckinghamshire","postal_code":"SL00HQ","gold":0,"geo_score":0.0,"user_id":"06dd672c-f7b9-11df-88fb-123139181c25","toning":0,"jsg":0,"id":"a7vwwgpqo7jg","zumbatomic":0,"geo_precision":"unmatched","zumba basic 2":0,"aqua":0,"sentao":0},"type":"Feature","geometry":null},{"properties":{"city":"Doncaster","postal_code":"DN59ES","gold":0,"geo_score":0.857,"user_id":"06ddc08c-f7b9-11df-88fb-123139181c25","toning":0,"jsg":0,"id":"a7vwwghgcl4j","zumbatomic":0,"geo_precision":"zip","zumba basic 2":1,"aqua":0,"sentao":0},"type":"Feature","geometry":{"type":"Point","coordinates":[-1.00542068481445,53.4818147283195]}},{"properties":{"city":"Felixstowe","postal_code":"IP119EQ","gold":1,"geo_score":0.857,"user_id":"06e48476-f7b9-11df-88fb-123139181c25","toning":1,"jsg":0,"id":"a7vwwgsfcz28","zumbatomic":1,"geo_precision":"zip","zumba basic 2":0,"aqua":0,"sentao":0},"type":"Feature","geometry":{"type":"Point","coordinates":[1.15367710590363,51.084735929681]}},{"properties":{"city":"PETERBOROUGH","postal_code":"PE26YH","gold":0,"geo_score":0.857,"user_id":"06e487f0-f7b9-11df-88fb-123139181c25","toning":0,"jsg":0,"id":"a7vwwgl2xxda","zumbatomic":1,"geo_precision":"zip","zumba basic 2":1,"aqua":0,"sentao":0},"type":"Feature","geometry":{"type":"Point","coordinates":[-0.31996,52.57278]}},{"properties":{"city":"Coventry","postal_code":"CV78PN","gold":1,"geo_score":0.857,"user_id":"06e49506-f7b9-11df-88fb-123139181c25","toning":1,"jsg":0,"id":"a7vwwgo3rd3m","zumbatomic":1,"geo_precision":"zip","zumba basic 2":0,"aqua":0,"sentao":0},"type":"Feature","geometry":{"type":"Point","coordinates":[-1.4337,52.4365]}},{"properties":{"city":"London","postal_code":"N168SD","gold":0,"geo_score":0.857,"user_id":"06e49830-f7b9-11df-88fb-123139181c25","toning":1,"jsg":0,"id":"a7vwwgp4o0t7","zumbatomic":1,"geo_precision":"zip","zumba basic 2":0,"aqua":0,"sentao":0},"type":"Feature","geometry":{"type":"Point","coordinates":[-2.8508333,51.7316667]}},{"properties":{"city":"Paisley","postal_code":"PA34UD","gold":0,"geo_score":0.857,"user_id":"06e4cea4-f7b9-11df-88fb-123139181c25","toning":1,"jsg":0,"id":"a7vwwgquqd37","zumbatomic":1,"geo_precision":"zip","zumba basic 2":1,"aqua":0,"sentao":0},"type":"Feature","geometry":{"type":"Point","coordinates":[-4.4333333,55.8333333]}},{"properties":{"city":"Swansea","postal_code":"SA27UJ","gold":1,"geo_score":0.857,"user_id":"06ebbf34-f7b9-11df-88fb-123139181c25","toning":1,"jsg":0,"id":"a7vwwgl7gtl8","zumbatomic":1,"geo_precision":"zip","zumba basic 2":0,"aqua":0,"sentao":0},"type":"Feature","geometry":{"type":"Point","coordinates":[-4.067833,51.605333]}},{"properties":{"city":"Denny","postal_code":"FK65DU","gold":1,"geo_score":0.857,"user_id":"06ebf580-f7b9-11df-88fb-123139181c25","toning":1,"jsg":0,"id":"a7vwwgrq3l58","zumbatomic":1,"geo_precision":"zip","zumba basic 2":1,"aqua":0,"sentao":0},"type":"Feature","geometry":{"type":"Point","coordinates":[-0.1166667,52.3333333]}},{"properties":{"city":"Sheffield","postal_code":"S351TR","gold":0,"geo_score":0.857,"user_id":"06f2cfb8-f7b9-11df-88fb-123139181c25","toning":0,"jsg":0,"id":"a7vwwgpag1vr","zumbatomic":0,"geo_precision":"zip","zumba basic 2":1,"aqua":0,"sentao":0},"type":"Feature","geometry":{"type":"Point","coordinates":[-1.46590232849121,53.3829700049879]}},{"properties":{"city":"London","postal_code":"HA12SF","gold":0,"geo_score":0.857,"user_id":"06f2dac6-f7b9-11df-88fb-123139181c25","toning":0,"jsg":0,"id":"a7vwwgf2uga3","zumbatomic":0,"geo_precision":"zip","zumba basic 2":0,"aqua":0,"sentao":0},"type":"Feature","geometry":{"type":"Point","coordinates":[-2.8508333,51.7316667]}},{"properties":{"city":"Preston","postal_code":"PR54NG","gold":0,"geo_score":0.857,"user_id":"06f5cc1a-2237-11e0-8b28-123139181c25","toning":0,"jsg":0,"id":"a7vwwgjentzs","zumbatomic":0,"geo_precision":"zip","zumba basic 2":0,"aqua":0,"sentao":0},"type":"Feature","geometry":{"type":"Point","coordinates":[-1.15853,52.18953]}},{"properties":{"city":"Aylesbury","postal_code":"HP224AP","gold":0,"geo_score":0.857,"user_id":"070bfcb0-3303-11e0-8b28-123139181c25","toning":0,"jsg":0,"id":"a7vwwgticn1i","zumbatomic":0,"geo_precision":"zip","zumba basic 2":0,"aqua":0,"sentao":0},"type":"Feature","geometry":{"type":"Point","coordinates":[-0.8,51.8333333]}},{"properties":{"city":"Fareham","postal_code":"PO160UB","gold":0,"geo_score":0.857,"user_id":"071486ea-314c-11e0-8b28-123139181c25","toning":0,"jsg":0,"id":"a7vwwgjnilpb","zumbatomic":0,"geo_precision":"zip","zumba basic 2":0,"aqua":1,"sentao":0},"type":"Feature","geometry":{"type":"Point","coordinates":[-1.1833333,50.85]}},{"properties":{"city":"Swindon Wiltshire","postal_code":"SN67BZ","gold":0,"geo_score":0.857,"user_id":"073892ea-3568-11e0-8b28-123139181c25","toning":0,"jsg":0,"id":"a7vwwgsbnfhw","zumbatomic":0,"geo_precision":"zip","zumba basic 2":0,"aqua":0,"sentao":0},"type":"Feature","geometry":{"type":"Point","coordinates":[-2.20668,51.27684]}},{"properties":{"city":"Stalybridge","postal_code":"SK151NF","gold":0,"geo_score":0.857,"user_id":"0768be04-4cf9-11e0-8b28-123139181c25","toning":0,"jsg":0,"id":"a7vwwge2l189","zumbatomic":0,"geo_precision":"zip","zumba basic 2":0,"aqua":0,"sentao":0},"type":"Feature","geometry":{"type":"Point","coordinates":[-2.0666667,53.4833333]}},{"properties":{"city":"Liverpool","postal_code":"L235TB","gold":0,"geo_score":0.857,"user_id":"07b042c8-f7b9-11df-88fb-123139181c25","toning":1,"jsg":0,"id":"a7vwwgfrfi8v","zumbatomic":1,"geo_precision":"zip","zumba basic 2":1,"aqua":0,"sentao":0},"type":"Feature","geometry":{"type":"Point","coordinates":[-0.0816947221755981,51.5177963524152]}},{"properties":{"city":"Harrow","postal_code":"HA29SX","gold":1,"geo_score":0.857,"user_id":"07b3e552-31fe-11e0-8b28-123139181c25","toning":0,"jsg":0,"id":"a7vwwgm5yy86","zumbatomic":0,"geo_precision":"zip","zumba basic 2":1,"aqua":0,"sentao":0},"type":"Feature","geometry":{"type":"Point","coordinates":[-0.33207893371582,51.5783496901789]}},{"properties":{"city":"Fort Augustus","postal_code":"PH324DW","gold":0,"geo_score":0.857,"user_id":"07b4f0fe-4c94-11e0-8b28-123139181c25","toning":0,"jsg":0,"id":"a7vwwge1jcz7","zumbatomic":1,"geo_precision":"zip","zumba basic 2":0,"aqua":0,"sentao":0},"type":"Feature","geometry":{"type":"Point","coordinates":[-0.581245422363281,50.8224209656267]}},{"properties":{"city":"Montrose","postal_code":"DD109FN","gold":1,"geo_score":0.857,"user_id":"07d105ee-f7b9-11df-88fb-123139181c25","toning":0,"jsg":0,"id":"a7vwwgs8poxf","zumbatomic":1,"geo_precision":"zip","zumba basic 2":1,"aqua":0,"sentao":1},"type":"Feature","geometry":{"type":"Point","coordinates":[-2.47387,56.70729]}},{"properties":{"city":"Aberdeenshire","postal_code":"ab421ql","gold":0,"geo_score":0.857,"user_id":"07dfa368-1674-11e0-8b28-123139181c25","toning":0,"jsg":0,"id":"a7vwwgs9irtu","zumbatomic":0,"geo_precision":"zip","zumba basic 2":0,"aqua":0,"sentao":0},"type":"Feature","geometry":{"type":"Point","coordinates":[-1.0833333,57.1166667]}},{"properties":{"city":"St Neots","postal_code":"PE197GD","gold":1,"geo_score":0.857,"user_id":"0805f9e8-f7b9-11df-88fb-123139181c25","toning":1,"jsg":0,"id":"a7vwwgmlz5kz","zumbatomic":0,"geo_precision":"zip","zumba basic 2":1,"aqua":0,"sentao":0},"type":"Feature","geometry":{"type":"Point","coordinates":[-1.913567,52.481189]}},{"properties":{"city":"Southborough","postal_code":"TN40RX","gold":0,"geo_score":0.0,"user_id":"080f55b6-2341-11e0-8b28-123139181c25","toning":0,"jsg":0,"id":"a7vwwghgp2tg","zumbatomic":1,"geo_precision":"unmatched","zumba basic 2":0,"aqua":0,"sentao":0},"type":"Feature","geometry":null},{"properties":{"city":"Lancing  West Sussex","postal_code":"BN159BU","gold":0,"geo_score":0.857,"user_id":"08149c10-46aa-11e0-8b28-123139181c25","toning":0,"jsg":0,"id":"a7vwwgjhphrc","zumbatomic":0,"geo_precision":"zip","zumba basic 2":0,"aqua":0,"sentao":0},"type":"Feature","geometry":{"type":"Point","coordinates":[-0.771,50.84664]}},{"properties":{"city":"york","postal_code":"YO265BH","gold":0,"geo_score":0.857,"user_id":"08158ca8-40ae-11e0-8b28-123139181c25","toning":0,"jsg":0,"id":"a7vwwgqwn12e","zumbatomic":0,"geo_precision":"zip","zumba basic 2":0,"aqua":0,"sentao":0},"type":"Feature","geometry":{"type":"Point","coordinates":[-1.0833333,53.9666667]}},{"properties":{"city":"Arncroach","postal_code":"KY102RQ","gold":0,"geo_score":0.857,"user_id":"081c08c8-f7b9-11df-88fb-123139181c25","toning":0,"jsg":0,"id":"a7vwwgu2na6x","zumbatomic":0,"geo_precision":"zip","zumba basic 2":1,"aqua":0,"sentao":0},"type":"Feature","geometry":{"type":"Point","coordinates":[-6.5166667,56.6166667]}},{"properties":{"city":"Leeds","postal_code":"LS83LJ","gold":0,"geo_score":0.857,"user_id":"081c527e-f7b9-11df-88fb-123139181c25","toning":0,"jsg":0,"id":"a7vwwghirs9c","zumbatomic":0,"geo_precision":"zip","zumba basic 2":0,"aqua":0,"sentao":0},"type":"Feature","geometry":{"type":"Point","coordinates":[0.6166667,51.2333333]}},{"properties":{"city":"Ascot","postal_code":"rg426pa","gold":0,"geo_score":0.857,"user_id":"0825d53c-3a9f-11e0-8b28-123139181c25","toning":0,"jsg":0,"id":"a7vwwgm691ot","zumbatomic":1,"geo_precision":"zip","zumba basic 2":0,"aqua":0,"sentao":0},"type":"Feature","geometry":{"type":"Point","coordinates":[-0.17691,51.51453]}},{"properties":{"city":"Isle of Wight","postal_code":"PO377DX","gold":0,"geo_score":0.857,"user_id":"08313f7c-f7b9-11df-88fb-123139181c25","toning":0,"jsg":0,"id":"a7vwwgefu4gy","zumbatomic":1,"geo_precision":"zip","zumba basic 2":0,"aqua":1,"sentao":0},"type":"Feature","geometry":{"type":"Point","coordinates":[-6.25666666666667,55.6819444444444]}},{"properties":{"city":"Fife","postal_code":"KY25TX","gold":0,"geo_score":0.857,"user_id":"083c330a-f7b9-11df-88fb-123139181c25","toning":1,"jsg":0,"id":"a7vwwghwmg37","zumbatomic":1,"geo_precision":"zip","zumba basic 2":1,"aqua":0,"sentao":0},"type":"Feature","geometry":{"type":"Point","coordinates":[-3.1666667,56.25]}},{"properties":{"city":"Manchester","postal_code":"M283SE","gold":0,"geo_score":0.857,"user_id":"083de56c-36a0-11e0-8b28-123139181c25","toning":0,"jsg":0,"id":"a7vwwgmih39n","zumbatomic":0,"geo_precision":"zip","zumba basic 2":0,"aqua":0,"sentao":0},"type":"Feature","geometry":{"type":"Point","coordinates":[-2.23743438720703,53.4809464283615]}},{"properties":{"city":"Nottinghamshire","postal_code":"NG184BX","gold":0,"geo_score":0.857,"user_id":"084056c4-3e13-11e0-8b28-123139181c25","toning":0,"jsg":0,"id":"a7vwwgltdbs3","zumbatomic":0,"geo_precision":"zip","zumba basic 2":0,"aqua":0,"sentao":0},"type":"Feature","geometry":{"type":"Point","coordinates":[-2.63543,53.44457]}},{"properties":{"city":"Newton Mearns, Glasgow","postal_code":"G775HL","gold":0,"geo_score":0.857,"user_id":"0846d2f6-f7b9-11df-88fb-123139181c25","toning":0,"jsg":0,"id":"a7vwwglqr4ls","zumbatomic":1,"geo_precision":"zip","zumba basic 2":1,"aqua":0,"sentao":0},"type":"Feature","geometry":{"type":"Point","coordinates":[-0.187,51.5136]}},{"properties":{"city":"Falkirk","postal_code":"FK20JP","gold":0,"geo_score":0.857,"user_id":"0846ebe2-f7b9-11df-88fb-123139181c25","toning":0,"jsg":0,"id":"a7vwwgqsqhvn","zumbatomic":0,"geo_precision":"zip","zumba basic 2":0,"aqua":0,"sentao":0},"type":"Feature","geometry":{"type":"Point","coordinates":[-3.75,56.0]}},{"properties":{"city":"Wolverhampton","postal_code":"WV69ER","gold":1,"geo_score":0.857,"user_id":"0846f290-f7b9-11df-88fb-123139181c25","toning":1,"jsg":0,"id":"a7vwwgo6aaxp","zumbatomic":1,"geo_precision":"zip","zumba basic 2":0,"aqua":1,"sentao":0},"type":"Feature","geometry":{"type":"Point","coordinates":[-2.1333333,52.5833333]}},{"properties":{"city":"Perth","postal_code":"PH20LL","gold":0,"geo_score":0.857,"user_id":"08473642-f7b9-11df-88fb-123139181c25","toning":0,"jsg":0,"id":"a7vwwgtshyn9","zumbatomic":0,"geo_precision":"zip","zumba basic 2":0,"aqua":0,"sentao":0},"type":"Feature","geometry":{"type":"Point","coordinates":[-3.4333333,56.4]}},{"properties":{"city":"Kilmarnock","postal_code":"KA13RG","gold":0,"geo_score":0.857,"user_id":"084df892-f7b9-11df-88fb-123139181c25","toning":1,"jsg":0,"id":"a7vwwgeco501","zumbatomic":1,"geo_precision":"zip","zumba basic 2":0,"aqua":0,"sentao":0},"type":"Feature","geometry":{"type":"Point","coordinates":[-4.49581146240234,55.611711054595]}},{"properties":{"city":"Glasgow City","postal_code":"g665pg","gold":0,"geo_score":0.857,"user_id":"084e1566-f7b9-11df-88fb-123139181c25","toning":1,"jsg":0,"id":"a7vwwgo7k9gb","zumbatomic":1,"geo_precision":"zip","zumba basic 2":0,"aqua":0,"sentao":0},"type":"Feature","geometry":{"type":"Point","coordinates":[-4.2052,55.8492]}},{"properties":{"city":"Newport","postal_code":"NP194RS","gold":0,"geo_score":0.857,"user_id":"084e3172-f7b9-11df-88fb-123139181c25","toning":1,"jsg":0,"id":"a7vwwgud61y9","zumbatomic":0,"geo_precision":"zip","zumba basic 2":0,"aqua":0,"sentao":0},"type":"Feature","geometry":{"type":"Point","coordinates":[0.25,51.9833333]}},{"properties":{"city":"Denver","postal_code":"PE380DZ","gold":1,"geo_score":0.857,"user_id":"0854dd42-f7b9-11df-88fb-123139181c25","toning":1,"jsg":0,"id":"a7vwwglgh5vz","zumbatomic":1,"geo_precision":"zip","zumba basic 2":0,"aqua":1,"sentao":0},"type":"Feature","geometry":{"type":"Point","coordinates":[0.3833333,52.5833333]}},{"properties":{"city":"London","postal_code":"E50JQ","gold":0,"geo_score":0.857,"user_id":"085bbbee-f7b9-11df-88fb-123139181c25","toning":0,"jsg":0,"id":"a7vwwgq9c7uq","zumbatomic":0,"geo_precision":"zip","zumba basic 2":0,"aqua":0,"sentao":0},"type":"Feature","geometry":{"type":"Point","coordinates":[-2.8508333,51.7316667]}},{"properties":{"city":"Jersey","postal_code":"JE34EF","gold":1,"geo_score":0.0,"user_id":"085bedee-f7b9-11df-88fb-123139181c25","toning":1,"jsg":0,"id":"a7vwwgovo4oo","zumbatomic":1,"geo_precision":"unmatched","zumba basic 2":0,"aqua":0,"sentao":0},"type":"Feature","geometry":null},{"properties":{"city":"Coventry","postal_code":"CV66LX","gold":0,"geo_score":0.857,"user_id":"085bf4d8-f7b9-11df-88fb-123139181c25","toning":1,"jsg":0,"id":"a7vwwgkclhta","zumbatomic":0,"geo_precision":"zip","zumba basic 2":0,"aqua":0,"sentao":0},"type":"Feature","geometry":{"type":"Point","coordinates":[-1.4337,52.4365]}},{"properties":{"city":"Dunipace","postal_code":"FK66DQ","gold":0,"geo_score":0.857,"user_id":"0862bffc-f7b9-11df-88fb-123139181c25","toning":0,"jsg":0,"id":"a7vwwglmyptp","zumbatomic":0,"geo_precision":"zip","zumba basic 2":0,"aqua":0,"sentao":0},"type":"Feature","geometry":{"type":"Point","coordinates":[-3.9166667,56.0166667]}},{"properties":{"city":"ayrshire","postal_code":"Ka111bj","gold":0,"geo_score":0.857,"user_id":"08668de4-3b6b-11e0-8b28-123139181c25","toning":0,"jsg":0,"id":"a7vwwgjutw5t","zumbatomic":0,"geo_precision":"zip","zumba basic 2":0,"aqua":0,"sentao":0},"type":"Feature","geometry":{"type":"Point","coordinates":[-4.5,55.5]}},{"properties":{"city":"Stroud","postal_code":"GL55HR","gold":1,"geo_score":0.857,"user_id":"0874ffb4-f7b9-11df-88fb-123139181c25","toning":0,"jsg":0,"id":"a7vwwgiltrvo","zumbatomic":1,"geo_precision":"zip","zumba basic 2":0,"aqua":0,"sentao":0},"type":"Feature","geometry":{"type":"Point","coordinates":[-3.6333333,50.3166667]}},{"properties":{"city":"Edinburgh","postal_code":"EH113JE","gold":0,"geo_score":0.857,"user_id":"087c1cd6-f7b9-11df-88fb-123139181c25","toning":1,"jsg":0,"id":"a7vwwgrrfbhm","zumbatomic":0,"geo_precision":"zip","zumba basic 2":1,"aqua":0,"sentao":1},"type":"Feature","geometry":{"type":"Point","coordinates":[-3.3725,55.95]}},{"properties":{"city":"Huddersfield","postal_code":"hd91qz","gold":0,"geo_score":0.857,"user_id":"0881cb9e-3aa4-11e0-8b28-123139181c25","toning":0,"jsg":0,"id":"a7vwwgptkjm6","zumbatomic":0,"geo_precision":"zip","zumba basic 2":0,"aqua":0,"sentao":0},"type":"Feature","geometry":{"type":"Point","coordinates":[-1.81634,53.65548]}},{"properties":{"city":"Edinburgh","postal_code":"EH113JE","gold":1,"geo_score":0.857,"user_id":"08824390-f7b9-11df-88fb-123139181c25","toning":1,"jsg":0,"id":"a7vwwgrp7l2l","zumbatomic":0,"geo_precision":"zip","zumba basic 2":1,"aqua":0,"sentao":1},"type":"Feature","geometry":{"type":"Point","coordinates":[-3.3725,55.95]}},{"properties":{"city":"cardiff","postal_code":"cf241dn","gold":0,"geo_score":0.857,"user_id":"0889d04c-f7b9-11df-88fb-123139181c25","toning":0,"jsg":0,"id":"a7vwwgp23rlr","zumbatomic":0,"geo_precision":"zip","zumba basic 2":0,"aqua":0,"sentao":0},"type":"Feature","geometry":{"type":"Point","coordinates":[-3.18,51.48]}},{"properties":{"city":"Biggin Hill","postal_code":"TN163LT","gold":0,"geo_score":0.857,"user_id":"0894bc28-f7b9-11df-88fb-123139181c25","toning":0,"jsg":0,"id":"a7vwwgm7akbb","zumbatomic":0,"geo_precision":"zip","zumba basic 2":0,"aqua":0,"sentao":0},"type":"Feature","geometry":{"type":"Point","coordinates":[-3.2,56.7666667]}},{"properties":{"city":"Telford Shropshire","postal_code":"TF43SY","gold":0,"geo_score":0.857,"user_id":"089a12c0-4cf7-11e0-8b28-123139181c25","toning":0,"jsg":0,"id":"a7vwwgqxahoy","zumbatomic":0,"geo_precision":"zip","zumba basic 2":0,"aqua":0,"sentao":0},"type":"Feature","geometry":{"type":"Point","coordinates":[-2.8833333,53.2833333]}},{"properties":{"city":"Cambridge","postal_code":"CB249JD","gold":1,"geo_score":0.857,"user_id":"089bc2ca-f7b9-11df-88fb-123139181c25","toning":0,"jsg":0,"id":"a7vwwghaaz93","zumbatomic":1,"geo_precision":"zip","zumba basic 2":1,"aqua":0,"sentao":0},"type":"Feature","geometry":{"type":"Point","coordinates":[0.19356,52.18475]}},{"properties":{"city":"Leicestershire","postal_code":"LE128GP","gold":0,"geo_score":0.857,"user_id":"08afd4cc-f7b9-11df-88fb-123139181c25","toning":0,"jsg":0,"id":"a7vwwgl5hu3o","zumbatomic":1,"geo_precision":"zip","zumba basic 2":0,"aqua":0,"sentao":1},"type":"Feature","geometry":{"type":"Point","coordinates":[-1.1348,52.62782]}},{"properties":{"city":"Pontyberem","postal_code":"SA155at","gold":0,"geo_score":0.857,"user_id":"08b75a3a-f7b9-11df-88fb-123139181c25","toning":0,"jsg":0,"id":"a7vwwgu0kwye","zumbatomic":1,"geo_precision":"zip","zumba basic 2":0,"aqua":0,"sentao":0},"type":"Feature","geometry":{"type":"Point","coordinates":[-2.4666667,50.7166667]}},{"properties":{"city":"Dundee","postal_code":"DD24AX","gold":0,"geo_score":0.857,"user_id":"08c2fed8-0c3d-11e0-8b28-123139181c25","toning":0,"jsg":0,"id":"a7vwwgdytmbv","zumbatomic":0,"geo_precision":"zip","zumba basic 2":1,"aqua":0,"sentao":0},"type":"Feature","geometry":{"type":"Point","coordinates":[-3.3333333,58.5166667]}},{"properties":{"city":"Caerphilly","postal_code":"CF833JH","gold":1,"geo_score":0.857,"user_id":"08cc88f6-f7b9-11df-88fb-123139181c25","toning":1,"jsg":0,"id":"a7vwwgso2kwy","zumbatomic":1,"geo_precision":"zip","zumba basic 2":1,"aqua":1,"sentao":1},"type":"Feature","geometry":{"type":"Point","coordinates":[-3.6333333,54.9333333]}},{"properties":{"city":"Nottingham","postal_code":"ng93qs","gold":1,"geo_score":0.857,"user_id":"08d33444-f7b9-11df-88fb-123139181c25","toning":1,"jsg":0,"id":"a7vwwgq8ly1c","zumbatomic":0,"geo_precision":"zip","zumba basic 2":1,"aqua":0,"sentao":0},"type":"Feature","geometry":{"type":"Point","coordinates":[-2.63543,53.44457]}},{"properties":{"city":"Staffordshire","postal_code":"ST200AA","gold":0,"geo_score":0.857,"user_id":"08d37008-f7b9-11df-88fb-123139181c25","toning":0,"jsg":0,"id":"a7vwwgmzay42","zumbatomic":1,"geo_precision":"zip","zumba basic 2":0,"aqua":0,"sentao":0},"type":"Feature","geometry":{"type":"Point","coordinates":[-1.2004,52.2489]}},{"properties":{"city":"pontypool","postal_code":"np48bq","gold":1,"geo_score":0.857,"user_id":"08e18972-f7b9-11df-88fb-123139181c25","toning":1,"jsg":0,"id":"a7vwwgu7ih1h","zumbatomic":1,"geo_precision":"zip","zumba basic 2":0,"aqua":0,"sentao":0},"type":"Feature","geometry":{"type":"Point","coordinates":[-3.0444444,51.7011111]}},{"properties":{"city":"enfield","postal_code":"EN27LD","gold":1,"geo_score":0.857,"user_id":"08e1bcb2-f7b9-11df-88fb-123139181c25","toning":0,"jsg":0,"id":"a7vwwgpyjz18","zumbatomic":1,"geo_precision":"zip","zumba basic 2":0,"aqua":0,"sentao":0},"type":"Feature","geometry":{"type":"Point","coordinates":[-0.0666667,51.6666667]}},{"properties":{"city":"leeds","postal_code":"ls255nx","gold":0,"geo_score":0.857,"user_id":"08e1e700-f7b9-11df-88fb-123139181c25","toning":0,"jsg":0,"id":"a7vwwgocrwr9","zumbatomic":1,"geo_precision":"zip","zumba basic 2":0,"aqua":0,"sentao":0},"type":"Feature","geometry":{"type":"Point","coordinates":[0.6166667,51.2333333]}},{"properties":{"city":"Wolverhampton","postal_code":"WV112LT","gold":1,"geo_score":0.857,"user_id":"08e20f28-f7b9-11df-88fb-123139181c25","toning":1,"jsg":0,"id":"a7vwwgmzo86x","zumbatomic":1,"geo_precision":"zip","zumba basic 2":1,"aqua":1,"sentao":0},"type":"Feature","geometry":{"type":"Point","coordinates":[-2.1333333,52.5833333]}},{"properties":{"city":"TORFAEN","postal_code":"NP442ED","gold":1,"geo_score":0.857,"user_id":"08f6979a-f7b9-11df-88fb-123139181c25","toning":1,"jsg":0,"id":"a7vwwgooj5ur","zumbatomic":0,"geo_precision":"zip","zumba basic 2":0,"aqua":0,"sentao":0},"type":"Feature","geometry":{"type":"Point","coordinates":[-5.1447222,51.9491667]}},{"properties":{"city":"Port Talbot","postal_code":"SA132PA","gold":0,"geo_score":0.857,"user_id":"08f71774-f7b9-11df-88fb-123139181c25","toning":0,"jsg":0,"id":"a7vwwgjm3dyx","zumbatomic":0,"geo_precision":"zip","zumba basic 2":0,"aqua":0,"sentao":0},"type":"Feature","geometry":{"type":"Point","coordinates":[-3.80233,51.59031]}},{"properties":{"city":"Swansea","postal_code":"sa58da","gold":0,"geo_score":0.857,"user_id":"09013bb4-f7b9-11df-88fb-123139181c25","toning":0,"jsg":0,"id":"a7vwwggyed6x","zumbatomic":0,"geo_precision":"zip","zumba basic 2":0,"aqua":0,"sentao":0},"type":"Feature","geometry":{"type":"Point","coordinates":[-4.067833,51.605333]}},{"properties":{"city":"Tonyrefail rhondda cynon taff","postal_code":"CF398HZ","gold":1,"geo_score":0.857,"user_id":"09016f80-f7b9-11df-88fb-123139181c25","toning":1,"jsg":0,"id":"a7vwwgmp50e7","zumbatomic":0,"geo_precision":"zip","zumba basic 2":0,"aqua":1,"sentao":0},"type":"Feature","geometry":{"type":"Point","coordinates":[-3.4252778,51.5836111]}},{"properties":{"city":"milton keynes","postal_code":"MK62HR","gold":1,"geo_score":0.857,"user_id":"09028196-1f4f-11e0-8b28-123139181c25","toning":1,"jsg":0,"id":"a7vwwguf1dw7","zumbatomic":1,"geo_precision":"zip","zumba basic 2":1,"aqua":1,"sentao":1},"type":"Feature","geometry":{"type":"Point","coordinates":[-0.755825042724609,52.0417219233052]}},{"properties":{"city":"Carmarthenshire","postal_code":"SA146HT","gold":0,"geo_score":0.857,"user_id":"0908959e-f7b9-11df-88fb-123139181c25","toning":0,"jsg":0,"id":"a7vwwgp1kul8","zumbatomic":0,"geo_precision":"zip","zumba basic 2":0,"aqua":0,"sentao":0},"type":"Feature","geometry":{"type":"Point","coordinates":[-4.30019,51.86001]}},{"properties":{"city":"Swansea","postal_code":"SA18DY","gold":0,"geo_score":0.857,"user_id":"090efd6c-f7b9-11df-88fb-123139181c25","toning":0,"jsg":0,"id":"a7vwwget7bgp","zumbatomic":0,"geo_precision":"zip","zumba basic 2":0,"aqua":0,"sentao":0},"type":"Feature","geometry":{"type":"Point","coordinates":[-4.067833,51.605333]}},{"properties":{"city":"Gateshead Tyne and Wear","postal_code":"NE110AU","gold":0,"geo_score":0.857,"user_id":"09153a66-39c6-11e0-8b28-123139181c25","toning":0,"jsg":0,"id":"a7vwwgt04wbg","zumbatomic":0,"geo_precision":"zip","zumba basic 2":0,"aqua":0,"sentao":0},"type":"Feature","geometry":{"type":"Point","coordinates":[-1.6175,54.945]}},{"properties":{"city":"Isle of Wight","postal_code":"P0409DL","gold":0,"geo_score":0.857,"user_id":"091650d0-f7b9-11df-88fb-123139181c25","toning":0,"jsg":0,"id":"a7vwwgj46tpv","zumbatomic":1,"geo_precision":"zip","zumba basic 2":0,"aqua":0,"sentao":0},"type":"Feature","geometry":{"type":"Point","coordinates":[-6.25666666666667,55.6819444444444]}},{"properties":{"city":"Cardiff","postal_code":"cf104rf","gold":0,"geo_score":0.857,"user_id":"091665ca-f7b9-11df-88fb-123139181c25","toning":0,"jsg":0,"id":"a7vwwgkr8rsi","zumbatomic":0,"geo_precision":"zip","zumba basic 2":0,"aqua":0,"sentao":0},"type":"Feature","geometry":{"type":"Point","coordinates":[-3.18,51.48]}},{"properties":{"city":"Manchester","postal_code":"m244GB","gold":0,"geo_score":0.857,"user_id":"0916acec-f7b9-11df-88fb-123139181c25","toning":0,"jsg":0,"id":"a7vwwgfsfjgz","zumbatomic":0,"geo_precision":"zip","zumba basic 2":1,"aqua":0,"sentao":0},"type":"Feature","geometry":{"type":"Point","coordinates":[-2.23743438720703,53.4809464283615]}},{"properties":{"city":"Wakefield","postal_code":"wf44an","gold":0,"geo_score":0.857,"user_id":"09246080-f7b9-11df-88fb-123139181c25","toning":1,"jsg":0,"id":"a7vwwgnfrx8r","zumbatomic":0,"geo_precision":"zip","zumba basic 2":0,"aqua":1,"sentao":0},"type":"Feature","geometry":{"type":"Point","coordinates":[-1.50727,53.67188]}},{"properties":{"city":"Glasgow","postal_code":"G733QW","gold":0,"geo_score":0.857,"user_id":"092b8ebe-f7b9-11df-88fb-123139181c25","toning":1,"jsg":0,"id":"a7vwwgklg1cf","zumbatomic":1,"geo_precision":"zip","zumba basic 2":1,"aqua":0,"sentao":1},"type":"Feature","geometry":{"type":"Point","coordinates":[-4.25763130187988,55.8651497187961]}},{"properties":{"city":"GWENT","postal_code":"NP123FT","gold":1,"geo_score":0.857,"user_id":"09320316-f7b9-11df-88fb-123139181c25","toning":1,"jsg":0,"id":"a7vwwgel97z5","zumbatomic":1,"geo_precision":"zip","zumba basic 2":1,"aqua":1,"sentao":0},"type":"Feature","geometry":{"type":"Point","coordinates":[-3.0,51.6666667]}},{"properties":{"city":"Bedfordshire","postal_code":"SG191DU","gold":0,"geo_score":0.857,"user_id":"09472898-23bc-11e0-8b28-123139181c25","toning":0,"jsg":0,"id":"a7vwwghyuqdv","zumbatomic":0,"geo_precision":"zip","zumba basic 2":0,"aqua":0,"sentao":0},"type":"Feature","geometry":{"type":"Point","coordinates":[-4.2166667,51.0166667]}},{"properties":{"city":"Slough","postal_code":"SL39BN","gold":0,"geo_score":0.857,"user_id":"09539342-3200-11e0-8b28-123139181c25","toning":0,"jsg":0,"id":"a7vwwgi6xtuh","zumbatomic":0,"geo_precision":"zip","zumba basic 2":0,"aqua":0,"sentao":0},"type":"Feature","geometry":{"type":"Point","coordinates":[-1.4,60.2]}},{"properties":{"city":"Tyne and Wear","postal_code":"dh44pe","gold":0,"geo_score":0.857,"user_id":"096c765e-3459-11e0-8b28-123139181c25","toning":0,"jsg":0,"id":"a7vwwgs75rft","zumbatomic":0,"geo_precision":"zip","zumba basic 2":0,"aqua":0,"sentao":0},"type":"Feature","geometry":{"type":"Point","coordinates":[-0.1166667,52.3333333]}},{"properties":{"city":"Kegworth","postal_code":"DE742DF","gold":0,"geo_score":0.857,"user_id":"09db5844-f7b9-11df-88fb-123139181c25","toning":0,"jsg":0,"id":"a7vwwgf3pqdc","zumbatomic":0,"geo_precision":"zip","zumba basic 2":0,"aqua":0,"sentao":0},"type":"Feature","geometry":{"type":"Point","coordinates":[-1.28042221069336,52.8348175280492]}},{"properties":{"city":"Hastings","postal_code":"TN341XG","gold":0,"geo_score":0.857,"user_id":"09db856c-f7b9-11df-88fb-123139181c25","toning":0,"jsg":0,"id":"a7vwwgl9w3tl","zumbatomic":0,"geo_precision":"zip","zumba basic 2":0,"aqua":0,"sentao":0},"type":"Feature","geometry":{"type":"Point","coordinates":[1.0,51.15]}},{"properties":{"city":"Brighton","postal_code":"RH15","gold":0,"geo_score":0.857,"user_id":"09f6951e-f7b9-11df-88fb-123139181c25","toning":1,"jsg":0,"id":"a7vwwglhwti0","zumbatomic":1,"geo_precision":"zip","zumba basic 2":1,"aqua":0,"sentao":0},"type":"Feature","geometry":{"type":"Point","coordinates":[-0.55954,53.56535]}},{"properties":{"city":"West Lothian","postal_code":"EH478HT","gold":0,"geo_score":0.857,"user_id":"0a0139d8-f7b9-11df-88fb-123139181c25","toning":0,"jsg":0,"id":"a7vwwglm0w2p","zumbatomic":1,"geo_precision":"zip","zumba basic 2":0,"aqua":1,"sentao":0},"type":"Feature","geometry":{"type":"Point","coordinates":[-3.15,55.8666667]}},{"properties":{"city":"Bristol","postal_code":"BS107XL","gold":1,"geo_score":0.857,"user_id":"0a017254-f7b9-11df-88fb-123139181c25","toning":1,"jsg":0,"id":"a7vwwglaudxl","zumbatomic":1,"geo_precision":"zip","zumba basic 2":0,"aqua":1,"sentao":0},"type":"Feature","geometry":{"type":"Point","coordinates":[-2.5833333,51.45]}},{"properties":{"city":"Alloa","postal_code":"FK101DH","gold":0,"geo_score":0.857,"user_id":"0a0c057a-f7b9-11df-88fb-123139181c25","toning":1,"jsg":0,"id":"a7vwwghuq0mi","zumbatomic":1,"geo_precision":"zip","zumba basic 2":1,"aqua":0,"sentao":0},"type":"Feature","geometry":{"type":"Point","coordinates":[-3.8,56.1166667]}},{"properties":{"city":"Southam","postal_code":"CV479RB","gold":0,"geo_score":0.857,"user_id":"0a0c15ec-f7b9-11df-88fb-123139181c25","toning":0,"jsg":0,"id":"a7vwwgspclhk","zumbatomic":0,"geo_precision":"zip","zumba basic 2":0,"aqua":0,"sentao":0},"type":"Feature","geometry":{"type":"Point","coordinates":[-1.4666667,60.3833333]}},{"properties":{"city":"Hamilton","postal_code":"ML37TT","gold":0,"geo_score":0.857,"user_id":"0a0c50de-f7b9-11df-88fb-123139181c25","toning":0,"jsg":0,"id":"a7vwwgu42rdh","zumbatomic":1,"geo_precision":"zip","zumba basic 2":1,"aqua":0,"sentao":0},"type":"Feature","geometry":{"type":"Point","coordinates":[-6.5333333,54.3333333]}},{"properties":{"city":"west midlands","postal_code":"DY68DW","gold":0,"geo_score":0.857,"user_id":"0a0d0e0a-30c8-11e0-8b28-123139181c25","toning":0,"jsg":0,"id":"a7vwwghn87ni","zumbatomic":1,"geo_precision":"zip","zumba basic 2":0,"aqua":0,"sentao":0},"type":"Feature","geometry":{"type":"Point","coordinates":[-1.7519,53.7956]}},{"properties":{"city":"Peebles","postal_code":"EH458DW","gold":0,"geo_score":0.857,"user_id":"0a171c3a-f7b9-11df-88fb-123139181c25","toning":0,"jsg":0,"id":"a7vwwgu3r377","zumbatomic":0,"geo_precision":"zip","zumba basic 2":0,"aqua":0,"sentao":0},"type":"Feature","geometry":{"type":"Point","coordinates":[-3.1833333,55.6333333]}},{"properties":{"city":"ware","postal_code":"sg129fq","gold":1,"geo_score":0.857,"user_id":"0a22aae6-f7b9-11df-88fb-123139181c25","toning":1,"jsg":0,"id":"a7vwwgscguh7","zumbatomic":0,"geo_precision":"zip","zumba basic 2":1,"aqua":0,"sentao":0},"type":"Feature","geometry":{"type":"Point","coordinates":[-2.4,52.9833333]}},{"properties":{"city":"Cumbernauld Glasgow","postal_code":"G689GH","gold":0,"geo_score":0.857,"user_id":"0a22b22a-f7b9-11df-88fb-123139181c25","toning":0,"jsg":0,"id":"a7vwwgh0w02m","zumbatomic":0,"geo_precision":"zip","zumba basic 2":0,"aqua":0,"sentao":0},"type":"Feature","geometry":{"type":"Point","coordinates":[-3.2,57.3]}},{"properties":{"city":"Glasgow","postal_code":"G663AR","gold":0,"geo_score":0.857,"user_id":"0a22c63e-f7b9-11df-88fb-123139181c25","toning":1,"jsg":0,"id":"a7vwwgjfgqk4","zumbatomic":0,"geo_precision":"zip","zumba basic 2":1,"aqua":0,"sentao":0},"type":"Feature","geometry":{"type":"Point","coordinates":[-4.25763130187988,55.8651497187961]}},{"properties":{"city":"Hamilton","postal_code":"ml38ar","gold":0,"geo_score":0.857,"user_id":"0a22e1a0-f7b9-11df-88fb-123139181c25","toning":0,"jsg":0,"id":"a7vwwgh8ns6e","zumbatomic":0,"geo_precision":"zip","zumba basic 2":0,"aqua":0,"sentao":0},"type":"Feature","geometry":{"type":"Point","coordinates":[-6.5333333,54.3333333]}},{"properties":{"city":"Bristol","postal_code":"BS70SE","gold":0,"geo_score":0.857,"user_id":"0a22f53e-4be0-11e0-8b28-123139181c25","toning":0,"jsg":0,"id":"a7vwwgg2fatv","zumbatomic":0,"geo_precision":"zip","zumba basic 2":0,"aqua":1,"sentao":0},"type":"Feature","geometry":{"type":"Point","coordinates":[-2.5833333,51.45]}},{"properties":{"city":"Oxford","postal_code":"ox46hz","gold":0,"geo_score":0.857,"user_id":"0a2e2ce0-f7b9-11df-88fb-123139181c25","toning":1,"jsg":0,"id":"a7vwwgmlqei2","zumbatomic":1,"geo_precision":"zip","zumba basic 2":1,"aqua":0,"sentao":0},"type":"Feature","geometry":{"type":"Point","coordinates":[-3.55,50.9833333]}},{"properties":{"city":"Bury St Edmunds","postal_code":"IP288FP","gold":0,"geo_score":0.857,"user_id":"0a389716-f7b9-11df-88fb-123139181c25","toning":0,"jsg":0,"id":"a7vwwgjptjpw","zumbatomic":0,"geo_precision":"zip","zumba basic 2":0,"aqua":1,"sentao":0},"type":"Feature","geometry":{"type":"Point","coordinates":[-1.35,60.3833333]}},{"properties":{"city":"eastkilbride","postal_code":"G745QB","gold":0,"geo_score":0.857,"user_id":"0a38d884-f7b9-11df-88fb-123139181c25","toning":0,"jsg":0,"id":"a7vwwgl7gnim","zumbatomic":0,"geo_precision":"zip","zumba basic 2":0,"aqua":0,"sentao":0},"type":"Feature","geometry":{"type":"Point","coordinates":[-0.479621887207031,51.2536428425804]}},{"properties":{"city":"WATFORD","postal_code":"WD172PY","gold":0,"geo_score":0.857,"user_id":"0a4352be-f7b9-11df-88fb-123139181c25","toning":0,"jsg":0,"id":"a7vwwginn6o0","zumbatomic":0,"geo_precision":"zip","zumba basic 2":0,"aqua":0,"sentao":0},"type":"Feature","geometry":{"type":"Point","coordinates":[-1.8333333,51.1166667]}},{"properties":{"city":"birmingham","postal_code":"b322ey","gold":0,"geo_score":0.857,"user_id":"0a53cd3a-5022-11e0-8b28-123139181c25","toning":0,"jsg":0,"id":"a7vwwgp23uqv","zumbatomic":0,"geo_precision":"zip","zumba basic 2":0,"aqua":0,"sentao":0},"type":"Feature","geometry":{"type":"Point","coordinates":[-1.9166667,52.4666667]}},{"properties":{"city":"Motherwell","postal_code":"ML12FH","gold":0,"geo_score":0.857,"user_id":"0a5914b4-f7b9-11df-88fb-123139181c25","toning":0,"jsg":0,"id":"a7vwwghjwhyh","zumbatomic":1,"geo_precision":"zip","zumba basic 2":0,"aqua":0,"sentao":0},"type":"Feature","geometry":{"type":"Point","coordinates":[-4.0,55.7833333]}},{"properties":{"city":"Brentford","postal_code":"TW89LG","gold":0,"geo_score":0.857,"user_id":"0a591f68-f7b9-11df-88fb-123139181c25","toning":0,"jsg":0,"id":"a7vwwgu2m2sy","zumbatomic":0,"geo_precision":"zip","zumba basic 2":0,"aqua":0,"sentao":0},"type":"Feature","geometry":{"type":"Point","coordinates":[-4.25,52.0166667]}},{"properties":{"city":"Herts","postal_code":"SG142AT","gold":0,"geo_score":0.857,"user_id":"0a592b70-f7b9-11df-88fb-123139181c25","toning":1,"jsg":0,"id":"a7vwwglvgqht","zumbatomic":0,"geo_precision":"zip","zumba basic 2":0,"aqua":0,"sentao":0},"type":"Feature","geometry":{"type":"Point","coordinates":[-0.1668,51.4979]}},{"properties":{"city":"Newcastle upon Tyne","postal_code":"NE158EF","gold":0,"geo_score":0.857,"user_id":"0a5935ca-f7b9-11df-88fb-123139181c25","toning":0,"jsg":0,"id":"a7vwwgq6jq6i","zumbatomic":1,"geo_precision":"zip","zumba basic 2":0,"aqua":0,"sentao":0},"type":"Feature","geometry":{"type":"Point","coordinates":[-2.80325,51.85137]}},{"properties":{"city":"Berkhamsted","postal_code":"HP43AE","gold":0,"geo_score":0.857,"user_id":"0a5940ba-f7b9-11df-88fb-123139181c25","toning":0,"jsg":0,"id":"a7vwwger5dnr","zumbatomic":0,"geo_precision":"zip","zumba basic 2":0,"aqua":0,"sentao":0},"type":"Feature","geometry":{"type":"Point","coordinates":[-0.565280914306641,51.7604029969821]}},{"properties":{"city":"Edinburgh","postal_code":"eh125qs","gold":0,"geo_score":0.857,"user_id":"0a597756-f7b9-11df-88fb-123139181c25","toning":0,"jsg":0,"id":"a7vwwgtkzm4j","zumbatomic":1,"geo_precision":"zip","zumba basic 2":1,"aqua":0,"sentao":0},"type":"Feature","geometry":{"type":"Point","coordinates":[-3.3725,55.95]}},{"properties":{"city":"Welwyn Garden City","postal_code":"en65en","gold":1,"geo_score":0.857,"user_id":"0a59be28-f7b9-11df-88fb-123139181c25","toning":1,"jsg":0,"id":"a7vwwgpjhdzh","zumbatomic":0,"geo_precision":"zip","zumba basic 2":1,"aqua":0,"sentao":0},"type":"Feature","geometry":{"type":"Point","coordinates":[-0.0829124450683594,53.8003466774013]}},{"properties":{"city":"Hamilton South Lanarkshire","postal_code":"ml36ja","gold":0,"geo_score":0.857,"user_id":"0a604c2a-f7b9-11df-88fb-123139181c25","toning":0,"jsg":0,"id":"a7vwwggp4cq0","zumbatomic":0,"geo_precision":"zip","zumba basic 2":0,"aqua":0,"sentao":0},"type":"Feature","geometry":{"type":"Point","coordinates":[-6.5333333,54.3333333]}},{"properties":{"city":"Farnborough","postal_code":"gu146fs","gold":0,"geo_score":0.857,"user_id":"0a60568e-f7b9-11df-88fb-123139181c25","toning":1,"jsg":0,"id":"a7vwwgig617i","zumbatomic":0,"geo_precision":"zip","zumba basic 2":0,"aqua":0,"sentao":0},"type":"Feature","geometry":{"type":"Point","coordinates":[-0.776333,51.275833]}},{"properties":{"city":"Grays Thurrock","postal_code":"RM175HS","gold":0,"geo_score":0.857,"user_id":"0a67a290-f7b9-11df-88fb-123139181c25","toning":0,"jsg":0,"id":"a7vwwgsywx1m","zumbatomic":1,"geo_precision":"zip","zumba basic 2":0,"aqua":0,"sentao":0},"type":"Feature","geometry":{"type":"Point","coordinates":[0.3333333,51.4833333]}},{"properties":{"city":"Manchester","postal_code":"BL83BL","gold":0,"geo_score":0.857,"user_id":"0a67b6ae-f7b9-11df-88fb-123139181c25","toning":0,"jsg":0,"id":"a7vwwggrgk1p","zumbatomic":1,"geo_precision":"zip","zumba basic 2":0,"aqua":1,"sentao":0},"type":"Feature","geometry":{"type":"Point","coordinates":[-2.23743438720703,53.4809464283615]}},{"properties":{"city":"Bury","postal_code":"bl83ge","gold":0,"geo_score":0.857,"user_id":"0a67bd20-f7b9-11df-88fb-123139181c25","toning":0,"jsg":0,"id":"a7vwwgib5c0j","zumbatomic":1,"geo_precision":"zip","zumba basic 2":0,"aqua":1,"sentao":0},"type":"Feature","geometry":{"type":"Point","coordinates":[-1.35,60.3833333]}},{"properties":{"city":"Cambridge","postal_code":"cb41wa","gold":1,"geo_score":0.857,"user_id":"0a6e7c0a-f7b9-11df-88fb-123139181c25","toning":1,"jsg":0,"id":"a7vwwgrfa4jg","zumbatomic":1,"geo_precision":"zip","zumba basic 2":1,"aqua":1,"sentao":1},"type":"Feature","geometry":{"type":"Point","coordinates":[0.19356,52.18475]}},{"properties":{"city":"Wolverhampton","postal_code":"WV69HX","gold":0,"geo_score":0.857,"user_id":"0a6ea2b6-f7b9-11df-88fb-123139181c25","toning":0,"jsg":0,"id":"a7vwwgsoaerm","zumbatomic":1,"geo_precision":"zip","zumba basic 2":1,"aqua":0,"sentao":0},"type":"Feature","geometry":{"type":"Point","coordinates":[-2.1333333,52.5833333]}},{"properties":{"city":"London Borough of Enfield","postal_code":"EN12AZ","gold":0,"geo_score":0.857,"user_id":"0a6ea644-f7b9-11df-88fb-123139181c25","toning":0,"jsg":0,"id":"a7vwwgkzaxmx","zumbatomic":0,"geo_precision":"zip","zumba basic 2":0,"aqua":0,"sentao":0},"type":"Feature","geometry":{"type":"Point","coordinates":[-2.8508333,51.7316667]}},{"properties":{"city":"Stranraer","postal_code":"DG97LQ","gold":1,"geo_score":0.857,"user_id":"0a6ecf2a-f7b9-11df-88fb-123139181c25","toning":1,"jsg":0,"id":"a7vwwgs7ufe2","zumbatomic":1,"geo_precision":"zip","zumba basic 2":0,"aqua":0,"sentao":1},"type":"Feature","geometry":{"type":"Point","coordinates":[-5.0333333,54.9]}},{"properties":{"city":"Merseyside","postal_code":"ch443af","gold":0,"geo_score":0.857,"user_id":"0a6eda36-2b00-11e0-8b28-123139181c25","toning":0,"jsg":0,"id":"a7vwwgi4x3pv","zumbatomic":0,"geo_precision":"zip","zumba basic 2":0,"aqua":0,"sentao":0},"type":"Feature","geometry":{"type":"Point","coordinates":[-3.0833333,53.4]}},{"properties":{"city":"Crawley","postal_code":"RH108JP","gold":0,"geo_score":0.857,"user_id":"0a755b2e-f7b9-11df-88fb-123139181c25","toning":0,"jsg":0,"id":"a7vwwggeext6","zumbatomic":0,"geo_precision":"zip","zumba basic 2":0,"aqua":0,"sentao":0},"type":"Feature","geometry":{"type":"Point","coordinates":[-2.5666667,52.3666667]}},{"properties":{"city":"London","postal_code":"BR14SH","gold":1,"geo_score":0.857,"user_id":"0a7c573a-f7b9-11df-88fb-123139181c25","toning":0,"jsg":0,"id":"a7vwwgt7gb1j","zumbatomic":0,"geo_precision":"zip","zumba basic 2":0,"aqua":1,"sentao":0},"type":"Feature","geometry":{"type":"Point","coordinates":[-2.8508333,51.7316667]}},{"properties":{"city":"Leicestershire","postal_code":"LE96NX","gold":0,"geo_score":0.857,"user_id":"0a7c6590-f7b9-11df-88fb-123139181c25","toning":0,"jsg":0,"id":"a7vwwgs699cu","zumbatomic":0,"geo_precision":"zip","zumba basic 2":1,"aqua":0,"sentao":0},"type":"Feature","geometry":{"type":"Point","coordinates":[-1.1348,52.62782]}},{"properties":{"city":"Gillingham Kent","postal_code":"ME75XL","gold":0,"geo_score":0.857,"user_id":"0a7c68ec-f7b9-11df-88fb-123139181c25","toning":0,"jsg":0,"id":"a7vwwgj7d0yt","zumbatomic":0,"geo_precision":"zip","zumba basic 2":0,"aqua":0,"sentao":0},"type":"Feature","geometry":{"type":"Point","coordinates":[-3.75,56.0666667]}},{"properties":{"city":"Aylesbury","postal_code":"HP224pt","gold":0,"geo_score":0.857,"user_id":"0a7c79b8-f7b9-11df-88fb-123139181c25","toning":1,"jsg":0,"id":"a7vwwgmzg4wn","zumbatomic":0,"geo_precision":"zip","zumba basic 2":0,"aqua":0,"sentao":0},"type":"Feature","geometry":{"type":"Point","coordinates":[-0.8,51.8333333]}},{"properties":{"city":"Northampton","postal_code":"nn67ru","gold":0,"geo_score":0.857,"user_id":"0a7cb374-f7b9-11df-88fb-123139181c25","toning":1,"jsg":0,"id":"a7vwwgho9bh8","zumbatomic":0,"geo_precision":"zip","zumba basic 2":0,"aqua":0,"sentao":0},"type":"Feature","geometry":{"type":"Point","coordinates":[-1.10988,51.28062]}},{"properties":{"city":"Hayes","postal_code":"UB31QG","gold":0,"geo_score":0.857,"user_id":"0a7cb9c8-f7b9-11df-88fb-123139181c25","toning":0,"jsg":0,"id":"a7vwwglkxb8r","zumbatomic":0,"geo_precision":"zip","zumba basic 2":1,"aqua":1,"sentao":0},"type":"Feature","geometry":{"type":"Point","coordinates":[0.0120162963867188,51.37863823622]}},{"properties":{"city":"Stockport Cheshire","postal_code":"SK73DD","gold":0,"geo_score":0.857,"user_id":"0a804cac-4b2c-11e0-8b28-123139181c25","toning":0,"jsg":0,"id":"a7vwwgpco42e","zumbatomic":0,"geo_precision":"zip","zumba basic 2":0,"aqua":0,"sentao":0},"type":"Feature","geometry":{"type":"Point","coordinates":[-2.7,52.2]}},{"properties":{"city":"London","postal_code":"SW148RU","gold":0,"geo_score":0.857,"user_id":"0a8e5638-f7b9-11df-88fb-123139181c25","toning":0,"jsg":0,"id":"a7vwwgt6f5i1","zumbatomic":1,"geo_precision":"zip","zumba basic 2":0,"aqua":0,"sentao":0},"type":"Feature","geometry":{"type":"Point","coordinates":[-2.8508333,51.7316667]}},{"properties":{"city":"Basildon Essex","postal_code":"SS155UY","gold":0,"geo_score":0.857,"user_id":"0a8e8248-46b0-11e0-8b28-123139181c25","toning":0,"jsg":0,"id":"a7vwwgsb76e1","zumbatomic":0,"geo_precision":"zip","zumba basic 2":0,"aqua":0,"sentao":0},"type":"Feature","geometry":{"type":"Point","coordinates":[0.45056,51.55769]}},{"properties":{"city":"Potters Bar","postal_code":"EN65NW","gold":0,"geo_score":0.857,"user_id":"0a8e995e-f7b9-11df-88fb-123139181c25","toning":0,"jsg":0,"id":"a7vwwgpxerv1","zumbatomic":1,"geo_precision":"zip","zumba basic 2":0,"aqua":0,"sentao":0},"type":"Feature","geometry":{"type":"Point","coordinates":[-1.35,60.3833333]}},{"properties":{"city":"Herts","postal_code":"HP38RU","gold":1,"geo_score":0.857,"user_id":"0a8ea994-f7b9-11df-88fb-123139181c25","toning":0,"jsg":0,"id":"a7vwwgj4p7ev","zumbatomic":0,"geo_precision":"zip","zumba basic 2":0,"aqua":0,"sentao":0},"type":"Feature","geometry":{"type":"Point","coordinates":[-0.1668,51.4979]}},{"properties":{"city":"King langley","postal_code":"wd48eq","gold":0,"geo_score":0.857,"user_id":"0a92914e-34fe-11e0-8b28-123139181c25","toning":0,"jsg":0,"id":"a7vwwgswk8mb","zumbatomic":0,"geo_precision":"zip","zumba basic 2":0,"aqua":0,"sentao":0},"type":"Feature","geometry":{"type":"Point","coordinates":[-7.0666667,54.7166667]}},{"properties":{"city":"Stirling","postal_code":"FK95DU","gold":0,"geo_score":0.857,"user_id":"0a9c3bf4-f7b9-11df-88fb-123139181c25","toning":0,"jsg":0,"id":"a7vwwgin09tm","zumbatomic":1,"geo_precision":"zip","zumba basic 2":1,"aqua":0,"sentao":0},"type":"Feature","geometry":{"type":"Point","coordinates":[-3.3291666,54.5308333]}},{"properties":{"city":"Leicester","postal_code":"LE193fa","gold":0,"geo_score":0.857,"user_id":"0a9c98f6-f7b9-11df-88fb-123139181c25","toning":0,"jsg":0,"id":"a7vwwgf3zu1s","zumbatomic":1,"geo_precision":"zip","zumba basic 2":1,"aqua":0,"sentao":0},"type":"Feature","geometry":{"type":"Point","coordinates":[-1.1348,52.62782]}},{"properties":{"city":"Leicestershire","postal_code":"le38fj","gold":0,"geo_score":0.857,"user_id":"0a9c9c98-f7b9-11df-88fb-123139181c25","toning":1,"jsg":0,"id":"a7vwwgpgjvt7","zumbatomic":1,"geo_precision":"zip","zumba basic 2":1,"aqua":0,"sentao":0},"type":"Feature","geometry":{"type":"Point","coordinates":[-1.1348,52.62782]}},{"properties":{"city":"Hemel Hempstead","postal_code":"HP13LZ","gold":1,"geo_score":0.857,"user_id":"0a9cc402-f7b9-11df-88fb-123139181c25","toning":1,"jsg":0,"id":"a7vwwgf0dwx2","zumbatomic":1,"geo_precision":"zip","zumba basic 2":0,"aqua":0,"sentao":0},"type":"Feature","geometry":{"type":"Point","coordinates":[-0.4666667,51.75]}},{"properties":{"city":"Leeds West Yorkshir","postal_code":"LS260JG","gold":0,"geo_score":0.857,"user_id":"0a9e37ee-4f23-11e0-8b28-123139181c25","toning":0,"jsg":0,"id":"a7vwwgniyj5r","zumbatomic":0,"geo_precision":"zip","zumba basic 2":0,"aqua":0,"sentao":0},"type":"Feature","geometry":{"type":"Point","coordinates":[0.6166667,51.2333333]}},{"properties":{"city":"Saffron Walden","postal_code":"CB114TX","gold":1,"geo_score":0.857,"user_id":"0aa3318e-f7b9-11df-88fb-123139181c25","toning":0,"jsg":0,"id":"a7vwwgec717s","zumbatomic":1,"geo_precision":"zip","zumba basic 2":1,"aqua":0,"sentao":0},"type":"Feature","geometry":{"type":"Point","coordinates":[-1.46581649780273,53.6488606296797]}},{"properties":{"city":"Manchester","postal_code":"M239AZ","gold":0,"geo_score":0.857,"user_id":"0aa33bde-f7b9-11df-88fb-123139181c25","toning":0,"jsg":0,"id":"a7vwwgu313i7","zumbatomic":1,"geo_precision":"zip","zumba basic 2":0,"aqua":0,"sentao":1},"type":"Feature","geometry":{"type":"Point","coordinates":[-2.23743438720703,53.4809464283615]}},{"properties":{"city":"Grangemouth","postal_code":"FK38JS","gold":1,"geo_score":0.857,"user_id":"0aa33f3a-f7b9-11df-88fb-123139181c25","toning":0,"jsg":0,"id":"a7vwwglo7o3y","zumbatomic":0,"geo_precision":"zip","zumba basic 2":0,"aqua":0,"sentao":0},"type":"Feature","geometry":{"type":"Point","coordinates":[-3.73204,56.01163]}},{"properties":{"city":"Gosforth","postal_code":"ne35rh","gold":1,"geo_score":0.857,"user_id":"0aa34278-f7b9-11df-88fb-123139181c25","toning":1,"jsg":0,"id":"a7vwwgu08f4o","zumbatomic":1,"geo_precision":"zip","zumba basic 2":0,"aqua":1,"sentao":0},"type":"Feature","geometry":{"type":"Point","coordinates":[-1.61998,55.01132]}},{"properties":{"city":"Wollaston NORTHAMPTON","postal_code":"NN297QG","gold":0,"geo_score":0.857,"user_id":"0aa345ca-f7b9-11df-88fb-123139181c25","toning":0,"jsg":0,"id":"a7vwwgpd3edd","zumbatomic":1,"geo_precision":"zip","zumba basic 2":1,"aqua":0,"sentao":0},"type":"Feature","geometry":{"type":"Point","coordinates":[-2.75,52.55]}},{"properties":{"city":"Glasgow","postal_code":"G668EZ","gold":0,"geo_score":0.857,"user_id":"0aaa3a88-f7b9-11df-88fb-123139181c25","toning":0,"jsg":0,"id":"a7vwwghtkljg","zumbatomic":1,"geo_precision":"zip","zumba basic 2":0,"aqua":0,"sentao":0},"type":"Feature","geometry":{"type":"Point","coordinates":[-4.25763130187988,55.8651497187961]}},{"properties":{"city":"Falkirk","postal_code":"FK15UP","gold":0,"geo_score":0.857,"user_id":"0aaa5cac-f7b9-11df-88fb-123139181c25","toning":0,"jsg":0,"id":"a7vwwgikd30r","zumbatomic":0,"geo_precision":"zip","zumba basic 2":0,"aqua":0,"sentao":0},"type":"Feature","geometry":{"type":"Point","coordinates":[-3.75,56.0]}},{"properties":{"city":"Purley","postal_code":"CR85HT","gold":1,"geo_score":0.857,"user_id":"0aaa818c-f7b9-11df-88fb-123139181c25","toning":1,"jsg":0,"id":"a7vwwgrceavk","zumbatomic":1,"geo_precision":"zip","zumba basic 2":1,"aqua":1,"sentao":0},"type":"Feature","geometry":{"type":"Point","coordinates":[-0.1,51.3166667]}},{"properties":{"city":"KILMARNOCK","postal_code":"KA32HZ","gold":1,"geo_score":0.857,"user_id":"0aaa9af0-f7b9-11df-88fb-123139181c25","toning":0,"jsg":0,"id":"a7vwwgicanix","zumbatomic":0,"geo_precision":"zip","zumba basic 2":0,"aqua":0,"sentao":0},"type":"Feature","geometry":{"type":"Point","coordinates":[-4.49581146240234,55.611711054595]}},{"properties":{"city":"ARDROSSAN","postal_code":"KA228ER","gold":1,"geo_score":0.857,"user_id":"0aaaa162-f7b9-11df-88fb-123139181c25","toning":0,"jsg":0,"id":"a7vwwgl2nth0","zumbatomic":0,"geo_precision":"zip","zumba basic 2":0,"aqua":0,"sentao":0},"type":"Feature","geometry":{"type":"Point","coordinates":[-4.8166667,55.6166667]}},{"properties":{"city":"Edinburgh","postal_code":"EH68EY","gold":0,"geo_score":0.857,"user_id":"0aaaa4c8-f7b9-11df-88fb-123139181c25","toning":0,"jsg":0,"id":"a7vwwgn0x9y9","zumbatomic":1,"geo_precision":"zip","zumba basic 2":1,"aqua":0,"sentao":0},"type":"Feature","geometry":{"type":"Point","coordinates":[-3.3725,55.95]}},{"properties":{"city":"Tillicoultry","postal_code":"FK136AW","gold":0,"geo_score":0.857,"user_id":"0ab1d0cc-f7b9-11df-88fb-123139181c25","toning":0,"jsg":0,"id":"a7vwwgrw4yrw","zumbatomic":1,"geo_precision":"zip","zumba basic 2":1,"aqua":0,"sentao":0},"type":"Feature","geometry":{"type":"Point","coordinates":[-3.75,56.15]}},{"properties":{"city":"Motherwell North Lanarkshire","postal_code":"ML13FR","gold":0,"geo_score":0.857,"user_id":"0ab634f4-1ff6-11e0-8b28-123139181c25","toning":0,"jsg":0,"id":"a7vwwgfq2zsb","zumbatomic":0,"geo_precision":"zip","zumba basic 2":0,"aqua":0,"sentao":0},"type":"Feature","geometry":{"type":"Point","coordinates":[-4.0,55.7833333]}},{"properties":{"city":"Edinburgh","postal_code":"Eh75sg","gold":0,"geo_score":0.857,"user_id":"0ab826fc-f7b9-11df-88fb-123139181c25","toning":0,"jsg":0,"id":"a7vwwgffri8e","zumbatomic":1,"geo_precision":"zip","zumba basic 2":0,"aqua":0,"sentao":0},"type":"Feature","geometry":{"type":"Point","coordinates":[-3.3725,55.95]}},{"properties":{"city":"Crewe","postal_code":"CW28HX","gold":1,"geo_score":0.857,"user_id":"0ab8614e-f7b9-11df-88fb-123139181c25","toning":0,"jsg":0,"id":"a7vwwgkswf18","zumbatomic":1,"geo_precision":"zip","zumba basic 2":0,"aqua":0,"sentao":0},"type":"Feature","geometry":{"type":"Point","coordinates":[-4.2241667,51.7358333]}},{"properties":{"city":"Edinburgh","postal_code":"EH127NP","gold":0,"geo_score":0.857,"user_id":"0ab86f0e-f7b9-11df-88fb-123139181c25","toning":0,"jsg":0,"id":"a7vwwgojm3li","zumbatomic":0,"geo_precision":"zip","zumba basic 2":1,"aqua":0,"sentao":0},"type":"Feature","geometry":{"type":"Point","coordinates":[-3.3725,55.95]}},{"properties":{"city":"Buckinghamshire","postal_code":"SL90BY","gold":0,"geo_score":0.0,"user_id":"0ab8a67c-f7b9-11df-88fb-123139181c25","toning":0,"jsg":0,"id":"a7vwwgiy621c","zumbatomic":0,"geo_precision":"unmatched","zumba basic 2":0,"aqua":0,"sentao":0},"type":"Feature","geometry":null},{"properties":{"city":"Buckinghamshire","postal_code":"SL90BY","gold":0,"geo_score":0.0,"user_id":"0ab8b090-f7b9-11df-88fb-123139181c25","toning":0,"jsg":0,"id":"a7vwwgqrkiy2","zumbatomic":0,"geo_precision":"unmatched","zumba basic 2":0,"aqua":0,"sentao":0},"type":"Feature","geometry":null},{"properties":{"city":"Heanor","postal_code":"DE757LE","gold":1,"geo_score":0.857,"user_id":"0ab8bda6-f7b9-11df-88fb-123139181c25","toning":1,"jsg":0,"id":"a7vwwgphkkeh","zumbatomic":1,"geo_precision":"zip","zumba basic 2":1,"aqua":1,"sentao":1},"type":"Feature","geometry":{"type":"Point","coordinates":[-1.3,53.0]}},{"properties":{"city":"Cramlington","postal_code":"NE232GB","gold":1,"geo_score":0.857,"user_id":"0ab8d188-f7b9-11df-88fb-123139181c25","toning":1,"jsg":0,"id":"a7vwwgg4rc98","zumbatomic":1,"geo_precision":"zip","zumba basic 2":0,"aqua":0,"sentao":0},"type":"Feature","geometry":{"type":"Point","coordinates":[-3.1352778,51.6777778]}},{"properties":{"city":"Ayr","postal_code":"Ka71bj","gold":0,"geo_score":0.857,"user_id":"0ac31c4c-f7b9-11df-88fb-123139181c25","toning":1,"jsg":0,"id":"a7vwwgt4s7m3","zumbatomic":1,"geo_precision":"zip","zumba basic 2":1,"aqua":0,"sentao":0},"type":"Feature","geometry":{"type":"Point","coordinates":[-4.6166667,55.45]}},{"properties":{"city":"Hemel Hempstead","postal_code":"HP39AP","gold":0,"geo_score":0.857,"user_id":"0ac3223c-f7b9-11df-88fb-123139181c25","toning":1,"jsg":0,"id":"a7vwwh7teagi","zumbatomic":0,"geo_precision":"zip","zumba basic 2":0,"aqua":0,"sentao":0},"type":"Feature","geometry":{"type":"Point","coordinates":[-0.4666667,51.75]}},{"properties":{"city":"Edinburgh","postal_code":"EH112TH","gold":0,"geo_score":0.857,"user_id":"0ac36332-f7b9-11df-88fb-123139181c25","toning":0,"jsg":0,"id":"a7vwwh7nuguv","zumbatomic":0,"geo_precision":"zip","zumba basic 2":1,"aqua":1,"sentao":0},"type":"Feature","geometry":{"type":"Point","coordinates":[-3.3725,55.95]}},{"properties":{"city":"Berkhamsted","postal_code":"HP42DD","gold":0,"geo_score":0.857,"user_id":"0ac3f766-f7b9-11df-88fb-123139181c25","toning":1,"jsg":0,"id":"a7vwwh13a19t","zumbatomic":0,"geo_precision":"zip","zumba basic 2":0,"aqua":0,"sentao":0},"type":"Feature","geometry":{"type":"Point","coordinates":[-0.565280914306641,51.7604029969821]}},{"properties":{"city":"Henley in Arden","postal_code":"B955DR","gold":0,"geo_score":0.857,"user_id":"0ac96b6c-0144-11e0-8b28-123139181c25","toning":0,"jsg":0,"id":"a7vwwh7yv2cg","zumbatomic":0,"geo_precision":"zip","zumba basic 2":0,"aqua":0,"sentao":0},"type":"Feature","geometry":{"type":"Point","coordinates":[-1.7666667,52.2833333]}},{"properties":{"city":"Guildford","postal_code":"GU14HU","gold":0,"geo_score":0.857,"user_id":"0ac98bb4-2d6e-11e0-8b28-123139181c25","toning":0,"jsg":0,"id":"a7vwwh528jjt","zumbatomic":0,"geo_precision":"zip","zumba basic 2":0,"aqua":0,"sentao":0},"type":"Feature","geometry":{"type":"Point","coordinates":[-0.580918192863464,51.2366778806289]}},{"properties":{"city":"Epsom","postal_code":"KT197EE","gold":0,"geo_score":0.857,"user_id":"0aca6a74-f7b9-11df-88fb-123139181c25","toning":0,"jsg":0,"id":"a7vwwgwa8i7i","zumbatomic":0,"geo_precision":"zip","zumba basic 2":0,"aqua":1,"sentao":0},"type":"Feature","geometry":{"type":"Point","coordinates":[-0.2666667,51.3166667]}},{"properties":{"city":"Glasgow","postal_code":"G605HH","gold":0,"geo_score":0.857,"user_id":"0aca6e16-f7b9-11df-88fb-123139181c25","toning":1,"jsg":0,"id":"a7vwwgyf0cyd","zumbatomic":1,"geo_precision":"zip","zumba basic 2":0,"aqua":0,"sentao":0},"type":"Feature","geometry":{"type":"Point","coordinates":[-4.25763130187988,55.8651497187961]}},{"properties":{"city":"Leicester","postal_code":"le55dp","gold":0,"geo_score":0.857,"user_id":"0acacae6-f7b9-11df-88fb-123139181c25","toning":1,"jsg":0,"id":"a7vwwh0acosd","zumbatomic":1,"geo_precision":"zip","zumba basic 2":0,"aqua":0,"sentao":0},"type":"Feature","geometry":{"type":"Point","coordinates":[-1.1348,52.62782]}},{"properties":{"city":"Wickford","postal_code":"ss118hx","gold":0,"geo_score":0.0,"user_id":"0ad19646-f7b9-11df-88fb-123139181c25","toning":0,"jsg":0,"id":"a7vwwgzjlnlp","zumbatomic":0,"geo_precision":"unmatched","zumba basic 2":0,"aqua":0,"sentao":0},"type":"Feature","geometry":null},{"properties":{"city":"Wickford","postal_code":"ss118hx","gold":0,"geo_score":0.0,"user_id":"0ad19646-f7b9-11df-88fb-123139181c25","toning":0,"jsg":0,"id":"a7vwwh7fwhmv","zumbatomic":0,"geo_precision":"unmatched","zumba basic 2":0,"aqua":0,"sentao":0},"type":"Feature","geometry":null},{"properties":{"city":"Loughton Essex","postal_code":"IG102QS","gold":0,"geo_score":0.857,"user_id":"0ad199ca-f7b9-11df-88fb-123139181c25","toning":1,"jsg":0,"id":"a7vwwgvdin1n","zumbatomic":1,"geo_precision":"zip","zumba basic 2":0,"aqua":0,"sentao":0},"type":"Feature","geometry":{"type":"Point","coordinates":[-4.2833333,50.6333333]}},{"properties":{"city":"Johnstone","postal_code":"PA59NX","gold":1,"geo_score":0.857,"user_id":"0ad1a1e0-f7b9-11df-88fb-123139181c25","toning":1,"jsg":0,"id":"a7vwwgvaazk4","zumbatomic":0,"geo_precision":"zip","zumba basic 2":1,"aqua":0,"sentao":0},"type":"Feature","geometry":{"type":"Point","coordinates":[-5.5333333,55.3666667]}},{"properties":{"city":"Woking","postal_code":"GU214PT","gold":0,"geo_score":0.857,"user_id":"0ad1c5c6-f7b9-11df-88fb-123139181c25","toning":0,"jsg":0,"id":"a7vwwh7y1uif","zumbatomic":0,"geo_precision":"zip","zumba basic 2":1,"aqua":0,"sentao":0},"type":"Feature","geometry":{"type":"Point","coordinates":[-0.558929443359375,51.3190262646694]}},{"properties":{"city":"Southampton","postal_code":"SO303AW","gold":0,"geo_score":0.857,"user_id":"0ad1c90e-f7b9-11df-88fb-123139181c25","toning":0,"jsg":0,"id":"a7vwwgviaypd","zumbatomic":1,"geo_precision":"zip","zumba basic 2":0,"aqua":0,"sentao":0},"type":"Feature","geometry":{"type":"Point","coordinates":[-1.4,50.9]}},{"properties":{"city":"Newport Gwent","postal_code":"NP205FR","gold":0,"geo_score":0.857,"user_id":"0ad1e0c4-f7b9-11df-88fb-123139181c25","toning":0,"jsg":0,"id":"a7vwwh20jmoo","zumbatomic":0,"geo_precision":"zip","zumba basic 2":0,"aqua":0,"sentao":0},"type":"Feature","geometry":{"type":"Point","coordinates":[-3.0,51.6666667]}},{"properties":{"city":"Preston","postal_code":"PR269BA","gold":1,"geo_score":0.857,"user_id":"0ad1e484-f7b9-11df-88fb-123139181c25","toning":1,"jsg":0,"id":"a7vwwh2235ij","zumbatomic":0,"geo_precision":"zip","zumba basic 2":1,"aqua":1,"sentao":1},"type":"Feature","geometry":{"type":"Point","coordinates":[-1.15853,52.18953]}},{"properties":{"city":"Bracknell","postal_code":"RG127WR","gold":1,"geo_score":0.0,"user_id":"0ad1ed12-f7b9-11df-88fb-123139181c25","toning":1,"jsg":0,"id":"a7vwwh5nwel3","zumbatomic":0,"geo_precision":"unmatched","zumba basic 2":0,"aqua":1,"sentao":0},"type":"Feature","geometry":null},{"properties":{"city":"Falkirk","postal_code":"FK15PQ","gold":0,"geo_score":0.857,"user_id":"0ad1fdd4-f7b9-11df-88fb-123139181c25","toning":0,"jsg":0,"id":"a7vwwgvrtvcq","zumbatomic":0,"geo_precision":"zip","zumba basic 2":0,"aqua":0,"sentao":0},"type":"Feature","geometry":{"type":"Point","coordinates":[-3.75,56.0]}},{"properties":{"city":"Chesham","postal_code":"HP51PW","gold":0,"geo_score":0.857,"user_id":"0ad20b62-f7b9-11df-88fb-123139181c25","toning":0,"jsg":0,"id":"a7vwwh0iumnx","zumbatomic":0,"geo_precision":"zip","zumba basic 2":0,"aqua":0,"sentao":0},"type":"Feature","geometry":{"type":"Point","coordinates":[-0.6,51.7]}},{"properties":{"city":"Nottinghamshire","postal_code":"S804JH","gold":1,"geo_score":0.857,"user_id":"0adfeac0-f7b9-11df-88fb-123139181c25","toning":1,"jsg":0,"id":"a7vwwh52zsoo","zumbatomic":1,"geo_precision":"zip","zumba basic 2":1,"aqua":0,"sentao":0},"type":"Feature","geometry":{"type":"Point","coordinates":[-2.63543,53.44457]}},{"properties":{"city":"London","postal_code":"N213AA","gold":0,"geo_score":0.857,"user_id":"0ae077ba-f7b9-11df-88fb-123139181c25","toning":0,"jsg":0,"id":"a7vwwhaf4p5d","zumbatomic":0,"geo_precision":"zip","zumba basic 2":0,"aqua":0,"sentao":0},"type":"Feature","geometry":{"type":"Point","coordinates":[-2.8508333,51.7316667]}},{"properties":{"city":"Staffordshire","postal_code":"WS72YU","gold":0,"geo_score":0.857,"user_id":"0ae5913c-1dcf-11e0-8b28-123139181c25","toning":0,"jsg":0,"id":"a7vwwgyyogpr","zumbatomic":0,"geo_precision":"zip","zumba basic 2":0,"aqua":0,"sentao":0},"type":"Feature","geometry":{"type":"Point","coordinates":[-1.2004,52.2489]}},{"properties":{"city":"London","postal_code":"N112PR","gold":0,"geo_score":0.857,"user_id":"0af16854-f7b9-11df-88fb-123139181c25","toning":0,"jsg":0,"id":"a7vwwh8kexe5","zumbatomic":0,"geo_precision":"zip","zumba basic 2":0,"aqua":0,"sentao":0},"type":"Feature","geometry":{"type":"Point","coordinates":[-2.8508333,51.7316667]}},{"properties":{"city":"newport isle of wight","postal_code":"po302dx","gold":0,"geo_score":0.857,"user_id":"0af17bb4-f7b9-11df-88fb-123139181c25","toning":0,"jsg":0,"id":"a7vwwh5sstww","zumbatomic":0,"geo_precision":"zip","zumba basic 2":0,"aqua":0,"sentao":0},"type":"Feature","geometry":{"type":"Point","coordinates":[-6.25666666666667,55.6819444444444]}},{"properties":{"city":"newport","postal_code":"po302dx","gold":0,"geo_score":0.857,"user_id":"0af17ee8-f7b9-11df-88fb-123139181c25","toning":0,"jsg":0,"id":"a7vwwgzz8lki","zumbatomic":0,"geo_precision":"zip","zumba basic 2":0,"aqua":0,"sentao":0},"type":"Feature","geometry":{"type":"Point","coordinates":[0.25,51.9833333]}},{"properties":{"city":"Bishops Stortford","postal_code":"CM235LS","gold":0,"geo_score":0.857,"user_id":"0af18596-f7b9-11df-88fb-123139181c25","toning":1,"jsg":0,"id":"a7vwwh09vzut","zumbatomic":1,"geo_precision":"zip","zumba basic 2":1,"aqua":1,"sentao":0},"type":"Feature","geometry":{"type":"Point","coordinates":[-2.5947222,51.3344444]}},{"properties":{"city":"Bishop Stortford","postal_code":"CM233NP","gold":0,"geo_score":0.857,"user_id":"0af18cd0-f7b9-11df-88fb-123139181c25","toning":0,"jsg":0,"id":"a7vwwgwzlagp","zumbatomic":1,"geo_precision":"zip","zumba basic 2":0,"aqua":0,"sentao":0},"type":"Feature","geometry":{"type":"Point","coordinates":[-2.5947222,51.3344444]}},{"properties":{"city":"London","postal_code":"NW95XY","gold":1,"geo_score":0.857,"user_id":"0af19054-f7b9-11df-88fb-123139181c25","toning":1,"jsg":0,"id":"a7vwwh98jon6","zumbatomic":0,"geo_precision":"zip","zumba basic 2":1,"aqua":0,"sentao":0},"type":"Feature","geometry":{"type":"Point","coordinates":[-2.8508333,51.7316667]}},{"properties":{"city":"cornwall","postal_code":"tr127qq","gold":1,"geo_score":0.857,"user_id":"0af1cfd8-f7b9-11df-88fb-123139181c25","toning":0,"jsg":0,"id":"a7vwwh9wt0l1","zumbatomic":1,"geo_precision":"zip","zumba basic 2":0,"aqua":0,"sentao":0},"type":"Feature","geometry":{"type":"Point","coordinates":[-2.5666667,57.2333333]}},{"properties":{"city":"Isle of Wight","postal_code":"PO369EX","gold":0,"geo_score":0.857,"user_id":"0af1d640-f7b9-11df-88fb-123139181c25","toning":0,"jsg":0,"id":"a7vwwh956jwi","zumbatomic":0,"geo_precision":"zip","zumba basic 2":0,"aqua":0,"sentao":0},"type":"Feature","geometry":{"type":"Point","coordinates":[-6.25666666666667,55.6819444444444]}},{"properties":{"city":"North Berwick","postal_code":"EH394HE","gold":0,"geo_score":0.857,"user_id":"0af2d724-19ac-11e0-8b28-123139181c25","toning":0,"jsg":0,"id":"a7vwwh685ts4","zumbatomic":0,"geo_precision":"zip","zumba basic 2":0,"aqua":0,"sentao":0},"type":"Feature","geometry":{"type":"Point","coordinates":[-0.340919494628906,54.1355901896331]}},{"properties":{"city":"Maghera","postal_code":"BT465BQ","gold":0,"geo_score":0.857,"user_id":"0af3bbdc-23b9-11e0-8b28-123139181c25","toning":0,"jsg":0,"id":"a7vwwgzwgysc","zumbatomic":1,"geo_precision":"zip","zumba basic 2":1,"aqua":0,"sentao":0},"type":"Feature","geometry":{"type":"Point","coordinates":[-2.8313889,51.5794444]}},{"properties":{"city":"Waltham St Lawrence","postal_code":"RG100HL","gold":1,"geo_score":0.857,"user_id":"0af8b514-f7b9-11df-88fb-123139181c25","toning":0,"jsg":0,"id":"a7vwwh0bfwj5","zumbatomic":1,"geo_precision":"zip","zumba basic 2":0,"aqua":0,"sentao":0},"type":"Feature","geometry":{"type":"Point","coordinates":[-0.032958984375,51.5966945869731]}},{"properties":{"city":"Llantwit Major","postal_code":"CF612SQ","gold":0,"geo_score":0.857,"user_id":"0b03438e-4f08-11e0-8b28-123139181c25","toning":0,"jsg":1,"id":"a7vwwh24awht","zumbatomic":0,"geo_precision":"zip","zumba basic 2":0,"aqua":0,"sentao":0},"type":"Feature","geometry":{"type":"Point","coordinates":[-5.2,49.9666667]}},{"properties":{"city":"Cleethorpes","postal_code":"DN358TA","gold":0,"geo_score":0.857,"user_id":"0b06436e-f7b9-11df-88fb-123139181c25","toning":0,"jsg":0,"id":"a7vwwgyv684r","zumbatomic":1,"geo_precision":"zip","zumba basic 2":0,"aqua":0,"sentao":0},"type":"Feature","geometry":{"type":"Point","coordinates":[-0.0333333,53.55]}},{"properties":{"city":"Grimsby","postal_code":"DN418TG","gold":0,"geo_score":0.857,"user_id":"0b065ee4-f7b9-11df-88fb-123139181c25","toning":1,"jsg":0,"id":"a7vwwh6wqt0w","zumbatomic":1,"geo_precision":"zip","zumba basic 2":0,"aqua":0,"sentao":0},"type":"Feature","geometry":{"type":"Point","coordinates":[-0.05,53.5333333]}},{"properties":{"city":"Richmond Surrey London","postal_code":"SW147DJ","gold":0,"geo_score":0.857,"user_id":"0b32c060-f7b9-11df-88fb-123139181c25","toning":1,"jsg":0,"id":"a7vwwh1rxpjk","zumbatomic":1,"geo_precision":"zip","zumba basic 2":0,"aqua":0,"sentao":0},"type":"Feature","geometry":{"type":"Point","coordinates":[-2.8508333,51.7316667]}},{"properties":{"city":"Glasgow South Side City Centre","postal_code":"G432YT","gold":0,"geo_score":0.857,"user_id":"0b32c772-f7b9-11df-88fb-123139181c25","toning":0,"jsg":0,"id":"a7vwwh0it5lk","zumbatomic":1,"geo_precision":"zip","zumba basic 2":1,"aqua":0,"sentao":0},"type":"Feature","geometry":{"type":"Point","coordinates":[-4.2052,55.8492]}},{"properties":{"city":"Edinburgh","postal_code":"EH111GX","gold":0,"geo_score":0.857,"user_id":"0b40f4a0-f7b9-11df-88fb-123139181c25","toning":1,"jsg":0,"id":"a7vwwh95bewk","zumbatomic":0,"geo_precision":"zip","zumba basic 2":0,"aqua":0,"sentao":0},"type":"Feature","geometry":{"type":"Point","coordinates":[-3.3725,55.95]}},{"properties":{"city":"Edinburgh","postal_code":"EH66EA","gold":0,"geo_score":0.857,"user_id":"0b40f7de-f7b9-11df-88fb-123139181c25","toning":1,"jsg":0,"id":"a7vwwh79a60p","zumbatomic":1,"geo_precision":"zip","zumba basic 2":0,"aqua":0,"sentao":0},"type":"Feature","geometry":{"type":"Point","coordinates":[-3.3725,55.95]}},{"properties":{"city":"helensburgh/ alexandria","postal_code":"g825nl","gold":1,"geo_score":0.857,"user_id":"0b480b78-f7b9-11df-88fb-123139181c25","toning":1,"jsg":0,"id":"a7vwwgxgl6b0","zumbatomic":1,"geo_precision":"zip","zumba basic 2":0,"aqua":0,"sentao":0},"type":"Feature","geometry":{"type":"Point","coordinates":[-5.7333333,54.65]}},{"properties":{"city":"Tyne And Wear","postal_code":"NE258EN","gold":0,"geo_score":0.857,"user_id":"0b4ee812-f7b9-11df-88fb-123139181c25","toning":1,"jsg":0,"id":"a7vwwh9ppi4f","zumbatomic":0,"geo_precision":"zip","zumba basic 2":1,"aqua":0,"sentao":0},"type":"Feature","geometry":{"type":"Point","coordinates":[-0.1166667,52.3333333]}},{"properties":{"city":"lanarkshire","postal_code":"ML29RB","gold":0,"geo_score":0.857,"user_id":"0b54305a-3923-11e0-8b28-123139181c25","toning":0,"jsg":0,"id":"a7vwwhaswl59","zumbatomic":0,"geo_precision":"zip","zumba basic 2":0,"aqua":0,"sentao":0},"type":"Feature","geometry":{"type":"Point","coordinates":[-3.8333333,55.5833333]}},{"properties":{"city":"nottingham","postal_code":"ng58bj","gold":1,"geo_score":0.857,"user_id":"0b55f076-f7b9-11df-88fb-123139181c25","toning":0,"jsg":0,"id":"a7vwwgvrq38l","zumbatomic":1,"geo_precision":"zip","zumba basic 2":0,"aqua":0,"sentao":0},"type":"Feature","geometry":{"type":"Point","coordinates":[-2.63543,53.44457]}},{"properties":{"city":"West Calder West Lothian","postal_code":"EH558BG","gold":0,"geo_score":0.857,"user_id":"0b576cde-49c2-11e0-8b28-123139181c25","toning":0,"jsg":0,"id":"a7vwwh2hwh2z","zumbatomic":0,"geo_precision":"zip","zumba basic 2":0,"aqua":0,"sentao":0},"type":"Feature","geometry":{"type":"Point","coordinates":[-2.1833333,57.1166667]}},{"properties":{"city":"Kent","postal_code":"DA161RU","gold":1,"geo_score":0.857,"user_id":"0b60f372-f7b9-11df-88fb-123139181c25","toning":0,"jsg":0,"id":"a7vwwgxmnjcs","zumbatomic":0,"geo_precision":"zip","zumba basic 2":0,"aqua":0,"sentao":0},"type":"Feature","geometry":{"type":"Point","coordinates":[-3.75,56.0666667]}},{"properties":{"city":"London","postal_code":"Se231ES","gold":0,"geo_score":0.857,"user_id":"0b6b3bb6-f7b9-11df-88fb-123139181c25","toning":0,"jsg":0,"id":"a7vwwgxodz9r","zumbatomic":0,"geo_precision":"zip","zumba basic 2":0,"aqua":0,"sentao":0},"type":"Feature","geometry":{"type":"Point","coordinates":[-2.8508333,51.7316667]}},{"properties":{"city":"Glasgow City","postal_code":"G156EU","gold":0,"geo_score":0.857,"user_id":"0b76d08e-f7b9-11df-88fb-123139181c25","toning":1,"jsg":0,"id":"a7vwwh70bnm3","zumbatomic":1,"geo_precision":"zip","zumba basic 2":0,"aqua":0,"sentao":0},"type":"Feature","geometry":{"type":"Point","coordinates":[-4.2052,55.8492]}},{"properties":{"city":"Southampton","postal_code":"SO171EU","gold":1,"geo_score":0.857,"user_id":"0b76f6ae-f7b9-11df-88fb-123139181c25","toning":1,"jsg":0,"id":"a7vwwh2rs3tt","zumbatomic":1,"geo_precision":"zip","zumba basic 2":0,"aqua":0,"sentao":0},"type":"Feature","geometry":{"type":"Point","coordinates":[-1.4,50.9]}},{"properties":{"city":"Derry","postal_code":"BT475SU","gold":0,"geo_score":0.857,"user_id":"0b78a6b8-2a57-11e0-8b28-123139181c25","toning":1,"jsg":0,"id":"a7vwwh933l9u","zumbatomic":0,"geo_precision":"zip","zumba basic 2":0,"aqua":0,"sentao":0},"type":"Feature","geometry":{"type":"Point","coordinates":[-3.2658333,51.7075]}},{"properties":{"city":"Edinburgh","postal_code":"0","gold":0,"geo_score":0.857,"user_id":"0b7dc34e-f7b9-11df-88fb-123139181c25","toning":1,"jsg":0,"id":"a7vwwgxbk6ej","zumbatomic":0,"geo_precision":"zip","zumba basic 2":1,"aqua":0,"sentao":0},"type":"Feature","geometry":{"type":"Point","coordinates":[-3.3725,55.95]}},{"properties":{"city":"Borough of Barnet","postal_code":"N32EE","gold":0,"geo_score":0.857,"user_id":"0b7dc8c6-f7b9-11df-88fb-123139181c25","toning":1,"jsg":0,"id":"a7vwwgxhscml","zumbatomic":0,"geo_precision":"zip","zumba basic 2":0,"aqua":1,"sentao":0},"type":"Feature","geometry":{"type":"Point","coordinates":[-0.2666667,51.55]}},{"properties":{"city":"Cottingham","postal_code":"HU164NB","gold":0,"geo_score":0.0,"user_id":"0b8533fe-f7b9-11df-88fb-123139181c25","toning":0,"jsg":0,"id":"a7vwwgyn23xl","zumbatomic":0,"geo_precision":"unmatched","zumba basic 2":0,"aqua":0,"sentao":0},"type":"Feature","geometry":null},{"properties":{"city":"Aberdare","postal_code":"Cf478YT","gold":1,"geo_score":0.857,"user_id":"0b853af2-f7b9-11df-88fb-123139181c25","toning":1,"jsg":0,"id":"a7vwwh1w2zyj","zumbatomic":0,"geo_precision":"zip","zumba basic 2":1,"aqua":0,"sentao":0},"type":"Feature","geometry":{"type":"Point","coordinates":[-3.2683333,51.5958333]}},{"properties":{"city":"Southampton","postal_code":"SO181NG","gold":0,"geo_score":0.857,"user_id":"0b854ee8-f7b9-11df-88fb-123139181c25","toning":0,"jsg":0,"id":"a7vwwh4ztn5o","zumbatomic":1,"geo_precision":"zip","zumba basic 2":0,"aqua":0,"sentao":0},"type":"Feature","geometry":{"type":"Point","coordinates":[-1.4,50.9]}},{"properties":{"city":"Surrey","postal_code":"gu72lw","gold":0,"geo_score":0.857,"user_id":"0b8835d4-f9b4-11df-8b28-123139181c25","toning":0,"jsg":0,"id":"a7vwwhal11la","zumbatomic":0,"geo_precision":"zip","zumba basic 2":0,"aqua":0,"sentao":0},"type":"Feature","geometry":{"type":"Point","coordinates":[-4.2333333,58.3666667]}},{"properties":{"city":"duffield","postal_code":"de564ht","gold":0,"geo_score":0.857,"user_id":"0b8f5d8e-f7b9-11df-88fb-123139181c25","toning":1,"jsg":0,"id":"a7vwwh7oqynn","zumbatomic":0,"geo_precision":"zip","zumba basic 2":1,"aqua":0,"sentao":0},"type":"Feature","geometry":{"type":"Point","coordinates":[-2.34952926635742,57.2445546805863]}},{"properties":{"city":"Hemel Hempstead","postal_code":"HP13AE","gold":0,"geo_score":0.857,"user_id":"0b8f9e5c-f7b9-11df-88fb-123139181c25","toning":0,"jsg":0,"id":"a7vwwh4bo4o6","zumbatomic":1,"geo_precision":"zip","zumba basic 2":0,"aqua":0,"sentao":0},"type":"Feature","geometry":{"type":"Point","coordinates":[-0.4666667,51.75]}},{"properties":{"city":"Pyecombe","postal_code":"BN457ED","gold":0,"geo_score":0.857,"user_id":"0b8fab54-f7b9-11df-88fb-123139181c25","toning":0,"jsg":0,"id":"a7vwwguy17bb","zumbatomic":0,"geo_precision":"zip","zumba basic 2":0,"aqua":0,"sentao":0},"type":"Feature","geometry":{"type":"Point","coordinates":[0.1666667,50.8833333]}},{"properties":{"city":"stanford le hope","postal_code":"ss177ay","gold":0,"geo_score":0.857,"user_id":"0b9659c2-f7b9-11df-88fb-123139181c25","toning":1,"jsg":0,"id":"a7vwwh9zdmuv","zumbatomic":0,"geo_precision":"zip","zumba basic 2":1,"aqua":0,"sentao":0},"type":"Feature","geometry":{"type":"Point","coordinates":[-3.8833333,55.75]}},{"properties":{"city":"Wootton Bridge, Ryde","postal_code":"PO334QQ","gold":1,"geo_score":0.857,"user_id":"0b967402-f7b9-11df-88fb-123139181c25","toning":0,"jsg":0,"id":"a7vwwh7pvrh2","zumbatomic":1,"geo_precision":"zip","zumba basic 2":1,"aqua":0,"sentao":0},"type":"Feature","geometry":{"type":"Point","coordinates":[-0.9333333,53.5166667]}},{"properties":{"city":"surrey","postal_code":"cr81ez","gold":0,"geo_score":0.857,"user_id":"0b9c6952-3e8b-11e0-8b28-123139181c25","toning":0,"jsg":0,"id":"a7vwwh1g402s","zumbatomic":0,"geo_precision":"zip","zumba basic 2":0,"aqua":0,"sentao":0},"type":"Feature","geometry":{"type":"Point","coordinates":[-4.2333333,58.3666667]}},{"properties":{"city":"Willaston","postal_code":"CH641SS","gold":1,"geo_score":0.857,"user_id":"0b9d5d1c-f7b9-11df-88fb-123139181c25","toning":1,"jsg":0,"id":"a7vwwh56obs2","zumbatomic":1,"geo_precision":"zip","zumba basic 2":1,"aqua":0,"sentao":1},"type":"Feature","geometry":{"type":"Point","coordinates":[-2.75,52.55]}},{"properties":{"city":"Plymouth","postal_code":"PL74QP","gold":0,"geo_score":0.857,"user_id":"0ba474c6-f7b9-11df-88fb-123139181c25","toning":0,"jsg":0,"id":"a7vwwh4ytvr7","zumbatomic":1,"geo_precision":"zip","zumba basic 2":0,"aqua":0,"sentao":0},"type":"Feature","geometry":{"type":"Point","coordinates":[-4.11666666666667,50.35]}},{"properties":{"city":"Hornchurch Essex","postal_code":"RM111BN","gold":0,"geo_score":0.857,"user_id":"0ba90362-315a-11e0-8b28-123139181c25","toning":0,"jsg":0,"id":"a7vwwgyj430i","zumbatomic":0,"geo_precision":"zip","zumba basic 2":0,"aqua":0,"sentao":0},"type":"Feature","geometry":{"type":"Point","coordinates":[0.216636657714844,51.5568490074729]}},{"properties":{"city":"Surrey","postal_code":"RH69XS","gold":0,"geo_score":0.857,"user_id":"0bab6592-f7b9-11df-88fb-123139181c25","toning":1,"jsg":0,"id":"a7vwwgwfkcb8","zumbatomic":1,"geo_precision":"zip","zumba basic 2":0,"aqua":0,"sentao":0},"type":"Feature","geometry":{"type":"Point","coordinates":[-4.2333333,58.3666667]}},{"properties":{"city":"Surbiton","postal_code":"KT65JL","gold":0,"geo_score":0.857,"user_id":"0bab9530-f7b9-11df-88fb-123139181c25","toning":0,"jsg":0,"id":"a7vwwh9kr0ng","zumbatomic":1,"geo_precision":"zip","zumba basic 2":0,"aqua":0,"sentao":0},"type":"Feature","geometry":{"type":"Point","coordinates":[-0.30238151550293,51.3918153021481]}},{"properties":{"city":"Nottinghamshire","postal_code":"ng173ep","gold":0,"geo_score":0.857,"user_id":"0babe6a2-f7b9-11df-88fb-123139181c25","toning":1,"jsg":0,"id":"a7vwwh1emgfl","zumbatomic":0,"geo_precision":"zip","zumba basic 2":0,"aqua":0,"sentao":0},"type":"Feature","geometry":{"type":"Point","coordinates":[-2.63543,53.44457]}},{"properties":{"city":"Winchester","postal_code":"SO225AU","gold":1,"geo_score":0.857,"user_id":"0babea44-f7b9-11df-88fb-123139181c25","toning":0,"jsg":0,"id":"a7vwwh61c09s","zumbatomic":1,"geo_precision":"zip","zumba basic 2":0,"aqua":0,"sentao":0},"type":"Feature","geometry":{"type":"Point","coordinates":[-1.32054,51.06232]}},{"properties":{"city":"Nottinghamshire","postal_code":"NG174BS","gold":0,"geo_score":0.857,"user_id":"0babeddc-f7b9-11df-88fb-123139181c25","toning":0,"jsg":0,"id":"a7vwwh2ek2d1","zumbatomic":3,"geo_precision":"zip","zumba basic 2":0,"aqua":0,"sentao":0},"type":"Feature","geometry":{"type":"Point","coordinates":[-2.63543,53.44457]}},{"properties":{"city":"kesgrave","postal_code":"ip51eg","gold":1,"geo_score":0.857,"user_id":"0bb5fb24-f7b9-11df-88fb-123139181c25","toning":0,"jsg":0,"id":"a7vwwh6o3lrs","zumbatomic":0,"geo_precision":"zip","zumba basic 2":0,"aqua":0,"sentao":0},"type":"Feature","geometry":{"type":"Point","coordinates":[-0.85,52.0666667]}},{"properties":{"city":"Barking","postal_code":"wd64aq","gold":1,"geo_score":0.857,"user_id":"0bb6286a-f7b9-11df-88fb-123139181c25","toning":1,"jsg":0,"id":"a7vwwgzv3ila","zumbatomic":0,"geo_precision":"zip","zumba basic 2":0,"aqua":0,"sentao":0},"type":"Feature","geometry":{"type":"Point","coordinates":[0.0833333,51.5333333]}},{"properties":{"city":"London","postal_code":"W120BQ","gold":1,"geo_score":0.857,"user_id":"0bb69e8a-f7b9-11df-88fb-123139181c25","toning":0,"jsg":0,"id":"a7vwwh0lthrd","zumbatomic":0,"geo_precision":"zip","zumba basic 2":0,"aqua":0,"sentao":0},"type":"Feature","geometry":{"type":"Point","coordinates":[-2.8508333,51.7316667]}},{"properties":{"city":"Welwyn Garden City","postal_code":"AL73RE","gold":1,"geo_score":0.857,"user_id":"0bb6a556-f7b9-11df-88fb-123139181c25","toning":0,"jsg":0,"id":"a7vwwh7dghb9","zumbatomic":0,"geo_precision":"zip","zumba basic 2":0,"aqua":0,"sentao":0},"type":"Feature","geometry":{"type":"Point","coordinates":[-0.0829124450683594,53.8003466774013]}},{"properties":{"city":"London Borough Hackney","postal_code":"E81GQ","gold":0,"geo_score":0.857,"user_id":"0bb7c0b2-3382-11e0-8b28-123139181c25","toning":0,"jsg":0,"id":"a7vwwh5rtg6e","zumbatomic":0,"geo_precision":"zip","zumba basic 2":0,"aqua":0,"sentao":0},"type":"Feature","geometry":{"type":"Point","coordinates":[-2.8508333,51.7316667]}},{"properties":{"city":"Ashford","postal_code":"TN254EJ","gold":0,"geo_score":0.857,"user_id":"0bbd07de-f7b9-11df-88fb-123139181c25","toning":0,"jsg":0,"id":"a7vwwhaebr3n","zumbatomic":0,"geo_precision":"zip","zumba basic 2":0,"aqua":0,"sentao":0},"type":"Feature","geometry":{"type":"Point","coordinates":[-1.1166667,51.1833333]}},{"properties":{"city":"Manchester","postal_code":"M245RY","gold":0,"geo_score":0.857,"user_id":"0bbd7a0c-f7b9-11df-88fb-123139181c25","toning":0,"jsg":0,"id":"a7vwwgwr6kf7","zumbatomic":0,"geo_precision":"zip","zumba basic 2":0,"aqua":0,"sentao":0},"type":"Feature","geometry":{"type":"Point","coordinates":[-2.23743438720703,53.4809464283615]}},{"properties":{"city":"Bishop's Stortford","postal_code":"CM235LS","gold":1,"geo_score":0.857,"user_id":"0bbd88f8-f7b9-11df-88fb-123139181c25","toning":1,"jsg":0,"id":"a7vwwhaeu25u","zumbatomic":1,"geo_precision":"zip","zumba basic 2":1,"aqua":0,"sentao":0},"type":"Feature","geometry":{"type":"Point","coordinates":[-2.5947222,51.3344444]}},{"properties":{"city":"London borough Lewisham","postal_code":"SE232PS","gold":0,"geo_score":0.857,"user_id":"0bc3eee6-f7b9-11df-88fb-123139181c25","toning":0,"jsg":0,"id":"a7vwwh3yt59j","zumbatomic":0,"geo_precision":"zip","zumba basic 2":0,"aqua":0,"sentao":0},"type":"Feature","geometry":{"type":"Point","coordinates":[-2.8508333,51.7316667]}},{"properties":{"city":"Tunbridge Wells","postal_code":"TN49SS","gold":1,"geo_score":0.857,"user_id":"0bc4390a-f7b9-11df-88fb-123139181c25","toning":1,"jsg":0,"id":"a7vwwh8lvwvn","zumbatomic":1,"geo_precision":"zip","zumba basic 2":1,"aqua":0,"sentao":0},"type":"Feature","geometry":{"type":"Point","coordinates":[-1.54679775238037,51.0337029911135]}},{"properties":{"city":"Tunbridge Wells","postal_code":"TN40QX","gold":1,"geo_score":0.857,"user_id":"0bc43c98-f7b9-11df-88fb-123139181c25","toning":1,"jsg":0,"id":"a7vwwgytrtu7","zumbatomic":1,"geo_precision":"zip","zumba basic 2":1,"aqua":0,"sentao":0},"type":"Feature","geometry":{"type":"Point","coordinates":[-1.54679775238037,51.0337029911135]}},{"properties":{"city":"Suffolk","postal_code":"CB97LJ","gold":0,"geo_score":0.857,"user_id":"0bc6769a-02f2-11e0-8b28-123139181c25","toning":0,"jsg":0,"id":"a7vwwh5g746z","zumbatomic":0,"geo_precision":"zip","zumba basic 2":0,"aqua":1,"sentao":0},"type":"Feature","geometry":{"type":"Point","coordinates":[0.7024,52.2758]}},{"properties":{"city":"Orpington","postal_code":"BR69EY","gold":1,"geo_score":0.857,"user_id":"0bcb02bc-f7b9-11df-88fb-123139181c25","toning":0,"jsg":0,"id":"a7vwwh3081rb","zumbatomic":0,"geo_precision":"zip","zumba basic 2":0,"aqua":0,"sentao":0},"type":"Feature","geometry":{"type":"Point","coordinates":[0.08888840675354,51.3734011738892]}},{"properties":{"city":"Milton Keynes","postal_code":"MK44FE","gold":1,"geo_score":0.857,"user_id":"0bcb1770-f7b9-11df-88fb-123139181c25","toning":0,"jsg":0,"id":"a7vwwh9r8tqn","zumbatomic":0,"geo_precision":"zip","zumba basic 2":0,"aqua":0,"sentao":0},"type":"Feature","geometry":{"type":"Point","coordinates":[-0.755825042724609,52.0417219233052]}},{"properties":{"city":"Milton Keynes","postal_code":"MK42EP","gold":1,"geo_score":0.857,"user_id":"0bcb1b26-f7b9-11df-88fb-123139181c25","toning":0,"jsg":0,"id":"a7vwwguwgzpu","zumbatomic":0,"geo_precision":"zip","zumba basic 2":0,"aqua":0,"sentao":0},"type":"Feature","geometry":{"type":"Point","coordinates":[-0.755825042724609,52.0417219233052]}},{"properties":{"city":"Loughborough Leicestershire","postal_code":"LE33NU","gold":1,"geo_score":0.857,"user_id":"0bcb32f0-f7b9-11df-88fb-123139181c25","toning":0,"jsg":0,"id":"a7vwwgzpxnv9","zumbatomic":0,"geo_precision":"zip","zumba basic 2":1,"aqua":0,"sentao":0},"type":"Feature","geometry":{"type":"Point","coordinates":[-1.1348,52.62782]}},{"properties":{"city":"Caldicot","postal_code":"np264lh","gold":0,"geo_score":0.857,"user_id":"0bcb4902-f7b9-11df-88fb-123139181c25","toning":0,"jsg":0,"id":"a7vwwgwg7dpw","zumbatomic":0,"geo_precision":"zip","zumba basic 2":0,"aqua":0,"sentao":0},"type":"Feature","geometry":{"type":"Point","coordinates":[1.5383333,51.2416667]}},{"properties":{"city":"Essex","postal_code":"IG39XD","gold":0,"geo_score":0.0,"user_id":"0bcb4f9c-f7b9-11df-88fb-123139181c25","toning":0,"jsg":0,"id":"a7vwwh31ngrk","zumbatomic":0,"geo_precision":"unmatched","zumba basic 2":0,"aqua":0,"sentao":0},"type":"Feature","geometry":null},{"properties":{"city":"BEDFORD BEDFORDSHIRE","postal_code":"MK428JE","gold":1,"geo_score":0.857,"user_id":"0bd1bd78-f7b9-11df-88fb-123139181c25","toning":1,"jsg":0,"id":"a7vwwgus0ega","zumbatomic":0,"geo_precision":"zip","zumba basic 2":0,"aqua":0,"sentao":0},"type":"Feature","geometry":{"type":"Point","coordinates":[-4.2166667,51.0166667]}},{"properties":{"city":"Maidenhead","postal_code":"SL62AA","gold":1,"geo_score":0.857,"user_id":"0bdafbac-3113-11e0-8b28-123139181c25","toning":0,"jsg":0,"id":"a7vwwh3rwayp","zumbatomic":0,"geo_precision":"zip","zumba basic 2":0,"aqua":0,"sentao":0},"type":"Feature","geometry":{"type":"Point","coordinates":[-0.71986198425293,51.522789913029]}},{"properties":{"city":"High Wycombe","postal_code":"HP124PZ","gold":0,"geo_score":0.857,"user_id":"0bdff7b2-f7b9-11df-88fb-123139181c25","toning":0,"jsg":0,"id":"a7vwwh7klt4n","zumbatomic":0,"geo_precision":"zip","zumba basic 2":0,"aqua":0,"sentao":0},"type":"Feature","geometry":{"type":"Point","coordinates":[-0.1833333,50.8333333]}},{"properties":{"city":"London","postal_code":"cm16ug","gold":0,"geo_score":0.857,"user_id":"0be69036-f7b9-11df-88fb-123139181c25","toning":0,"jsg":0,"id":"a7vwwh0om1tm","zumbatomic":0,"geo_precision":"zip","zumba basic 2":0,"aqua":0,"sentao":0},"type":"Feature","geometry":{"type":"Point","coordinates":[-2.8508333,51.7316667]}},{"properties":{"city":"London Borough of Tower Hamlets","postal_code":"E143UA","gold":0,"geo_score":0.857,"user_id":"0bee830e-f7b9-11df-88fb-123139181c25","toning":0,"jsg":0,"id":"a7vwwh4ycd8s","zumbatomic":1,"geo_precision":"zip","zumba basic 2":0,"aqua":0,"sentao":0},"type":"Feature","geometry":{"type":"Point","coordinates":[-2.8508333,51.7316667]}},{"properties":{"city":"St helens","postal_code":"Wa106rw","gold":0,"geo_score":0.857,"user_id":"0bf7b666-3604-11e0-8b28-123139181c25","toning":0,"jsg":0,"id":"a7vwwgxvqf5m","zumbatomic":0,"geo_precision":"zip","zumba basic 2":0,"aqua":0,"sentao":0},"type":"Feature","geometry":{"type":"Point","coordinates":[-1.1666667,60.0333333]}},{"properties":{"city":"London","postal_code":"sw46QE","gold":0,"geo_score":0.857,"user_id":"0bfc6244-f7b9-11df-88fb-123139181c25","toning":0,"jsg":0,"id":"a7vwwgw5mluh","zumbatomic":0,"geo_precision":"zip","zumba basic 2":0,"aqua":0,"sentao":0},"type":"Feature","geometry":{"type":"Point","coordinates":[-2.8508333,51.7316667]}},{"properties":{"city":"London","postal_code":"WD231FG","gold":0,"geo_score":0.857,"user_id":"0bfc6bea-f7b9-11df-88fb-123139181c25","toning":1,"jsg":0,"id":"a7vwwh5hbcl5","zumbatomic":0,"geo_precision":"zip","zumba basic 2":0,"aqua":0,"sentao":0},"type":"Feature","geometry":{"type":"Point","coordinates":[-2.8508333,51.7316667]}},{"properties":{"city":"Scarborough","postal_code":"YO113AE","gold":0,"geo_score":0.857,"user_id":"0bfc9cbe-f7b9-11df-88fb-123139181c25","toning":0,"jsg":0,"id":"a7vwwgwvl7ig","zumbatomic":0,"geo_precision":"zip","zumba basic 2":1,"aqua":0,"sentao":1},"type":"Feature","geometry":{"type":"Point","coordinates":[-0.43471,54.28171]}},{"properties":{"city":"Ferndown","postal_code":"BH228QR","gold":1,"geo_score":0.857,"user_id":"0bfcdc9c-f7b9-11df-88fb-123139181c25","toning":0,"jsg":0,"id":"a7vwwh5ba95p","zumbatomic":1,"geo_precision":"zip","zumba basic 2":0,"aqua":0,"sentao":0},"type":"Feature","geometry":{"type":"Point","coordinates":[1.25,51.8333333]}},{"properties":{"city":"Chester","postal_code":"ch48ld","gold":0,"geo_score":0.857,"user_id":"0bfcedb8-f7b9-11df-88fb-123139181c25","toning":0,"jsg":0,"id":"a7vwwh8fek2g","zumbatomic":0,"geo_precision":"zip","zumba basic 2":0,"aqua":0,"sentao":0},"type":"Feature","geometry":{"type":"Point","coordinates":[-2.9166667,53.2]}},{"properties":{"city":"Grimsby, Cleethorpes, Immingham &amp; Villages","postal_code":"Dn403Py","gold":0,"geo_score":1.0,"user_id":"0c04f5a2-33ba-11e0-8b28-123139181c25","toning":0,"jsg":0,"id":"a7vwwgx5t8ub","zumbatomic":0,"geo_precision":"zip","zumba basic 2":1,"aqua":0,"sentao":0},"type":"Feature","geometry":{"type":"Point","coordinates":[-0.151448249816895,51.5312269850244]}},{"properties":{"city":"Scarborough","postal_code":"YO127PT","gold":0,"geo_score":0.857,"user_id":"0c092f2e-f7b9-11df-88fb-123139181c25","toning":0,"jsg":0,"id":"a7vwwgvi31fg","zumbatomic":1,"geo_precision":"zip","zumba basic 2":1,"aqua":0,"sentao":0},"type":"Feature","geometry":{"type":"Point","coordinates":[-0.43471,54.28171]}},{"properties":{"city":"Chigwell","postal_code":"ig76hg","gold":1,"geo_score":0.857,"user_id":"0c165366-f7b9-11df-88fb-123139181c25","toning":0,"jsg":0,"id":"a7vwwgzxzdyw","zumbatomic":0,"geo_precision":"zip","zumba basic 2":0,"aqua":0,"sentao":0},"type":"Feature","geometry":{"type":"Point","coordinates":[0.0833333,51.6166667]}},{"properties":{"city":"Crawley","postal_code":"RH103AA","gold":0,"geo_score":0.857,"user_id":"0c3364b0-f7b9-11df-88fb-123139181c25","toning":0,"jsg":0,"id":"a7vwwh3gy4uu","zumbatomic":0,"geo_precision":"zip","zumba basic 2":0,"aqua":0,"sentao":0},"type":"Feature","geometry":{"type":"Point","coordinates":[-2.5666667,52.3666667]}},{"properties":{"city":"Southport  Merseyside","postal_code":"PR82QS","gold":0,"geo_score":0.857,"user_id":"0c3bef9a-f7b9-11df-88fb-123139181c25","toning":0,"jsg":0,"id":"a7vwwh8iw8c7","zumbatomic":1,"geo_precision":"zip","zumba basic 2":0,"aqua":0,"sentao":0},"type":"Feature","geometry":{"type":"Point","coordinates":[-3.0,53.6666667]}},{"properties":{"city":"Wiltshire","postal_code":"sn126ag","gold":0,"geo_score":0.857,"user_id":"0c3c0f0c-f7b9-11df-88fb-123139181c25","toning":1,"jsg":0,"id":"a7vwwh1izbfy","zumbatomic":0,"geo_precision":"zip","zumba basic 2":1,"aqua":0,"sentao":0},"type":"Feature","geometry":{"type":"Point","coordinates":[-2.20668,51.27684]}},{"properties":{"city":"Bognor Regis","postal_code":"PO213NR","gold":1,"geo_score":0.0,"user_id":"0c4800c8-f7b9-11df-88fb-123139181c25","toning":1,"jsg":0,"id":"a7vwwgyvsm2x","zumbatomic":1,"geo_precision":"unmatched","zumba basic 2":0,"aqua":0,"sentao":0},"type":"Feature","geometry":null},{"properties":{"city":"Ash","postal_code":"GU126TH","gold":0,"geo_score":0.857,"user_id":"0c527490-f7b9-11df-88fb-123139181c25","toning":0,"jsg":0,"id":"a7vwwh67wtgx","zumbatomic":0,"geo_precision":"zip","zumba basic 2":0,"aqua":0,"sentao":0},"type":"Feature","geometry":{"type":"Point","coordinates":[-6.6,56.6]}},{"properties":{"city":"Wigan","postal_code":"WN23RX","gold":0,"geo_score":0.857,"user_id":"0c529dc0-4a30-11e0-8b28-123139181c25","toning":0,"jsg":0,"id":"a7vwwh057bhf","zumbatomic":0,"geo_precision":"zip","zumba basic 2":1,"aqua":0,"sentao":0},"type":"Feature","geometry":{"type":"Point","coordinates":[-2.6166667,53.5333333]}},{"properties":{"city":"North London","postal_code":"N111DR","gold":0,"geo_score":0.857,"user_id":"0c52c5bc-f7b9-11df-88fb-123139181c25","toning":1,"jsg":0,"id":"a7vwwh7vp0dz","zumbatomic":1,"geo_precision":"zip","zumba basic 2":0,"aqua":0,"sentao":0},"type":"Feature","geometry":{"type":"Point","coordinates":[-2.8508333,51.7316667]}},{"properties":{"city":"Kendal","postal_code":"LA88AG","gold":1,"geo_score":0.857,"user_id":"0c52cfda-f7b9-11df-88fb-123139181c25","toning":0,"jsg":0,"id":"a7vwwhat4x9p","zumbatomic":1,"geo_precision":"zip","zumba basic 2":0,"aqua":0,"sentao":0},"type":"Feature","geometry":{"type":"Point","coordinates":[-5.3,57.2]}},{"properties":{"city":"London Borough of Enfield","postal_code":"EN34NY","gold":0,"geo_score":0.857,"user_id":"0c52d304-f7b9-11df-88fb-123139181c25","toning":1,"jsg":0,"id":"a7vwwgwsk6fi","zumbatomic":0,"geo_precision":"zip","zumba basic 2":0,"aqua":0,"sentao":0},"type":"Feature","geometry":{"type":"Point","coordinates":[-2.8508333,51.7316667]}},{"properties":{"city":"London","postal_code":"N78AA","gold":0,"geo_score":0.857,"user_id":"0c52dcdc-f7b9-11df-88fb-123139181c25","toning":0,"jsg":0,"id":"a7vwwh9fe9o9","zumbatomic":0,"geo_precision":"zip","zumba basic 2":0,"aqua":0,"sentao":0},"type":"Feature","geometry":{"type":"Point","coordinates":[-2.8508333,51.7316667]}},{"properties":{"city":"Liverpool","postal_code":"L178XX","gold":0,"geo_score":0.857,"user_id":"0c6116c6-f7b9-11df-88fb-123139181c25","toning":0,"jsg":0,"id":"a7vwwh85x22h","zumbatomic":0,"geo_precision":"zip","zumba basic 2":0,"aqua":0,"sentao":0},"type":"Feature","geometry":{"type":"Point","coordinates":[-0.0816947221755981,51.5177963524152]}},{"properties":{"city":"London Borough of Lambeth","postal_code":"SE59QR","gold":0,"geo_score":0.857,"user_id":"0c6120a8-f7b9-11df-88fb-123139181c25","toning":0,"jsg":0,"id":"a7vwwh82o6s4","zumbatomic":0,"geo_precision":"zip","zumba basic 2":0,"aqua":0,"sentao":0},"type":"Feature","geometry":{"type":"Point","coordinates":[0.1508,52.19712]}},{"properties":{"city":"Glasgow","postal_code":"G414RT","gold":0,"geo_score":0.857,"user_id":"0c614ff6-f7b9-11df-88fb-123139181c25","toning":0,"jsg":0,"id":"a7vwwh9oov2y","zumbatomic":0,"geo_precision":"zip","zumba basic 2":0,"aqua":0,"sentao":0},"type":"Feature","geometry":{"type":"Point","coordinates":[-4.25763130187988,55.8651497187961]}},{"properties":{"city":"Woking Surrey","postal_code":"Gu227AT","gold":0,"geo_score":0.857,"user_id":"0c61aa96-f7b9-11df-88fb-123139181c25","toning":1,"jsg":0,"id":"a7vwwhazf9t4","zumbatomic":1,"geo_precision":"zip","zumba basic 2":1,"aqua":0,"sentao":0},"type":"Feature","geometry":{"type":"Point","coordinates":[-4.2333333,58.3666667]}},{"properties":{"city":"Crawley","postal_code":"RH103DW","gold":0,"geo_score":0.857,"user_id":"0c61b0f4-f7b9-11df-88fb-123139181c25","toning":0,"jsg":0,"id":"a7vwwh3hv6rf","zumbatomic":0,"geo_precision":"zip","zumba basic 2":1,"aqua":0,"sentao":0},"type":"Feature","geometry":{"type":"Point","coordinates":[-2.5666667,52.3666667]}},{"properties":{"city":"Shoreham By Sea","postal_code":"BN435JY","gold":0,"geo_score":0.857,"user_id":"0c637ea6-43ff-11e0-8b28-123139181c25","toning":0,"jsg":0,"id":"a7vwwh21h5rv","zumbatomic":0,"geo_precision":"zip","zumba basic 2":0,"aqua":0,"sentao":0},"type":"Feature","geometry":{"type":"Point","coordinates":[-0.274314880371094,50.8341313360185]}},{"properties":{"city":"Enfield","postal_code":"EN29DB","gold":0,"geo_score":0.857,"user_id":"0c680cec-f7b9-11df-88fb-123139181c25","toning":0,"jsg":0,"id":"a7vwwhan5sfb","zumbatomic":0,"geo_precision":"zip","zumba basic 2":0,"aqua":0,"sentao":0},"type":"Feature","geometry":{"type":"Point","coordinates":[-0.0666667,51.6666667]}},{"properties":{"city":"Southam","postal_code":"CV479QT","gold":0,"geo_score":0.857,"user_id":"0c68bce6-f7b9-11df-88fb-123139181c25","toning":0,"jsg":0,"id":"a7vwwgx1955l","zumbatomic":0,"geo_precision":"zip","zumba basic 2":0,"aqua":0,"sentao":0},"type":"Feature","geometry":{"type":"Point","coordinates":[-1.4666667,60.3833333]}},{"properties":{"city":"london","postal_code":"ub40bx","gold":0,"geo_score":0.857,"user_id":"0c68c998-f7b9-11df-88fb-123139181c25","toning":1,"jsg":0,"id":"a7vwwh3nuc00","zumbatomic":1,"geo_precision":"zip","zumba basic 2":0,"aqua":0,"sentao":0},"type":"Feature","geometry":{"type":"Point","coordinates":[-2.8508333,51.7316667]}},{"properties":{"city":"Hatfield","postal_code":"AL97LG","gold":0,"geo_score":0.857,"user_id":"0c6ae29c-342b-11e0-8b28-123139181c25","toning":0,"jsg":0,"id":"a7vwwh7f1di8","zumbatomic":0,"geo_precision":"zip","zumba basic 2":0,"aqua":0,"sentao":0},"type":"Feature","geometry":{"type":"Point","coordinates":[-2.5942325592041,52.2328461709953]}},{"properties":{"city":"Glasgow","postal_code":"G781QT","gold":0,"geo_score":0.857,"user_id":"0c71020c-f7b9-11df-88fb-123139181c25","toning":0,"jsg":0,"id":"a7vwwh67c97j","zumbatomic":0,"geo_precision":"zip","zumba basic 2":1,"aqua":0,"sentao":0},"type":"Feature","geometry":{"type":"Point","coordinates":[-4.25763130187988,55.8651497187961]}},{"properties":{"city":"East Kilbride","postal_code":"G743UH","gold":0,"geo_score":0.857,"user_id":"0c7e8206-f7b9-11df-88fb-123139181c25","toning":0,"jsg":0,"id":"a7vwwh6jhtdj","zumbatomic":0,"geo_precision":"zip","zumba basic 2":1,"aqua":0,"sentao":0},"type":"Feature","geometry":{"type":"Point","coordinates":[-0.479621887207031,51.2536428425804]}},{"properties":{"city":"Chester","postal_code":"CH21DY","gold":0,"geo_score":0.857,"user_id":"0c7e907a-f7b9-11df-88fb-123139181c25","toning":1,"jsg":0,"id":"a7vwwh20w0gy","zumbatomic":0,"geo_precision":"zip","zumba basic 2":0,"aqua":0,"sentao":0},"type":"Feature","geometry":{"type":"Point","coordinates":[-2.9166667,53.2]}},{"properties":{"city":"Chester","postal_code":"CH35RX","gold":0,"geo_score":0.857,"user_id":"0c7e93ae-f7b9-11df-88fb-123139181c25","toning":1,"jsg":0,"id":"a7vwwh7hegwv","zumbatomic":0,"geo_precision":"zip","zumba basic 2":1,"aqua":0,"sentao":0},"type":"Feature","geometry":{"type":"Point","coordinates":[-2.9166667,53.2]}},{"properties":{"city":"marske by sea","postal_code":"ts117aq","gold":0,"geo_score":0.857,"user_id":"0c7e96e2-f7b9-11df-88fb-123139181c25","toning":1,"jsg":0,"id":"a7vwwh4fmxw1","zumbatomic":1,"geo_precision":"zip","zumba basic 2":0,"aqua":0,"sentao":0},"type":"Feature","geometry":{"type":"Point","coordinates":[-1.0175,54.5927778]}},{"properties":{"city":"Stockton on Tees","postal_code":"TS190QN","gold":0,"geo_score":0.857,"user_id":"0c7e9a0c-f7b9-11df-88fb-123139181c25","toning":1,"jsg":0,"id":"a7vwwh6kn47l","zumbatomic":1,"geo_precision":"zip","zumba basic 2":1,"aqua":0,"sentao":0},"type":"Feature","geometry":{"type":"Point","coordinates":[-0.833415985107422,50.8814849772624]}},{"properties":{"city":"Edinburgh","postal_code":"EH53LB","gold":0,"geo_score":0.857,"user_id":"0c7eb5aa-f7b9-11df-88fb-123139181c25","toning":1,"jsg":0,"id":"a7vwwh5mfiqo","zumbatomic":0,"geo_precision":"zip","zumba basic 2":0,"aqua":0,"sentao":0},"type":"Feature","geometry":{"type":"Point","coordinates":[-3.3725,55.95]}},{"properties":{"city":"Nottingham","postal_code":"NG110AA","gold":0,"geo_score":0.857,"user_id":"0c7ed67a-f7b9-11df-88fb-123139181c25","toning":0,"jsg":0,"id":"a7vwwh9vnai6","zumbatomic":0,"geo_precision":"zip","zumba basic 2":0,"aqua":0,"sentao":0},"type":"Feature","geometry":{"type":"Point","coordinates":[-2.63543,53.44457]}},{"properties":{"city":"Glasgow","postal_code":"g775nf","gold":0,"geo_score":0.857,"user_id":"0c7ee304-f7b9-11df-88fb-123139181c25","toning":0,"jsg":0,"id":"a7vwwharoh2g","zumbatomic":0,"geo_precision":"zip","zumba basic 2":0,"aqua":0,"sentao":0},"type":"Feature","geometry":{"type":"Point","coordinates":[-4.25763130187988,55.8651497187961]}},{"properties":{"city":"EPSOM","postal_code":"KT185TU","gold":0,"geo_score":0.857,"user_id":"0c7ef68c-f7b9-11df-88fb-123139181c25","toning":0,"jsg":0,"id":"a7vwwgvga3jd","zumbatomic":0,"geo_precision":"zip","zumba basic 2":0,"aqua":0,"sentao":0},"type":"Feature","geometry":{"type":"Point","coordinates":[-0.2666667,51.3166667]}},{"properties":{"city":"WEYBRIDGE","postal_code":"KT130RQ","gold":0,"geo_score":0.857,"user_id":"0c7efd1c-f7b9-11df-88fb-123139181c25","toning":0,"jsg":0,"id":"a7vwwgys5xhj","zumbatomic":0,"geo_precision":"zip","zumba basic 2":0,"aqua":0,"sentao":0},"type":"Feature","geometry":{"type":"Point","coordinates":[-0.457649230957031,51.3727448245989]}},{"properties":{"city":"Glasgow","postal_code":"G775ND","gold":0,"geo_score":0.857,"user_id":"0c7f0028-f7b9-11df-88fb-123139181c25","toning":0,"jsg":0,"id":"a7vwwh9aeiq3","zumbatomic":0,"geo_precision":"zip","zumba basic 2":0,"aqua":0,"sentao":0},"type":"Feature","geometry":{"type":"Point","coordinates":[-4.25763130187988,55.8651497187961]}},{"properties":{"city":"Edinburgh","postal_code":"EH35QS","gold":0,"geo_score":0.857,"user_id":"0c7f0384-f7b9-11df-88fb-123139181c25","toning":0,"jsg":0,"id":"a7vwwgxrzq2f","zumbatomic":0,"geo_precision":"zip","zumba basic 2":0,"aqua":0,"sentao":0},"type":"Feature","geometry":{"type":"Point","coordinates":[-3.3725,55.95]}},{"properties":{"city":"Torquay Devon","postal_code":"TQ27RD","gold":0,"geo_score":0.857,"user_id":"0c7f0a00-f7b9-11df-88fb-123139181c25","toning":1,"jsg":0,"id":"a7vwwh02ibxp","zumbatomic":0,"geo_precision":"zip","zumba basic 2":0,"aqua":0,"sentao":0},"type":"Feature","geometry":{"type":"Point","coordinates":[-5.1833333,55.5]}},{"properties":{"city":"Southam","postal_code":"CV472UH","gold":0,"geo_score":0.857,"user_id":"0c7f20bc-f7b9-11df-88fb-123139181c25","toning":0,"jsg":0,"id":"a7vwwgukn8v4","zumbatomic":0,"geo_precision":"zip","zumba basic 2":1,"aqua":0,"sentao":0},"type":"Feature","geometry":{"type":"Point","coordinates":[-1.4666667,60.3833333]}},{"properties":{"city":"sutton","postal_code":"sm26jt","gold":0,"geo_score":0.857,"user_id":"0c8b31cc-315c-11e0-8b28-123139181c25","toning":0,"jsg":0,"id":"a7vwwh1821lw","zumbatomic":0,"geo_precision":"zip","zumba basic 2":0,"aqua":0,"sentao":0},"type":"Feature","geometry":{"type":"Point","coordinates":[-0.55,54.25]}},{"properties":{"city":"Leeds West Yorkshire","postal_code":"Ls198GW","gold":0,"geo_score":0.857,"user_id":"0c9053c2-337e-11e0-8b28-123139181c25","toning":0,"jsg":0,"id":"a7vwwh2uw9p4","zumbatomic":0,"geo_precision":"zip","zumba basic 2":0,"aqua":0,"sentao":0},"type":"Feature","geometry":{"type":"Point","coordinates":[0.6166667,51.2333333]}},{"properties":{"city":"Little Lever Bolton","postal_code":"BL31TF","gold":0,"geo_score":0.857,"user_id":"0c93ea34-060e-11e0-8b28-123139181c25","toning":1,"jsg":0,"id":"a7vwwh0vak6a","zumbatomic":0,"geo_precision":"zip","zumba basic 2":1,"aqua":0,"sentao":0},"type":"Feature","geometry":{"type":"Point","coordinates":[-3.36243,55.7625]}},{"properties":{"city":"Glasgow","postal_code":"g716sd","gold":0,"geo_score":0.857,"user_id":"0c952ac4-f7b9-11df-88fb-123139181c25","toning":0,"jsg":0,"id":"a7vwwh5pum0f","zumbatomic":0,"geo_precision":"zip","zumba basic 2":1,"aqua":0,"sentao":0},"type":"Feature","geometry":{"type":"Point","coordinates":[-4.25763130187988,55.8651497187961]}},{"properties":{"city":"Falkirk","postal_code":"FK27SY","gold":0,"geo_score":0.857,"user_id":"0c9530e6-f7b9-11df-88fb-123139181c25","toning":0,"jsg":0,"id":"a7vwwh64cptm","zumbatomic":0,"geo_precision":"zip","zumba basic 2":0,"aqua":0,"sentao":0},"type":"Feature","geometry":{"type":"Point","coordinates":[-3.75,56.0]}}],"is_temporal":false,"author":{"url":"","metadata":"","contact_name":"","contact_address":"","source":"","contact_phone":""},"source":"","pagination":{"sort":null,"start":0,"total":569,"limit":1000000},"state":"complete","tags":"","published":"2014-08-15T01:44:35-04:00","id":268141}