{"type":"FeatureCollection","data_type":"Dataset","url_type":null,"permissions":[{"permissions":{"download":true,"view":true},"group_id":"everyone"}],"classification":null,"title":"Tester UK2, toning = 1","count":176,"stream_id":268322,"contributor":{"url":"http://geocommons.com/users/695","name":"Bill"},"data_attributes":null,"calculation_params":[{"input":{"max":1,"min":1,"atr":"toning"},"calculation":"filter"}],"icon_link":null,"link":"http://geocommons.com/overlays/268322.json","extent":[-7.06667,49.9667,1.62053,60.4],"geometry_types":["point"],"unique_name":null,"name":"Tester UK2, toning = 1","feature_count":176,"description":"","next_feature":null,"is_raster":false,"short_classification":"Y","stats":{"gold":{"max":1,"variance":0.246753246753247,"mean":0.431818181818182,"stdev":0.496742636335202,"min":0,"median":0},"jsg":{"max":0,"variance":0.0,"mean":0.0,"stdev":0.0,"min":0,"median":0},"toning":{"max":1,"variance":0.0,"mean":1.0,"stdev":0.0,"min":1,"median":1},"zumbatomic":{"max":3,"variance":0.273993506493506,"mean":0.607954545454545,"stdev":0.523443890492101,"min":0,"median":1},"sentao":{"max":1,"variance":0.126623376623377,"mean":0.147727272727273,"stdev":0.355841785943384,"min":0,"median":0},"aqua":{"max":1,"variance":0.153214285714286,"mean":0.1875,"stdev":0.391425964537722,"min":0,"median":0},"zumba basic 2":{"max":2,"variance":0.262045454545455,"mean":0.528409090909091,"stdev":0.511903755158579,"min":0,"median":1}},"features":[{"properties":{"city":"Nuneaton Warwickshire","postal_code":"CV116JE","geo_score":0.857,"gold":0,"jsg":0,"toning":1,"user_id":"000354fc-f7b9-11df-88fb-123139181c25","id":"a7vwwglcrbm0","geo_precision":"zip","zumbatomic":1,"sentao":0,"aqua":0,"zumba basic 2":1},"type":"Feature","geometry":{"type":"Point","coordinates":[-1.8333333,51.9]}},{"properties":{"city":"Dunfermline","postal_code":"KY118HZ","geo_score":0.857,"gold":1,"jsg":0,"toning":1,"user_id":"00118c0c-f7b9-11df-88fb-123139181c25","id":"a7vwwgjkvlzi","geo_precision":"zip","zumbatomic":0,"sentao":0,"aqua":1,"zumba basic 2":1},"type":"Feature","geometry":{"type":"Point","coordinates":[-3.4666667,56.0833333]}},{"properties":{"city":"canvey island","postal_code":"ss87ea","geo_score":0.857,"gold":0,"jsg":0,"toning":1,"user_id":"0028c020-f7b9-11df-88fb-123139181c25","id":"a7vwwgqknvul","geo_precision":"zip","zumbatomic":0,"sentao":0,"aqua":0,"zumba basic 2":1},"type":"Feature","geometry":{"type":"Point","coordinates":[-2.2333333,56.8666667]}},{"properties":{"city":"Newport","postal_code":"np197ds","geo_score":0.857,"gold":0,"jsg":0,"toning":1,"user_id":"00ae9c4a-f7b9-11df-88fb-123139181c25","id":"a7vwwgixjbba","geo_precision":"zip","zumbatomic":0,"sentao":0,"aqua":0,"zumba basic 2":0},"type":"Feature","geometry":{"type":"Point","coordinates":[0.25,51.9833333]}},{"properties":{"city":"lincolnshire","postal_code":"ln76lg","geo_score":0.857,"gold":0,"jsg":0,"toning":1,"user_id":"00c09d14-f7b9-11df-88fb-123139181c25","id":"a7vwwgki2lvq","geo_precision":"zip","zumbatomic":0,"sentao":0,"aqua":0,"zumba basic 2":0},"type":"Feature","geometry":{"type":"Point","coordinates":[-4.0086111,51.565]}},{"properties":{"city":"Ash Vale","postal_code":"GU125ND","geo_score":0.857,"gold":0,"jsg":0,"toning":1,"user_id":"00c0b70e-f7b9-11df-88fb-123139181c25","id":"a7vwwgg2ddeo","geo_precision":"zip","zumbatomic":1,"sentao":0,"aqua":0,"zumba basic 2":1},"type":"Feature","geometry":{"type":"Point","coordinates":[-0.8,60.4]}},{"properties":{"city":"Newport","postal_code":"np115fL","geo_score":0.857,"gold":1,"jsg":0,"toning":1,"user_id":"00c175ae-f7b9-11df-88fb-123139181c25","id":"a7vwwgfqfr5b","geo_precision":"zip","zumbatomic":1,"sentao":0,"aqua":0,"zumba basic 2":1},"type":"Feature","geometry":{"type":"Point","coordinates":[0.25,51.9833333]}},{"properties":{"city":"London Borough of Croydon","postal_code":"se193sw","geo_score":0.857,"gold":0,"jsg":0,"toning":1,"user_id":"00ccb9f0-f7b9-11df-88fb-123139181c25","id":"a7vwwgoovfed","geo_precision":"zip","zumbatomic":1,"sentao":0,"aqua":1,"zumba basic 2":0},"type":"Feature","geometry":{"type":"Point","coordinates":[-0.0829124450683594,53.8003466774013]}},{"properties":{"city":"Nottinghamshire","postal_code":"NG196AB","geo_score":0.857,"gold":1,"jsg":0,"toning":1,"user_id":"00e9f9ca-f7b9-11df-88fb-123139181c25","id":"a7vwwgj7ioau","geo_precision":"zip","zumbatomic":1,"sentao":1,"aqua":0,"zumba basic 2":1},"type":"Feature","geometry":{"type":"Point","coordinates":[-2.63543,53.44457]}},{"properties":{"city":"Crawley","postal_code":"rh108hz","geo_score":0.857,"gold":0,"jsg":0,"toning":1,"user_id":"00fb35fa-f7b9-11df-88fb-123139181c25","id":"a7vwwgsmgly4","geo_precision":"zip","zumbatomic":0,"sentao":0,"aqua":0,"zumba basic 2":0},"type":"Feature","geometry":{"type":"Point","coordinates":[-2.5666667,52.3666667]}},{"properties":{"city":"Coventry","postal_code":"CV78RG","geo_score":0.857,"gold":1,"jsg":0,"toning":1,"user_id":"010cb578-f7b9-11df-88fb-123139181c25","id":"a7vwwgrjbpg4","geo_precision":"zip","zumbatomic":1,"sentao":0,"aqua":0,"zumba basic 2":1},"type":"Feature","geometry":{"type":"Point","coordinates":[-1.4337,52.4365]}},{"properties":{"city":"Weymouth","postal_code":"DT35JU","geo_score":0.857,"gold":1,"jsg":0,"toning":1,"user_id":"0114540e-f7b9-11df-88fb-123139181c25","id":"a7vwwgtz275v","geo_precision":"zip","zumbatomic":1,"sentao":0,"aqua":0,"zumba basic 2":0},"type":"Feature","geometry":{"type":"Point","coordinates":[-2.45,50.6]}},{"properties":{"city":"Bognor Regis West Sussex","postal_code":"Po212by","geo_score":0.857,"gold":1,"jsg":0,"toning":1,"user_id":"011f6686-309a-11e0-8b28-123139181c25","id":"a7vwwgsa92re","geo_precision":"zip","zumbatomic":1,"sentao":0,"aqua":0,"zumba basic 2":0},"type":"Feature","geometry":{"type":"Point","coordinates":[-0.771,50.84664]}},{"properties":{"city":"Bedale","postal_code":"DL81BL","geo_score":0.857,"gold":0,"jsg":0,"toning":1,"user_id":"0185adaa-fbf8-11df-8b28-123139181c25","id":"a7vwwgolsa6q","geo_precision":"zip","zumbatomic":0,"sentao":0,"aqua":0,"zumba basic 2":0},"type":"Feature","geometry":{"type":"Point","coordinates":[-2.3666667,53.0333333]}},{"properties":{"city":"Beaconsfield Bucks","postal_code":"HP92TH","geo_score":0.857,"gold":0,"jsg":0,"toning":1,"user_id":"01aa03e6-f7b9-11df-88fb-123139181c25","id":"a7vwwggtsebe","geo_precision":"zip","zumbatomic":0,"sentao":1,"aqua":0,"zumba basic 2":1},"type":"Feature","geometry":{"type":"Point","coordinates":[-0.6333333,51.6]}},{"properties":{"city":"Wrexham","postal_code":"LL130LE","geo_score":0.857,"gold":0,"jsg":0,"toning":1,"user_id":"01b10fd8-f7b9-11df-88fb-123139181c25","id":"a7vwwgtv2brl","geo_precision":"zip","zumbatomic":1,"sentao":0,"aqua":0,"zumba basic 2":1},"type":"Feature","geometry":{"type":"Point","coordinates":[0.801658630371094,52.224224288994]}},{"properties":{"city":"Bracknell","postal_code":"RG422PR","geo_score":0.0,"gold":0,"jsg":0,"toning":1,"user_id":"01b121d0-f7b9-11df-88fb-123139181c25","id":"a7vwwgein7yt","geo_precision":"unmatched","zumbatomic":1,"sentao":0,"aqua":0,"zumba basic 2":1},"type":"Feature","geometry":null},{"properties":{"city":"Stonehaven","postal_code":"AB392PG","geo_score":0.857,"gold":0,"jsg":0,"toning":1,"user_id":"01bfe95e-f7b9-11df-88fb-123139181c25","id":"a7vwwgiqadda","geo_precision":"zip","zumbatomic":0,"sentao":1,"aqua":0,"zumba basic 2":1},"type":"Feature","geometry":{"type":"Point","coordinates":[-2.2,56.9666667]}},{"properties":{"city":"Penn","postal_code":"HP108BP","geo_score":0.857,"gold":0,"jsg":0,"toning":1,"user_id":"01c0250e-f7b9-11df-88fb-123139181c25","id":"a7vwwgq1t1le","geo_precision":"zip","zumbatomic":0,"sentao":1,"aqua":0,"zumba basic 2":1},"type":"Feature","geometry":{"type":"Point","coordinates":[-0.6833333,51.6166667]}},{"properties":{"city":"Dungannon","postal_code":"BT716LT","geo_score":0.857,"gold":0,"jsg":0,"toning":1,"user_id":"01e3d7ba-f7b9-11df-88fb-123139181c25","id":"a7vwwgtoyo1n","geo_precision":"zip","zumbatomic":0,"sentao":0,"aqua":0,"zumba basic 2":0},"type":"Feature","geometry":{"type":"Point","coordinates":[-6.76723480224609,54.503442674456]}},{"properties":{"city":"Stirling","postal_code":"FK78GB","geo_score":0.857,"gold":1,"jsg":0,"toning":1,"user_id":"01e3e1c4-f7b9-11df-88fb-123139181c25","id":"a7vwwgpog0q5","geo_precision":"zip","zumbatomic":1,"sentao":1,"aqua":0,"zumba basic 2":1},"type":"Feature","geometry":{"type":"Point","coordinates":[-3.3291666,54.5308333]}},{"properties":{"city":"Manchester","postal_code":"M345PG","geo_score":0.857,"gold":1,"jsg":0,"toning":1,"user_id":"01ea99ec-f7b9-11df-88fb-123139181c25","id":"a7vwwgt1b07u","geo_precision":"zip","zumbatomic":1,"sentao":0,"aqua":0,"zumba basic 2":1},"type":"Feature","geometry":{"type":"Point","coordinates":[-2.23743438720703,53.4809464283615]}},{"properties":{"city":"Flintshire","postal_code":"CH54BJ","geo_score":0.0,"gold":1,"jsg":0,"toning":1,"user_id":"01f25d4e-f7b9-11df-88fb-123139181c25","id":"a7vwwgk4aav5","geo_precision":"unmatched","zumbatomic":1,"sentao":0,"aqua":1,"zumba basic 2":1},"type":"Feature","geometry":null},{"properties":{"city":"County Antrim","postal_code":"BT294FS","geo_score":0.857,"gold":0,"jsg":0,"toning":1,"user_id":"01f28fa8-f7b9-11df-88fb-123139181c25","id":"a7vwwgggo3g5","geo_precision":"zip","zumbatomic":1,"sentao":0,"aqua":0,"zumba basic 2":1},"type":"Feature","geometry":{"type":"Point","coordinates":[-3.75,56.0666667]}},{"properties":{"city":"TULLIBODY","postal_code":"FK102PX","geo_score":0.857,"gold":0,"jsg":0,"toning":1,"user_id":"01f90acc-f7b9-11df-88fb-123139181c25","id":"a7vwwgh7svih","geo_precision":"zip","zumbatomic":0,"sentao":0,"aqua":0,"zumba basic 2":1},"type":"Feature","geometry":{"type":"Point","coordinates":[-3.8333333,54.9333333]}},{"properties":{"city":"Pinner","postal_code":"HA53UT","geo_score":0.857,"gold":1,"jsg":0,"toning":1,"user_id":"02072e40-f7b9-11df-88fb-123139181c25","id":"a7vwwgnkf7x5","geo_precision":"zip","zumbatomic":1,"sentao":1,"aqua":0,"zumba basic 2":1},"type":"Feature","geometry":{"type":"Point","coordinates":[-0.38215845823288,51.5938370164925]}},{"properties":{"city":"London Borough of Ealing","postal_code":"W71BU","geo_score":0.857,"gold":1,"jsg":0,"toning":1,"user_id":"020740b0-f7b9-11df-88fb-123139181c25","id":"a7vwwgniz0qp","geo_precision":"zip","zumbatomic":1,"sentao":1,"aqua":1,"zumba basic 2":1},"type":"Feature","geometry":{"type":"Point","coordinates":[0.1508,52.19712]}},{"properties":{"city":"Swadlincote  Derbyshire","postal_code":"DE117BB","geo_score":0.857,"gold":1,"jsg":0,"toning":1,"user_id":"020e1fca-f7b9-11df-88fb-123139181c25","id":"a7vwwgemndsm","geo_precision":"zip","zumbatomic":0,"sentao":0,"aqua":0,"zumba basic 2":0},"type":"Feature","geometry":{"type":"Point","coordinates":[-1.55,52.7666667]}},{"properties":{"city":"Hinckley","postal_code":"LE102UA","geo_score":0.857,"gold":0,"jsg":0,"toning":1,"user_id":"024c1c26-f7b9-11df-88fb-123139181c25","id":"a7vwwgtrwe1k","geo_precision":"zip","zumbatomic":0,"sentao":0,"aqua":0,"zumba basic 2":1},"type":"Feature","geometry":{"type":"Point","coordinates":[-2.5,53.0]}},{"properties":{"city":"Glasgow","postal_code":"G133RA","geo_score":0.857,"gold":0,"jsg":0,"toning":1,"user_id":"025a0318-f7b9-11df-88fb-123139181c25","id":"a7vwwgfczalu","geo_precision":"zip","zumbatomic":1,"sentao":0,"aqua":0,"zumba basic 2":1},"type":"Feature","geometry":{"type":"Point","coordinates":[-4.25763130187988,55.8651497187961]}},{"properties":{"city":"London","postal_code":"W140SY","geo_score":0.857,"gold":1,"jsg":0,"toning":1,"user_id":"032050c2-f7b9-11df-88fb-123139181c25","id":"a7vwwgjxzj4t","geo_precision":"zip","zumbatomic":0,"sentao":0,"aqua":0,"zumba basic 2":1},"type":"Feature","geometry":{"type":"Point","coordinates":[-2.8508333,51.7316667]}},{"properties":{"city":"Airdrie","postal_code":"ML60EB","geo_score":0.857,"gold":0,"jsg":0,"toning":1,"user_id":"03209b0e-f7b9-11df-88fb-123139181c25","id":"a7vwwgjnhzek","geo_precision":"zip","zumbatomic":0,"sentao":0,"aqua":0,"zumba basic 2":1},"type":"Feature","geometry":{"type":"Point","coordinates":[-6.6833333,54.6333333]}},{"properties":{"city":"Rayleigh Essex","postal_code":"SS69LW","geo_score":0.0,"gold":0,"jsg":0,"toning":1,"user_id":"033c743c-f7b9-11df-88fb-123139181c25","id":"a7vwwgsclgh6","geo_precision":"unmatched","zumbatomic":1,"sentao":0,"aqua":0,"zumba basic 2":1},"type":"Feature","geometry":null},{"properties":{"city":"Edinburgh","postal_code":"EH112HX","geo_score":0.857,"gold":0,"jsg":0,"toning":1,"user_id":"03b490d4-f7b9-11df-88fb-123139181c25","id":"a7vwwgk66awu","geo_precision":"zip","zumbatomic":0,"sentao":0,"aqua":0,"zumba basic 2":1},"type":"Feature","geometry":{"type":"Point","coordinates":[-3.3725,55.95]}},{"properties":{"city":"Cheltenham","postal_code":"GL525GB","geo_score":0.857,"gold":0,"jsg":0,"toning":1,"user_id":"03bb770a-f7b9-11df-88fb-123139181c25","id":"a7vwwgjovwdk","geo_precision":"zip","zumbatomic":0,"sentao":0,"aqua":1,"zumba basic 2":0},"type":"Feature","geometry":{"type":"Point","coordinates":[-2.0833333,51.9]}},{"properties":{"city":"North East Lincolnshire","postal_code":"DN417QS","geo_score":0.857,"gold":0,"jsg":0,"toning":1,"user_id":"03bb7ed0-f7b9-11df-88fb-123139181c25","id":"a7vwwgnhvks2","geo_precision":"zip","zumbatomic":1,"sentao":0,"aqua":0,"zumba basic 2":1},"type":"Feature","geometry":{"type":"Point","coordinates":[-0.9166667,52.5166667]}},{"properties":{"city":"Manchester","postal_code":"M469AQ","geo_score":0.857,"gold":1,"jsg":0,"toning":1,"user_id":"03c1dd0c-f7b9-11df-88fb-123139181c25","id":"a7vwwgqgxyua","geo_precision":"zip","zumbatomic":1,"sentao":0,"aqua":0,"zumba basic 2":1},"type":"Feature","geometry":{"type":"Point","coordinates":[-2.23743438720703,53.4809464283615]}},{"properties":{"city":"Doncaster","postal_code":"DN31NG","geo_score":0.857,"gold":0,"jsg":0,"toning":1,"user_id":"03c20228-f7b9-11df-88fb-123139181c25","id":"a7vwwgu70gwt","geo_precision":"zip","zumbatomic":0,"sentao":1,"aqua":0,"zumba basic 2":1},"type":"Feature","geometry":{"type":"Point","coordinates":[-1.00542068481445,53.4818147283195]}},{"properties":{"city":"Stanwell","postal_code":"TW197SJ","geo_score":0.857,"gold":1,"jsg":0,"toning":1,"user_id":"03d08500-f7b9-11df-88fb-123139181c25","id":"a7vwwgr1swuz","geo_precision":"zip","zumbatomic":1,"sentao":1,"aqua":1,"zumba basic 2":0},"type":"Feature","geometry":{"type":"Point","coordinates":[-0.4833333,51.45]}},{"properties":{"city":"Sunbury on Thames","postal_code":"TW165EH","geo_score":0.857,"gold":1,"jsg":0,"toning":1,"user_id":"03d78d82-f7b9-11df-88fb-123139181c25","id":"a7vwwgkyv4di","geo_precision":"zip","zumbatomic":1,"sentao":0,"aqua":0,"zumba basic 2":0},"type":"Feature","geometry":{"type":"Point","coordinates":[-2.5333333,57.3166667]}},{"properties":{"city":"Chatham Kent","postal_code":"ME57NE","geo_score":0.857,"gold":0,"jsg":0,"toning":1,"user_id":"03e4bc6e-f7b9-11df-88fb-123139181c25","id":"a7vwwgil0vh8","geo_precision":"zip","zumbatomic":0,"sentao":0,"aqua":1,"zumba basic 2":0},"type":"Feature","geometry":{"type":"Point","coordinates":[-3.75,56.0666667]}},{"properties":{"city":"Hampton","postal_code":"TW123BG","geo_score":0.857,"gold":0,"jsg":0,"toning":1,"user_id":"03f6b388-f7b9-11df-88fb-123139181c25","id":"a7vwwgmnr3zb","geo_precision":"zip","zumbatomic":1,"sentao":0,"aqua":0,"zumba basic 2":0},"type":"Feature","geometry":{"type":"Point","coordinates":[-4.25199866294861,55.82587984411]}},{"properties":{"city":"Cumbria","postal_code":"CA73DY","geo_score":0.857,"gold":0,"jsg":0,"toning":1,"user_id":"042e769c-f7b9-11df-88fb-123139181c25","id":"a7vwwgtal87o","geo_precision":"zip","zumbatomic":0,"sentao":0,"aqua":0,"zumba basic 2":0},"type":"Feature","geometry":{"type":"Point","coordinates":[0.797195434570312,50.9342000130637]}},{"properties":{"city":"London Borough of Brent","postal_code":"NW100AP","geo_score":0.857,"gold":0,"jsg":0,"toning":1,"user_id":"042eb9a4-f7b9-11df-88fb-123139181c25","id":"a7vwwgilodb7","geo_precision":"zip","zumbatomic":0,"sentao":0,"aqua":0,"zumba basic 2":0},"type":"Feature","geometry":{"type":"Point","coordinates":[-0.2666667,51.55]}},{"properties":{"city":"Aberdeen","postal_code":"AB159NN","geo_score":0.857,"gold":0,"jsg":0,"toning":1,"user_id":"0435f5fc-f7b9-11df-88fb-123139181c25","id":"a7vwwgtyepxh","geo_precision":"zip","zumbatomic":1,"sentao":0,"aqua":0,"zumba basic 2":0},"type":"Feature","geometry":{"type":"Point","coordinates":[-1.0833333,57.1166667]}},{"properties":{"city":"North Yorkshire Selby","postal_code":"DN149PB","geo_score":0.857,"gold":0,"jsg":0,"toning":1,"user_id":"04404430-f7b9-11df-88fb-123139181c25","id":"a7vwwgspazzd","geo_precision":"zip","zumbatomic":0,"sentao":0,"aqua":0,"zumba basic 2":0},"type":"Feature","geometry":{"type":"Point","coordinates":[-2.3833333,54.4833333]}},{"properties":{"city":"Haverhill","postal_code":"CB99JF","geo_score":0.857,"gold":0,"jsg":0,"toning":1,"user_id":"04479410-f7b9-11df-88fb-123139181c25","id":"a7vwwghxbkzy","geo_precision":"zip","zumbatomic":3,"sentao":0,"aqua":0,"zumba basic 2":1},"type":"Feature","geometry":{"type":"Point","coordinates":[0.4333333,52.0833333]}},{"properties":{"city":"Reading","postal_code":"RG14LZ","geo_score":0.857,"gold":1,"jsg":0,"toning":1,"user_id":"0447aa54-f7b9-11df-88fb-123139181c25","id":"a7vwwger7t59","geo_precision":"zip","zumbatomic":1,"sentao":0,"aqua":0,"zumba basic 2":1},"type":"Feature","geometry":{"type":"Point","coordinates":[-3.0833333,58.8333333]}},{"properties":{"city":"Milton Keynes","postal_code":"MK57AX","geo_score":0.857,"gold":1,"jsg":0,"toning":1,"user_id":"047e7d7c-f7b9-11df-88fb-123139181c25","id":"a7vwwgji2ax6","geo_precision":"zip","zumbatomic":1,"sentao":1,"aqua":1,"zumba basic 2":0},"type":"Feature","geometry":{"type":"Point","coordinates":[-0.755825042724609,52.0417219233052]}},{"properties":{"city":"East Kilbride","postal_code":"G741QZ","geo_score":0.857,"gold":0,"jsg":0,"toning":1,"user_id":"04b87edc-f7b9-11df-88fb-123139181c25","id":"a7vwwgq3vds8","geo_precision":"zip","zumbatomic":1,"sentao":0,"aqua":1,"zumba basic 2":1},"type":"Feature","geometry":{"type":"Point","coordinates":[-0.479621887207031,51.2536428425804]}},{"properties":{"city":"Sunderland","postal_code":"SR28JY","geo_score":0.857,"gold":1,"jsg":0,"toning":1,"user_id":"04bf8c4a-f7b9-11df-88fb-123139181c25","id":"a7vwwgslbbpi","geo_precision":"zip","zumbatomic":1,"sentao":0,"aqua":1,"zumba basic 2":1},"type":"Feature","geometry":{"type":"Point","coordinates":[-0.26733,51.53093]}},{"properties":{"city":"Reddingmuirhead","postal_code":"FK20FB","geo_score":0.857,"gold":1,"jsg":0,"toning":1,"user_id":"04bf9334-f7b9-11df-88fb-123139181c25","id":"a7vwwggcappg","geo_precision":"zip","zumbatomic":1,"sentao":0,"aqua":0,"zumba basic 2":0},"type":"Feature","geometry":{"type":"Point","coordinates":[-1.9666667,54.9333333]}},{"properties":{"city":"Vale of Glamorgan","postal_code":"CF634AT","geo_score":0.857,"gold":0,"jsg":0,"toning":1,"user_id":"04e52fcc-f7b9-11df-88fb-123139181c25","id":"a7vwwgo1ohtd","geo_precision":"zip","zumbatomic":0,"sentao":1,"aqua":0,"zumba basic 2":0},"type":"Feature","geometry":{"type":"Point","coordinates":[-0.8,60.4]}},{"properties":{"city":"Derbyshire","postal_code":"DE757TP","geo_score":0.857,"gold":1,"jsg":0,"toning":1,"user_id":"04f3ea44-f7b9-11df-88fb-123139181c25","id":"a7vwwgh2960t","geo_precision":"zip","zumbatomic":1,"sentao":0,"aqua":0,"zumba basic 2":0},"type":"Feature","geometry":{"type":"Point","coordinates":[-1.46857,52.91421]}},{"properties":{"city":"Aylesbury","postal_code":"HP199PY","geo_score":0.857,"gold":0,"jsg":0,"toning":1,"user_id":"05093476-f7b9-11df-88fb-123139181c25","id":"a7vwwggtlc7q","geo_precision":"zip","zumbatomic":1,"sentao":0,"aqua":0,"zumba basic 2":1},"type":"Feature","geometry":{"type":"Point","coordinates":[-0.8,51.8333333]}},{"properties":{"city":"London","postal_code":"se208rl","geo_score":0.857,"gold":1,"jsg":0,"toning":1,"user_id":"051edd94-f7b9-11df-88fb-123139181c25","id":"a7vwwgnac6n6","geo_precision":"zip","zumbatomic":0,"sentao":0,"aqua":1,"zumba basic 2":0},"type":"Feature","geometry":{"type":"Point","coordinates":[-2.8508333,51.7316667]}},{"properties":{"city":"Torfaen","postal_code":"np443jj","geo_score":0.857,"gold":0,"jsg":0,"toning":1,"user_id":"052ce268-f7b9-11df-88fb-123139181c25","id":"a7vwwgo652yw","geo_precision":"zip","zumbatomic":1,"sentao":0,"aqua":0,"zumba basic 2":0},"type":"Feature","geometry":{"type":"Point","coordinates":[-5.1447222,51.9491667]}},{"properties":{"city":"Warwickshire","postal_code":"CV93AX","geo_score":0.0,"gold":0,"jsg":0,"toning":1,"user_id":"0533784e-f7b9-11df-88fb-123139181c25","id":"a7vwwgqyv3jj","geo_precision":"unmatched","zumbatomic":0,"sentao":0,"aqua":0,"zumba basic 2":0},"type":"Feature","geometry":null},{"properties":{"city":"Warwickshire","postal_code":"CV120GL","geo_score":0.0,"gold":0,"jsg":0,"toning":1,"user_id":"05338492-f7b9-11df-88fb-123139181c25","id":"a7vwwgsnm7ar","geo_precision":"unmatched","zumbatomic":1,"sentao":0,"aqua":0,"zumba basic 2":0},"type":"Feature","geometry":null},{"properties":{"city":"REDDITCH","postal_code":"B988HN","geo_score":0.857,"gold":0,"jsg":0,"toning":1,"user_id":"0533af8a-f7b9-11df-88fb-123139181c25","id":"a7vwwgp9bowy","geo_precision":"zip","zumbatomic":1,"sentao":0,"aqua":1,"zumba basic 2":1},"type":"Feature","geometry":{"type":"Point","coordinates":[-1.9333333,52.3]}},{"properties":{"city":"Edinburgh","postal_code":"EH153RZ","geo_score":0.857,"gold":1,"jsg":0,"toning":1,"user_id":"0533fcc4-f7b9-11df-88fb-123139181c25","id":"a7vwwghkt7uf","geo_precision":"zip","zumbatomic":1,"sentao":0,"aqua":1,"zumba basic 2":1},"type":"Feature","geometry":{"type":"Point","coordinates":[-3.3725,55.95]}},{"properties":{"city":"Leicestershire","postal_code":"LE29NZ","geo_score":0.857,"gold":0,"jsg":0,"toning":1,"user_id":"05340e26-f7b9-11df-88fb-123139181c25","id":"a7vwwglld12t","geo_precision":"zip","zumbatomic":1,"sentao":0,"aqua":0,"zumba basic 2":1},"type":"Feature","geometry":{"type":"Point","coordinates":[-1.1348,52.62782]}},{"properties":{"city":"Oban","postal_code":"PA344HS","geo_score":0.857,"gold":1,"jsg":0,"toning":1,"user_id":"0541d5d8-f7b9-11df-88fb-123139181c25","id":"a7vwwgsvhu2r","geo_precision":"zip","zumbatomic":1,"sentao":1,"aqua":0,"zumba basic 2":0},"type":"Feature","geometry":{"type":"Point","coordinates":[-5.4666667,56.4166667]}},{"properties":{"city":"Surrey","postal_code":"SM44PG","geo_score":0.857,"gold":1,"jsg":0,"toning":1,"user_id":"0541f022-f7b9-11df-88fb-123139181c25","id":"a7vwwgk03n3m","geo_precision":"zip","zumbatomic":1,"sentao":1,"aqua":1,"zumba basic 2":1},"type":"Feature","geometry":{"type":"Point","coordinates":[-4.2333333,58.3666667]}},{"properties":{"city":"CO Durham","postal_code":"DH31RU","geo_score":0.857,"gold":1,"jsg":0,"toning":1,"user_id":"05681c70-f7b9-11df-88fb-123139181c25","id":"a7vwwgspcizr","geo_precision":"zip","zumbatomic":1,"sentao":1,"aqua":0,"zumba basic 2":1},"type":"Feature","geometry":{"type":"Point","coordinates":[-3.9333333,52.0333333]}},{"properties":{"city":"Knaresborough","postal_code":"hg58hl","geo_score":0.857,"gold":0,"jsg":0,"toning":1,"user_id":"0575fb42-f7b9-11df-88fb-123139181c25","id":"a7vwwghzy7zg","geo_precision":"zip","zumbatomic":1,"sentao":0,"aqua":0,"zumba basic 2":1},"type":"Feature","geometry":{"type":"Point","coordinates":[-1.4666667,54.0]}},{"properties":{"city":"Wednesbury","postal_code":"WS100QD","geo_score":0.857,"gold":0,"jsg":0,"toning":1,"user_id":"0615f240-1443-11e0-8b28-123139181c25","id":"a7vwwgudnkav","geo_precision":"zip","zumbatomic":0,"sentao":0,"aqua":0,"zumba basic 2":0},"type":"Feature","geometry":{"type":"Point","coordinates":[-2.0166667,52.55]}},{"properties":{"city":"Penistone south yorkshire","postal_code":"s366dl","geo_score":0.857,"gold":1,"jsg":0,"toning":1,"user_id":"063b455a-f7b9-11df-88fb-123139181c25","id":"a7vwwgryqsm5","geo_precision":"zip","zumbatomic":1,"sentao":0,"aqua":0,"zumba basic 2":1},"type":"Feature","geometry":{"type":"Point","coordinates":[-1.63026809692383,53.5257173054989]}},{"properties":{"city":"Windsor","postal_code":"SL41HR","geo_score":0.857,"gold":1,"jsg":0,"toning":1,"user_id":"0653ef60-f7b9-11df-88fb-123139181c25","id":"a7vwwgsg7y6k","geo_precision":"zip","zumbatomic":1,"sentao":1,"aqua":0,"zumba basic 2":1},"type":"Feature","geometry":{"type":"Point","coordinates":[-2.35370707511902,51.3833694458008]}},{"properties":{"city":"London","postal_code":"SE218NG","geo_score":0.857,"gold":0,"jsg":0,"toning":1,"user_id":"065af472-f7b9-11df-88fb-123139181c25","id":"a7vwwgl6qc4j","geo_precision":"zip","zumbatomic":1,"sentao":0,"aqua":0,"zumba basic 2":1},"type":"Feature","geometry":{"type":"Point","coordinates":[-2.8508333,51.7316667]}},{"properties":{"city":"London","postal_code":"SE162BJ","geo_score":0.857,"gold":1,"jsg":0,"toning":1,"user_id":"06686404-f7b9-11df-88fb-123139181c25","id":"a7vwwgryvqeh","geo_precision":"zip","zumbatomic":0,"sentao":0,"aqua":0,"zumba basic 2":1},"type":"Feature","geometry":{"type":"Point","coordinates":[-2.8508333,51.7316667]}},{"properties":{"city":"London borough Lewisham","postal_code":"se232tp","geo_score":0.857,"gold":0,"jsg":0,"toning":1,"user_id":"06732d76-f7b9-11df-88fb-123139181c25","id":"a7vwwgnkjp0n","geo_precision":"zip","zumbatomic":0,"sentao":0,"aqua":0,"zumba basic 2":0},"type":"Feature","geometry":{"type":"Point","coordinates":[-2.8508333,51.7316667]}},{"properties":{"city":"Thornton","postal_code":"KY14BL","geo_score":0.857,"gold":0,"jsg":0,"toning":1,"user_id":"06735850-f7b9-11df-88fb-123139181c25","id":"a7vwwge1q4b1","geo_precision":"zip","zumbatomic":1,"sentao":0,"aqua":0,"zumba basic 2":1},"type":"Feature","geometry":{"type":"Point","coordinates":[-2.8333333,53.2666667]}},{"properties":{"city":"Sandhurst","postal_code":"GU478JT","geo_score":0.857,"gold":1,"jsg":0,"toning":1,"user_id":"0681c6a6-f7b9-11df-88fb-123139181c25","id":"a7vwwgi5jdu3","geo_precision":"zip","zumbatomic":1,"sentao":0,"aqua":0,"zumba basic 2":1},"type":"Feature","geometry":{"type":"Point","coordinates":[0.562276840209961,51.0266046355581]}},{"properties":{"city":"Barnes","postal_code":"SW139BS","geo_score":0.857,"gold":1,"jsg":0,"toning":1,"user_id":"0681fae0-f7b9-11df-88fb-123139181c25","id":"a7vwwgln23q2","geo_precision":"zip","zumbatomic":1,"sentao":0,"aqua":0,"zumba basic 2":0},"type":"Feature","geometry":{"type":"Point","coordinates":[-1.4333333,60.3833333]}},{"properties":{"city":"Musselburgh","postal_code":"EH216RR","geo_score":0.857,"gold":0,"jsg":0,"toning":1,"user_id":"06a45298-f7b9-11df-88fb-123139181c25","id":"a7vwwgfinz6n","geo_precision":"zip","zumbatomic":0,"sentao":0,"aqua":0,"zumba basic 2":1},"type":"Feature","geometry":{"type":"Point","coordinates":[-3.0833333,55.9666667]}},{"properties":{"city":"Scotland","postal_code":"ML67FH","geo_score":0.857,"gold":0,"jsg":0,"toning":1,"user_id":"06a46bb6-f7b9-11df-88fb-123139181c25","id":"a7vwwgq3dc9o","geo_precision":"zip","zumbatomic":0,"sentao":0,"aqua":0,"zumba basic 2":1},"type":"Feature","geometry":{"type":"Point","coordinates":[-4.0,56.0]}},{"properties":{"city":"Slough","postal_code":"SL12DE","geo_score":0.857,"gold":1,"jsg":0,"toning":1,"user_id":"06ba6d94-f7b9-11df-88fb-123139181c25","id":"a7vwwgturu6u","geo_precision":"zip","zumbatomic":1,"sentao":0,"aqua":0,"zumba basic 2":1},"type":"Feature","geometry":{"type":"Point","coordinates":[-1.4,60.2]}},{"properties":{"city":"Newcastle upon Tyne","postal_code":"ne35rd","geo_score":0.857,"gold":1,"jsg":0,"toning":1,"user_id":"06c15b9a-f7b9-11df-88fb-123139181c25","id":"a7vwwgno8bwn","geo_precision":"zip","zumbatomic":1,"sentao":1,"aqua":1,"zumba basic 2":2},"type":"Feature","geometry":{"type":"Point","coordinates":[-2.80325,51.85137]}},{"properties":{"city":"Edinburgh","postal_code":"EH92BW","geo_score":0.857,"gold":0,"jsg":0,"toning":1,"user_id":"06cfb1f4-f7b9-11df-88fb-123139181c25","id":"a7vwwgpijwpq","geo_precision":"zip","zumbatomic":1,"sentao":0,"aqua":0,"zumba basic 2":0},"type":"Feature","geometry":{"type":"Point","coordinates":[-3.3725,55.95]}},{"properties":{"city":"Manchester","postal_code":"OL114DG","geo_score":0.857,"gold":1,"jsg":0,"toning":1,"user_id":"06cfd576-f7b9-11df-88fb-123139181c25","id":"a7vwwgm0jjnm","geo_precision":"zip","zumbatomic":1,"sentao":0,"aqua":1,"zumba basic 2":0},"type":"Feature","geometry":{"type":"Point","coordinates":[-2.23743438720703,53.4809464283615]}},{"properties":{"city":"Felixstowe","postal_code":"IP119EQ","geo_score":0.857,"gold":1,"jsg":0,"toning":1,"user_id":"06e48476-f7b9-11df-88fb-123139181c25","id":"a7vwwgsfcz28","geo_precision":"zip","zumbatomic":1,"sentao":0,"aqua":0,"zumba basic 2":0},"type":"Feature","geometry":{"type":"Point","coordinates":[1.15367710590363,51.084735929681]}},{"properties":{"city":"Coventry","postal_code":"CV78PN","geo_score":0.857,"gold":1,"jsg":0,"toning":1,"user_id":"06e49506-f7b9-11df-88fb-123139181c25","id":"a7vwwgo3rd3m","geo_precision":"zip","zumbatomic":1,"sentao":0,"aqua":0,"zumba basic 2":0},"type":"Feature","geometry":{"type":"Point","coordinates":[-1.4337,52.4365]}},{"properties":{"city":"London","postal_code":"N168SD","geo_score":0.857,"gold":0,"jsg":0,"toning":1,"user_id":"06e49830-f7b9-11df-88fb-123139181c25","id":"a7vwwgp4o0t7","geo_precision":"zip","zumbatomic":1,"sentao":0,"aqua":0,"zumba basic 2":0},"type":"Feature","geometry":{"type":"Point","coordinates":[-2.8508333,51.7316667]}},{"properties":{"city":"Paisley","postal_code":"PA34UD","geo_score":0.857,"gold":0,"jsg":0,"toning":1,"user_id":"06e4cea4-f7b9-11df-88fb-123139181c25","id":"a7vwwgquqd37","geo_precision":"zip","zumbatomic":1,"sentao":0,"aqua":0,"zumba basic 2":1},"type":"Feature","geometry":{"type":"Point","coordinates":[-4.4333333,55.8333333]}},{"properties":{"city":"Swansea","postal_code":"SA27UJ","geo_score":0.857,"gold":1,"jsg":0,"toning":1,"user_id":"06ebbf34-f7b9-11df-88fb-123139181c25","id":"a7vwwgl7gtl8","geo_precision":"zip","zumbatomic":1,"sentao":0,"aqua":0,"zumba basic 2":0},"type":"Feature","geometry":{"type":"Point","coordinates":[-4.067833,51.605333]}},{"properties":{"city":"Denny","postal_code":"FK65DU","geo_score":0.857,"gold":1,"jsg":0,"toning":1,"user_id":"06ebf580-f7b9-11df-88fb-123139181c25","id":"a7vwwgrq3l58","geo_precision":"zip","zumbatomic":1,"sentao":0,"aqua":0,"zumba basic 2":1},"type":"Feature","geometry":{"type":"Point","coordinates":[-0.1166667,52.3333333]}},{"properties":{"city":"Liverpool","postal_code":"L235TB","geo_score":0.857,"gold":0,"jsg":0,"toning":1,"user_id":"07b042c8-f7b9-11df-88fb-123139181c25","id":"a7vwwgfrfi8v","geo_precision":"zip","zumbatomic":1,"sentao":0,"aqua":0,"zumba basic 2":1},"type":"Feature","geometry":{"type":"Point","coordinates":[-0.0816947221755981,51.5177963524152]}},{"properties":{"city":"St Neots","postal_code":"PE197GD","geo_score":0.857,"gold":1,"jsg":0,"toning":1,"user_id":"0805f9e8-f7b9-11df-88fb-123139181c25","id":"a7vwwgmlz5kz","geo_precision":"zip","zumbatomic":0,"sentao":0,"aqua":0,"zumba basic 2":1},"type":"Feature","geometry":{"type":"Point","coordinates":[-1.913567,52.481189]}},{"properties":{"city":"Fife","postal_code":"KY25TX","geo_score":0.857,"gold":0,"jsg":0,"toning":1,"user_id":"083c330a-f7b9-11df-88fb-123139181c25","id":"a7vwwghwmg37","geo_precision":"zip","zumbatomic":1,"sentao":0,"aqua":0,"zumba basic 2":1},"type":"Feature","geometry":{"type":"Point","coordinates":[-3.1666667,56.25]}},{"properties":{"city":"Wolverhampton","postal_code":"WV69ER","geo_score":0.857,"gold":1,"jsg":0,"toning":1,"user_id":"0846f290-f7b9-11df-88fb-123139181c25","id":"a7vwwgo6aaxp","geo_precision":"zip","zumbatomic":1,"sentao":0,"aqua":1,"zumba basic 2":0},"type":"Feature","geometry":{"type":"Point","coordinates":[-2.1333333,52.5833333]}},{"properties":{"city":"Kilmarnock","postal_code":"KA13RG","geo_score":0.857,"gold":0,"jsg":0,"toning":1,"user_id":"084df892-f7b9-11df-88fb-123139181c25","id":"a7vwwgeco501","geo_precision":"zip","zumbatomic":1,"sentao":0,"aqua":0,"zumba basic 2":0},"type":"Feature","geometry":{"type":"Point","coordinates":[-4.49581146240234,55.611711054595]}},{"properties":{"city":"Glasgow City","postal_code":"g665pg","geo_score":0.857,"gold":0,"jsg":0,"toning":1,"user_id":"084e1566-f7b9-11df-88fb-123139181c25","id":"a7vwwgo7k9gb","geo_precision":"zip","zumbatomic":1,"sentao":0,"aqua":0,"zumba basic 2":0},"type":"Feature","geometry":{"type":"Point","coordinates":[-4.2052,55.8492]}},{"properties":{"city":"Newport","postal_code":"NP194RS","geo_score":0.857,"gold":0,"jsg":0,"toning":1,"user_id":"084e3172-f7b9-11df-88fb-123139181c25","id":"a7vwwgud61y9","geo_precision":"zip","zumbatomic":0,"sentao":0,"aqua":0,"zumba basic 2":0},"type":"Feature","geometry":{"type":"Point","coordinates":[0.25,51.9833333]}},{"properties":{"city":"Denver","postal_code":"PE380DZ","geo_score":0.857,"gold":1,"jsg":0,"toning":1,"user_id":"0854dd42-f7b9-11df-88fb-123139181c25","id":"a7vwwglgh5vz","geo_precision":"zip","zumbatomic":1,"sentao":0,"aqua":1,"zumba basic 2":0},"type":"Feature","geometry":{"type":"Point","coordinates":[0.3833333,52.5833333]}},{"properties":{"city":"Jersey","postal_code":"JE34EF","geo_score":0.0,"gold":1,"jsg":0,"toning":1,"user_id":"085bedee-f7b9-11df-88fb-123139181c25","id":"a7vwwgovo4oo","geo_precision":"unmatched","zumbatomic":1,"sentao":0,"aqua":0,"zumba basic 2":0},"type":"Feature","geometry":null},{"properties":{"city":"Coventry","postal_code":"CV66LX","geo_score":0.857,"gold":0,"jsg":0,"toning":1,"user_id":"085bf4d8-f7b9-11df-88fb-123139181c25","id":"a7vwwgkclhta","geo_precision":"zip","zumbatomic":0,"sentao":0,"aqua":0,"zumba basic 2":0},"type":"Feature","geometry":{"type":"Point","coordinates":[-1.4337,52.4365]}},{"properties":{"city":"Edinburgh","postal_code":"EH113JE","geo_score":0.857,"gold":0,"jsg":0,"toning":1,"user_id":"087c1cd6-f7b9-11df-88fb-123139181c25","id":"a7vwwgrrfbhm","geo_precision":"zip","zumbatomic":0,"sentao":1,"aqua":0,"zumba basic 2":1},"type":"Feature","geometry":{"type":"Point","coordinates":[-3.3725,55.95]}},{"properties":{"city":"Edinburgh","postal_code":"EH113JE","geo_score":0.857,"gold":1,"jsg":0,"toning":1,"user_id":"08824390-f7b9-11df-88fb-123139181c25","id":"a7vwwgrp7l2l","geo_precision":"zip","zumbatomic":0,"sentao":1,"aqua":0,"zumba basic 2":1},"type":"Feature","geometry":{"type":"Point","coordinates":[-3.3725,55.95]}},{"properties":{"city":"Caerphilly","postal_code":"CF833JH","geo_score":0.857,"gold":1,"jsg":0,"toning":1,"user_id":"08cc88f6-f7b9-11df-88fb-123139181c25","id":"a7vwwgso2kwy","geo_precision":"zip","zumbatomic":1,"sentao":1,"aqua":1,"zumba basic 2":1},"type":"Feature","geometry":{"type":"Point","coordinates":[-3.6333333,54.9333333]}},{"properties":{"city":"Nottingham","postal_code":"ng93qs","geo_score":0.857,"gold":1,"jsg":0,"toning":1,"user_id":"08d33444-f7b9-11df-88fb-123139181c25","id":"a7vwwgq8ly1c","geo_precision":"zip","zumbatomic":0,"sentao":0,"aqua":0,"zumba basic 2":1},"type":"Feature","geometry":{"type":"Point","coordinates":[-2.63543,53.44457]}},{"properties":{"city":"pontypool","postal_code":"np48bq","geo_score":0.857,"gold":1,"jsg":0,"toning":1,"user_id":"08e18972-f7b9-11df-88fb-123139181c25","id":"a7vwwgu7ih1h","geo_precision":"zip","zumbatomic":1,"sentao":0,"aqua":0,"zumba basic 2":0},"type":"Feature","geometry":{"type":"Point","coordinates":[-3.0444444,51.7011111]}},{"properties":{"city":"Wolverhampton","postal_code":"WV112LT","geo_score":0.857,"gold":1,"jsg":0,"toning":1,"user_id":"08e20f28-f7b9-11df-88fb-123139181c25","id":"a7vwwgmzo86x","geo_precision":"zip","zumbatomic":1,"sentao":0,"aqua":1,"zumba basic 2":1},"type":"Feature","geometry":{"type":"Point","coordinates":[-2.1333333,52.5833333]}},{"properties":{"city":"TORFAEN","postal_code":"NP442ED","geo_score":0.857,"gold":1,"jsg":0,"toning":1,"user_id":"08f6979a-f7b9-11df-88fb-123139181c25","id":"a7vwwgooj5ur","geo_precision":"zip","zumbatomic":0,"sentao":0,"aqua":0,"zumba basic 2":0},"type":"Feature","geometry":{"type":"Point","coordinates":[-5.1447222,51.9491667]}},{"properties":{"city":"Tonyrefail rhondda cynon taff","postal_code":"CF398HZ","geo_score":0.857,"gold":1,"jsg":0,"toning":1,"user_id":"09016f80-f7b9-11df-88fb-123139181c25","id":"a7vwwgmp50e7","geo_precision":"zip","zumbatomic":0,"sentao":0,"aqua":1,"zumba basic 2":0},"type":"Feature","geometry":{"type":"Point","coordinates":[-3.4252778,51.5836111]}},{"properties":{"city":"milton keynes","postal_code":"MK62HR","geo_score":0.857,"gold":1,"jsg":0,"toning":1,"user_id":"09028196-1f4f-11e0-8b28-123139181c25","id":"a7vwwguf1dw7","geo_precision":"zip","zumbatomic":1,"sentao":1,"aqua":1,"zumba basic 2":1},"type":"Feature","geometry":{"type":"Point","coordinates":[-0.755825042724609,52.0417219233052]}},{"properties":{"city":"Wakefield","postal_code":"wf44an","geo_score":0.857,"gold":0,"jsg":0,"toning":1,"user_id":"09246080-f7b9-11df-88fb-123139181c25","id":"a7vwwgnfrx8r","geo_precision":"zip","zumbatomic":0,"sentao":0,"aqua":1,"zumba basic 2":0},"type":"Feature","geometry":{"type":"Point","coordinates":[-1.50727,53.67188]}},{"properties":{"city":"Glasgow","postal_code":"G733QW","geo_score":0.857,"gold":0,"jsg":0,"toning":1,"user_id":"092b8ebe-f7b9-11df-88fb-123139181c25","id":"a7vwwgklg1cf","geo_precision":"zip","zumbatomic":1,"sentao":1,"aqua":0,"zumba basic 2":1},"type":"Feature","geometry":{"type":"Point","coordinates":[-4.25763130187988,55.8651497187961]}},{"properties":{"city":"GWENT","postal_code":"NP123FT","geo_score":0.857,"gold":1,"jsg":0,"toning":1,"user_id":"09320316-f7b9-11df-88fb-123139181c25","id":"a7vwwgel97z5","geo_precision":"zip","zumbatomic":1,"sentao":0,"aqua":1,"zumba basic 2":1},"type":"Feature","geometry":{"type":"Point","coordinates":[-3.0,51.6666667]}},{"properties":{"city":"Brighton","postal_code":"RH15","geo_score":0.857,"gold":0,"jsg":0,"toning":1,"user_id":"09f6951e-f7b9-11df-88fb-123139181c25","id":"a7vwwglhwti0","geo_precision":"zip","zumbatomic":1,"sentao":0,"aqua":0,"zumba basic 2":1},"type":"Feature","geometry":{"type":"Point","coordinates":[-0.55954,53.56535]}},{"properties":{"city":"Bristol","postal_code":"BS107XL","geo_score":0.857,"gold":1,"jsg":0,"toning":1,"user_id":"0a017254-f7b9-11df-88fb-123139181c25","id":"a7vwwglaudxl","geo_precision":"zip","zumbatomic":1,"sentao":0,"aqua":1,"zumba basic 2":0},"type":"Feature","geometry":{"type":"Point","coordinates":[-2.5833333,51.45]}},{"properties":{"city":"Alloa","postal_code":"FK101DH","geo_score":0.857,"gold":0,"jsg":0,"toning":1,"user_id":"0a0c057a-f7b9-11df-88fb-123139181c25","id":"a7vwwghuq0mi","geo_precision":"zip","zumbatomic":1,"sentao":0,"aqua":0,"zumba basic 2":1},"type":"Feature","geometry":{"type":"Point","coordinates":[-3.8,56.1166667]}},{"properties":{"city":"ware","postal_code":"sg129fq","geo_score":0.857,"gold":1,"jsg":0,"toning":1,"user_id":"0a22aae6-f7b9-11df-88fb-123139181c25","id":"a7vwwgscguh7","geo_precision":"zip","zumbatomic":0,"sentao":0,"aqua":0,"zumba basic 2":1},"type":"Feature","geometry":{"type":"Point","coordinates":[-2.4,52.9833333]}},{"properties":{"city":"Glasgow","postal_code":"G663AR","geo_score":0.857,"gold":0,"jsg":0,"toning":1,"user_id":"0a22c63e-f7b9-11df-88fb-123139181c25","id":"a7vwwgjfgqk4","geo_precision":"zip","zumbatomic":0,"sentao":0,"aqua":0,"zumba basic 2":1},"type":"Feature","geometry":{"type":"Point","coordinates":[-4.25763130187988,55.8651497187961]}},{"properties":{"city":"Oxford","postal_code":"ox46hz","geo_score":0.857,"gold":0,"jsg":0,"toning":1,"user_id":"0a2e2ce0-f7b9-11df-88fb-123139181c25","id":"a7vwwgmlqei2","geo_precision":"zip","zumbatomic":1,"sentao":0,"aqua":0,"zumba basic 2":1},"type":"Feature","geometry":{"type":"Point","coordinates":[-3.55,50.9833333]}},{"properties":{"city":"Herts","postal_code":"SG142AT","geo_score":0.857,"gold":0,"jsg":0,"toning":1,"user_id":"0a592b70-f7b9-11df-88fb-123139181c25","id":"a7vwwglvgqht","geo_precision":"zip","zumbatomic":0,"sentao":0,"aqua":0,"zumba basic 2":0},"type":"Feature","geometry":{"type":"Point","coordinates":[-0.1668,51.4979]}},{"properties":{"city":"Welwyn Garden City","postal_code":"en65en","geo_score":0.857,"gold":1,"jsg":0,"toning":1,"user_id":"0a59be28-f7b9-11df-88fb-123139181c25","id":"a7vwwgpjhdzh","geo_precision":"zip","zumbatomic":0,"sentao":0,"aqua":0,"zumba basic 2":1},"type":"Feature","geometry":{"type":"Point","coordinates":[-0.0829124450683594,53.8003466774013]}},{"properties":{"city":"Farnborough","postal_code":"gu146fs","geo_score":0.857,"gold":0,"jsg":0,"toning":1,"user_id":"0a60568e-f7b9-11df-88fb-123139181c25","id":"a7vwwgig617i","geo_precision":"zip","zumbatomic":0,"sentao":0,"aqua":0,"zumba basic 2":0},"type":"Feature","geometry":{"type":"Point","coordinates":[-0.776333,51.275833]}},{"properties":{"city":"Cambridge","postal_code":"cb41wa","geo_score":0.857,"gold":1,"jsg":0,"toning":1,"user_id":"0a6e7c0a-f7b9-11df-88fb-123139181c25","id":"a7vwwgrfa4jg","geo_precision":"zip","zumbatomic":1,"sentao":1,"aqua":1,"zumba basic 2":1},"type":"Feature","geometry":{"type":"Point","coordinates":[0.19356,52.18475]}},{"properties":{"city":"Stranraer","postal_code":"DG97LQ","geo_score":0.857,"gold":1,"jsg":0,"toning":1,"user_id":"0a6ecf2a-f7b9-11df-88fb-123139181c25","id":"a7vwwgs7ufe2","geo_precision":"zip","zumbatomic":1,"sentao":1,"aqua":0,"zumba basic 2":0},"type":"Feature","geometry":{"type":"Point","coordinates":[-5.0333333,54.9]}},{"properties":{"city":"Aylesbury","postal_code":"HP224pt","geo_score":0.857,"gold":0,"jsg":0,"toning":1,"user_id":"0a7c79b8-f7b9-11df-88fb-123139181c25","id":"a7vwwgmzg4wn","geo_precision":"zip","zumbatomic":0,"sentao":0,"aqua":0,"zumba basic 2":0},"type":"Feature","geometry":{"type":"Point","coordinates":[-0.8,51.8333333]}},{"properties":{"city":"Northampton","postal_code":"nn67ru","geo_score":0.857,"gold":0,"jsg":0,"toning":1,"user_id":"0a7cb374-f7b9-11df-88fb-123139181c25","id":"a7vwwgho9bh8","geo_precision":"zip","zumbatomic":0,"sentao":0,"aqua":0,"zumba basic 2":0},"type":"Feature","geometry":{"type":"Point","coordinates":[-1.10988,51.28062]}},{"properties":{"city":"Leicestershire","postal_code":"le38fj","geo_score":0.857,"gold":0,"jsg":0,"toning":1,"user_id":"0a9c9c98-f7b9-11df-88fb-123139181c25","id":"a7vwwgpgjvt7","geo_precision":"zip","zumbatomic":1,"sentao":0,"aqua":0,"zumba basic 2":1},"type":"Feature","geometry":{"type":"Point","coordinates":[-1.1348,52.62782]}},{"properties":{"city":"Hemel Hempstead","postal_code":"HP13LZ","geo_score":0.857,"gold":1,"jsg":0,"toning":1,"user_id":"0a9cc402-f7b9-11df-88fb-123139181c25","id":"a7vwwgf0dwx2","geo_precision":"zip","zumbatomic":1,"sentao":0,"aqua":0,"zumba basic 2":0},"type":"Feature","geometry":{"type":"Point","coordinates":[-0.4666667,51.75]}},{"properties":{"city":"Gosforth","postal_code":"ne35rh","geo_score":0.857,"gold":1,"jsg":0,"toning":1,"user_id":"0aa34278-f7b9-11df-88fb-123139181c25","id":"a7vwwgu08f4o","geo_precision":"zip","zumbatomic":1,"sentao":0,"aqua":1,"zumba basic 2":0},"type":"Feature","geometry":{"type":"Point","coordinates":[-1.61998,55.01132]}},{"properties":{"city":"Purley","postal_code":"CR85HT","geo_score":0.857,"gold":1,"jsg":0,"toning":1,"user_id":"0aaa818c-f7b9-11df-88fb-123139181c25","id":"a7vwwgrceavk","geo_precision":"zip","zumbatomic":1,"sentao":0,"aqua":1,"zumba basic 2":1},"type":"Feature","geometry":{"type":"Point","coordinates":[-0.1,51.3166667]}},{"properties":{"city":"Heanor","postal_code":"DE757LE","geo_score":0.857,"gold":1,"jsg":0,"toning":1,"user_id":"0ab8bda6-f7b9-11df-88fb-123139181c25","id":"a7vwwgphkkeh","geo_precision":"zip","zumbatomic":1,"sentao":1,"aqua":1,"zumba basic 2":1},"type":"Feature","geometry":{"type":"Point","coordinates":[-1.3,53.0]}},{"properties":{"city":"Cramlington","postal_code":"NE232GB","geo_score":0.857,"gold":1,"jsg":0,"toning":1,"user_id":"0ab8d188-f7b9-11df-88fb-123139181c25","id":"a7vwwgg4rc98","geo_precision":"zip","zumbatomic":1,"sentao":0,"aqua":0,"zumba basic 2":0},"type":"Feature","geometry":{"type":"Point","coordinates":[-3.1352778,51.6777778]}},{"properties":{"city":"Ayr","postal_code":"Ka71bj","geo_score":0.857,"gold":0,"jsg":0,"toning":1,"user_id":"0ac31c4c-f7b9-11df-88fb-123139181c25","id":"a7vwwgt4s7m3","geo_precision":"zip","zumbatomic":1,"sentao":0,"aqua":0,"zumba basic 2":1},"type":"Feature","geometry":{"type":"Point","coordinates":[-4.6166667,55.45]}},{"properties":{"city":"Hemel Hempstead","postal_code":"HP39AP","geo_score":0.857,"gold":0,"jsg":0,"toning":1,"user_id":"0ac3223c-f7b9-11df-88fb-123139181c25","id":"a7vwwh7teagi","geo_precision":"zip","zumbatomic":0,"sentao":0,"aqua":0,"zumba basic 2":0},"type":"Feature","geometry":{"type":"Point","coordinates":[-0.4666667,51.75]}},{"properties":{"city":"Berkhamsted","postal_code":"HP42DD","geo_score":0.857,"gold":0,"jsg":0,"toning":1,"user_id":"0ac3f766-f7b9-11df-88fb-123139181c25","id":"a7vwwh13a19t","geo_precision":"zip","zumbatomic":0,"sentao":0,"aqua":0,"zumba basic 2":0},"type":"Feature","geometry":{"type":"Point","coordinates":[-0.565280914306641,51.7604029969821]}},{"properties":{"city":"Glasgow","postal_code":"G605HH","geo_score":0.857,"gold":0,"jsg":0,"toning":1,"user_id":"0aca6e16-f7b9-11df-88fb-123139181c25","id":"a7vwwgyf0cyd","geo_precision":"zip","zumbatomic":1,"sentao":0,"aqua":0,"zumba basic 2":0},"type":"Feature","geometry":{"type":"Point","coordinates":[-4.25763130187988,55.8651497187961]}},{"properties":{"city":"Leicester","postal_code":"le55dp","geo_score":0.857,"gold":0,"jsg":0,"toning":1,"user_id":"0acacae6-f7b9-11df-88fb-123139181c25","id":"a7vwwh0acosd","geo_precision":"zip","zumbatomic":1,"sentao":0,"aqua":0,"zumba basic 2":0},"type":"Feature","geometry":{"type":"Point","coordinates":[-1.1348,52.62782]}},{"properties":{"city":"Loughton Essex","postal_code":"IG102QS","geo_score":0.857,"gold":0,"jsg":0,"toning":1,"user_id":"0ad199ca-f7b9-11df-88fb-123139181c25","id":"a7vwwgvdin1n","geo_precision":"zip","zumbatomic":1,"sentao":0,"aqua":0,"zumba basic 2":0},"type":"Feature","geometry":{"type":"Point","coordinates":[-4.2833333,50.6333333]}},{"properties":{"city":"Johnstone","postal_code":"PA59NX","geo_score":0.857,"gold":1,"jsg":0,"toning":1,"user_id":"0ad1a1e0-f7b9-11df-88fb-123139181c25","id":"a7vwwgvaazk4","geo_precision":"zip","zumbatomic":0,"sentao":0,"aqua":0,"zumba basic 2":1},"type":"Feature","geometry":{"type":"Point","coordinates":[-5.5333333,55.3666667]}},{"properties":{"city":"Preston","postal_code":"PR269BA","geo_score":0.857,"gold":1,"jsg":0,"toning":1,"user_id":"0ad1e484-f7b9-11df-88fb-123139181c25","id":"a7vwwh2235ij","geo_precision":"zip","zumbatomic":0,"sentao":1,"aqua":1,"zumba basic 2":1},"type":"Feature","geometry":{"type":"Point","coordinates":[-1.15853,52.18953]}},{"properties":{"city":"Bracknell","postal_code":"RG127WR","geo_score":0.0,"gold":1,"jsg":0,"toning":1,"user_id":"0ad1ed12-f7b9-11df-88fb-123139181c25","id":"a7vwwh5nwel3","geo_precision":"unmatched","zumbatomic":0,"sentao":0,"aqua":1,"zumba basic 2":0},"type":"Feature","geometry":null},{"properties":{"city":"Nottinghamshire","postal_code":"S804JH","geo_score":0.857,"gold":1,"jsg":0,"toning":1,"user_id":"0adfeac0-f7b9-11df-88fb-123139181c25","id":"a7vwwh52zsoo","geo_precision":"zip","zumbatomic":1,"sentao":0,"aqua":0,"zumba basic 2":1},"type":"Feature","geometry":{"type":"Point","coordinates":[-2.63543,53.44457]}},{"properties":{"city":"Bishops Stortford","postal_code":"CM235LS","geo_score":0.857,"gold":0,"jsg":0,"toning":1,"user_id":"0af18596-f7b9-11df-88fb-123139181c25","id":"a7vwwh09vzut","geo_precision":"zip","zumbatomic":1,"sentao":0,"aqua":1,"zumba basic 2":1},"type":"Feature","geometry":{"type":"Point","coordinates":[-2.5947222,51.3344444]}},{"properties":{"city":"London","postal_code":"NW95XY","geo_score":0.857,"gold":1,"jsg":0,"toning":1,"user_id":"0af19054-f7b9-11df-88fb-123139181c25","id":"a7vwwh98jon6","geo_precision":"zip","zumbatomic":0,"sentao":0,"aqua":0,"zumba basic 2":1},"type":"Feature","geometry":{"type":"Point","coordinates":[-2.8508333,51.7316667]}},{"properties":{"city":"Grimsby","postal_code":"DN418TG","geo_score":0.857,"gold":0,"jsg":0,"toning":1,"user_id":"0b065ee4-f7b9-11df-88fb-123139181c25","id":"a7vwwh6wqt0w","geo_precision":"zip","zumbatomic":1,"sentao":0,"aqua":0,"zumba basic 2":0},"type":"Feature","geometry":{"type":"Point","coordinates":[-0.05,53.5333333]}},{"properties":{"city":"Richmond Surrey London","postal_code":"SW147DJ","geo_score":0.857,"gold":0,"jsg":0,"toning":1,"user_id":"0b32c060-f7b9-11df-88fb-123139181c25","id":"a7vwwh1rxpjk","geo_precision":"zip","zumbatomic":1,"sentao":0,"aqua":0,"zumba basic 2":0},"type":"Feature","geometry":{"type":"Point","coordinates":[-2.8508333,51.7316667]}},{"properties":{"city":"Edinburgh","postal_code":"EH111GX","geo_score":0.857,"gold":0,"jsg":0,"toning":1,"user_id":"0b40f4a0-f7b9-11df-88fb-123139181c25","id":"a7vwwh95bewk","geo_precision":"zip","zumbatomic":0,"sentao":0,"aqua":0,"zumba basic 2":0},"type":"Feature","geometry":{"type":"Point","coordinates":[-3.3725,55.95]}},{"properties":{"city":"Edinburgh","postal_code":"EH66EA","geo_score":0.857,"gold":0,"jsg":0,"toning":1,"user_id":"0b40f7de-f7b9-11df-88fb-123139181c25","id":"a7vwwh79a60p","geo_precision":"zip","zumbatomic":1,"sentao":0,"aqua":0,"zumba basic 2":0},"type":"Feature","geometry":{"type":"Point","coordinates":[-3.3725,55.95]}},{"properties":{"city":"helensburgh/ alexandria","postal_code":"g825nl","geo_score":0.857,"gold":1,"jsg":0,"toning":1,"user_id":"0b480b78-f7b9-11df-88fb-123139181c25","id":"a7vwwgxgl6b0","geo_precision":"zip","zumbatomic":1,"sentao":0,"aqua":0,"zumba basic 2":0},"type":"Feature","geometry":{"type":"Point","coordinates":[-5.7333333,54.65]}},{"properties":{"city":"Tyne And Wear","postal_code":"NE258EN","geo_score":0.857,"gold":0,"jsg":0,"toning":1,"user_id":"0b4ee812-f7b9-11df-88fb-123139181c25","id":"a7vwwh9ppi4f","geo_precision":"zip","zumbatomic":0,"sentao":0,"aqua":0,"zumba basic 2":1},"type":"Feature","geometry":{"type":"Point","coordinates":[-0.1166667,52.3333333]}},{"properties":{"city":"Glasgow City","postal_code":"G156EU","geo_score":0.857,"gold":0,"jsg":0,"toning":1,"user_id":"0b76d08e-f7b9-11df-88fb-123139181c25","id":"a7vwwh70bnm3","geo_precision":"zip","zumbatomic":1,"sentao":0,"aqua":0,"zumba basic 2":0},"type":"Feature","geometry":{"type":"Point","coordinates":[-4.2052,55.8492]}},{"properties":{"city":"Southampton","postal_code":"SO171EU","geo_score":0.857,"gold":1,"jsg":0,"toning":1,"user_id":"0b76f6ae-f7b9-11df-88fb-123139181c25","id":"a7vwwh2rs3tt","geo_precision":"zip","zumbatomic":1,"sentao":0,"aqua":0,"zumba basic 2":0},"type":"Feature","geometry":{"type":"Point","coordinates":[-1.4,50.9]}},{"properties":{"city":"Derry","postal_code":"BT475SU","geo_score":0.857,"gold":0,"jsg":0,"toning":1,"user_id":"0b78a6b8-2a57-11e0-8b28-123139181c25","id":"a7vwwh933l9u","geo_precision":"zip","zumbatomic":0,"sentao":0,"aqua":0,"zumba basic 2":0},"type":"Feature","geometry":{"type":"Point","coordinates":[-3.2658333,51.7075]}},{"properties":{"city":"Edinburgh","postal_code":"0","geo_score":0.857,"gold":0,"jsg":0,"toning":1,"user_id":"0b7dc34e-f7b9-11df-88fb-123139181c25","id":"a7vwwgxbk6ej","geo_precision":"zip","zumbatomic":0,"sentao":0,"aqua":0,"zumba basic 2":1},"type":"Feature","geometry":{"type":"Point","coordinates":[-3.3725,55.95]}},{"properties":{"city":"Borough of Barnet","postal_code":"N32EE","geo_score":0.857,"gold":0,"jsg":0,"toning":1,"user_id":"0b7dc8c6-f7b9-11df-88fb-123139181c25","id":"a7vwwgxhscml","geo_precision":"zip","zumbatomic":0,"sentao":0,"aqua":1,"zumba basic 2":0},"type":"Feature","geometry":{"type":"Point","coordinates":[-0.2666667,51.55]}},{"properties":{"city":"Aberdare","postal_code":"Cf478YT","geo_score":0.857,"gold":1,"jsg":0,"toning":1,"user_id":"0b853af2-f7b9-11df-88fb-123139181c25","id":"a7vwwh1w2zyj","geo_precision":"zip","zumbatomic":0,"sentao":0,"aqua":0,"zumba basic 2":1},"type":"Feature","geometry":{"type":"Point","coordinates":[-3.2683333,51.5958333]}},{"properties":{"city":"duffield","postal_code":"de564ht","geo_score":0.857,"gold":0,"jsg":0,"toning":1,"user_id":"0b8f5d8e-f7b9-11df-88fb-123139181c25","id":"a7vwwh7oqynn","geo_precision":"zip","zumbatomic":0,"sentao":0,"aqua":0,"zumba basic 2":1},"type":"Feature","geometry":{"type":"Point","coordinates":[-2.34952926635742,57.2445546805863]}},{"properties":{"city":"stanford le hope","postal_code":"ss177ay","geo_score":0.857,"gold":0,"jsg":0,"toning":1,"user_id":"0b9659c2-f7b9-11df-88fb-123139181c25","id":"a7vwwh9zdmuv","geo_precision":"zip","zumbatomic":0,"sentao":0,"aqua":0,"zumba basic 2":1},"type":"Feature","geometry":{"type":"Point","coordinates":[-3.8833333,55.75]}},{"properties":{"city":"Willaston","postal_code":"CH641SS","geo_score":0.857,"gold":1,"jsg":0,"toning":1,"user_id":"0b9d5d1c-f7b9-11df-88fb-123139181c25","id":"a7vwwh56obs2","geo_precision":"zip","zumbatomic":1,"sentao":1,"aqua":0,"zumba basic 2":1},"type":"Feature","geometry":{"type":"Point","coordinates":[-2.75,52.55]}},{"properties":{"city":"Surrey","postal_code":"RH69XS","geo_score":0.857,"gold":0,"jsg":0,"toning":1,"user_id":"0bab6592-f7b9-11df-88fb-123139181c25","id":"a7vwwgwfkcb8","geo_precision":"zip","zumbatomic":1,"sentao":0,"aqua":0,"zumba basic 2":0},"type":"Feature","geometry":{"type":"Point","coordinates":[-4.2333333,58.3666667]}},{"properties":{"city":"Nottinghamshire","postal_code":"ng173ep","geo_score":0.857,"gold":0,"jsg":0,"toning":1,"user_id":"0babe6a2-f7b9-11df-88fb-123139181c25","id":"a7vwwh1emgfl","geo_precision":"zip","zumbatomic":0,"sentao":0,"aqua":0,"zumba basic 2":0},"type":"Feature","geometry":{"type":"Point","coordinates":[-2.63543,53.44457]}},{"properties":{"city":"Barking","postal_code":"wd64aq","geo_score":0.857,"gold":1,"jsg":0,"toning":1,"user_id":"0bb6286a-f7b9-11df-88fb-123139181c25","id":"a7vwwgzv3ila","geo_precision":"zip","zumbatomic":0,"sentao":0,"aqua":0,"zumba basic 2":0},"type":"Feature","geometry":{"type":"Point","coordinates":[0.0833333,51.5333333]}},{"properties":{"city":"Bishop's Stortford","postal_code":"CM235LS","geo_score":0.857,"gold":1,"jsg":0,"toning":1,"user_id":"0bbd88f8-f7b9-11df-88fb-123139181c25","id":"a7vwwhaeu25u","geo_precision":"zip","zumbatomic":1,"sentao":0,"aqua":0,"zumba basic 2":1},"type":"Feature","geometry":{"type":"Point","coordinates":[-2.5947222,51.3344444]}},{"properties":{"city":"Tunbridge Wells","postal_code":"TN49SS","geo_score":0.857,"gold":1,"jsg":0,"toning":1,"user_id":"0bc4390a-f7b9-11df-88fb-123139181c25","id":"a7vwwh8lvwvn","geo_precision":"zip","zumbatomic":1,"sentao":0,"aqua":0,"zumba basic 2":1},"type":"Feature","geometry":{"type":"Point","coordinates":[-1.54679775238037,51.0337029911135]}},{"properties":{"city":"Tunbridge Wells","postal_code":"TN40QX","geo_score":0.857,"gold":1,"jsg":0,"toning":1,"user_id":"0bc43c98-f7b9-11df-88fb-123139181c25","id":"a7vwwgytrtu7","geo_precision":"zip","zumbatomic":1,"sentao":0,"aqua":0,"zumba basic 2":1},"type":"Feature","geometry":{"type":"Point","coordinates":[-1.54679775238037,51.0337029911135]}},{"properties":{"city":"BEDFORD BEDFORDSHIRE","postal_code":"MK428JE","geo_score":0.857,"gold":1,"jsg":0,"toning":1,"user_id":"0bd1bd78-f7b9-11df-88fb-123139181c25","id":"a7vwwgus0ega","geo_precision":"zip","zumbatomic":0,"sentao":0,"aqua":0,"zumba basic 2":0},"type":"Feature","geometry":{"type":"Point","coordinates":[-4.2166667,51.0166667]}},{"properties":{"city":"London","postal_code":"WD231FG","geo_score":0.857,"gold":0,"jsg":0,"toning":1,"user_id":"0bfc6bea-f7b9-11df-88fb-123139181c25","id":"a7vwwh5hbcl5","geo_precision":"zip","zumbatomic":0,"sentao":0,"aqua":0,"zumba basic 2":0},"type":"Feature","geometry":{"type":"Point","coordinates":[-2.8508333,51.7316667]}},{"properties":{"city":"Wiltshire","postal_code":"sn126ag","geo_score":0.857,"gold":0,"jsg":0,"toning":1,"user_id":"0c3c0f0c-f7b9-11df-88fb-123139181c25","id":"a7vwwh1izbfy","geo_precision":"zip","zumbatomic":0,"sentao":0,"aqua":0,"zumba basic 2":1},"type":"Feature","geometry":{"type":"Point","coordinates":[-2.20668,51.27684]}},{"properties":{"city":"Bognor Regis","postal_code":"PO213NR","geo_score":0.0,"gold":1,"jsg":0,"toning":1,"user_id":"0c4800c8-f7b9-11df-88fb-123139181c25","id":"a7vwwgyvsm2x","geo_precision":"unmatched","zumbatomic":1,"sentao":0,"aqua":0,"zumba basic 2":0},"type":"Feature","geometry":null},{"properties":{"city":"North London","postal_code":"N111DR","geo_score":0.857,"gold":0,"jsg":0,"toning":1,"user_id":"0c52c5bc-f7b9-11df-88fb-123139181c25","id":"a7vwwh7vp0dz","geo_precision":"zip","zumbatomic":1,"sentao":0,"aqua":0,"zumba basic 2":0},"type":"Feature","geometry":{"type":"Point","coordinates":[-2.8508333,51.7316667]}},{"properties":{"city":"London Borough of Enfield","postal_code":"EN34NY","geo_score":0.857,"gold":0,"jsg":0,"toning":1,"user_id":"0c52d304-f7b9-11df-88fb-123139181c25","id":"a7vwwgwsk6fi","geo_precision":"zip","zumbatomic":0,"sentao":0,"aqua":0,"zumba basic 2":0},"type":"Feature","geometry":{"type":"Point","coordinates":[-2.8508333,51.7316667]}},{"properties":{"city":"Woking Surrey","postal_code":"Gu227AT","geo_score":0.857,"gold":0,"jsg":0,"toning":1,"user_id":"0c61aa96-f7b9-11df-88fb-123139181c25","id":"a7vwwhazf9t4","geo_precision":"zip","zumbatomic":1,"sentao":0,"aqua":0,"zumba basic 2":1},"type":"Feature","geometry":{"type":"Point","coordinates":[-4.2333333,58.3666667]}},{"properties":{"city":"london","postal_code":"ub40bx","geo_score":0.857,"gold":0,"jsg":0,"toning":1,"user_id":"0c68c998-f7b9-11df-88fb-123139181c25","id":"a7vwwh3nuc00","geo_precision":"zip","zumbatomic":1,"sentao":0,"aqua":0,"zumba basic 2":0},"type":"Feature","geometry":{"type":"Point","coordinates":[-2.8508333,51.7316667]}},{"properties":{"city":"Chester","postal_code":"CH21DY","geo_score":0.857,"gold":0,"jsg":0,"toning":1,"user_id":"0c7e907a-f7b9-11df-88fb-123139181c25","id":"a7vwwh20w0gy","geo_precision":"zip","zumbatomic":0,"sentao":0,"aqua":0,"zumba basic 2":0},"type":"Feature","geometry":{"type":"Point","coordinates":[-2.9166667,53.2]}},{"properties":{"city":"Chester","postal_code":"CH35RX","geo_score":0.857,"gold":0,"jsg":0,"toning":1,"user_id":"0c7e93ae-f7b9-11df-88fb-123139181c25","id":"a7vwwh7hegwv","geo_precision":"zip","zumbatomic":0,"sentao":0,"aqua":0,"zumba basic 2":1},"type":"Feature","geometry":{"type":"Point","coordinates":[-2.9166667,53.2]}},{"properties":{"city":"marske by sea","postal_code":"ts117aq","geo_score":0.857,"gold":0,"jsg":0,"toning":1,"user_id":"0c7e96e2-f7b9-11df-88fb-123139181c25","id":"a7vwwh4fmxw1","geo_precision":"zip","zumbatomic":1,"sentao":0,"aqua":0,"zumba basic 2":0},"type":"Feature","geometry":{"type":"Point","coordinates":[-1.0175,54.5927778]}},{"properties":{"city":"Stockton on Tees","postal_code":"TS190QN","geo_score":0.857,"gold":0,"jsg":0,"toning":1,"user_id":"0c7e9a0c-f7b9-11df-88fb-123139181c25","id":"a7vwwh6kn47l","geo_precision":"zip","zumbatomic":1,"sentao":0,"aqua":0,"zumba basic 2":1},"type":"Feature","geometry":{"type":"Point","coordinates":[-0.833415985107422,50.8814849772624]}},{"properties":{"city":"Edinburgh","postal_code":"EH53LB","geo_score":0.857,"gold":0,"jsg":0,"toning":1,"user_id":"0c7eb5aa-f7b9-11df-88fb-123139181c25","id":"a7vwwh5mfiqo","geo_precision":"zip","zumbatomic":0,"sentao":0,"aqua":0,"zumba basic 2":0},"type":"Feature","geometry":{"type":"Point","coordinates":[-3.3725,55.95]}},{"properties":{"city":"Torquay Devon","postal_code":"TQ27RD","geo_score":0.857,"gold":0,"jsg":0,"toning":1,"user_id":"0c7f0a00-f7b9-11df-88fb-123139181c25","id":"a7vwwh02ibxp","geo_precision":"zip","zumbatomic":0,"sentao":0,"aqua":0,"zumba basic 2":0},"type":"Feature","geometry":{"type":"Point","coordinates":[-5.1833333,55.5]}},{"properties":{"city":"Little Lever Bolton","postal_code":"BL31TF","geo_score":0.857,"gold":0,"jsg":0,"toning":1,"user_id":"0c93ea34-060e-11e0-8b28-123139181c25","id":"a7vwwh0vak6a","geo_precision":"zip","zumbatomic":0,"sentao":0,"aqua":0,"zumba basic 2":1},"type":"Feature","geometry":{"type":"Point","coordinates":[-3.36243,55.7625]}}],"is_temporal":false,"author":{"url":"","metadata":"","contact_name":"","contact_address":"","source":"","contact_phone":""},"source":"","pagination":{"sort":null,"start":0,"total":176,"limit":1000000},"state":"complete","tags":"","published":"2014-08-15T01:57:17-04:00","id":268322}