{"type":"FeatureCollection","data_type":"Dataset Analysis","url_type":null,"permissions":[{"permissions":{"download":true,"view":true},"group_id":48121},{"permissions":{"download":true,"view":true},"group_id":"everyone"}],"classification":null,"title":"Filtered Features of 'Backsack Sites' based on 'Peg Grant - CNS Wholesale'","count":97,"stream_id":269556,"contributor":{"url":"http://geocommons.com/users/32393","name":"eoliver88"},"data_attributes":null,"calculation_params":[{"calculation":"buffer_intersect","input":{"ds1":"248516","min_distance":"0","ds2":"269546","unit":"miles","include_distance":"1","distance":"20"}}],"icon_link":null,"link":"http://geocommons.com/overlays/269556.json","extent":[-86.2889,39.4861,-85.7463,40.024],"geometry_types":["point"],"unique_name":null,"name":"Filtered Features of 'Backsack Sites' based on 'Peg Grant - CNS Wholesale'","feature_count":97,"description":"Dataset created by filtering features of 'Backsack Sites' that are within a buffer of 0 to 20 miles around the features in 'Peg Grant - CNS Wholesale'","next_feature":null,"is_raster":false,"short_classification":"Y","stats":{"geo_score":{"max":1.0,"variance":0.0137675567010309,"mean":0.885670103092783,"stdev":0.11733523213865,"min":0.452,"median":0.919},"total":{"max":156,"variance":778.492972972973,"mean":52.44,"stdev":27.9014869312188,"min":1,"median":50},"distance":{"max":19.9889873859871,"variance":30.9514123649582,"mean":10.2384315148326,"stdev":5.56339935335926,"min":1.09394120321561,"median":9.21517641290957}},"features":[{"properties":{"city":"Franklin","name":"Webb Elementary","zip":"46131","column_11":null,"county":"Johnson","geo_score":0.922,"total":25,"phone":"346-8290","id":"a67g55ggaf7k","geo_precision":"range","coordinator":"Angie Clendening","address":"1400 Webb Court","email":"clendeningan@franklinschools.org","state":"IN","distance":19.6314038640238},"type":"Feature","geometry":{"type":"Point","coordinates":[-86.03419,39.486149]}},{"properties":{"city":"Franklin","name":"Northwood Elementary (Johnson County)","zip":"46131","column_11":"Northwood Elementary","county":"Johnson","geo_score":0.922,"total":84,"phone":"346-8900","id":"a67g55mo97b5","geo_precision":"range","coordinator":"Amanda Martin","address":"965 Grizzly Cub Drive","email":"martina@franklinschools.org","state":"IN","distance":19.5696005900423},"type":"Feature","geometry":{"type":"Point","coordinates":[-86.063884,39.489974]}},{"properties":{"city":"Franklin","name":"Needham Elementary","zip":"46131","column_11":"Needham","county":"Johnson","geo_score":0.922,"total":70,"phone":"738-5780","id":"a67g55hqktov","geo_precision":"range","coordinator":"Stephanie Deeter","address":"1399 Upper Shelbyville Road","email":"deeters@franklinschools.org","state":"IN","distance":19.3497967772818},"type":"Feature","geometry":{"type":"Point","coordinates":[-86.037148,39.490543]}},{"properties":{"city":"New Whiteland","name":"Break-O-Day Elementary","zip":"46184","column_11":null,"county":"Johnson","geo_score":0.971,"total":null,"phone":null,"id":"a67g55j1y896","geo_precision":"range","coordinator":null,"address":"900 Sawmill Road","email":null,"state":"IN","distance":17.1083386044827},"type":"Feature","geometry":{"type":"Point","coordinates":[-86.101469,39.535039]}},{"properties":{"city":"Shelbyville","name":"T A Hendricks Elementary","zip":"46176","column_11":"TA Hendricks","county":"Shelby","geo_score":0.452,"total":64,"phone":"398-7432 x6004","id":"a67g55e1j8s0","geo_precision":"street","coordinator":"Julie Rosier","address":"1111 Saint Joseph Street","email":"jmrosier@shelbycs.k12.in.us","state":"IN","distance":16.7865828481028},"type":"Feature","geometry":{"type":"Point","coordinates":[-86.09483,39.5379]}},{"properties":{"city":"New Whiteland","name":"Sawmill Woods Elementary","zip":"46184","column_11":null,"county":"Johnson","geo_score":0.849,"total":null,"phone":null,"id":"a67g55gj75x5","geo_precision":"range","coordinator":null,"address":"700 Sawmill Road","email":null,"state":"IN","distance":15.5841786792793},"type":"Feature","geometry":{"type":"Point","coordinates":[-86.101698,39.558201]}},{"properties":{"city":"Fairland","name":"Triton Central Elementary","zip":"46126","column_11":"Triton","county":"Shelby","geo_score":0.912,"total":32,"phone":"835-3005","id":"a67g55d3vw68","geo_precision":"range","coordinator":"Tiffanie Tupper","address":"4976 West 600 North","email":"ttupper@nwshelby.k12.in.us","state":"IN","distance":15.2829273209922},"type":"Feature","geometry":{"type":"Point","coordinates":[-85.873607,39.610391]}},{"properties":{"city":"Camby","name":"North Madison Elementary","zip":"46113","column_11":"Mt. Gilead","county":"Morgan","geo_score":0.902,"total":40,"phone":"831-9214","id":"a67g55fsrehk","geo_precision":"range","coordinator":"Karalee Stinson","address":"7456 East Hadley Road","email":"karalee.stinson@mooresvilleschools.org","state":"IN","distance":19.9673324897291},"type":"Feature","geometry":{"type":"Point","coordinates":[-86.268121,39.611327]}},{"properties":{"city":"Greenwood","name":"Northeast Elementary School","zip":"46143","column_11":"Northeast Elementary","county":"Johnson","geo_score":1.0,"total":20,"phone":"889-4080","id":"a67g55smff2u","geo_precision":"range","coordinator":"Lindsey Fitzsimmons","address":"99 Crestview Drive","email":"lfitzsimmons@gws.k12.in.us","state":"IN","distance":11.0902949012278},"type":"Feature","geometry":{"type":"Point","coordinates":[-86.09898,39.628109]}},{"properties":{"city":"Indianapolis","name":"Winchester Village","zip":"46227","column_11":"Winchester Village","county":"Marion","geo_score":0.92,"total":88,"phone":"789-2712","id":"a67g55qbwq5h","geo_precision":"range","coordinator":"Natalie Bohannon","address":"1900 East Stop 12 Road","email":"nbohannon@msdpt.k12.in.us","state":"IN","distance":11.1964908161262},"type":"Feature","geometry":{"type":"Point","coordinates":[-86.125252,39.643029]}},{"properties":{"city":"West Newton","name":"West Newton Elementary","zip":"46183","column_11":"West Newton","county":"Marion","geo_score":1.0,"total":57,"phone":"317-856-5237 ext. 1123","id":"a67g55eteco3","geo_precision":"range","coordinator":"Kathy Leising","address":"7529 Mooresville Road","email":"kleising@msddecatur.k12.in.us","state":"IN","distance":19.4801791568419},"type":"Feature","geometry":{"type":"Point","coordinates":[-86.282302,39.652841]}},{"properties":{"city":"Southport","name":"Southport Elementary","zip":"46227","column_11":"Southport Elementary","county":"Marion","geo_score":0.893,"total":67,"phone":"789-3300","id":"a67g55qn3kzf","geo_precision":"range","coordinator":"Shevaughn Loney","address":"261 East Anniston Drive","email":"sloney@perryschools.org","state":"IN","distance":9.94730125523678},"type":"Feature","geometry":{"type":"Point","coordinates":[-86.117243,39.659886]}},{"properties":{"city":"Indianapolis","name":"Decatur Elementary Learning Center Gold Academy","zip":"46221","column_11":"Decatur Elementary","county":"Marion","geo_score":0.878,"total":43,"phone":"856-4100 x8206","id":"a67g55nyi70f","geo_precision":"range","coordinator":"Aby Wischmeier","address":"5650 Mann Road","email":"awischmeier@msddecatur.k12.in.us","state":"IN","distance":16.3122766006337},"type":"Feature","geometry":{"type":"Point","coordinates":[-86.245513,39.682886]}},{"properties":{"city":"Indianapolis","name":"Decatur Elementary - Blue Academy","zip":"46221","column_11":"Decatur Elementary","county":"Marion","geo_score":0.878,"total":52,"phone":"856-0400 x8106","id":"a67g55lq40ri","geo_precision":"range","coordinator":"Amber Gerke","address":"5650 Mann Road","email":"agerke@msddecatur.k12.in.us","state":"IN","distance":16.3122766006337},"type":"Feature","geometry":{"type":"Point","coordinates":[-86.245513,39.682886]}},{"properties":{"city":"Indianapolis","name":"Clinton Young Elementary","zip":"46227","column_11":"Clinton Young","county":"Marion","geo_score":0.92,"total":42,"phone":"317-789-3400","id":"a67g55eur3hb","geo_precision":"range","coordinator":"Jennifer Sheets","address":"5740 McFarland Road","email":"jsheets@msdpt.k12.in.us","state":"IN","distance":8.43608784301706},"type":"Feature","geometry":{"type":"Point","coordinates":[-86.111027,39.683129]}},{"properties":{"city":"Indianapolis","name":"Vally Mills Elementary School","zip":"46221","column_11":"Vally Mills","county":"Marion","geo_score":1.0,"total":60,"phone":"317-840-9498","id":"a67g55jjef6p","geo_precision":"range","coordinator":"Sandra hall","address":"5101 South High School Road","email":"shall@msddecatur.k12.in.us","state":"IN","distance":17.7477750134331},"type":"Feature","geometry":{"type":"Point","coordinates":[-86.269372,39.689841]}},{"properties":{"city":"Indianapolis","name":"Abraham Lincoln Elementary","zip":"46236","column_11":null,"county":"Marion","geo_score":0.805,"total":null,"phone":null,"id":"a67g55i1no7c","geo_precision":"range","coordinator":null,"address":"5241 Brehob Road","email":null,"state":"IN","distance":11.221363652814},"type":"Feature","geometry":{"type":"Point","coordinates":[-86.166348,39.68992]}},{"properties":{"city":"Beech Grove","name":"South Grove Intermediate School","zip":"46107","column_11":null,"county":"Marion","geo_score":0.916,"total":null,"phone":null,"id":"a67g55g6apir","geo_precision":"range","coordinator":null,"address":"851 South 9th Ave.","email":null,"state":"IN","distance":6.36572808647335},"type":"Feature","geometry":{"type":"Point","coordinates":[-86.092016,39.706832]}},{"properties":{"city":"Indianapolis","name":"IPS #65 Raymond F. Brandes","zip":"46227","column_11":null,"county":"Marion","geo_score":0.887,"total":null,"phone":null,"id":"a67g55nehz07","geo_precision":"range","coordinator":null,"address":"4065 South Asbury St.","email":null,"state":"IN","distance":8.34179564591245},"type":"Feature","geometry":{"type":"Point","coordinates":[-86.12827,39.707247]}},{"properties":{"city":"Beech Grove","name":"Hornet Park Elementary","zip":"46107","column_11":null,"county":"Marion","geo_score":1.0,"total":null,"phone":null,"id":"a67g55gag2pr","geo_precision":"range","coordinator":null,"address":"5249 Hornet Avenue","email":null,"state":"IN","distance":5.48412143056341},"type":"Feature","geometry":{"type":"Point","coordinates":[-86.077847,39.711266]}},{"properties":{"city":"Indianapolis","name":"Stephen Decatur","zip":"46221","column_11":"Stephen Decatur","county":"Marion","geo_score":0.963,"total":50,"phone":"317-241-0183 x 2405","id":"a67g55rzs06c","geo_precision":"range","coordinator":"Cathy Smith","address":"3425 South Foltz Street","email":"csmith@msddecatur.k12.in.us","state":"IN","distance":14.6814389633686},"type":"Feature","geometry":{"type":"Point","coordinates":[-86.229742,39.71235]}},{"properties":{"city":"Indianapolis","name":"Liberty Early Elementary","zip":"46241","column_11":"Liberty Early Elementary","county":"Marion","geo_score":0.911,"total":47,"phone":"317-243-7559","id":"a67g55r2dnwd","geo_precision":"range","coordinator":"Beth Buchanan","address":"4640 Santa Fe Drive","email":"bbuchanan@msddecatur.k12.in.us","state":"IN","distance":15.5504985487144},"type":"Feature","geometry":{"type":"Point","coordinates":[-86.243497,39.714288]}},{"properties":{"city":"Beech Grove","name":"Central Elementary (Beech Grove)","zip":"46107","column_11":"Central Elementary","county":"Marion","geo_score":1.0,"total":40,"phone":"317-784-4565","id":"a67g55s5c4zf","geo_precision":"range","coordinator":"Craig Buckler","address":"100 Main Street","email":"cbuckler@bgcs.k12.in.us","state":"IN","distance":5.20354801810414},"type":"Feature","geometry":{"type":"Point","coordinates":[-86.082484,39.721778]}},{"properties":{"city":"Indianapolis","name":"Christel House Academy","zip":"46225","column_11":"Christel House Academy","county":"Marion","geo_score":0.875,"total":60,"phone":"783-4690 x1127","id":"a67g55feht7u","geo_precision":"range","coordinator":"Jen Brown","address":"2717 South East Street","email":"jbrown@chacademy.org","state":"IN","distance":9.05905902925343},"type":"Feature","geometry":{"type":"Point","coordinates":[-86.149228,39.727747]}},{"properties":{"city":"Indianapolis","name":"Stout Field Elementary","zip":"46241","column_11":"Stout Field","county":"Marion","geo_score":0.911,"total":88,"phone":"988-6882","id":"a67g55r2ka5g","geo_precision":"range","coordinator":"Casey Foust","address":"3820 West Bradbury Avenue","email":"casey.foust@wayne.k12.in.us","state":"IN","distance":14.0519788336543},"type":"Feature","geometry":{"type":"Point","coordinates":[-86.225776,39.731572]}},{"properties":{"city":"Indianapolis","name":"IPS # 114 Paul I Miller","zip":"46203","column_11":"IPS 114","county":"Marion","geo_score":1.0,"total":88,"phone":"226-4114","id":"a67g55hhry4n","geo_precision":"range","coordinator":"Kate Voss","address":"2251 Sloan Avenue","email":"vossk2@ips.k12.in.us","state":"IN","distance":4.87516423083896},"type":"Feature","geometry":{"type":"Point","coordinates":[-86.087467,39.737532]}},{"properties":{"city":"Indianapolis","name":"Liberty Park Elementary","zip":"46239","column_11":null,"county":"Marion","geo_score":0.927,"total":39,"phone":"532-1854","id":"a67g55r3n84c","geo_precision":"range","coordinator":"Kim Ferguson","address":"8425 East Raymond St.","email":"kferguso@warren.k12.in.us","state":"IN","distance":2.20057726545749},"type":"Feature","geometry":{"type":"Point","coordinates":[-86.019487,39.740135]}},{"properties":{"city":"Indianapolis","name":"Raymond Park Intermediate Academy","zip":"46239","column_11":null,"county":"Marion","geo_score":0.927,"total":63,"phone":"532-8965","id":"a67g55gpsx5o","geo_precision":"range","coordinator":"Chad Reedy","address":"8575 East Raymond St.","email":"creedy@warren.k12.in.us","state":"IN","distance":2.26095487373676},"type":"Feature","geometry":{"type":"Point","coordinates":[-86.016445,39.740143]}},{"properties":{"city":"Indianapolis","name":"Lowell Elementary","zip":"46239","column_11":null,"county":"Marion","geo_score":0.894,"total":56,"phone":"832-3902","id":"a67g55n9kje5","geo_precision":"range","coordinator":"Kimberly Griffen","address":"2150 Hunter Rd.","email":"kgriffin@warren.k12.in.us","state":"IN","distance":2.70296600388287},"type":"Feature","geometry":{"type":"Point","coordinates":[-86.049548,39.740205]}},{"properties":{"city":"Indianapolis","name":"Maplewood Elementary (marion)","zip":"46241","column_11":null,"county":"Marion","geo_score":0.911,"total":140,"phone":"988-6680","id":"a67g55l86o6a","geo_precision":"range","coordinator":"Moira Clark","address":"1643 Dunlap Ave.","email":"moira.clark@wayne.k12.in.us","state":"IN","distance":15.2761293409321},"type":"Feature","geometry":{"type":"Point","coordinates":[-86.244775,39.743397]}},{"properties":{"city":"Indianapolis","name":"IPS #31 James A. Garfield","zip":"46225","column_11":null,"county":"Marion","geo_score":1.0,"total":null,"phone":null,"id":"a67g55sr79o6","geo_precision":"range","coordinator":null,"address":"307 Lincoln St.","email":null,"state":"IN","distance":9.00445130470412},"type":"Feature","geometry":{"type":"Point","coordinates":[-86.153614,39.745524]}},{"properties":{"city":"Indianapolis","name":"Sense Charter School","zip":"46203","column_11":"Sense Charter School","county":"Marion","geo_score":0.967,"total":48,"phone":"776-8270","id":"a67g55fa5509","geo_precision":"range","coordinator":"Jamie Fahrner","address":"1601 South Barth Avenue","email":"jpierce@senseindy.org","state":"IN","distance":8.15264281999706},"type":"Feature","geometry":{"type":"Point","coordinates":[-86.141115,39.746274]}},{"properties":{"city":"Indianapolis","name":"IPS #46 Daniel Webster","zip":"46221","column_11":"IPS # 46","county":"Marion","geo_score":1.0,"total":65,"phone":"226-4246","id":"a67g55mhpsnf","geo_precision":"range","coordinator":"Barbara Woods","address":"1450 South Reisner Street","email":"woodsbj@ips.k12.in.us","state":"IN","distance":11.4645550482484},"type":"Feature","geometry":{"type":"Point","coordinates":[-86.189561,39.746604]}},{"properties":{"city":"Indianapolis","name":"Grassy Creek Elementary School","zip":"46239","column_11":null,"county":"Marion","geo_score":0.927,"total":36,"phone":"532-3100","id":"a67g55p4on0d","geo_precision":"range","coordinator":"My Hardin","address":"10330 East Prospect St.","email":"mhardin@warren.k12.in.us","state":"IN","distance":3.21475117674211},"type":"Feature","geometry":{"type":"Point","coordinates":[-85.983466,39.755224]}},{"properties":{"city":"Indianapolis","name":"Creston Intermediate Academy","zip":"46239","column_11":null,"county":"Marion","geo_score":0.927,"total":60,"phone":"317-869-1318","id":"a67g55jfzevf","geo_precision":"range","coordinator":"Bakari Posey","address":"10925 East Prospect St.","email":"bposey@warren.k12.in.us","state":"IN","distance":3.94590610124746},"type":"Feature","geometry":{"type":"Point","coordinates":[-85.972354,39.755337]}},{"properties":{"city":"Indianapolis","name":"IPS # 39 William McKinely Elementary","zip":"46203","column_11":"IPS # 39","county":"Marion","geo_score":1.0,"total":58,"phone":"317-226-4239","id":"a67g55o4mrtd","geo_precision":"range","coordinator":"Virginia Sutherlin","address":"1733 Spann Avenue","email":"sutherlv@ips.k12.in.us","state":"IN","distance":7.32116014480151},"type":"Feature","geometry":{"type":"Point","coordinates":[-86.1304,39.758819]}},{"properties":{"city":"Indianapolis","name":"Rhoades Elementary","zip":"46241","column_11":"Rhoades Elementary","county":"Marion","geo_score":0.911,"total":100,"phone":"988-6782","id":"a67g55s1zv68","geo_precision":"range","coordinator":"Rae Quarles","address":"502 South Auburn Street","email":"rae.quarles@wayne.k12.in.us","state":"IN","distance":15.1094651891709},"type":"Feature","geometry":{"type":"Point","coordinates":[-86.243895,39.759115]}},{"properties":{"city":"Indianapolis","name":"Hawthorne Elementary School","zip":"46219","column_11":null,"county":"Marion","geo_score":0.727,"total":45,"phone":"532-3955","id":"a67g55n9bksb","geo_precision":"street","coordinator":"Pat Patterson","address":"8301 East Rawles Ave.","email":"ppatters@warren.k12.in.us","state":"IN","distance":2.76057465983247},"type":"Feature","geometry":{"type":"Point","coordinates":[-86.063977,39.761297]}},{"properties":{"city":"Indianapolis","name":"Garden City Elementary","zip":"46224","column_11":"Garden City","county":"Marion","geo_score":0.919,"total":156,"phone":"317-988-8367","id":"a67g55q4l32x","geo_precision":"range","coordinator":"Teresa Barth","address":"4901 Rockville Road","email":"Teresa.Barth@wayne.k12.in.us","state":"IN","distance":15.0601878877602},"type":"Feature","geometry":{"type":"Point","coordinates":[-86.243738,39.76481]}},{"properties":{"city":"Indianapolis","name":"IPS  #14 Washington Irving Elementary","zip":"46202","column_11":"IPS 14","county":"Marion","geo_score":1.0,"total":116,"phone":"226-4049","id":"a67g55fdlzwn","geo_precision":"range","coordinator":"Josette Jackson","address":"1250 East Market Street","email":"jjackson@jhbcc.org","state":"IN","distance":7.73962180243394},"type":"Feature","geometry":{"type":"Point","coordinates":[-86.137408,39.768074]}},{"properties":{"city":"Indianapolis","name":"Holy Cross Central Elementary","zip":"46202","column_11":null,"county":"Marion","geo_score":1.0,"total":null,"phone":null,"id":"a67g55hkh2mj","geo_precision":"range","coordinator":null,"address":"125 North Oriental St.","email":null,"state":"IN","distance":7.59010562454179},"type":"Feature","geometry":{"type":"Point","coordinates":[-86.135317,39.76896]}},{"properties":{"city":"Indianapolis","name":"Shepherd Community School","zip":"46201","column_11":null,"county":"Marion","geo_score":0.919,"total":null,"phone":null,"id":"a67g55f51sib","geo_precision":"range","coordinator":null,"address":"4107 East Washington St.","email":null,"state":"IN","distance":4.98166111901364},"type":"Feature","geometry":{"type":"Point","coordinates":[-86.097363,39.769445]}},{"properties":{"city":"Indianapolis","name":"Padua Academy","zip":"46222","column_11":"Padua","county":"Marion","geo_score":0.911,"total":36,"phone":"636-3739","id":"a67g55gl0e19","geo_precision":"range","coordinator":"Debbie Winstone","address":"349 North Warman Avenue","email":"dwinstone@paduaacademyindy.org","state":"IN","distance":12.4828431626572},"type":"Feature","geometry":{"type":"Point","coordinates":[-86.206556,39.771403]}},{"properties":{"city":"Indianapolis","name":"IPS #58 Ralph Waldo Emerson Elementary","zip":"46201","column_11":"PICK UP","county":"Marion","geo_score":0.919,"total":40,"phone":"226-4258 x234","id":"a67g55mqt7tp","geo_precision":"range","coordinator":"Gail Fox","address":"321 North Linwood Avenue","email":"foxgl@ips.k12.in.us","state":"IN","distance":4.66749269925807},"type":"Feature","geometry":{"type":"Point","coordinates":[-86.092594,39.77244]}},{"properties":{"city":"Indianapolis","name":"Chapelwood Elementary","zip":"46214","column_11":"Chaplewood Elementary","county":"Marion","geo_score":1.0,"total":104,"phone":"317-988-6400","id":"a67g55htww88","geo_precision":"range","coordinator":"Michelle Stohler","address":"1129 North Girls School Road","email":"michelle.stohler@wayne.k12.in.us","state":"IN","distance":18.1961747927456},"type":"Feature","geometry":{"type":"Point","coordinates":[-86.288877,39.780694]}},{"properties":{"city":"Indianapolis","name":"IPS# 54 Brookside Elementary","zip":"46201","column_11":"IPS 54","county":"Marion","geo_score":0.835,"total":64,"phone":"226-4254","id":"a67g55s57gzc","geo_precision":"range","coordinator":"Sheila Richardson","address":"3150 East 10th Street","email":"srichardson@jhbcc.org","state":"IN","distance":6.02813398524983},"type":"Feature","geometry":{"type":"Point","coordinates":[-86.111538,39.781363]}},{"properties":{"city":"Indianapolis","name":"Moorhead School","zip":"46219","column_11":null,"county":"Marion","geo_score":0.838,"total":null,"phone":null,"id":"a67g55r0itcn","geo_precision":"range","coordinator":null,"address":"8400 East 10th St.","email":null,"state":"IN","distance":1.09394120321561},"type":"Feature","geometry":{"type":"Point","coordinates":[-86.018036,39.781946]}},{"properties":{"city":"Indianapolis","name":"Eastridge Elementary","zip":"46229","column_11":null,"county":"Marion","geo_score":0.843,"total":48,"phone":"532-3152","id":"a67g55p8s55x","geo_precision":"range","coordinator":"Debbie Fersch","address":"10930 East 10th St.","email":"dfersch@warren.k12.in.us","state":"IN","distance":3.78424243071462},"type":"Feature","geometry":{"type":"Point","coordinates":[-85.974163,39.782488]}},{"properties":{"city":"Indianapolis","name":"IPS #88 Anna Brochhausen","zip":"46218","column_11":null,"county":"Marion","geo_score":0.624,"total":null,"phone":null,"id":"a67g55mz80zu","geo_precision":"street","coordinator":null,"address":"5801 East 11th St.","email":null,"state":"IN","distance":3.18850731168044},"type":"Feature","geometry":{"type":"Point","coordinates":[-86.06901,39.783421]}},{"properties":{"city":"Indianapolis","name":"IPS #63 Wendell Phillips Elementary","zip":"46222","column_11":null,"county":"Marion","geo_score":0.911,"total":null,"phone":null,"id":"a67g55j0g50m","geo_precision":"range","coordinator":null,"address":"1163 North Belmont Ave.","email":null,"state":"IN","distance":11.901622000306},"type":"Feature","geometry":{"type":"Point","coordinates":[-86.196798,39.784504]}},{"properties":{"city":"Greenfield","name":"Weston Elementary","zip":"46140","column_11":"Hancock County Food Pantry","county":"Hancock","geo_score":0.824,"total":24,"phone":"462-1492","id":"a67g55dy1s64","geo_precision":"range","coordinator":"Stephen F. Burt","address":"140 Polk Road","email":"sburt@gcsc.k12.in.us","state":"IN","distance":16.6397971510933},"type":"Feature","geometry":{"type":"Point","coordinates":[-85.786924,39.787238]}},{"properties":{"city":"Indianapolis","name":"Warren Early Childhood Center","zip":"46229","column_11":null,"county":"Marion","geo_score":0.927,"total":6,"phone":"869-4754","id":"a67g55dmh947","geo_precision":"range","coordinator":"LeeAnn Kwiatkowski","address":"1401 North Mitthoeffer Rd.","email":"lkwiatko@warren.k12.in.us","state":"IN","distance":2.8513053460465},"type":"Feature","geometry":{"type":"Point","coordinates":[-85.990329,39.787516]}},{"properties":{"city":"Indianapolis","name":"IPS Roots","zip":"46219","column_11":"Roots","county":"Marion","geo_score":0.922,"total":15,"phone":"317-5467-","id":"a67g55i5cd4r","geo_precision":"range","coordinator":"Cathy Ellis","address":"1525 North Ritter Avenue","email":"elliscl@ips.k12.in.us","state":"IN","distance":3.59611085461003},"type":"Feature","geometry":{"type":"Point","coordinates":[-86.073799,39.787992]}},{"properties":{"city":"Indianapolis","name":"Brookveiw Elementary","zip":"46229","column_11":null,"county":"Marion","geo_score":0.927,"total":55,"phone":"532-3054","id":"a67g55s5l7us","geo_precision":"range","coordinator":"Travis Koomler","address":"1550 North Cumberland Road","email":"tkoomler@warren.k12.in.us","state":"IN","distance":5.05439805734948},"type":"Feature","geometry":{"type":"Point","coordinates":[-85.957268,39.790232]}},{"properties":{"city":"Indianapolis","name":"Pleasant Run Elementary","zip":"46219","column_11":null,"county":"Marion","geo_score":0.922,"total":57,"phone":"532-3804","id":"a67g55d1ntyq","geo_precision":"range","coordinator":"Carol Griffin","address":"1800 North Franklin Rd.","email":"cgriffin@warren.k12.in.us","state":"IN","distance":1.5941489886762},"type":"Feature","geometry":{"type":"Point","coordinates":[-86.025249,39.791692]}},{"properties":{"city":"Greenfield","name":"Harris Elementary","zip":"46140","column_11":"Hancock County Food Pantry","county":"Hancock","geo_score":0.511,"total":26,"phone":"317-467-6731 x37133","id":"a67g55nlmhly","geo_precision":"street","coordinator":"Jan Kehrt","address":"200 W. Park Avenue","email":"jkehrt@gcsc.k12.in.us","state":"IN","distance":17.7092269345403},"type":"Feature","geometry":{"type":"Point","coordinates":[-85.77183,39.792175]}},{"properties":{"city":"Greenfield","name":"Greenfield Intermediate School","zip":"46140","column_11":"Hancock County Food Pantry","county":"Hancock","geo_score":0.511,"total":10,"phone":null,"id":"a67g55g1mahy","geo_precision":"street","coordinator":"Kimberly Hunt","address":"204 W. Park Avenue,","email":"kshunt@gcsc.k12.in.us","state":"IN","distance":17.7092269345403},"type":"Feature","geometry":{"type":"Point","coordinates":[-85.77183,39.792175]}},{"properties":{"city":"Indianapolis","name":"Lakeside Elementary","zip":"46229","column_11":null,"county":"Marion","geo_score":0.843,"total":68,"phone":"532-2854","id":"a67g55sg36jv","geo_precision":"range","coordinator":"Betsy Snapp","address":"9601 East 21st St.","email":"bsnapp@warren.k12.in.us","state":"IN","distance":2.76569178653802},"type":"Feature","geometry":{"type":"Point","coordinates":[-85.99821,39.796819]}},{"properties":{"city":"Indianapolis","name":"Holy Angels Catholic School","zip":"46208","column_11":"Holy Angels","county":"Marion","geo_score":0.491,"total":16,"phone":"317-603-3700","id":"a67g55esprmr","geo_precision":"street","coordinator":"Micheael Joseph","address":"2822 Dr. Martin Luther King, Junior Street","email":"mjoseph@holyangelsindy.org","state":"IN","distance":9.28712055979211},"type":"Feature","geometry":{"type":"Point","coordinates":[-86.157192,39.797326]}},{"properties":{"city":"Indianapolis","name":"IPS # 51 James Russell Lowell Elementary School","zip":"46218","column_11":"IPS # 51","county":"Marion","geo_score":1.0,"total":48,"phone":"919-0983","id":"a67g55ph799f","geo_precision":"range","coordinator":"Mary Studley","address":"3426 Roosevelt Avenue","email":"sudlm@ips.k12.in.us","state":"IN","distance":6.12568986441561},"type":"Feature","geometry":{"type":"Point","coordinates":[-86.108732,39.799176]}},{"properties":{"city":"Indianapolis","name":"IPS #56 Francis W. Parker Elementary","zip":"46205","column_11":"IPS 56","county":"Marion","geo_score":1.0,"total":48,"phone":"226-4256","id":"a67g55hen6gb","geo_precision":"range","coordinator":"Beth Masterson","address":"2353 Columbia Avenue","email":"mastersb@ips.k12.in.us","state":"IN","distance":8.00821892397622},"type":"Feature","geometry":{"type":"Point","coordinates":[-86.136848,39.800515]}},{"properties":{"city":"Indianapolis","name":"IPS #42 Elder W. Diggs Elementary","zip":"46208","column_11":null,"county":"Marion","geo_score":0.835,"total":null,"phone":null,"id":"a67g55nuxiy0","geo_precision":"range","coordinator":null,"address":"1002 West 25th St.","email":null,"state":"IN","distance":10.7766387270447},"type":"Feature","geometry":{"type":"Point","coordinates":[-86.178094,39.802817]}},{"properties":{"city":"Greenfield","name":"JB Stepehens Elementary","zip":"46140","column_11":"Hancock County Food Pantry","county":"Hancock","geo_score":0.922,"total":32,"phone":"462-4491","id":"a67g55ic1o6r","geo_precision":"range","coordinator":"Christy Harpold","address":"1331 North Blue Road","email":"charpold@gcsc.k12.in.us","state":"IN","distance":19.5364256770933},"type":"Feature","geometry":{"type":"Point","coordinates":[-85.746294,39.803181]}},{"properties":{"city":"Indianapolis","name":"Sunny Heights Elementary","zip":"46229","column_11":null,"county":"Marion","geo_score":0.927,"total":55,"phone":"532-2906","id":"a67g55ow7670","geo_precision":"range","coordinator":"Jaime Harvey","address":"11149 Stony Brook Dr.","email":"jharvey@warren.k12.in.us","state":"IN","distance":4.69782297122937},"type":"Feature","geometry":{"type":"Point","coordinates":[-85.970602,39.807336]}},{"properties":{"city":"Indianapolis","name":"Stony Brook Intermediate Academy","zip":"46229","column_11":null,"county":"Marion","geo_score":0.927,"total":47,"phone":"532-8828","id":"a67g55kxbsa2","geo_precision":"range","coordinator":"Kathy Walker","address":"11300 Stonybrook Dr.","email":"kwalker@warren.k12.in.us","state":"IN","distance":4.98584076040599},"type":"Feature","geometry":{"type":"Point","coordinates":[-85.966084,39.807808]}},{"properties":{"city":"Indianapolis","name":"Imagine Indiana Life Sciences Academy East","zip":"46235","column_11":"Imagine East","county":"Marion","geo_score":0.602,"total":50,"phone":"890-9100 x113","id":"a67g55hxryfi","geo_precision":"street","coordinator":"Bianca Rivers","address":"4352 N. Mitthoeffer Road","email":"bianca.rivers@imagineschools.com","state":"IN","distance":3.86280881479375},"type":"Feature","geometry":{"type":"Point","coordinates":[-85.990872,39.811586]}},{"properties":{"city":"Indianapolis","name":"IPS # 107 Lew Wallace","zip":"46224","column_11":"IPS # 107","county":"Marion","geo_score":0.919,"total":30,"phone":"317-226-4107","id":"a67g55n67dsn","geo_precision":"range","coordinator":"Cheryl Mehringer","address":"3307 Ashway Drive","email":"mehringerc@ips.k12.in.us","state":"IN","distance":17.0420538480564},"type":"Feature","geometry":{"type":"Point","coordinates":[-86.268727,39.814564]}},{"properties":{"city":"Indianapolis","name":"IPS #60 William A. Bell  Elementary","zip":"46205","column_11":"IPS 60","county":"Marion","geo_score":1.0,"total":56,"phone":"226-4260","id":"a67g55mkhzwt","geo_precision":"range","coordinator":"Jeanne Milligan","address":"3330 North Pennsylvania Street","email":"milliggi@ips.k12.in.us","state":"IN","distance":9.48229325682145},"type":"Feature","geometry":{"type":"Point","coordinates":[-86.154397,39.816288]}},{"properties":{"city":"Indianapolis","name":"IPS #79 Carl Wilde","zip":"46224","column_11":null,"county":"Marion","geo_score":0.835,"total":null,"phone":null,"id":"a67g55q84gjb","geo_precision":"range","coordinator":null,"address":"5002 West 34th St.","email":null,"state":"IN","distance":15.4209793671469},"type":"Feature","geometry":{"type":"Point","coordinates":[-86.244276,39.816611]}},{"properties":{"city":"Indianapolis","name":"IPS #48 Louis B. Russell, Jr.","zip":"46205","column_11":null,"county":"Marion","geo_score":1.0,"total":null,"phone":null,"id":"a67g55d7wlud","geo_precision":"range","coordinator":null,"address":"3445 Central Ave.","email":null,"state":"IN","distance":9.21517641290957},"type":"Feature","geometry":{"type":"Point","coordinates":[-86.149705,39.818414]}},{"properties":{"city":"Indianapolis","name":"IPS #69 Joyce Kilmer","zip":"46218","column_11":"IPS 69","county":"Marion","geo_score":1.0,"total":56,"phone":"226-4269","id":"a67g55o1gs6o","geo_precision":"range","coordinator":"Regina Parrish","address":"3421 North Keystone Avenue","email":"parrishr@ips.k12.in.us","state":"IN","distance":7.47778938671445},"type":"Feature","geometry":{"type":"Point","coordinates":[-86.121664,39.818474]}},{"properties":{"city":"Indianapolis","name":"IPS #96 Meredith Nicolson","zip":"46224","column_11":null,"county":"Marion","geo_score":0.919,"total":null,"phone":null,"id":"a67g55k4pwbd","geo_precision":"range","coordinator":null,"address":"3651 North Kiel Ave.","email":null,"state":"IN","distance":16.7489537952437},"type":"Feature","geometry":{"type":"Point","coordinates":[-86.262907,39.82152]}},{"properties":{"city":"Indianapolis","name":"IPS #67 Stephen Foster Elementary","zip":"46224","column_11":null,"county":"Marion","geo_score":0.919,"total":null,"phone":null,"id":"a67g55p9y9am","geo_precision":"range","coordinator":null,"address":"3725 North Kiel Ave.","email":null,"state":"IN","distance":16.7736931443064},"type":"Feature","geometry":{"type":"Point","coordinates":[-86.262926,39.822693]}},{"properties":{"city":"Indianapolis","name":"IPS # 99 Arlington Woods","zip":"46226","column_11":"IPS # 99","county":"Marion","geo_score":0.911,"total":75,"phone":"317-731-9131","id":"a67g55orbxt3","geo_precision":"range","coordinator":"Victoria Glover Sheppard","address":"3698 Dubarry Road","email":"sheppavd@ips.k12.in.us","state":"IN","distance":3.89493646127044},"type":"Feature","geometry":{"type":"Point","coordinates":[-86.015148,39.824156]}},{"properties":{"city":"Indianapolis","name":"IPS # 94 George Buck Elementary","zip":"46235","column_11":"IPS # 94","county":"Marion","geo_score":0.916,"total":72,"phone":"226-4294","id":"a67g55feaho3","geo_precision":"range","coordinator":"Jennifer Sweeney","address":"9501 East 36th Place","email":"sweeneyj@ips.k12.in.us","state":"IN","distance":4.33283804842971},"type":"Feature","geometry":{"type":"Point","coordinates":[-85.999911,39.825542]}},{"properties":{"city":"Indianapolis","name":"IPS # 109 Jonathon Jennings","zip":"46254","column_11":"IPS # 109","county":"Marion","geo_score":0.927,"total":56,"phone":"317-226-4109","id":"a67g55edjh67","geo_precision":"range","coordinator":"Greg Martich","address":"6150 Gateway Drive","email":"martichg@ips.k12.in.u","state":"IN","distance":17.1684188699223},"type":"Feature","geometry":{"type":"Point","coordinates":[-86.267104,39.828635]}},{"properties":{"city":"Indianapolis","name":"IPS #103 Francis Scott Key","zip":"46235","column_11":null,"county":"Marion","geo_score":0.963,"total":null,"phone":null,"id":"a67g55s7cmdm","geo_precision":"range","coordinator":null,"address":"3920 North Baker Drive","email":null,"state":"IN","distance":4.52439355362106},"type":"Feature","geometry":{"type":"Point","coordinates":[-86.000762,39.829146]}},{"properties":{"city":"Indianapolis","name":"IPS #105 Charles W. Fairbanks Elementary","zip":"46226","column_11":"IPS # 105","county":"Marion","geo_score":0.911,"total":64,"phone":"226-4105","id":"a67g55fave9y","geo_precision":"range","coordinator":"Angie Abell","address":"8620 Montery Road","email":"abella@ips.k12.in.us","state":"IN","distance":4.30938037502611},"type":"Feature","geometry":{"type":"Point","coordinates":[-86.016512,39.830389]}},{"properties":{"city":"Indianapolis","name":"Indiana School for the Deaf","zip":"46205","column_11":"School for the Deaf","county":"Marion","geo_score":0.916,"total":25,"phone":"email","id":"a67g55dv761z","geo_precision":"range","coordinator":"Deb Skjeveland","address":"1200 East 42nd Street","email":"dskjeveland@isd.k12.in.us","state":"IN","distance":8.97951704170041},"type":"Feature","geometry":{"type":"Point","coordinates":[-86.138723,39.832747]}},{"properties":{"city":"Indianapolis","name":"IPS #83 Floro Torrence","zip":"46226","column_11":null,"county":"Marion","geo_score":0.827,"total":null,"phone":null,"id":"a67g55swoo4n","geo_precision":"range","coordinator":null,"address":"5050 East 42nd St.","email":null,"state":"IN","distance":6.02706485650713},"type":"Feature","geometry":{"type":"Point","coordinates":[-86.08491,39.833057]}},{"properties":{"city":"Indianapolis","name":"Winding Ridge Elementary","zip":"46236","column_11":"Winding Ridge","county":"Marion","geo_score":0.721,"total":80,"phone":"423-8338","id":"a67g55ei9fsa","geo_precision":"range","coordinator":"Jenny Ramey","address":"11825 East 46th Street","email":"jennyramey@msdlt.k12.in.us","state":"IN","distance":6.91019871141462},"type":"Feature","geometry":{"type":"Point","coordinates":[-85.957568,39.841411]}},{"properties":{"city":"Indianapolis","name":"IPS #106 Robert Lee Frost","zip":"46226","column_11":null,"county":"Marion","geo_score":0.911,"total":null,"phone":null,"id":"a67g55jwueko","geo_precision":"range","coordinator":null,"address":"5301 Roxbury Road","email":null,"state":"IN","distance":6.44301420098867},"type":"Feature","geometry":{"type":"Point","coordinates":[-86.072415,39.849626]}},{"properties":{"city":"Indianapolis","name":"Harrison Hill Elementary","zip":"46226","column_11":"Pick-Up by Lawrence Caring","county":"Marion","geo_score":0.827,"total":72,"phone":"964-4335","id":"a67g55o0cktx","geo_precision":"range","coordinator":"Sarah Deuser","address":"7510 East 53rd Street","email":"sarahdeuser@msdlt.k12.in.us","state":"IN","distance":5.65745422530676},"type":"Feature","geometry":{"type":"Point","coordinates":[-86.036668,39.84996]}},{"properties":{"city":"Indianapolis","name":"IPS #55 Eliza A. Blaker","zip":"46220","column_11":null,"county":"Marion","geo_score":0.843,"total":null,"phone":null,"id":"a67g55puuwz4","geo_precision":"range","coordinator":null,"address":"1349 East 54th St.","email":null,"state":"IN","distance":9.45265799087206},"type":"Feature","geometry":{"type":"Point","coordinates":[-86.13502,39.851253]}},{"properties":{"city":"Indianapolis","name":"Indian Creek Elementary","zip":"46235","column_11":"Indian Creek","county":"Marion","geo_score":0.916,"total":40,"phone":"964-4777","id":"a67g55nmhad8","geo_precision":"range","coordinator":"Deloren Major","address":"10833 East 56th Street","email":"delorenmajor@msdlt.k12.in.us","state":"IN","distance":6.98976888327589},"type":"Feature","geometry":{"type":"Point","coordinates":[-85.974807,39.855803]}},{"properties":{"city":"Maxwell","name":"Maxwell Intermediate School","zip":"46154","column_11":"Hancock County Food Pantry","county":"Hancock","geo_score":0.805,"total":25,"phone":"326-3121","id":"a67g55pkzgw5","geo_precision":"range","coordinator":"Scott Stroud","address":"162 N Main Street","email":"sstroud@gcsc.k12.in.us","state":"IN","distance":18.7706481142575},"type":"Feature","geometry":{"type":"Point","coordinates":[-85.769991,39.857936]}},{"properties":{"city":"Indianapolis","name":"Sunnyside Elementary","zip":"46236","column_11":"Sunnyside","county":"Marion","geo_score":0.919,"total":60,"phone":"317-964-4583","id":"a67g55n8hadl","geo_precision":"range","coordinator":"Natalie Stewart","address":"6345 Sunnyside Road","email":"nataliestewart@msdlt.k12.in.us","state":"IN","distance":8.18936697034317},"type":"Feature","geometry":{"type":"Point","coordinates":[-85.973166,39.874647]}},{"properties":{"city":"Indianapolis","name":"Skiles Test Elementary","zip":"46220","column_11":"Skiles","county":"Marion","geo_score":0.927,"total":53,"phone":"964-4700","id":"a67g55enxr3j","geo_precision":"range","coordinator":"Deloren Major","address":"7001 Johnson Road","email":"delorenmajor@msdlt.k12.in.us","state":"IN","distance":7.9938785775737},"type":"Feature","geometry":{"type":"Point","coordinates":[-86.050761,39.882186]}},{"properties":{"city":"Indianapolis","name":"Crestview Elementary","zip":"46256","column_11":"Crestview","county":"Marion","geo_score":0.792,"total":46,"phone":"964-4200","id":"a67g55qj8y6b","geo_precision":"range","coordinator":"Renita Hills","address":"7600 71st Street","email":"renitahills@msdlt.k12.in.us","state":"IN","distance":7.95302013319425},"type":"Feature","geometry":{"type":"Point","coordinates":[-86.036125,39.883457]}},{"properties":{"city":"Indianapolis","name":"Indiana Math and Science Academy","zip":"46240","column_11":null,"county":"Marion","geo_score":0.925,"total":50,"phone":"989-5761","id":"a67g55jq9qlf","geo_precision":"range","coordinator":"Elizabeth Wissel","address":"7435 North Keystone Ave.","email":"wissell@north.imsaindy.org","state":"IN","distance":10.6768745470212},"type":"Feature","geometry":{"type":"Point","coordinates":[-86.121967,39.889857]}},{"properties":{"city":"Indianapolis","name":"Indiana School for the blind and visually impaired","zip":"46240","column_11":"School for the blind","county":"Marion","geo_score":0.925,"total":32,"phone":"253-1481 x188","id":"a67g55k3tfo5","geo_precision":"range","coordinator":"Liz Cheever","address":"7725 North College Avenue","email":"lcheever@isbvik12.in.us","state":"IN","distance":11.9670815799578},"type":"Feature","geometry":{"type":"Point","coordinates":[-86.145834,39.894469]}},{"properties":{"city":"Indianapolis","name":"Amy Beverland","zip":"46236","column_11":null,"county":"Marion","geo_score":0.919,"total":10,"phone":"964-4229","id":"a67g55mtgzs1","geo_precision":"range","coordinator":"Renita Hills","address":"11650 Fox Road","email":"renitahills@msdlt.k12.in.us","state":"IN","distance":10.2818972216225},"type":"Feature","geometry":{"type":"Point","coordinates":[-85.960308,39.902175]}},{"properties":{"city":"Greenfield","name":"Eden Elementary","zip":"46140","column_11":"Hancock County Food Pantry","county":"Hancock","geo_score":0.922,"total":1,"phone":"317-326-3117 x201","id":"a67g55qg7hpw","geo_precision":"range","coordinator":"Joey Johnson","address":"8185 North State Road 9","email":"jjohnson@gcsc.k12.in.us","state":"IN","distance":19.9889873859871},"type":"Feature","geometry":{"type":"Point","coordinates":[-85.770724,39.903762]}},{"properties":{"city":"Indianapolis","name":"Mary Castle Elementary","zip":"46256","column_11":null,"county":"Marion","geo_score":0.834,"total":20,"phone":"964-4683","id":"a67g55lhmbx1","geo_precision":"range","coordinator":"Frank Jackson","address":"8502 East 82nd St.","email":"frankjackson@msdlt.k12.in.us","state":"IN","distance":9.44704767634455},"type":"Feature","geometry":{"type":"Point","coordinates":[-86.018153,39.9054]}},{"properties":{"city":"Indianapolis","name":"Orchard Park Elementary","zip":"46280","column_11":null,"county":"Hamilton","geo_score":0.514,"total":40,"phone":"848-1918 x1660","id":"a67g55h16rnn","geo_precision":"street","coordinator":"Melissa McCullough","address":"10404 Orchard Park Dr. South","email":"mmccullo@ccs.k12.in.us","state":"IN","distance":14.3999079770706},"type":"Feature","geometry":{"type":"Point","coordinates":[-86.148287,39.938086]}},{"properties":{"city":"Fishers","name":"Hoosier Road Elementary School","zip":"46037","column_11":null,"county":"Hamilton","geo_score":0.808,"total":null,"phone":null,"id":"a67g55h1hlkz","geo_precision":"street","coordinator":null,"address":"11300 East 121st St.","email":null,"state":"IN","distance":14.1286934002418},"type":"Feature","geometry":{"type":"Point","coordinates":[-85.967112,39.964636]}},{"properties":{"city":"Westfield","name":"Carey Ridge Elementary","zip":"46074","column_11":null,"county":"Hamilton","geo_score":0.902,"total":22,"phone":"317-867-6202","id":"a67g55rbge6r","geo_precision":"range","coordinator":"Susan Hobson","address":"16231 Carey Road","email":"hobsons@wws.k12.in.us","state":"IN","distance":18.5131908243616},"type":"Feature","geometry":{"type":"Point","coordinates":[-86.108731,40.023979]}}],"is_temporal":false,"author":{"url":null,"metadata":null,"contact_name":null,"contact_address":null,"source":null,"contact_phone":null},"source":null,"pagination":{"sort":null,"start":0,"total":97,"limit":1000000},"state":"complete","tags":"","published":"2014-08-15T03:14:46-04:00","id":269556}