{"type":"FeatureCollection","data_type":"Dataset","url_type":null,"permissions":[{"permissions":{"download":true,"view":true},"group_id":"everyone"}],"classification":null,"title":"group-members-4380","count":448,"stream_id":271255,"contributor":{"url":"http://geocommons.com/users/43914","name":"bromanoff"},"data_attributes":null,"calculation_params":null,"icon_link":null,"link":"http://geocommons.com/overlays/271255.json","extent":[-149.9,25.4822,-67.1763,61.2181],"geometry_types":["point"],"unique_name":null,"name":"group-members-4380","feature_count":448,"description":"","next_feature":null,"is_raster":false,"short_classification":"Y","stats":{"latitude":{"max":61.2181,"variance":28.0373511670907,"mean":38.3401284397322,"stdev":5.29503079944684,"min":25.482152,"median":38.8003},"resource id":{"max":9980013,"variance":6315354232608.39,"mean":5525318.56696429,"stdev":2513036.85460607,"min":1031709,"median":5607729},"longitude":{"max":-67.1763,"variance":160.647941907574,"mean":-85.4416687142857,"stdev":12.6746969158073,"min":-149.9003,"median":-82.584}},"features":[{"properties":{"company":"Sole Proprietor","city":"Lynchburg","zip":"24502","latitude":37.3516,"last name":"Abate","resource type":"Third Party","resource id":4376692,"longitude":-79.2171,"id":"a87s27x5ae3z","first name":"Mark","state":"VA"},"type":"Feature","geometry":{"type":"Point","coordinates":[-79.2171,37.3516]}},{"properties":{"company":"1st Choice Computer Services","city":"Clovis","zip":"93612","latitude":36.9257,"last name":"Abdul-Maalik","resource type":"Third Party","resource id":7508687,"longitude":-119.5916,"id":"a87s27p8r25w","first name":"Abu","state":"CA"},"type":"Feature","geometry":{"type":"Point","coordinates":[-119.5916,36.9257]}},{"properties":{"company":"Sole Proprietor","city":"Paterson","zip":"07502","latitude":40.9187,"last name":"Abedrabbo","resource type":"Third Party","resource id":3862282,"longitude":-74.1942,"id":"a87s27ol71k2","first name":"Rasem","state":"NJ"},"type":"Feature","geometry":{"type":"Point","coordinates":[-74.1942,40.9187]}},{"properties":{"company":"Sole Proprietor","city":"Tampa","zip":"33647","latitude":28.1246,"last name":"Abedrabbo","resource type":"Third Party","resource id":3173284,"longitude":-82.3645,"id":"a87s27qphh00","first name":"Munal","state":"FL"},"type":"Feature","geometry":{"type":"Point","coordinates":[-82.3645,28.1246]}},{"properties":{"company":"Sole Proprietor","city":"JONESBOROUGH","zip":"37659","latitude":36.2983,"last name":"ADAMS","resource type":"Third Party","resource id":3958392,"longitude":-82.503,"id":"a87s27lwn3l6","first name":"RAYMOND","state":"TN"},"type":"Feature","geometry":{"type":"Point","coordinates":[-82.503,36.2983]}},{"properties":{"company":"ITContacts LLC","city":"Union","zip":"07083","latitude":40.6941,"last name":"adao","resource type":"Third Party","resource id":2386870,"longitude":-74.2694,"id":"a87s280j70kt","first name":"george","state":"NJ"},"type":"Feature","geometry":{"type":"Point","coordinates":[-74.2694,40.6941]}},{"properties":{"company":"Sole Proprietor","city":"Macon","zip":"63552","latitude":39.7971,"last name":"Albright","resource type":"Third Party","resource id":8615602,"longitude":-92.4191,"id":"a87s27y5t3jo","first name":"Michael","state":"MO"},"type":"Feature","geometry":{"type":"Point","coordinates":[-92.4191,39.7971]}},{"properties":{"company":"Lightspeed Tech Services","city":"Sandia Park","zip":"87047","latitude":35.164447,"last name":"Allen","resource type":"Third Party","resource id":2335877,"longitude":-106.31303,"id":"a87s27wqdvuf","first name":"Rebecca","state":"NM"},"type":"Feature","geometry":{"type":"Point","coordinates":[-106.31303,35.164447]}},{"properties":{"company":"Sole Proprietor","city":"Orlando","zip":"32822","latitude":28.4866,"last name":"Ally","resource type":"Third Party","resource id":9136714,"longitude":-81.2809,"id":"a87s27n2zurx","first name":"Masoon","state":"FL"},"type":"Feature","geometry":{"type":"Point","coordinates":[-81.2809,28.4866]}},{"properties":{"company":"Stillwater Global Communications","city":"Raleigh","zip":"27610","latitude":35.7483,"last name":"anaga","resource type":"Third Party","resource id":1331885,"longitude":-78.5419,"id":"a87s27t3q1fo","first name":"gabriel","state":"NC"},"type":"Feature","geometry":{"type":"Point","coordinates":[-78.5419,35.7483]}},{"properties":{"company":"IST","city":"Virginia Beach","zip":"23462","latitude":36.8376,"last name":"Anderson","resource type":"Third Party","resource id":5286870,"longitude":-76.151,"id":"a87s27urp4u2","first name":"Justin","state":"VA"},"type":"Feature","geometry":{"type":"Point","coordinates":[-76.151,36.8376]}},{"properties":{"company":"Sole Proprietor","city":"blaine","zip":"55434","latitude":45.168,"last name":"Anderson","resource type":"Third Party","resource id":5005406,"longitude":-93.25,"id":"a87s27t9uu5r","first name":"Clinton","state":"MN"},"type":"Feature","geometry":{"type":"Point","coordinates":[-93.25,45.168]}},{"properties":{"company":"Sole Proprietor","city":"Oklahoma City","zip":"73120","latitude":35.581,"last name":"Apfel","resource type":"Third Party","resource id":8351711,"longitude":-97.57,"id":"a87s27wanwlv","first name":"Alfred","state":"OK"},"type":"Feature","geometry":{"type":"Point","coordinates":[-97.57,35.581]}},{"properties":{"company":"Sole Proprietor","city":"Broad Channel","zip":"11693","latitude":40.6184,"last name":"Appel","resource type":"Third Party","resource id":2402817,"longitude":-73.8256,"id":"a87s27owdl74","first name":"Chris","state":"NY"},"type":"Feature","geometry":{"type":"Point","coordinates":[-73.8256,40.6184]}},{"properties":{"company":"Archie's Computers Cabling &amp; More, LLC.","city":"Lansing","zip":"48910","latitude":42.704256,"last name":"Archamboult","resource type":"Third Party","resource id":5065211,"longitude":-84.518149,"id":"a87s27tkfrby","first name":"Robert","state":"MI"},"type":"Feature","geometry":{"type":"Point","coordinates":[-84.518149,42.704256]}},{"properties":{"company":"Sole Proprietor","city":"richmond","zip":"23230","latitude":37.5861,"last name":"Arhangelsky","resource type":"Third Party","resource id":2349741,"longitude":-77.4907,"id":"a87s27wlvlom","first name":"Victor","state":"VA"},"type":"Feature","geometry":{"type":"Point","coordinates":[-77.4907,37.5861]}},{"properties":{"company":"Sole Proprietor","city":"Boca Raton","zip":"33486","latitude":26.357071,"last name":"arroyo","resource type":"Third Party","resource id":8726730,"longitude":-80.128252,"id":"a87s27m7evyc","first name":"wesley","state":"FL"},"type":"Feature","geometry":{"type":"Point","coordinates":[-80.128252,26.357071]}},{"properties":{"company":"Sole Proprietor","city":"New York City","zip":"10029","latitude":40.7917,"last name":"astrakhantsev","resource type":"Third Party","resource id":3042047,"longitude":-73.9439,"id":"a87s2819vwod","first name":"artem","state":"NY"},"type":"Feature","geometry":{"type":"Point","coordinates":[-73.9439,40.7917]}},{"properties":{"company":"Lake States Communications","city":"Omro","zip":"54963","latitude":44.055163,"last name":"Aubrey","resource type":"Third Party","resource id":5059225,"longitude":-88.677659,"id":"a87s27w8k9m3","first name":"Donald","state":"WI"},"type":"Feature","geometry":{"type":"Point","coordinates":[-88.677659,44.055163]}},{"properties":{"company":"Sole Proprietor","city":"Jacksonville","zip":"32223","latitude":30.1534,"last name":"Austin","resource type":"Third Party","resource id":7075444,"longitude":-81.6484,"id":"a87s27xut9zv","first name":"Derrick","state":"FL"},"type":"Feature","geometry":{"type":"Point","coordinates":[-81.6484,30.1534]}},{"properties":{"company":"RH Consulting","city":"North Las Vegas","zip":"89081","latitude":36.248943,"last name":"Austin","resource type":"Third Party","resource id":8502562,"longitude":-115.124743,"id":"a87s281arajs","first name":"Bill","state":"NV"},"type":"Feature","geometry":{"type":"Point","coordinates":[-115.124743,36.248943]}},{"properties":{"company":"ME-NH Computer Services Inc","city":"Portland","zip":"04101","latitude":43.6616,"last name":"Baerd","resource type":"Third Party","resource id":6220149,"longitude":-70.2592,"id":"a87s27ytvgti","first name":"Chamberlin","state":"ME"},"type":"Feature","geometry":{"type":"Point","coordinates":[-70.2592,43.6616]}},{"properties":{"company":"Electronic Express, O.N.E. LLC","city":"Whiting","zip":"04691","latitude":44.7909,"last name":"Baessler","resource type":"Third Party","resource id":9817443,"longitude":-67.1763,"id":"a87s27ul3mj8","first name":"Michael","state":"ME"},"type":"Feature","geometry":{"type":"Point","coordinates":[-67.1763,44.7909]}},{"properties":{"company":"Resolutions","city":"Windham","zip":"04062","latitude":43.795,"last name":"Bailey","resource type":"Third Party","resource id":5960677,"longitude":-70.4037,"id":"a87s27wsbnf7","first name":"Stephen","state":"ME"},"type":"Feature","geometry":{"type":"Point","coordinates":[-70.4037,43.795]}},{"properties":{"company":"Lumenos Technologies","city":"Knoxville","zip":"37931","latitude":35.9928,"last name":"Bailey","resource type":"Third Party","resource id":2704419,"longitude":-84.1296,"id":"a87s27p16hae","first name":"Peter","state":"TN"},"type":"Feature","geometry":{"type":"Point","coordinates":[-84.1296,35.9928]}},{"properties":{"company":"Sole Proprietor","city":"Ferryville","zip":"54628","latitude":43.3627,"last name":"Baird","resource type":"Third Party","resource id":6249257,"longitude":-91.0017,"id":"a87s27xljpnx","first name":"Brad","state":"WI"},"type":"Feature","geometry":{"type":"Point","coordinates":[-91.0017,43.3627]}},{"properties":{"company":"Sole Proprietor","city":"Livonia","zip":"48152","latitude":42.4262,"last name":"Baldassarra","resource type":"Third Party","resource id":6078737,"longitude":-83.3741,"id":"a87s27otg3hc","first name":"Chris","state":"MI"},"type":"Feature","geometry":{"type":"Point","coordinates":[-83.3741,42.4262]}},{"properties":{"company":"Sole Proprietor","city":"Raliegh","zip":"27613","latitude":35.921,"last name":"Balogun","resource type":"Third Party","resource id":9942018,"longitude":-78.7053,"id":"a87s27nof4eg","first name":"Razaq","state":"NC"},"type":"Feature","geometry":{"type":"Point","coordinates":[-78.7053,35.921]}},{"properties":{"company":"Baraka CompuTech Services","city":"Canton","zip":"48187","latitude":42.329,"last name":"Baraka","resource type":"Third Party","resource id":9403121,"longitude":-83.4883,"id":"a87s27pq2n8a","first name":"Mohammed","state":"MI"},"type":"Feature","geometry":{"type":"Point","coordinates":[-83.4883,42.329]}},{"properties":{"company":"Sole Proprietor","city":"Bellmore","zip":"11710","latitude":40.6759,"last name":"Barbella","resource type":"Third Party","resource id":1047706,"longitude":-73.534,"id":"a87s27zeusbu","first name":"Thomas","state":"NY"},"type":"Feature","geometry":{"type":"Point","coordinates":[-73.534,40.6759]}},{"properties":{"company":"Sole Proprietor","city":"Bronx","zip":"10468","latitude":40.8702,"last name":"Barksdale","resource type":"Third Party","resource id":4596764,"longitude":-73.8979,"id":"a87s27t8ki21","first name":"Gary","state":"NY"},"type":"Feature","geometry":{"type":"Point","coordinates":[-73.8979,40.8702]}},{"properties":{"company":"A Better Computer Service","city":"Garner","zip":"27529","latitude":35.6418,"last name":"barskile","resource type":"Third Party","resource id":2599022,"longitude":-78.5748,"id":"a87s27t9l046","first name":"mike","state":"NC"},"type":"Feature","geometry":{"type":"Point","coordinates":[-78.5748,35.6418]}},{"properties":{"company":"Data Forensics, Inc","city":"Ocala","zip":"34472","latitude":29.1101,"last name":"Batchelder","resource type":"Third Party","resource id":2194634,"longitude":-81.9816,"id":"a87s27rg2hzo","first name":"Jeffrey","state":"FL"},"type":"Feature","geometry":{"type":"Point","coordinates":[-81.9816,29.1101]}},{"properties":{"company":"Sole Proprietor","city":"Hermitage","zip":"37076","latitude":36.176811,"last name":"Bates","resource type":"Third Party","resource id":3948853,"longitude":-86.586727,"id":"a87s27xs95wf","first name":"Brian","state":"TN"},"type":"Feature","geometry":{"type":"Point","coordinates":[-86.586727,36.176811]}},{"properties":{"company":"IT &amp; Logistics","city":"Lawton","zip":"73505","latitude":34.6063,"last name":"Batiste","resource type":"Third Party","resource id":2613232,"longitude":-98.4737,"id":"a87s27z2tjmx","first name":"Joseph","state":"OK"},"type":"Feature","geometry":{"type":"Point","coordinates":[-98.4737,34.6063]}},{"properties":{"company":"Jensen","city":"Salt Lake City","zip":"84102","latitude":40.7609,"last name":"Baveda","resource type":"Third Party","resource id":2028737,"longitude":-111.8586,"id":"a87s27thvax9","first name":"Igor","state":"UT"},"type":"Feature","geometry":{"type":"Point","coordinates":[-111.8586,40.7609]}},{"properties":{"company":"Sole Proprietor","city":"Canton","zip":"48187","latitude":42.333131,"last name":"Baxi","resource type":"Third Party","resource id":5238754,"longitude":-83.486315,"id":"a87s27vo5eb5","first name":"Rajiv","state":"MI"},"type":"Feature","geometry":{"type":"Point","coordinates":[-83.486315,42.333131]}},{"properties":{"company":"Your Computer Shrink","city":"BOCA RATON","zip":"33434","latitude":26.3812,"last name":"Beame","resource type":"Third Party","resource id":9633851,"longitude":-80.1707,"id":"a87s27trvzhd","first name":"Larry (Lazer)","state":"FL"},"type":"Feature","geometry":{"type":"Point","coordinates":[-80.1707,26.3812]}},{"properties":{"company":"Fore-Mat Products, Inc.","city":"grand haven","zip":"49417","latitude":43.0131,"last name":"Beaver","resource type":"Third Party","resource id":3976952,"longitude":-86.1392,"id":"a87s27urar07","first name":"Michael","state":"MI"},"type":"Feature","geometry":{"type":"Point","coordinates":[-86.1392,43.0131]}},{"properties":{"company":"Sole Proprietor","city":"Bradenton","zip":"34205","latitude":27.4818,"last name":"Beck","resource type":"Third Party","resource id":9090698,"longitude":-82.584,"id":"a87s27zst1z3","first name":"Michael","state":"FL"},"type":"Feature","geometry":{"type":"Point","coordinates":[-82.584,27.4818]}},{"properties":{"company":"networking solutions","city":"ashland","zip":"54806","latitude":46.543,"last name":"Bizub","resource type":"Third Party","resource id":5963162,"longitude":-90.8706,"id":"a87s27wb8yzf","first name":"James","state":"WI"},"type":"Feature","geometry":{"type":"Point","coordinates":[-90.8706,46.543]}},{"properties":{"company":"Sole Proprietor","city":"Yorktown","zip":"23693","latitude":37.1229,"last name":"Black II","resource type":"Third Party","resource id":3514617,"longitude":-76.4458,"id":"a87s27plt1dk","first name":"James","state":"VA"},"type":"Feature","geometry":{"type":"Point","coordinates":[-76.4458,37.1229]}},{"properties":{"company":"Sole Proprietor","city":"New York","zip":"10038","latitude":40.711275,"last name":"Bodner","resource type":"Third Party","resource id":1861212,"longitude":-74.006259,"id":"a87s27pszk9j","first name":"Simon","state":"NY"},"type":"Feature","geometry":{"type":"Point","coordinates":[-74.006259,40.711275]}},{"properties":{"company":"Sole Proprietor","city":"Brookfield","zip":"53045","latitude":43.070947,"last name":"Borch","resource type":"Third Party","resource id":6218619,"longitude":-88.149588,"id":"a87s27p4s8up","first name":"David","state":"WI"},"type":"Feature","geometry":{"type":"Point","coordinates":[-88.149588,43.070947]}},{"properties":{"company":"Sole Proprietor","city":"Fort Walton Beach","zip":"32547","latitude":30.4494,"last name":"Bowden","resource type":"Third Party","resource id":2072336,"longitude":-86.6242,"id":"a87s27whpaui","first name":"Terry","state":"FL"},"type":"Feature","geometry":{"type":"Point","coordinates":[-86.6242,30.4494]}},{"properties":{"company":"Sole Proprietor","city":"Newport News","zip":"23607","latitude":36.9886,"last name":"Bowen","resource type":"Third Party","resource id":8776477,"longitude":-76.4231,"id":"a87s2820j18o","first name":"Terris","state":"VA"},"type":"Feature","geometry":{"type":"Point","coordinates":[-76.4231,36.9886]}},{"properties":{"company":"Sole Proprietor","city":"Nixa","zip":"65714","latitude":37.054509,"last name":"Boyington","resource type":"Third Party","resource id":1800541,"longitude":-93.283855,"id":"a87s27yayuvc","first name":"Drew","state":"MO"},"type":"Feature","geometry":{"type":"Point","coordinates":[-93.283855,37.054509]}},{"properties":{"company":"A.O.O.C COMPUTER AND TELECOMMUNICATIONS SERVICES","city":null,"zip":null,"latitude":42.41,"last name":"Bradley","resource type":"Third Party","resource id":3861022,"longitude":-83.0561,"id":"a87s27stdh3g","first name":"Larry","state":null},"type":"Feature","geometry":{"type":"Point","coordinates":[-83.0561,42.41]}},{"properties":{"company":"Brady's Computer Services, LLC","city":"Westbrook","zip":"04092","latitude":43.674578,"last name":"Brady","resource type":"Third Party","resource id":8442298,"longitude":-70.378383,"id":"a87s27mi4768","first name":"Seth","state":"ME"},"type":"Feature","geometry":{"type":"Point","coordinates":[-70.378383,43.674578]}},{"properties":{"company":"Sole Proprietor","city":"Chandler","zip":"74834","latitude":35.6982,"last name":"Brandenburg","resource type":"Third Party","resource id":4941695,"longitude":-96.8588,"id":"a87s27u55umo","first name":"Kevin","state":"OK"},"type":"Feature","geometry":{"type":"Point","coordinates":[-96.8588,35.6982]}},{"properties":{"company":"Sole Proprietor","city":"sturtevant","zip":"53177","latitude":42.683208,"last name":"Braun","resource type":"Third Party","resource id":5615176,"longitude":-87.900064,"id":"a87s28143r3m","first name":"Tom","state":"WI"},"type":"Feature","geometry":{"type":"Point","coordinates":[-87.900064,42.683208]}},{"properties":{"company":"Sole Proprietor","city":"lees summit","zip":"64063","latitude":38.905742,"last name":"brewer","resource type":"Third Party","resource id":7613932,"longitude":-94.361957,"id":"a87s27pfx44n","first name":"sean","state":"MO"},"type":"Feature","geometry":{"type":"Point","coordinates":[-94.361957,38.905742]}},{"properties":{"company":"Infieldtechs LLC","city":"Orem","zip":"84057","latitude":40.320339,"last name":"Brice","resource type":"Third Party","resource id":4515983,"longitude":-111.709666,"id":"a87s27toyxqt","first name":"Joseph","state":"UT"},"type":"Feature","geometry":{"type":"Point","coordinates":[-111.709666,40.320339]}},{"properties":{"company":"Sole Proprietor","city":"Pembroke Pines","zip":"33029","latitude":26.015983,"last name":"Briggs","resource type":"Third Party","resource id":5936321,"longitude":-80.430808,"id":"a87s27we8kqp","first name":"Jasper","state":"FL"},"type":"Feature","geometry":{"type":"Point","coordinates":[-80.430808,26.015983]}},{"properties":{"company":"Sole Proprietor","city":"West Jordan","zip":"84088","latitude":40.5881,"last name":"Briggs","resource type":"Third Party","resource id":8788195,"longitude":-112.004,"id":"a87s27tlkims","first name":"Guy","state":"UT"},"type":"Feature","geometry":{"type":"Point","coordinates":[-112.004,40.5881]}},{"properties":{"company":"Computer Medix","city":"Columbia","zip":"65201","latitude":38.8994,"last name":"Brinkman","resource type":"Third Party","resource id":9518142,"longitude":-92.2391,"id":"a87s27xxv5nb","first name":"Chris","state":"MO"},"type":"Feature","geometry":{"type":"Point","coordinates":[-92.2391,38.8994]}},{"properties":{"company":"Sole Proprietor","city":"Minneapolis","zip":"55418","latitude":45.0213,"last name":"Brown","resource type":"Third Party","resource id":7438088,"longitude":-93.2426,"id":"a87s27x7ibpj","first name":"Terrence","state":"MN"},"type":"Feature","geometry":{"type":"Point","coordinates":[-93.2426,45.0213]}},{"properties":{"company":"HIT Partners","city":"cassopilis","zip":"49031","latitude":41.899,"last name":"Brown","resource type":"Third Party","resource id":7908207,"longitude":-85.985,"id":"a87s27ofzb2d","first name":"Fredrick M.","state":"MI"},"type":"Feature","geometry":{"type":"Point","coordinates":[-85.985,41.899]}},{"properties":{"company":"Sole Proprietor","city":"Petersburg","zip":"23803","latitude":37.2163,"last name":"Brown","resource type":"Third Party","resource id":5371886,"longitude":-77.4783,"id":"a87s27uiwa28","first name":"Mark","state":"VA"},"type":"Feature","geometry":{"type":"Point","coordinates":[-77.4783,37.2163]}},{"properties":{"company":"Sole Proprietor","city":"Fanwood","zip":"07023","latitude":40.6417,"last name":"Bruntel","resource type":"Third Party","resource id":1068708,"longitude":-74.3857,"id":"a87s27qnvad3","first name":"mitchell","state":"NJ"},"type":"Feature","geometry":{"type":"Point","coordinates":[-74.3857,40.6417]}},{"properties":{"company":"Sole Proprietor","city":"SPRINGFIELD","zip":"07081","latitude":40.6988,"last name":"Buber","resource type":"Third Party","resource id":3587498,"longitude":-74.3248,"id":"a87s27y75vx1","first name":"Felix","state":"NJ"},"type":"Feature","geometry":{"type":"Point","coordinates":[-74.3248,40.6988]}},{"properties":{"company":"Sole Proprietor","city":"Mount Carmel","zip":"37645","latitude":36.5624,"last name":"Bugayong","resource type":"Third Party","resource id":6930145,"longitude":-82.6499,"id":"a87s281u37is","first name":"Generoso","state":"TN"},"type":"Feature","geometry":{"type":"Point","coordinates":[-82.6499,36.5624]}},{"properties":{"company":"AceTech","city":"Green Cove Springs","zip":"32043","latitude":29.953,"last name":"Bullock","resource type":"Third Party","resource id":6696216,"longitude":-81.7369,"id":"a87s27v60o9t","first name":"Chrystopher","state":"FL"},"type":"Feature","geometry":{"type":"Point","coordinates":[-81.7369,29.953]}},{"properties":{"company":"Sole Proprietor","city":"St Clair Shores","zip":"48080","latitude":42.452015,"last name":"Burke","resource type":"Third Party","resource id":1912556,"longitude":-82.882144,"id":"a87s27nututg","first name":"Dave","state":"MI"},"type":"Feature","geometry":{"type":"Point","coordinates":[-82.882144,42.452015]}},{"properties":{"company":"Sole Proprietor","city":"Blue Springs","zip":"64014","latitude":39.016888,"last name":"Bush","resource type":"Third Party","resource id":4924297,"longitude":-94.252711,"id":"a87s27py7yzi","first name":"Charles","state":"MO"},"type":"Feature","geometry":{"type":"Point","coordinates":[-94.252711,39.016888]}},{"properties":{"company":"Sole Proprietor","city":"Belleair","zip":"33756","latitude":27.9445,"last name":"Capozzoli","resource type":"Third Party","resource id":5142771,"longitude":-82.7883,"id":"a87s27v3t8gf","first name":"Thomas","state":"FL"},"type":"Feature","geometry":{"type":"Point","coordinates":[-82.7883,27.9445]}},{"properties":{"company":"One Stop Computer Shop","city":"Poplar Bluff","zip":"63901","latitude":36.7803,"last name":"Carnes","resource type":"Third Party","resource id":7819967,"longitude":-90.4373,"id":"a87s27nth1yi","first name":"Cristy","state":"MO"},"type":"Feature","geometry":{"type":"Point","coordinates":[-90.4373,36.7803]}},{"properties":{"company":"SecureComm Technologies, Inc.","city":"Grosse Pointe Farms","zip":"48236","latitude":42.4243,"last name":"Carter","resource type":"Third Party","resource id":8108692,"longitude":-82.8975,"id":"a87s27mwx8el","first name":"John","state":"MI"},"type":"Feature","geometry":{"type":"Point","coordinates":[-82.8975,42.4243]}},{"properties":{"company":"Sole Proprietor","city":"Ft Lauderdale","zip":"33304","latitude":26.1384,"last name":"Carter","resource type":"Third Party","resource id":6640261,"longitude":-80.131,"id":"a87s27z44ple","first name":"James","state":"FL"},"type":"Feature","geometry":{"type":"Point","coordinates":[-80.131,26.1384]}},{"properties":{"company":"Sole Proprietor","city":"Auburn","zip":"04210","latitude":44.0965,"last name":"Carter","resource type":"Third Party","resource id":8240919,"longitude":-70.2571,"id":"a87s27n3sq19","first name":"Larry","state":"ME"},"type":"Feature","geometry":{"type":"Point","coordinates":[-70.2571,44.0965]}},{"properties":{"company":"Sole Proprietor","city":"Anchorage","zip":"99522","latitude":61.2181,"last name":"Carter","resource type":"Third Party","resource id":7108853,"longitude":-149.9003,"id":"a87s27sgm88f","first name":"Gregory","state":"AK"},"type":"Feature","geometry":{"type":"Point","coordinates":[-149.9003,61.2181]}},{"properties":{"company":"Casares Engineering","city":"WEST WARWICK","zip":"02893","latitude":41.7,"last name":"Casares","resource type":"Third Party","resource id":5432167,"longitude":-71.516,"id":"a87s27wg8wq7","first name":"leo","state":"RI"},"type":"Feature","geometry":{"type":"Point","coordinates":[-71.516,41.7]}},{"properties":{"company":"Sole Proprietor","city":"Caledonia","zip":"49316","latitude":42.84214,"last name":"Cederquist","resource type":"Third Party","resource id":8590524,"longitude":-85.616994,"id":"a87s27q0kdfg","first name":"Brian","state":"MI"},"type":"Feature","geometry":{"type":"Point","coordinates":[-85.616994,42.84214]}},{"properties":{"company":"High Tech Depot, LLC","city":"Livingston","zip":"07039","latitude":40.7857,"last name":"Chaiklin","resource type":"Third Party","resource id":7441534,"longitude":-74.3293,"id":"a87s27vgmzsa","first name":"Phil","state":"NJ"},"type":"Feature","geometry":{"type":"Point","coordinates":[-74.3293,40.7857]}},{"properties":{"company":"LAB Computer","city":"Bellerose","zip":"11426","latitude":40.7366,"last name":"Charles","resource type":"Third Party","resource id":7241109,"longitude":-73.7227,"id":"a87s27vga1lw","first name":"Beby","state":"NY"},"type":"Feature","geometry":{"type":"Point","coordinates":[-73.7227,40.7366]}},{"properties":{"company":"Sole Proprietor","city":"Las Vegas","zip":"89117","latitude":36.094131,"last name":"Chipman","resource type":"Third Party","resource id":3925446,"longitude":-115.144063,"id":"a87s27y3psic","first name":"Joseph","state":"NV"},"type":"Feature","geometry":{"type":"Point","coordinates":[-115.144063,36.094131]}},{"properties":{"company":"Sole Proprietor","city":"Lansing","zip":"48917","latitude":42.7255,"last name":"Clark","resource type":"Third Party","resource id":5882046,"longitude":-84.6385,"id":"a87s27rku34s","first name":"Anthony","state":"MI"},"type":"Feature","geometry":{"type":"Point","coordinates":[-84.6385,42.7255]}},{"properties":{"company":"Keep IT Up","city":"Windham","zip":"04062","latitude":43.795,"last name":"Cloutier","resource type":"Third Party","resource id":6458428,"longitude":-70.4037,"id":"a87s27zxb6ph","first name":"Kevin","state":"ME"},"type":"Feature","geometry":{"type":"Point","coordinates":[-70.4037,43.795]}},{"properties":{"company":"Consult A Pro, Inc.","city":"New City","zip":"10956","latitude":41.141574,"last name":"Cohen","resource type":"Third Party","resource id":3900265,"longitude":-73.990602,"id":"a87s27m7bo3a","first name":"Jeffrey","state":"NY"},"type":"Feature","geometry":{"type":"Point","coordinates":[-73.990602,41.141574]}},{"properties":{"company":"Sole Proprietor","city":"Virginia Beach","zip":"23452","latitude":36.8421,"last name":"Cole","resource type":"Third Party","resource id":1529817,"longitude":-76.0932,"id":"a87s27qx4zlg","first name":"Kirkland","state":"VA"},"type":"Feature","geometry":{"type":"Point","coordinates":[-76.0932,36.8421]}},{"properties":{"company":"Sole Proprietor","city":"providence","zip":"02904","latitude":41.8605,"last name":"Coleman","resource type":"Third Party","resource id":4636802,"longitude":-71.4362,"id":"a87s280d0g8l","first name":"Chris","state":"RI"},"type":"Feature","geometry":{"type":"Point","coordinates":[-71.4362,41.8605]}},{"properties":{"company":"one stop computer repairs","city":"Brockton","zip":"02301","latitude":42.0777,"last name":"collazos","resource type":"Third Party","resource id":1459271,"longitude":-71.0422,"id":"a87s27pax7v6","first name":"cesar","state":"MA"},"type":"Feature","geometry":{"type":"Point","coordinates":[-71.0422,42.0777]}},{"properties":{"company":"Sole Proprietor","city":"Williamsburg","zip":"23185","latitude":37.2658,"last name":"Collins","resource type":"Third Party","resource id":8617881,"longitude":-76.6843,"id":"a87s2820w87n","first name":"Michael","state":"VA"},"type":"Feature","geometry":{"type":"Point","coordinates":[-76.6843,37.2658]}},{"properties":{"company":"Sole Proprietor","city":"Columbia","zip":"38401","latitude":35.65541,"last name":"Combs","resource type":"Third Party","resource id":2979073,"longitude":-87.001217,"id":"a87s27vubqgr","first name":"Rick","state":"TN"},"type":"Feature","geometry":{"type":"Point","coordinates":[-87.001217,35.65541]}},{"properties":{"company":"Zovyn Web Enterprises","city":"Southfield","zip":"48076","latitude":42.512812,"last name":"Compagnari","resource type":"Third Party","resource id":9411428,"longitude":-83.232144,"id":"a87s27r67zlj","first name":"Zoz","state":"MI"},"type":"Feature","geometry":{"type":"Point","coordinates":[-83.232144,42.512812]}},{"properties":{"company":"My Computer Tech","city":"Las Vegas","zip":"89115","latitude":36.232954,"last name":"Concho","resource type":"Third Party","resource id":5607729,"longitude":-115.062253,"id":"a87s27pjiwnx","first name":"Terri","state":"NV"},"type":"Feature","geometry":{"type":"Point","coordinates":[-115.062253,36.232954]}},{"properties":{"company":"Connell&amp;Sons LLC","city":"ft laud","zip":"33311","latitude":26.144,"last name":"Connell","resource type":"Third Party","resource id":1186288,"longitude":-80.1736,"id":"a87s27r3h85a","first name":"David","state":"FL"},"type":"Feature","geometry":{"type":"Point","coordinates":[-80.1736,26.144]}},{"properties":{"company":"All Business Computing and Networks LLC","city":"Taylorsville","zip":"84118","latitude":40.6511,"last name":"Conrad","resource type":"Third Party","resource id":6960759,"longitude":-112.0182,"id":"a87s27zoxdyf","first name":"Timothy","state":"UT"},"type":"Feature","geometry":{"type":"Point","coordinates":[-112.0182,40.6511]}},{"properties":{"company":"Sole Proprietor","city":"Panama City","zip":"32405","latitude":30.1989,"last name":"Cooper","resource type":"Third Party","resource id":7416560,"longitude":-85.6581,"id":"a87s27uwwc4s","first name":"Michelle","state":"FL"},"type":"Feature","geometry":{"type":"Point","coordinates":[-85.6581,30.1989]}},{"properties":{"company":"Broadview Technology Solutions LLC","city":"Burnsville","zip":"55337","latitude":44.7764,"last name":"Cornelius","resource type":"Third Party","resource id":6891719,"longitude":-93.2757,"id":"a87s281vxh6d","first name":"Matt","state":"MN"},"type":"Feature","geometry":{"type":"Point","coordinates":[-93.2757,44.7764]}},{"properties":{"company":"Sole Proprietor","city":"Durham","zip":"27704","latitude":36.0421,"last name":"Correa","resource type":"Third Party","resource id":8725348,"longitude":-78.8395,"id":"a87s27ng46u0","first name":"DeShannon","state":"NC"},"type":"Feature","geometry":{"type":"Point","coordinates":[-78.8395,36.0421]}},{"properties":{"company":"Sole Proprietor","city":"Hillsborough","zip":"27278","latitude":36.075418,"last name":"Couch","resource type":"Third Party","resource id":1085570,"longitude":-79.099735,"id":"a87s27uyvch5","first name":"Jason","state":"NC"},"type":"Feature","geometry":{"type":"Point","coordinates":[-79.099735,36.075418]}},{"properties":{"company":"Sole Proprietor","city":"Chapel Hill","zip":"27517","latitude":35.8707,"last name":"Cowhig","resource type":"Third Party","resource id":4720585,"longitude":-79.0222,"id":"a87s27wqdbuc","first name":"John","state":"NC"},"type":"Feature","geometry":{"type":"Point","coordinates":[-79.0222,35.8707]}},{"properties":{"company":"EZ Tech Now","city":"Brooklyn","zip":"11226","latitude":40.649614,"last name":"Cox","resource type":"Third Party","resource id":6753565,"longitude":-73.953221,"id":"a87s27p3v6cq","first name":"Matthew","state":"NY"},"type":"Feature","geometry":{"type":"Point","coordinates":[-73.953221,40.649614]}},{"properties":{"company":"Sole Proprietor","city":"Las Vegas","zip":"89110","latitude":36.1739,"last name":"Crawford","resource type":"Third Party","resource id":8369683,"longitude":-115.0503,"id":"a87s27monvlq","first name":"Matthew","state":"NV"},"type":"Feature","geometry":{"type":"Point","coordinates":[-115.0503,36.1739]}},{"properties":{"company":"The Fax Doctor Company","city":"Hendersonville","zip":"37075","latitude":36.348,"last name":"Crum","resource type":"Third Party","resource id":4093106,"longitude":-86.6088,"id":"a87s27sgs42x","first name":"Joseph","state":"TN"},"type":"Feature","geometry":{"type":"Point","coordinates":[-86.6088,36.348]}},{"properties":{"company":"ME-NH Computer Services Inc","city":null,"zip":null,"latitude":43.6616,"last name":"Cunningham","resource type":"Third Party","resource id":5756666,"longitude":-70.2592,"id":"a87s27vu6gpx","first name":"Richard","state":null},"type":"Feature","geometry":{"type":"Point","coordinates":[-70.2592,43.6616]}},{"properties":{"company":"Dailey Service Group, LLC","city":"Kentwood","zip":"49508","latitude":42.8655,"last name":"Dailey Jr","resource type":"Third Party","resource id":1622444,"longitude":-85.6221,"id":"a87s27uhf4kz","first name":"Robert","state":"MI"},"type":"Feature","geometry":{"type":"Point","coordinates":[-85.6221,42.8655]}},{"properties":{"company":"Sole Proprietor","city":"Yonkers","zip":"10704","latitude":40.902944,"last name":"Daniel","resource type":"Third Party","resource id":4414461,"longitude":-73.865288,"id":"a87s27tuwkd1","first name":"Meral","state":"NY"},"type":"Feature","geometry":{"type":"Point","coordinates":[-73.865288,40.902944]}},{"properties":{"company":"Sole Proprietor","city":"Venice","zip":"34293","latitude":27.027117,"last name":"Daniell","resource type":"Third Party","resource id":6224830,"longitude":-82.390465,"id":"a87s27pvy33o","first name":"John","state":"FL"},"type":"Feature","geometry":{"type":"Point","coordinates":[-82.390465,27.027117]}},{"properties":{"company":"Sole Proprietor","city":"Ozone Park","zip":"11416","latitude":40.6844,"last name":"Davy","resource type":"Third Party","resource id":8857185,"longitude":-73.8499,"id":"a87s27trcnfs","first name":"Damani","state":"NY"},"type":"Feature","geometry":{"type":"Point","coordinates":[-73.8499,40.6844]}},{"properties":{"company":"Sole Proprietor","city":"Lawton","zip":"73501","latitude":34.5483,"last name":"Dawson","resource type":"Third Party","resource id":6278061,"longitude":-98.2849,"id":"a87s27z8fx4u","first name":"Darrell","state":"OK"},"type":"Feature","geometry":{"type":"Point","coordinates":[-98.2849,34.5483]}},{"properties":{"company":"Sole Proprietor","city":"las vegas","zip":"89128","latitude":36.1831,"last name":"De Armas","resource type":"Third Party","resource id":8486586,"longitude":-115.2587,"id":"a87s27xrqb2r","first name":"Jimmie","state":"NV"},"type":"Feature","geometry":{"type":"Point","coordinates":[-115.2587,36.1831]}},{"properties":{"company":"Company Name","city":"Henderson","zip":"89015","latitude":36.0457,"last name":"De La Rosa","resource type":"Third Party","resource id":3214150,"longitude":-114.9642,"id":"a87s27n8ks8g","first name":"Hector","state":"NV"},"type":"Feature","geometry":{"type":"Point","coordinates":[-114.9642,36.0457]}},{"properties":{"company":"Sole Proprietor","city":"Richmond","zip":"23229","latitude":37.5871,"last name":"DeProspo","resource type":"Third Party","resource id":4525166,"longitude":-77.5706,"id":"a87s2807vv23","first name":"Eric","state":"VA"},"type":"Feature","geometry":{"type":"Point","coordinates":[-77.5706,37.5871]}},{"properties":{"company":"Sole Proprietor","city":"williamsburg","zip":"23188","latitude":37.3369,"last name":"dickerson","resource type":"Third Party","resource id":1289955,"longitude":-76.771,"id":"a87s2826wifp","first name":"michael","state":"VA"},"type":"Feature","geometry":{"type":"Point","coordinates":[-76.771,37.3369]}},{"properties":{"company":"MonitorClosely.com","city":"Saint Charles","zip":"63301","latitude":38.8615,"last name":"Dinkins","resource type":"Third Party","resource id":9201260,"longitude":-90.4548,"id":"a87s27mfplzc","first name":"Paul","state":"MO"},"type":"Feature","geometry":{"type":"Point","coordinates":[-90.4548,38.8615]}},{"properties":{"company":"Premium Computers","city":"Springfield","zip":"65807","latitude":37.1661,"last name":"Diullo","resource type":"Third Party","resource id":3805204,"longitude":-93.3246,"id":"a87s27ouhanw","first name":"Steven","state":"MO"},"type":"Feature","geometry":{"type":"Point","coordinates":[-93.3246,37.1661]}},{"properties":{"company":"Edmond Computers","city":"Edmond","zip":"73034","latitude":35.683,"last name":"Dodd","resource type":"Third Party","resource id":5816308,"longitude":-97.3479,"id":"a87s27vaf404","first name":"Steven","state":"OK"},"type":"Feature","geometry":{"type":"Point","coordinates":[-97.3479,35.683]}},{"properties":{"company":"Progressive Resources &amp; Services, LLC","city":"Cottage Grove","zip":"97424","latitude":43.6808,"last name":"Donaldson","resource type":"Third Party","resource id":9980013,"longitude":-122.952,"id":"a87s280b6m2n","first name":"Lamech","state":"OR"},"type":"Feature","geometry":{"type":"Point","coordinates":[-122.952,43.6808]}},{"properties":{"company":"Sole Proprietor","city":"Madison","zip":"53703","latitude":43.0795,"last name":"Dorsey","resource type":"Third Party","resource id":1919151,"longitude":-89.3776,"id":"a87s27uxk0f8","first name":"Timothy","state":"WI"},"type":"Feature","geometry":{"type":"Point","coordinates":[-89.3776,43.0795]}},{"properties":{"company":"John Durcan","city":"Midlothian","zip":"23113","latitude":37.5382,"last name":"Durcan","resource type":"Third Party","resource id":5303908,"longitude":-77.6692,"id":"a87s27ltj7i2","first name":"John","state":"VA"},"type":"Feature","geometry":{"type":"Point","coordinates":[-77.6692,37.5382]}},{"properties":{"company":"Real Estate Rejuvenation","city":"Las Vegas","zip":"89115","latitude":36.224,"last name":"Dutson","resource type":"Third Party","resource id":1489143,"longitude":-115.083,"id":"a87s27nnf4j3","first name":"Joshua","state":"NV"},"type":"Feature","geometry":{"type":"Point","coordinates":[-115.083,36.224]}},{"properties":{"company":"GroMobi","city":"Harrisonburg","zip":"22801","latitude":38.5056,"last name":"Duvon","resource type":"Third Party","resource id":8674302,"longitude":-78.9398,"id":"a87s281464wr","first name":"Eric","state":"VA"},"type":"Feature","geometry":{"type":"Point","coordinates":[-78.9398,38.5056]}},{"properties":{"company":"Sole Proprietor","city":"Fresno","zip":"93726","latitude":36.729844,"last name":"Eagles","resource type":"Third Party","resource id":2920547,"longitude":-119.778421,"id":"a87s27o0k9be","first name":"Nickolas","state":"CA"},"type":"Feature","geometry":{"type":"Point","coordinates":[-119.778421,36.729844]}},{"properties":{"company":"Blu-Dawg Computer Center","city":"Brunswick","zip":"04011","latitude":43.903,"last name":"Eaton","resource type":"Third Party","resource id":4440592,"longitude":-69.9809,"id":"a87s27op0rwg","first name":"Chris","state":"ME"},"type":"Feature","geometry":{"type":"Point","coordinates":[-69.9809,43.903]}},{"properties":{"company":"Stellar Computer Services","city":"Gaylord","zip":"49735","latitude":44.9934,"last name":"Erat","resource type":"Third Party","resource id":6384300,"longitude":-84.6766,"id":"a87s27piiz3h","first name":"Robert","state":"MI"},"type":"Feature","geometry":{"type":"Point","coordinates":[-84.6766,44.9934]}},{"properties":{"company":"Sole Proprietor","city":"Millington","zip":"38053","latitude":35.3343,"last name":"Escue","resource type":"Third Party","resource id":3485938,"longitude":-89.9316,"id":"a87s27r7zk9f","first name":"Michael","state":"TN"},"type":"Feature","geometry":{"type":"Point","coordinates":[-89.9316,35.3343]}},{"properties":{"company":"Sole Proprietor","city":"Chattanooga","zip":"37416","latitude":35.1014,"last name":"Esswein","resource type":"Third Party","resource id":3387477,"longitude":-85.1757,"id":"a87s27piuc5e","first name":"Christopher","state":"TN"},"type":"Feature","geometry":{"type":"Point","coordinates":[-85.1757,35.1014]}},{"properties":{"company":"Sole Proprietor","city":"Ashland","zip":"01721","latitude":42.2571,"last name":"Evdokimov","resource type":"Third Party","resource id":5487349,"longitude":-71.468,"id":"a87s27nt608o","first name":"Vitaly","state":"MA"},"type":"Feature","geometry":{"type":"Point","coordinates":[-71.468,42.2571]}},{"properties":{"company":"Addtech Controls","city":"South Jordan","zip":"84095","latitude":40.5586,"last name":"Fair","resource type":"Third Party","resource id":6137877,"longitude":-111.9523,"id":"a87s27vzfmro","first name":"James","state":"UT"},"type":"Feature","geometry":{"type":"Point","coordinates":[-111.9523,40.5586]}},{"properties":{"company":"Sole Proprietor","city":"Jacksonville","zip":"32216","latitude":30.2785,"last name":"Fall","resource type":"Third Party","resource id":4557915,"longitude":-81.583,"id":"a87s27vm70op","first name":"Chris","state":"FL"},"type":"Feature","geometry":{"type":"Point","coordinates":[-81.583,30.2785]}},{"properties":{"company":"Sole Proprietor","city":"Tomah","zip":"54660","latitude":44.0237,"last name":"Farina","resource type":"Third Party","resource id":2887887,"longitude":-90.4921,"id":"a87s27ludfkp","first name":"William","state":"WI"},"type":"Feature","geometry":{"type":"Point","coordinates":[-90.4921,44.0237]}},{"properties":{"company":"CFX Corporation","city":"Alburquerque","zip":"87120","latitude":35.101372,"last name":"Fenton","resource type":"Third Party","resource id":2877745,"longitude":-106.654389,"id":"a87s27ojs8q9","first name":"Craig","state":"NM"},"type":"Feature","geometry":{"type":"Point","coordinates":[-106.654389,35.101372]}},{"properties":{"company":"Sole Proprietor","city":"Rio Rancho","zip":"87144","latitude":35.2818,"last name":"Fernandez","resource type":"Third Party","resource id":8808688,"longitude":-106.7132,"id":"a87s27vf26mz","first name":"Juan","state":"NM"},"type":"Feature","geometry":{"type":"Point","coordinates":[-106.7132,35.2818]}},{"properties":{"company":"Sole Proprietor","city":"Albuquerque","zip":"87114","latitude":35.1989,"last name":"Ferrando","resource type":"Third Party","resource id":4570194,"longitude":-106.7032,"id":"a87s27mmyeqr","first name":"Mike","state":"NM"},"type":"Feature","geometry":{"type":"Point","coordinates":[-106.7032,35.1989]}},{"properties":{"company":"A &amp; V   Computer Group, LLC","city":"Evans","zip":"30809","latitude":33.550483,"last name":"Ferris","resource type":"Third Party","resource id":4160858,"longitude":-82.108295,"id":"a87s27zq3f9i","first name":"Vernon","state":"GA"},"type":"Feature","geometry":{"type":"Point","coordinates":[-82.108295,33.550483]}},{"properties":{"company":"Secure Contractor, LLC","city":"Broken Arrow","zip":"74012","latitude":36.031943,"last name":"Firey","resource type":"Third Party","resource id":1037205,"longitude":-95.795089,"id":"a87s27utycmr","first name":"Michael","state":"OK"},"type":"Feature","geometry":{"type":"Point","coordinates":[-95.795089,36.031943]}},{"properties":{"company":"Allstar Communications","city":"Anchorage","zip":"99515","latitude":61.108589,"last name":"Fischer","resource type":"Third Party","resource id":7042136,"longitude":-149.863174,"id":"a87s27na2b40","first name":"Janet","state":"AK"},"type":"Feature","geometry":{"type":"Point","coordinates":[-149.863174,61.108589]}},{"properties":{"company":"Sole Proprietor","city":"Minneapolis","zip":"55414","latitude":44.979,"last name":"Fischer","resource type":"Third Party","resource id":5159533,"longitude":-93.2262,"id":"a87s27wva9n6","first name":"Jonathan","state":"MN"},"type":"Feature","geometry":{"type":"Point","coordinates":[-93.2262,44.979]}},{"properties":{"company":"Sole Proprietor","city":"Minneapolis","zip":"55431","latitude":44.8262,"last name":"Fischer","resource type":"Third Party","resource id":9656852,"longitude":-93.3119,"id":"a87s281l9k0k","first name":"Gene","state":"MN"},"type":"Feature","geometry":{"type":"Point","coordinates":[-93.3119,44.8262]}},{"properties":{"company":"Sole Proprietor","city":"Muskego","zip":"53150","latitude":42.8864,"last name":"Fischer","resource type":"Third Party","resource id":5399793,"longitude":-88.1268,"id":"a87s27oz3nrl","first name":"John","state":"WI"},"type":"Feature","geometry":{"type":"Point","coordinates":[-88.1268,42.8864]}},{"properties":{"company":"Sole Proprietor","city":"South Grafton","zip":"01560","latitude":42.175669,"last name":"Flynn","resource type":"Third Party","resource id":4732109,"longitude":-71.685614,"id":"a87s27ofhta5","first name":"Michael","state":"MA"},"type":"Feature","geometry":{"type":"Point","coordinates":[-71.685614,42.175669]}},{"properties":{"company":"Sole Proprietor","city":"Portsmouth","zip":"23701","latitude":36.8107,"last name":"Ford","resource type":"Third Party","resource id":1422779,"longitude":-76.3702,"id":"a87s27m8zc23","first name":"Jermerll","state":"VA"},"type":"Feature","geometry":{"type":"Point","coordinates":[-76.3702,36.8107]}},{"properties":{"company":"City PC Service","city":"Hempstead","zip":"11550","latitude":40.7032,"last name":"Forrester","resource type":"Third Party","resource id":7187648,"longitude":-73.6188,"id":"a87s27zci2m5","first name":"Patrick","state":"NY"},"type":"Feature","geometry":{"type":"Point","coordinates":[-73.6188,40.7032]}},{"properties":{"company":"Sole Proprietor","city":"Petoskey","zip":"49770","latitude":45.3433,"last name":"Francis","resource type":"Third Party","resource id":5577288,"longitude":-84.8827,"id":"a87s27wxbk50","first name":"Russ","state":"MI"},"type":"Feature","geometry":{"type":"Point","coordinates":[-84.8827,45.3433]}},{"properties":{"company":"H.O.T Inc","city":null,"zip":null,"latitude":40.783,"last name":"Frangipane","resource type":"Third Party","resource id":9504040,"longitude":-73.639,"id":"a87s27wt2dzv","first name":"John","state":null},"type":"Feature","geometry":{"type":"Point","coordinates":[-73.639,40.783]}},{"properties":{"company":"Sole Proprietor","city":"Sparta","zip":"38583","latitude":35.9428,"last name":"Frasier","resource type":"Third Party","resource id":7809793,"longitude":-85.4474,"id":"a87s27va62uf","first name":"William \"Matt\"","state":"TN"},"type":"Feature","geometry":{"type":"Point","coordinates":[-85.4474,35.9428]}},{"properties":{"company":"Sole Proprietor","city":"Memphis","zip":"38119","latitude":35.065768,"last name":"Fruitticher","resource type":"Third Party","resource id":1354692,"longitude":-89.843802,"id":"a87s27wazrbu","first name":"Michael","state":"TN"},"type":"Feature","geometry":{"type":"Point","coordinates":[-89.843802,35.065768]}},{"properties":{"company":"Sole Proprietor","city":"crawfordville","zip":"32327","latitude":30.2059,"last name":"Fulater","resource type":"Third Party","resource id":4320172,"longitude":-84.3161,"id":"a87s27pacftj","first name":"Jack","state":"FL"},"type":"Feature","geometry":{"type":"Point","coordinates":[-84.3161,30.2059]}},{"properties":{"company":"PC SERVICES 4U LLC","city":"Ridgewood","zip":"11385","latitude":40.7008,"last name":"Galeano","resource type":"Third Party","resource id":3241983,"longitude":-73.8892,"id":"a87s280nfbsl","first name":"Christian","state":"NY"},"type":"Feature","geometry":{"type":"Point","coordinates":[-73.8892,40.7008]}},{"properties":{"company":"Computerixe","city":"Las Vegas","zip":"89110","latitude":36.168601,"last name":"Gardner","resource type":"Third Party","resource id":7338018,"longitude":-115.019595,"id":"a87s27pzwirr","first name":"Richard","state":"NV"},"type":"Feature","geometry":{"type":"Point","coordinates":[-115.019595,36.168601]}},{"properties":{"company":"Sole Proprietor","city":"bartlesville","zip":"74006","latitude":36.7204,"last name":"Garza","resource type":"Third Party","resource id":2094129,"longitude":-95.8873,"id":"a87s27nxw9c8","first name":"Damien","state":"OK"},"type":"Feature","geometry":{"type":"Point","coordinates":[-95.8873,36.7204]}},{"properties":{"company":"Gates Audio Cable &amp; Networking","city":"Lake Wales","zip":"33880","latitude":27.9768,"last name":"Gates","resource type":"Third Party","resource id":2113952,"longitude":-81.764,"id":"a87s27r5y0pq","first name":"Greg","state":"FL"},"type":"Feature","geometry":{"type":"Point","coordinates":[-81.764,27.9768]}},{"properties":{"company":"Lunar Electrical Contractor, Inc.","city":"Old Bridge","zip":"08857","latitude":40.3948,"last name":"Giambrone","resource type":"Third Party","resource id":8808331,"longitude":-74.3294,"id":"a87s27sash4f","first name":"Ron","state":"NJ"},"type":"Feature","geometry":{"type":"Point","coordinates":[-74.3294,40.3948]}},{"properties":{"company":"Down Home Computing and Electronics","city":"Decatur","zip":"37322","latitude":35.42347,"last name":"Gilchrist","resource type":"Third Party","resource id":3622263,"longitude":-84.965625,"id":"a87s27mt5k14","first name":"Robert","state":"TN"},"type":"Feature","geometry":{"type":"Point","coordinates":[-84.965625,35.42347]}},{"properties":{"company":"GILL ELECTRONICS","city":"Lake Worth","zip":"33460","latitude":26.631633,"last name":"GILL","resource type":"Third Party","resource id":2987489,"longitude":-80.058543,"id":"a87s27zxj0qx","first name":"MICHAEL","state":"FL"},"type":"Feature","geometry":{"type":"Point","coordinates":[-80.058543,26.631633]}},{"properties":{"company":"DYG Technologies","city":"Tallahassee","zip":"32303","latitude":30.517088,"last name":"Gilmore","resource type":"Third Party","resource id":2792221,"longitude":-84.353332,"id":"a87s27ni5cdp","first name":"Dan","state":"FL"},"type":"Feature","geometry":{"type":"Point","coordinates":[-84.353332,30.517088]}},{"properties":{"company":"Badger State Computer","city":"Lake Mills","zip":"53551","latitude":43.075536,"last name":"Glass","resource type":"Third Party","resource id":5186153,"longitude":-88.914355,"id":"a87s27umis8l","first name":"Richard","state":"WI"},"type":"Feature","geometry":{"type":"Point","coordinates":[-88.914355,43.075536]}},{"properties":{"company":"Sole Proprietor","city":"Spring Hill","zip":"34609","latitude":28.517542,"last name":"Godfrey","resource type":"Third Party","resource id":4239709,"longitude":-82.514421,"id":"a87s28243h15","first name":"Mike","state":"FL"},"type":"Feature","geometry":{"type":"Point","coordinates":[-82.514421,28.517542]}},{"properties":{"company":"SSAI llc","city":"Madison","zip":"53713","latitude":43.0359,"last name":"Golesh","resource type":"Third Party","resource id":7540808,"longitude":-89.3925,"id":"a87s27mrdgjn","first name":"Ron","state":"WI"},"type":"Feature","geometry":{"type":"Point","coordinates":[-89.3925,43.0359]}},{"properties":{"company":"Sole Proprietor","city":"WOODBRIDGE","zip":"22193","latitude":38.6486,"last name":"Gomez","resource type":"Third Party","resource id":3624476,"longitude":-77.3446,"id":"a87s27nq6qru","first name":"Carlos","state":"VA"},"type":"Feature","geometry":{"type":"Point","coordinates":[-77.3446,38.6486]}},{"properties":{"company":"Sole Proprietor","city":"Tampa","zip":"33624","latitude":28.0774,"last name":"Gonzales","resource type":"Third Party","resource id":4159462,"longitude":-82.5225,"id":"a87s27ovt8rp","first name":"Ed","state":"FL"},"type":"Feature","geometry":{"type":"Point","coordinates":[-82.5225,28.0774]}},{"properties":{"company":"Computer Repair &amp; Upgrade","city":"Port Saint Lucie","zip":"34953","latitude":27.2495,"last name":"Gordon","resource type":"Third Party","resource id":5326598,"longitude":-80.382,"id":"a87s27qch5qb","first name":"Alex","state":"FL"},"type":"Feature","geometry":{"type":"Point","coordinates":[-80.382,27.2495]}},{"properties":{"company":"Sole Proprietor","city":"Smithfield","zip":"02917","latitude":41.917604,"last name":"Goyette","resource type":"Third Party","resource id":3228739,"longitude":-71.55048,"id":"a87s27ohc1qm","first name":"Michael","state":"RI"},"type":"Feature","geometry":{"type":"Point","coordinates":[-71.55048,41.917604]}},{"properties":{"company":"TechSource","city":"Altus","zip":"73521","latitude":34.6829,"last name":"Granados","resource type":"Third Party","resource id":2613041,"longitude":-99.3441,"id":"a87s27vl5nxr","first name":"RJ","state":"OK"},"type":"Feature","geometry":{"type":"Point","coordinates":[-99.3441,34.6829]}},{"properties":{"company":"Sole Proprietor","city":"Petersburg","zip":"23803","latitude":37.2163,"last name":"Green","resource type":"Third Party","resource id":5688336,"longitude":-77.4783,"id":"a87s27qz9q56","first name":"Solita","state":"VA"},"type":"Feature","geometry":{"type":"Point","coordinates":[-77.4783,37.2163]}},{"properties":{"company":"Sole Proprietor","city":"Franklin","zip":"53132","latitude":42.927316,"last name":"Gretic","resource type":"Third Party","resource id":8688405,"longitude":-88.044094,"id":"a87s27xc6xxl","first name":"John","state":"WI"},"type":"Feature","geometry":{"type":"Point","coordinates":[-88.044094,42.927316]}},{"properties":{"company":"Sole Proprietor","city":"Williamsburg","zip":"23188","latitude":37.295596,"last name":"Griffin","resource type":"Third Party","resource id":8606947,"longitude":-76.764914,"id":"a87s281440sd","first name":"Dexter","state":"VA"},"type":"Feature","geometry":{"type":"Point","coordinates":[-76.764914,37.295596]}},{"properties":{"company":"Sole Proprietor","city":"Clarksburg","zip":"65025","latitude":38.6302,"last name":"griffith","resource type":"Third Party","resource id":3118367,"longitude":-92.6802,"id":"a87s27ocyn0c","first name":"roman","state":"MO"},"type":"Feature","geometry":{"type":"Point","coordinates":[-92.6802,38.6302]}},{"properties":{"company":"Geektou.com","city":"Richmond","zip":"23225","latitude":37.5175,"last name":"Griggs","resource type":"Third Party","resource id":6784171,"longitude":-77.5123,"id":"a87s27qosk77","first name":"Jim","state":"VA"},"type":"Feature","geometry":{"type":"Point","coordinates":[-77.5123,37.5175]}},{"properties":{"company":"The Knowledge Connection","city":"Roanoke","zip":"24016","latitude":37.2725,"last name":"Grogan","resource type":"Third Party","resource id":7738225,"longitude":-79.9556,"id":"a87s2826jfkl","first name":"Lewis","state":"VA"},"type":"Feature","geometry":{"type":"Point","coordinates":[-79.9556,37.2725]}},{"properties":{"company":"OutSource Technology","city":"Minneapolis","zip":"55426","latitude":44.9563,"last name":"Gruesner","resource type":"Third Party","resource id":1673670,"longitude":-93.3817,"id":"a87s27wntfvv","first name":"Harold","state":"MN"},"type":"Feature","geometry":{"type":"Point","coordinates":[-93.3817,44.9563]}},{"properties":{"company":"VIP Tech, LLC","city":"Staten Island","zip":"10303","latitude":40.6311,"last name":"Guadalupe","resource type":"Third Party","resource id":3083543,"longitude":-74.1722,"id":"a87s27qu88sn","first name":"Steven","state":"NY"},"type":"Feature","geometry":{"type":"Point","coordinates":[-74.1722,40.6311]}},{"properties":{"company":"Fast teks Consite computer services","city":"Metuchen","zip":"08840","latitude":40.5419,"last name":"guddat","resource type":"Third Party","resource id":8712395,"longitude":-74.3626,"id":"a87s2812get3","first name":"joe","state":"NJ"},"type":"Feature","geometry":{"type":"Point","coordinates":[-74.3626,40.5419]}},{"properties":{"company":"Netcom USA Inc","city":"Manhattan","zip":"10016","latitude":40.7445,"last name":"Gupta","resource type":"Third Party","resource id":6004298,"longitude":-73.9782,"id":"a87s27xp5vlr","first name":"Vikas","state":"NY"},"type":"Feature","geometry":{"type":"Point","coordinates":[-73.9782,40.7445]}},{"properties":{"company":"Sole Proprietor","city":"Milwaukee","zip":"53201","latitude":43.03,"last name":"Haas","resource type":"Third Party","resource id":7480656,"longitude":-87.92,"id":"a87s27u6fd0t","first name":"Timothy","state":"WI"},"type":"Feature","geometry":{"type":"Point","coordinates":[-87.92,43.03]}},{"properties":{"company":"iCompuNet, Inc.","city":"New York","zip":"10038","latitude":40.707668,"last name":"Habib","resource type":"Third Party","resource id":3641415,"longitude":-74.007785,"id":"a87s27o23bq4","first name":"Hani","state":"NY"},"type":"Feature","geometry":{"type":"Point","coordinates":[-74.007785,40.707668]}},{"properties":{"company":"IT Solutions","city":"Springfield Gardens","zip":"11413","latitude":40.6722,"last name":"Hailu","resource type":"Third Party","resource id":6486724,"longitude":-73.7509,"id":"a87s27pu9onw","first name":"Adeye","state":"NY"},"type":"Feature","geometry":{"type":"Point","coordinates":[-73.7509,40.6722]}},{"properties":{"company":"Sole Proprietor","city":"New York","zip":"10026","latitude":40.8031,"last name":"Hairston","resource type":"Third Party","resource id":6325682,"longitude":-73.9536,"id":"a87s27zxoew8","first name":"Douglas","state":"NY"},"type":"Feature","geometry":{"type":"Point","coordinates":[-73.9536,40.8031]}},{"properties":{"company":"COMPMLH","city":"Osage Beach","zip":"65065","latitude":38.1262,"last name":"Hake","resource type":"Third Party","resource id":8005600,"longitude":-92.6898,"id":"a87s27t5gvpo","first name":"Mike","state":"MO"},"type":"Feature","geometry":{"type":"Point","coordinates":[-92.6898,38.1262]}},{"properties":{"company":"Sole Proprietor","city":"St. Louis","zip":"63129","latitude":38.4581,"last name":"Halbrook","resource type":"Third Party","resource id":9305912,"longitude":-90.3236,"id":"a87s27xnj91l","first name":"Ray","state":"MO"},"type":"Feature","geometry":{"type":"Point","coordinates":[-90.3236,38.4581]}},{"properties":{"company":"Sole Proprietor","city":"Marion","zip":"49665","latitude":44.102475,"last name":"Hall","resource type":"Third Party","resource id":7062913,"longitude":-85.195449,"id":"a87s27yprnhh","first name":"Stephen","state":"MI"},"type":"Feature","geometry":{"type":"Point","coordinates":[-85.195449,44.102475]}},{"properties":{"company":"Sole Proprietor","city":"Broken Arrow","zip":"74012","latitude":36.034973,"last name":"Hall","resource type":"Third Party","resource id":5849878,"longitude":-95.810149,"id":"a87s27ux4co5","first name":"Jeremy","state":"OK"},"type":"Feature","geometry":{"type":"Point","coordinates":[-95.810149,36.034973]}},{"properties":{"company":"Sole Proprietor","city":"Provo","zip":"84604","latitude":40.285608,"last name":"Hall","resource type":"Third Party","resource id":6601919,"longitude":-111.665091,"id":"a87s27p10cz1","first name":"James","state":"UT"},"type":"Feature","geometry":{"type":"Point","coordinates":[-111.665091,40.285608]}},{"properties":{"company":"Sole Proprietor","city":"Eureka","zip":"63025","latitude":38.5081,"last name":"Hanks","resource type":"Third Party","resource id":6807520,"longitude":-90.6523,"id":"a87s27s8svhb","first name":"William","state":"MO"},"type":"Feature","geometry":{"type":"Point","coordinates":[-90.6523,38.5081]}},{"properties":{"company":"Pair O' Dice Enterprises LLC","city":"Holdenville","zip":"74848","latitude":35.0789,"last name":"Hans","resource type":"Third Party","resource id":6351058,"longitude":-96.319,"id":"a87s27onsbe2","first name":"James","state":"OK"},"type":"Feature","geometry":{"type":"Point","coordinates":[-96.319,35.0789]}},{"properties":{"company":"Sole Proprietor","city":"Raleigh","zip":"27675","latitude":35.9,"last name":"Hardy","resource type":"Third Party","resource id":2557850,"longitude":-78.75,"id":"a87s27rwqjbw","first name":"Alesia","state":"NC"},"type":"Feature","geometry":{"type":"Point","coordinates":[-78.75,35.9]}},{"properties":{"company":"Sole Proprietor","city":null,"zip":null,"latitude":36.1083,"last name":"Hart","resource type":"Third Party","resource id":2807079,"longitude":-86.6676,"id":"a87s27ppterm","first name":"Calvin","state":null},"type":"Feature","geometry":{"type":"Point","coordinates":[-86.6676,36.1083]}},{"properties":{"company":"PAV Installations.com","city":"Richmond","zip":"23222","latitude":37.5807,"last name":"Harvey","resource type":"Third Party","resource id":1948508,"longitude":-77.4193,"id":"a87s27ty22wl","first name":"Matt","state":"VA"},"type":"Feature","geometry":{"type":"Point","coordinates":[-77.4193,37.5807]}},{"properties":{"company":"Virtual Edge Technologies LLC","city":"Lake Placid","zip":"33852","latitude":27.265,"last name":"Hayden","resource type":"Third Party","resource id":9946443,"longitude":-81.4012,"id":"a87s27uvn6u8","first name":"Keith","state":"FL"},"type":"Feature","geometry":{"type":"Point","coordinates":[-81.4012,27.265]}},{"properties":{"company":"Sole Proprietor","city":"Cary","zip":"27513","latitude":35.79492,"last name":"Haywood","resource type":"Third Party","resource id":8764106,"longitude":-78.794771,"id":"a87s27pbqawp","first name":"Leon","state":"NC"},"type":"Feature","geometry":{"type":"Point","coordinates":[-78.794771,35.79492]}},{"properties":{"company":"Vivid Technologies","city":"Burlington","zip":"05401","latitude":44.454921,"last name":"Hebert","resource type":"Third Party","resource id":9439923,"longitude":-73.20784,"id":"a87s27zyul4o","first name":"Gary","state":"VT"},"type":"Feature","geometry":{"type":"Point","coordinates":[-73.20784,44.454921]}},{"properties":{"company":"County Computer Consulting LLC","city":"Ballwin","zip":"63011","latitude":38.594994,"last name":"Heidbrink","resource type":"Third Party","resource id":4745435,"longitude":-90.536827,"id":"a87s27zj1x0p","first name":"Ray","state":"MO"},"type":"Feature","geometry":{"type":"Point","coordinates":[-90.536827,38.594994]}},{"properties":{"company":"Computer Troubleshooters (Tysons Corner)","city":"Vienna","zip":"22180","latitude":38.897128,"last name":"Henderson","resource type":"Third Party","resource id":5054487,"longitude":-77.270788,"id":"a87s27qj2c2g","first name":"Clint","state":"VA"},"type":"Feature","geometry":{"type":"Point","coordinates":[-77.270788,38.897128]}},{"properties":{"company":"Sole Proprietor","city":"Ridgeway","zip":"24148","latitude":36.5815,"last name":"Hernandez","resource type":"Third Party","resource id":1439085,"longitude":-79.8713,"id":"a87s27n2hc55","first name":"John","state":"VA"},"type":"Feature","geometry":{"type":"Point","coordinates":[-79.8713,36.5815]}},{"properties":{"company":"PCWorks","city":"Kenosha","zip":"53142","latitude":42.5328,"last name":"Hernandez","resource type":"Third Party","resource id":5370772,"longitude":-87.9203,"id":"a87s27spcu0h","first name":"Jason","state":"WI"},"type":"Feature","geometry":{"type":"Point","coordinates":[-87.9203,42.5328]}},{"properties":{"company":"MarketStar","city":"Eugene","zip":"97408","latitude":44.1549,"last name":"Higer","resource type":"Third Party","resource id":8155389,"longitude":-123.0624,"id":"a87s27ts3e6i","first name":"Warren","state":"OR"},"type":"Feature","geometry":{"type":"Point","coordinates":[-123.0624,44.1549]}},{"properties":{"company":"teach-a-tech","city":"new haven","zip":"48048","latitude":42.733129,"last name":"Higgins","resource type":"Third Party","resource id":5402294,"longitude":-82.789184,"id":"a87s27wfni2y","first name":"Annette","state":"MI"},"type":"Feature","geometry":{"type":"Point","coordinates":[-82.789184,42.733129]}},{"properties":{"company":"Sole Proprietor","city":null,"zip":null,"latitude":35.7483,"last name":"Hinton","resource type":"Third Party","resource id":7653553,"longitude":-78.5419,"id":"a87s27zej1bl","first name":"Anthony","state":null},"type":"Feature","geometry":{"type":"Point","coordinates":[-78.5419,35.7483]}},{"properties":{"company":"Techies 4 U, Inc.","city":"Lansing","zip":"48917","latitude":42.7255,"last name":"Hirschi","resource type":"Third Party","resource id":2550726,"longitude":-84.6385,"id":"a87s27xei6iu","first name":"Dustin","state":"MI"},"type":"Feature","geometry":{"type":"Point","coordinates":[-84.6385,42.7255]}},{"properties":{"company":"SYFTKOG","city":"Fredericksburg","zip":"22407","latitude":38.2892,"last name":"Hodge","resource type":"Third Party","resource id":1292610,"longitude":-77.5793,"id":"a87s27x30x3d","first name":"Davie","state":"VA"},"type":"Feature","geometry":{"type":"Point","coordinates":[-77.5793,38.2892]}},{"properties":{"company":"V.I.PC","city":"Durham","zip":"27703","latitude":35.9655,"last name":"Hodge","resource type":"Third Party","resource id":5964855,"longitude":-78.8009,"id":"a87s27p19npv","first name":"John","state":"NC"},"type":"Feature","geometry":{"type":"Point","coordinates":[-78.8009,35.9655]}},{"properties":{"company":"Technical Services Company","city":"Freeport","zip":"04032","latitude":43.886978,"last name":"Hodgkins","resource type":"Third Party","resource id":7365001,"longitude":-70.094159,"id":"a87s27qbale5","first name":"Bill","state":"ME"},"type":"Feature","geometry":{"type":"Point","coordinates":[-70.094159,43.886978]}},{"properties":{"company":"Sole Proprietor","city":"Caledonia","zip":"49316","latitude":42.84394,"last name":"Hoffer","resource type":"Third Party","resource id":8849181,"longitude":-85.616949,"id":"a87s27qgc2qp","first name":"William","state":"MI"},"type":"Feature","geometry":{"type":"Point","coordinates":[-85.616949,42.84394]}},{"properties":{"company":"Sole Proprietor","city":"ocala","zip":"34474","latitude":29.1538,"last name":"Hoffer","resource type":"Third Party","resource id":7361722,"longitude":-82.1862,"id":"a87s27vhzmrw","first name":"James","state":"FL"},"type":"Feature","geometry":{"type":"Point","coordinates":[-82.1862,29.1538]}},{"properties":{"company":"KFH Electronics","city":null,"zip":null,"latitude":42.8738,"last name":"Hoffman","resource type":"Third Party","resource id":4689781,"longitude":-88.3526,"id":"a87s27rgg7qr","first name":"Kenneth","state":null},"type":"Feature","geometry":{"type":"Point","coordinates":[-88.3526,42.8738]}},{"properties":{"company":"Sole Proprietor","city":"Willow Springs","zip":"65793","latitude":37.0098,"last name":"Holland","resource type":"Third Party","resource id":9255402,"longitude":-91.9178,"id":"a87s27p2j38q","first name":"Brian","state":"MO"},"type":"Feature","geometry":{"type":"Point","coordinates":[-91.9178,37.0098]}},{"properties":{"company":"Sole Proprietor","city":"Albuquerque","zip":"87108","latitude":35.0673,"last name":"Holmes","resource type":"Third Party","resource id":7036937,"longitude":-106.5813,"id":"a87s27m32g1y","first name":"Leroy","state":"NM"},"type":"Feature","geometry":{"type":"Point","coordinates":[-106.5813,35.0673]}},{"properties":{"company":"Sole Proprietor","city":"Panama City","zip":"32405","latitude":30.1989,"last name":"Holmes","resource type":"Third Party","resource id":7418880,"longitude":-85.6581,"id":"a87s27wagouc","first name":"Robert","state":"FL"},"type":"Feature","geometry":{"type":"Point","coordinates":[-85.6581,30.1989]}},{"properties":{"company":"Milwaukee Techs LLC","city":"West Allis","zip":"53214","latitude":43.0204,"last name":"Hoppe","resource type":"Third Party","resource id":6853451,"longitude":-88.0169,"id":"a87s27xhxx3w","first name":"Jacob","state":"WI"},"type":"Feature","geometry":{"type":"Point","coordinates":[-88.0169,43.0204]}},{"properties":{"company":"Horton Technology Consulting","city":"Virginia Beach","zip":"23451","latitude":36.8632,"last name":"Horton","resource type":"Third Party","resource id":7208363,"longitude":-76.0008,"id":"a87s27qqlb0b","first name":"Mike","state":"VA"},"type":"Feature","geometry":{"type":"Point","coordinates":[-76.0008,36.8632]}},{"properties":{"company":"JDJ &amp; Company, LLC","city":"Oxford","zip":"48371","latitude":42.8396,"last name":"Horton","resource type":"Third Party","resource id":3619176,"longitude":-83.292,"id":"a87s27u8u7mo","first name":"James","state":"MI"},"type":"Feature","geometry":{"type":"Point","coordinates":[-83.292,42.8396]}},{"properties":{"company":"Sole Proprietor","city":"Warwick","zip":"02886","latitude":41.709555,"last name":"Howard","resource type":"Third Party","resource id":2136558,"longitude":-71.420255,"id":"a87s27x9h1fg","first name":"Marshall","state":"RI"},"type":"Feature","geometry":{"type":"Point","coordinates":[-71.420255,41.709555]}},{"properties":{"company":"Over the Moon IT Services","city":"Eau Claire","zip":"54703","latitude":44.817393,"last name":"Huettner","resource type":"Third Party","resource id":4019733,"longitude":-91.515557,"id":"a87s27v913vo","first name":"Anthony","state":"WI"},"type":"Feature","geometry":{"type":"Point","coordinates":[-91.515557,44.817393]}},{"properties":{"company":"Sole Proprietor","city":"Galesville","zip":"54630","latitude":44.081628,"last name":"James","resource type":"Third Party","resource id":1274974,"longitude":-91.349038,"id":"a87s27txihlm","first name":"Bryan","state":"WI"},"type":"Feature","geometry":{"type":"Point","coordinates":[-91.349038,44.081628]}},{"properties":{"company":"Courthouse Computers","city":"Raleigh","zip":"27617","latitude":35.909588,"last name":"James","resource type":"Third Party","resource id":4604015,"longitude":-78.788395,"id":"a87s27xf7yld","first name":"E L","state":"NC"},"type":"Feature","geometry":{"type":"Point","coordinates":[-78.788395,35.909588]}},{"properties":{"company":"RSJ Computer Repair &amp; Sales","city":"Scott City","zip":"63780","latitude":37.1648,"last name":"James","resource type":"Third Party","resource id":7080345,"longitude":-89.4816,"id":"a87s27mwc5qh","first name":"Ronnie","state":"MO"},"type":"Feature","geometry":{"type":"Point","coordinates":[-89.4816,37.1648]}},{"properties":{"company":"Sole Proprietor","city":"Morrisville","zip":"27560","latitude":35.8595,"last name":"Jarrett","resource type":"Third Party","resource id":8406033,"longitude":-78.8331,"id":"a87s280584vu","first name":"Kevin","state":"NC"},"type":"Feature","geometry":{"type":"Point","coordinates":[-78.8331,35.8595]}},{"properties":{"company":"Sole Proprietor","city":"Detroit","zip":"48210","latitude":42.3363,"last name":"Jarvis","resource type":"Third Party","resource id":4164169,"longitude":-83.1285,"id":"a87s27wbc43y","first name":"Glenn","state":"MI"},"type":"Feature","geometry":{"type":"Point","coordinates":[-83.1285,42.3363]}},{"properties":{"company":"Desktop Works","city":"Eugene","zip":"97401","latitude":44.0685,"last name":"Johnson","resource type":"Third Party","resource id":7137235,"longitude":-123.082,"id":"a87s27oiksgk","first name":"Johnathan","state":"OR"},"type":"Feature","geometry":{"type":"Point","coordinates":[-123.082,44.0685]}},{"properties":{"company":"Jamdung Web Design","city":"Port St Lucie","zip":"34953","latitude":27.237973,"last name":"Johnson","resource type":"Third Party","resource id":6965858,"longitude":-80.37197,"id":"a87s280mn9zu","first name":"Greg","state":"FL"},"type":"Feature","geometry":{"type":"Point","coordinates":[-80.37197,27.237973]}},{"properties":{"company":"Sole Proprietor","city":"West Warwick","zip":"02893","latitude":41.7,"last name":"Johnson","resource type":"Third Party","resource id":5000945,"longitude":-71.516,"id":"a87s27r6oige","first name":"Bruce","state":"RI"},"type":"Feature","geometry":{"type":"Point","coordinates":[-71.516,41.7]}},{"properties":{"company":"Sole Proprietor","city":"Havana","zip":"32333","latitude":30.677974,"last name":"Johnson","resource type":"Third Party","resource id":8468286,"longitude":-84.388716,"id":"a87s27zkwc67","first name":"Michael","state":"FL"},"type":"Feature","geometry":{"type":"Point","coordinates":[-84.388716,30.677974]}},{"properties":{"company":"SNT ACCESS ELEVATORS ENTRY AND LIFTS LLC","city":"AUGUSTA","zip":"30907","latitude":33.509261,"last name":"JOHNSON","resource type":"Third Party","resource id":9460358,"longitude":-82.084974,"id":"a87s27nza5wk","first name":"CHRISTOPHER","state":"GA"},"type":"Feature","geometry":{"type":"Point","coordinates":[-82.084974,33.509261]}},{"properties":{"company":"Professional Cross Connects, LLC","city":"Murfreesboro","zip":"37128","latitude":35.7913,"last name":"Johnson","resource type":"Third Party","resource id":5582492,"longitude":-86.473,"id":"a87s27yq4zwd","first name":"Candace","state":"TN"},"type":"Feature","geometry":{"type":"Point","coordinates":[-86.473,35.7913]}},{"properties":{"company":"Orion Computer Service","city":"Grandview","zip":"64030","latitude":38.906572,"last name":"Jongenelen","resource type":"Third Party","resource id":6166013,"longitude":-94.51534,"id":"a87s280np0gq","first name":"Greg","state":"MO"},"type":"Feature","geometry":{"type":"Point","coordinates":[-94.51534,38.906572]}},{"properties":{"company":"Sole Proprietor","city":"Vero Beach","zip":"32965","latitude":27.6383,"last name":"Jordan","resource type":"Third Party","resource id":4633160,"longitude":-80.3976,"id":"a87s27mwx5ms","first name":"Alex","state":"FL"},"type":"Feature","geometry":{"type":"Point","coordinates":[-80.3976,27.6383]}},{"properties":{"company":"Sole Proprietor","city":"Danville","zip":"24540","latitude":36.6603,"last name":"Joyner","resource type":"Third Party","resource id":5599879,"longitude":-79.4863,"id":"a87s27zmeniu","first name":"Harry","state":"VA"},"type":"Feature","geometry":{"type":"Point","coordinates":[-79.4863,36.6603]}},{"properties":{"company":"JVS Technology llc","city":"Memphis","zip":"38187","latitude":35.08,"last name":"Joyner","resource type":"Third Party","resource id":2410647,"longitude":-89.84,"id":"a87s27o5lyn6","first name":"Clyde","state":"TN"},"type":"Feature","geometry":{"type":"Point","coordinates":[-89.84,35.08]}},{"properties":{"company":"Sole Proprietor","city":"Forest","zip":"24551","latitude":37.339288,"last name":"Kamer","resource type":"Third Party","resource id":3330834,"longitude":-79.261551,"id":"a87s27zb2f9x","first name":"Michael","state":"VA"},"type":"Feature","geometry":{"type":"Point","coordinates":[-79.261551,37.339288]}},{"properties":{"company":"Kanson Corporation","city":"Upper Montclair","zip":"07470","latitude":40.9484,"last name":"Kanson","resource type":"Third Party","resource id":4898710,"longitude":-74.2449,"id":"a87s27zppgsl","first name":"David","state":"NJ"},"type":"Feature","geometry":{"type":"Point","coordinates":[-74.2449,40.9484]}},{"properties":{"company":"Keating's Communications","city":"Middleburg","zip":"32068","latitude":30.0963,"last name":"Keating","resource type":"Third Party","resource id":5786845,"longitude":-81.8791,"id":"a87s281rljmw","first name":"Brandon","state":"FL"},"type":"Feature","geometry":{"type":"Point","coordinates":[-81.8791,30.0963]}},{"properties":{"company":"Sole Proprietor","city":"Sturgis","zip":"49091","latitude":41.8205,"last name":"Keesler","resource type":"Third Party","resource id":7364410,"longitude":-85.4431,"id":"a87s27umxevg","first name":"Michael","state":"MI"},"type":"Feature","geometry":{"type":"Point","coordinates":[-85.4431,41.8205]}},{"properties":{"company":"Kelley &amp; Associates","city":"Virginia Beach","zip":"23452","latitude":36.837903,"last name":"Kelley","resource type":"Third Party","resource id":2468140,"longitude":-76.085931,"id":"a87s27wxr35b","first name":"Jeramy","state":"VA"},"type":"Feature","geometry":{"type":"Point","coordinates":[-76.085931,36.837903]}},{"properties":{"company":"Sole Proprietor","city":"Nashville","zip":"37209","latitude":36.1578,"last name":"Kimball","resource type":"Third Party","resource id":8082758,"longitude":-86.9241,"id":"a87s27yj1vw6","first name":"William","state":"TN"},"type":"Feature","geometry":{"type":"Point","coordinates":[-86.9241,36.1578]}},{"properties":{"company":"R.A King Networking &amp; Communications","city":"Raleigh","zip":"27606","latitude":35.7381,"last name":"King","resource type":"Third Party","resource id":2741118,"longitude":-78.7217,"id":"a87s27ocy4yt","first name":"Roy","state":"NC"},"type":"Feature","geometry":{"type":"Point","coordinates":[-78.7217,35.7381]}},{"properties":{"company":"Sole Proprietor","city":null,"zip":null,"latitude":35.9785,"last name":"King","resource type":"Third Party","resource id":1489467,"longitude":-84.0015,"id":"a87s282418fx","first name":"Joshua","state":null},"type":"Feature","geometry":{"type":"Point","coordinates":[-84.0015,35.9785]}},{"properties":{"company":"TNV Cabling","city":"Hastings","zip":"49058","latitude":42.650578,"last name":"Kiser","resource type":"Third Party","resource id":9270819,"longitude":-85.289255,"id":"a87s27q1k7oh","first name":"Shannon","state":"MI"},"type":"Feature","geometry":{"type":"Point","coordinates":[-85.289255,42.650578]}},{"properties":{"company":"Sole Proprietor","city":"Edmond","zip":"73003","latitude":35.663185,"last name":"Kissner","resource type":"Third Party","resource id":6862298,"longitude":-97.498091,"id":"a87s280jfyg9","first name":"Dan","state":"OK"},"type":"Feature","geometry":{"type":"Point","coordinates":[-97.498091,35.663185]}},{"properties":{"company":"Kluhsman Consulting","city":"Lamar","zip":"64759","latitude":37.500181,"last name":"Kluhsman","resource type":"Third Party","resource id":4676784,"longitude":-94.269681,"id":"a87s27v7zoyz","first name":"Kelli","state":"MO"},"type":"Feature","geometry":{"type":"Point","coordinates":[-94.269681,37.500181]}},{"properties":{"company":"Frank's Computer Software Support LLC.","city":"Midland","zip":"48642","latitude":43.6927,"last name":"Koenig","resource type":"Third Party","resource id":3574593,"longitude":-84.1831,"id":"a87s27vaiu2z","first name":"Frank","state":"MI"},"type":"Feature","geometry":{"type":"Point","coordinates":[-84.1831,43.6927]}},{"properties":{"company":"ThetaTech","city":"Virginia Beach","zip":"23455","latitude":36.8894,"last name":"Koon","resource type":"Third Party","resource id":5467057,"longitude":-76.148,"id":"a87s2820vl5j","first name":"Robert","state":"VA"},"type":"Feature","geometry":{"type":"Point","coordinates":[-76.148,36.8894]}},{"properties":{"company":"Sole Proprietor","city":"West Allis","zip":"53219","latitude":42.9957,"last name":"Kopps","resource type":"Third Party","resource id":4826000,"longitude":-87.9925,"id":"a87s27opjet6","first name":"Jonathan","state":"WI"},"type":"Feature","geometry":{"type":"Point","coordinates":[-87.9925,42.9957]}},{"properties":{"company":"Sole Proprietor","city":"Franklin","zip":"53132","latitude":42.8859,"last name":"Kopps","resource type":"Third Party","resource id":5947412,"longitude":-88.0106,"id":"a87s27p016j9","first name":"Jim","state":"WI"},"type":"Feature","geometry":{"type":"Point","coordinates":[-88.0106,42.8859]}},{"properties":{"company":"Sole Proprietor","city":"Tulsa","zip":"74129","latitude":36.1263,"last name":"Koschmeder","resource type":"Third Party","resource id":5114847,"longitude":-95.8691,"id":"a87s27psml9j","first name":"Mark","state":"OK"},"type":"Feature","geometry":{"type":"Point","coordinates":[-95.8691,36.1263]}},{"properties":{"company":"On Time Communications Inc.","city":"Highland Park","zip":"08904","latitude":40.5001,"last name":"Kramer","resource type":"Third Party","resource id":7715310,"longitude":-74.4284,"id":"a87s281g54or","first name":"Aaron","state":"NJ"},"type":"Feature","geometry":{"type":"Point","coordinates":[-74.4284,40.5001]}},{"properties":{"company":"Sole Proprietor","city":"okc","zip":"73162","latitude":35.5814,"last name":"Kreuzberg","resource type":"Third Party","resource id":3753156,"longitude":-97.6406,"id":"a87s27rs2zy5","first name":"Eric","state":"OK"},"type":"Feature","geometry":{"type":"Point","coordinates":[-97.6406,35.5814]}},{"properties":{"company":"t1tech","city":"Waterford","zip":"53185","latitude":42.796,"last name":"labarbera","resource type":"Third Party","resource id":1616319,"longitude":-88.1897,"id":"a87s27q3yvax","first name":"anthony","state":"WI"},"type":"Feature","geometry":{"type":"Point","coordinates":[-88.1897,42.796]}},{"properties":{"company":"ISandC","city":"Spring Hill","zip":"34609","latitude":28.4775,"last name":"Labetti","resource type":"Third Party","resource id":6546025,"longitude":-82.5142,"id":"a87s27my6e4p","first name":"Lou","state":"FL"},"type":"Feature","geometry":{"type":"Point","coordinates":[-82.5142,28.4775]}},{"properties":{"company":"Sole Proprietor","city":"Cary","zip":"27513","latitude":35.8053,"last name":"Lake","resource type":"Third Party","resource id":5714670,"longitude":-78.7974,"id":"a87s27noix09","first name":"Adrienne","state":"NC"},"type":"Feature","geometry":{"type":"Point","coordinates":[-78.7974,35.8053]}},{"properties":{"company":"Sole Proprietor","city":"Cranston","zip":"02910","latitude":41.784346,"last name":"Lam","resource type":"Third Party","resource id":2364063,"longitude":-71.441858,"id":"a87s27p10kup","first name":"Goak Lang","state":"RI"},"type":"Feature","geometry":{"type":"Point","coordinates":[-71.441858,41.784346]}},{"properties":{"company":"Computer Rescue","city":"Fairfield","zip":"04937","latitude":44.582187,"last name":"LaMarre","resource type":"Third Party","resource id":6499728,"longitude":-69.605036,"id":"a87s27vurwfa","first name":"Ryan","state":"ME"},"type":"Feature","geometry":{"type":"Point","coordinates":[-69.605036,44.582187]}},{"properties":{"company":"Sole Proprietor","city":"Farr West","zip":"84404","latitude":41.316245,"last name":"Lamers","resource type":"Third Party","resource id":3093422,"longitude":-112.0305,"id":"a87s27lx69cp","first name":"klaus","state":"UT"},"type":"Feature","geometry":{"type":"Point","coordinates":[-112.0305,41.316245]}},{"properties":{"company":"Sole Proprietor","city":"Brooklyn","zip":"11226","latitude":40.6463,"last name":"LAURORE","resource type":"Third Party","resource id":1316826,"longitude":-73.9564,"id":"a87s28284qty","first name":"Euler Fils","state":"NY"},"type":"Feature","geometry":{"type":"Point","coordinates":[-73.9564,40.6463]}},{"properties":{"company":"Sole Proprietor","city":"South Ozone Park","zip":"11436","latitude":40.675,"last name":"Lawson","resource type":"Third Party","resource id":6040329,"longitude":-73.7962,"id":"a87s27xuesdx","first name":"Andrel","state":"NY"},"type":"Feature","geometry":{"type":"Point","coordinates":[-73.7962,40.675]}},{"properties":{"company":"Sole Proprietor","city":"Norridgewock","zip":"04957","latitude":44.6623,"last name":"Leach","resource type":"Third Party","resource id":3585898,"longitude":-69.8656,"id":"a87s281li6n8","first name":"Craig","state":"ME"},"type":"Feature","geometry":{"type":"Point","coordinates":[-69.8656,44.6623]}},{"properties":{"company":"E &amp; E Industry LLC","city":"Nutley","zip":"07110","latitude":40.8192,"last name":"Lee","resource type":"Third Party","resource id":5743742,"longitude":-74.1574,"id":"a87s280uxcwg","first name":"Ernesto","state":"NJ"},"type":"Feature","geometry":{"type":"Point","coordinates":[-74.1574,40.8192]}},{"properties":{"company":"Sole Proprietor","city":"Newark","zip":"07104","latitude":40.7676,"last name":"Lennon","resource type":"Third Party","resource id":2774528,"longitude":-74.1695,"id":"a87s27tokpq2","first name":"Jude","state":"NJ"},"type":"Feature","geometry":{"type":"Point","coordinates":[-74.1695,40.7676]}},{"properties":{"company":"Sole Proprietor","city":"East Meadow","zip":"11554","latitude":40.7206,"last name":"Lerum","resource type":"Third Party","resource id":7100894,"longitude":-73.5614,"id":"a87s27wg0t34","first name":"John","state":"NY"},"type":"Feature","geometry":{"type":"Point","coordinates":[-73.5614,40.7206]}},{"properties":{"company":"Field Solutions","city":"Las Vegas","zip":"89131","latitude":36.2913,"last name":"Lewis","resource type":"Third Party","resource id":9172719,"longitude":-115.2383,"id":"a87s27vskdxv","first name":"Kenneth","state":"NV"},"type":"Feature","geometry":{"type":"Point","coordinates":[-115.2383,36.2913]}},{"properties":{"company":"Sole Proprietor","city":"Oklahoma City","zip":"73120","latitude":35.581,"last name":"Linders","resource type":"Third Party","resource id":5605631,"longitude":-97.57,"id":"a87s27yals7a","first name":"Achim","state":"OK"},"type":"Feature","geometry":{"type":"Point","coordinates":[-97.57,35.581]}},{"properties":{"company":"Sole Proprietor","city":"Lynchburg","zip":"24502","latitude":37.3516,"last name":"Little","resource type":"Third Party","resource id":8185046,"longitude":-79.2171,"id":"a87s27vyuyvd","first name":"Mike","state":"VA"},"type":"Feature","geometry":{"type":"Point","coordinates":[-79.2171,37.3516]}},{"properties":{"company":"Sole Proprietor","city":"Albuquerque","zip":"87112","latitude":35.1011,"last name":"Long","resource type":"Third Party","resource id":6458739,"longitude":-106.5163,"id":"a87s27vv0un0","first name":"Matthew","state":"NM"},"type":"Feature","geometry":{"type":"Point","coordinates":[-106.5163,35.1011]}},{"properties":{"company":"Sole Proprietor","city":"Yonkers","zip":"10701","latitude":40.9431,"last name":"Luke","resource type":"Third Party","resource id":4618227,"longitude":-73.8809,"id":"a87s27siud1p","first name":"Derrek","state":"NY"},"type":"Feature","geometry":{"type":"Point","coordinates":[-73.8809,40.9431]}},{"properties":{"company":"Sole Proprietor","city":"Raleigh","zip":"27616","latitude":35.8604,"last name":"Lumbu","resource type":"Third Party","resource id":3638441,"longitude":-78.5416,"id":"a87s281skgdu","first name":"Lesley","state":"NC"},"type":"Feature","geometry":{"type":"Point","coordinates":[-78.5416,35.8604]}},{"properties":{"company":"Sole Proprietor","city":"Roanoke","zip":"24012","latitude":37.3087,"last name":"Lust","resource type":"Third Party","resource id":3059287,"longitude":-79.9163,"id":"a87s27qu2d5p","first name":"Dirk","state":"VA"},"type":"Feature","geometry":{"type":"Point","coordinates":[-79.9163,37.3087]}},{"properties":{"company":"Sole Proprietor","city":"Florence","zip":"41042","latitude":38.997,"last name":"Lyon","resource type":"Third Party","resource id":5931770,"longitude":-84.6517,"id":"a87s280svzmb","first name":"David","state":"KY"},"type":"Feature","geometry":{"type":"Point","coordinates":[-84.6517,38.997]}},{"properties":{"company":"Sole Proprietor","city":"stillwater","zip":"74075","latitude":36.1806,"last name":"Mack","resource type":"Third Party","resource id":8076773,"longitude":-97.0654,"id":"a87s27sswsuv","first name":"Jacob","state":"OK"},"type":"Feature","geometry":{"type":"Point","coordinates":[-97.0654,36.1806]}},{"properties":{"company":"Sole Proprietor","city":"Oklahoma City","zip":"73119","latitude":35.421,"last name":"Mandujano","resource type":"Third Party","resource id":1978692,"longitude":-97.5726,"id":"a87s27rfj2ni","first name":"Jesus","state":"OK"},"type":"Feature","geometry":{"type":"Point","coordinates":[-97.5726,35.421]}},{"properties":{"company":"Sole Proprietor","city":"Thompsons Station","zip":"37179","latitude":35.812,"last name":"Marchiniak","resource type":"Third Party","resource id":7308815,"longitude":-86.9532,"id":"a87s27zbkpa5","first name":"Terrence","state":"TN"},"type":"Feature","geometry":{"type":"Point","coordinates":[-86.9532,35.812]}},{"properties":{"company":"Simplexity Networks","city":"Appleton","zip":"54915","latitude":44.3239,"last name":"Marheine","resource type":"Third Party","resource id":4133117,"longitude":-88.4462,"id":"a87s27spsqvm","first name":"Aaron","state":"WI"},"type":"Feature","geometry":{"type":"Point","coordinates":[-88.4462,44.3239]}},{"properties":{"company":"Sole Proprietor","city":"Alto","zip":"49302","latitude":42.8235,"last name":"Martin","resource type":"Third Party","resource id":8085411,"longitude":-85.3955,"id":"a87s280dypgp","first name":"Jim","state":"MI"},"type":"Feature","geometry":{"type":"Point","coordinates":[-85.3955,42.8235]}},{"properties":{"company":"Sole Proprietor","city":"Holland","zip":"49424","latitude":42.8432,"last name":"Martin","resource type":"Third Party","resource id":8897528,"longitude":-86.1253,"id":"a87s280b8s0m","first name":"Jake","state":"MI"},"type":"Feature","geometry":{"type":"Point","coordinates":[-86.1253,42.8432]}},{"properties":{"company":"Sole Proprietor","city":"detroit","zip":"48221","latitude":42.4267,"last name":"mathis","resource type":"Third Party","resource id":9745829,"longitude":-83.1482,"id":"a87s27v91jae","first name":"marcus","state":"MI"},"type":"Feature","geometry":{"type":"Point","coordinates":[-83.1482,42.4267]}},{"properties":{"company":"Universal DataCom LLC","city":"Winter Springs","zip":"32708","latitude":28.69879,"last name":"Matos","resource type":"Third Party","resource id":6810742,"longitude":-81.263377,"id":"a87s280np6kp","first name":"John","state":"FL"},"type":"Feature","geometry":{"type":"Point","coordinates":[-81.263377,28.69879]}},{"properties":{"company":"Mauer Enterprises Inc","city":"Minneapolis","zip":"55419","latitude":44.9016,"last name":"Mauer","resource type":"Third Party","resource id":1239817,"longitude":-93.2882,"id":"a87s27xlf6wb","first name":"Clifford","state":"MN"},"type":"Feature","geometry":{"type":"Point","coordinates":[-93.2882,44.9016]}},{"properties":{"company":"Sole Proprietor","city":"Jackson","zip":"38301","latitude":35.5879,"last name":"Mccaig","resource type":"Third Party","resource id":4765733,"longitude":-88.864,"id":"a87s27urc5l1","first name":"DeWayne","state":"TN"},"type":"Feature","geometry":{"type":"Point","coordinates":[-88.864,35.5879]}},{"properties":{"company":"Sole Proprietor","city":"Sharon","zip":"38255","latitude":36.2423,"last name":"McDaniel","resource type":"Third Party","resource id":7137544,"longitude":-88.8618,"id":"a87s27r052io","first name":"Joshua","state":"TN"},"type":"Feature","geometry":{"type":"Point","coordinates":[-88.8618,36.2423]}},{"properties":{"company":"Sole Proprietor","city":"Kimball","zip":"48074","latitude":42.949351,"last name":"McDonald","resource type":"Third Party","resource id":3677539,"longitude":-82.52266,"id":"a87s27q1cuxj","first name":"Bryan","state":"MI"},"type":"Feature","geometry":{"type":"Point","coordinates":[-82.52266,42.949351]}},{"properties":{"company":"Sole Proprietor","city":"Memphis","zip":"38115","latitude":35.0548,"last name":"Mckay","resource type":"Third Party","resource id":3331408,"longitude":-89.8631,"id":"a87s27oibfp6","first name":"Elbert","state":"TN"},"type":"Feature","geometry":{"type":"Point","coordinates":[-89.8631,35.0548]}},{"properties":{"company":"Sole Proprietor","city":"white plains","zip":"10606","latitude":41.0211,"last name":"McKenzie","resource type":"Third Party","resource id":6699795,"longitude":-73.776,"id":"a87s27qhgitb","first name":"Calder","state":"NY"},"type":"Feature","geometry":{"type":"Point","coordinates":[-73.776,41.0211]}},{"properties":{"company":"Alpha Telecommunications Inc.","city":"Elmont","zip":"11003","latitude":40.69409,"last name":"McNairn","resource type":"Third Party","resource id":1295039,"longitude":-73.705089,"id":"a87s27rpb8mi","first name":"Kevin","state":"NY"},"type":"Feature","geometry":{"type":"Point","coordinates":[-73.705089,40.69409]}},{"properties":{"company":"Medina Network Technologies","city":null,"zip":null,"latitude":40.8822,"last name":"Medina","resource type":"Third Party","resource id":1228147,"longitude":-73.9053,"id":"a87s27noqozy","first name":"Lionel","state":null},"type":"Feature","geometry":{"type":"Point","coordinates":[-73.9053,40.8822]}},{"properties":{"company":"Sole Proprietor","city":"Burlington","zip":"05401","latitude":44.4902,"last name":"Mercurio","resource type":"Third Party","resource id":6170398,"longitude":-73.2253,"id":"a87s27qkxamo","first name":"Paul","state":"VT"},"type":"Feature","geometry":{"type":"Point","coordinates":[-73.2253,44.4902]}},{"properties":{"company":"Sole Proprietor","city":"Sterling","zip":"20164","latitude":39.0218,"last name":"Merida","resource type":"Third Party","resource id":5587099,"longitude":-77.4009,"id":"a87s27wup05v","first name":"Mauricio","state":"VA"},"type":"Feature","geometry":{"type":"Point","coordinates":[-77.4009,39.0218]}},{"properties":{"company":"Sole Proprietor","city":"Missoula","zip":"59802","latitude":46.872041,"last name":"Messina","resource type":"Third Party","resource id":5742677,"longitude":-113.979289,"id":"a87s27peixqs","first name":"Paul","state":"MT"},"type":"Feature","geometry":{"type":"Point","coordinates":[-113.979289,46.872041]}},{"properties":{"company":"Intelligent Connections LLC","city":"Auburn","zip":"04210","latitude":44.0965,"last name":"Meyer","resource type":"Third Party","resource id":5824084,"longitude":-70.2571,"id":"a87s27yzlma8","first name":"Scott","state":"ME"},"type":"Feature","geometry":{"type":"Point","coordinates":[-70.2571,44.0965]}},{"properties":{"company":"Renae Telecom, LLC","city":"Elizabeth","zip":"07202","latitude":40.651752,"last name":"Meyers","resource type":"Third Party","resource id":9582880,"longitude":-74.214998,"id":"a87s27q5taoo","first name":"Ray","state":"NJ"},"type":"Feature","geometry":{"type":"Point","coordinates":[-74.214998,40.651752]}},{"properties":{"company":"IT Services, llc","city":"Milton","zip":"05468","latitude":44.6579,"last name":"Micklus","resource type":"Third Party","resource id":3471165,"longitude":-73.1453,"id":"a87s281hbkxp","first name":"Anthony","state":"VT"},"type":"Feature","geometry":{"type":"Point","coordinates":[-73.1453,44.6579]}},{"properties":{"company":"Sole Proprietor","city":"Nashville","zip":"37214","latitude":36.1692,"last name":"Miller","resource type":"Third Party","resource id":3624664,"longitude":-86.6656,"id":"a87s27xpcbg1","first name":"David","state":"TN"},"type":"Feature","geometry":{"type":"Point","coordinates":[-86.6656,36.1692]}},{"properties":{"company":"Low Voltage Services, LLC","city":"Las Vegas","zip":"89104","latitude":36.1511,"last name":"Mindas","resource type":"Third Party","resource id":9839685,"longitude":-115.1101,"id":"a87s27yyjeek","first name":"Russell","state":"NV"},"type":"Feature","geometry":{"type":"Point","coordinates":[-115.1101,36.1511]}},{"properties":{"company":"Sole Proprietor","city":"San Antonio","zip":"33576","latitude":28.3385,"last name":"Minichillo","resource type":"Third Party","resource id":2838159,"longitude":-82.2944,"id":"a87s2809xhry","first name":"Thomas","state":"FL"},"type":"Feature","geometry":{"type":"Point","coordinates":[-82.2944,28.3385]}},{"properties":{"company":"Sole Proprietor","city":"BROOKLYN","zip":"11235","latitude":40.5844,"last name":"Mirochnik","resource type":"Third Party","resource id":7040053,"longitude":-73.9466,"id":"a87s27ou7waw","first name":"Ilya","state":"NY"},"type":"Feature","geometry":{"type":"Point","coordinates":[-73.9466,40.5844]}},{"properties":{"company":"Two Techs Solutions, Inc.","city":"Hialeah Gardens","zip":"33018","latitude":25.8928,"last name":"Mones","resource type":"Third Party","resource id":4537171,"longitude":-80.3554,"id":"a87s27vruqeg","first name":"Christian","state":"FL"},"type":"Feature","geometry":{"type":"Point","coordinates":[-80.3554,25.8928]}},{"properties":{"company":"My Digital Technologies","city":"Franklin","zip":"23851","latitude":36.6905,"last name":"Montano","resource type":"Third Party","resource id":8521570,"longitude":-76.9426,"id":"a87s27nw2dy2","first name":"Steven","state":"VA"},"type":"Feature","geometry":{"type":"Point","coordinates":[-76.9426,36.6905]}},{"properties":{"company":"Moore Electric","city":"Kansas City","zip":"64130","latitude":39.0323,"last name":"Moore","resource type":"Third Party","resource id":6955216,"longitude":-94.5411,"id":"a87s27r02ei6","first name":"Shenetter","state":"MO"},"type":"Feature","geometry":{"type":"Point","coordinates":[-94.5411,39.0323]}},{"properties":{"company":"Sole Proprietor","city":"Ocoee","zip":"34761","latitude":28.5761,"last name":"Moore","resource type":"Third Party","resource id":5137955,"longitude":-81.5328,"id":"a87s27n0rcj6","first name":"Arthur","state":"FL"},"type":"Feature","geometry":{"type":"Point","coordinates":[-81.5328,28.5761]}},{"properties":{"company":"Sole Proprietor","city":"Detroit","zip":"48228","latitude":42.3544,"last name":"Moore","resource type":"Third Party","resource id":9191677,"longitude":-83.218,"id":"a87s27z4tyuy","first name":"Steven","state":"MI"},"type":"Feature","geometry":{"type":"Point","coordinates":[-83.218,42.3544]}},{"properties":{"company":"Southern Sound &amp; Security LLC","city":"middleburg","zip":"32068","latitude":30.0963,"last name":"Moore","resource type":"Third Party","resource id":4397883,"longitude":-81.8791,"id":"a87s27obsmv2","first name":"David","state":"FL"},"type":"Feature","geometry":{"type":"Point","coordinates":[-81.8791,30.0963]}},{"properties":{"company":"Infrastruct Inc.","city":"Brooklyn","zip":"11212","latitude":40.66056,"last name":"Morel","resource type":"Third Party","resource id":8405009,"longitude":-73.902263,"id":"a87s27tom4ii","first name":"Kevin","state":"NY"},"type":"Feature","geometry":{"type":"Point","coordinates":[-73.902263,40.66056]}},{"properties":{"company":"Sole Proprietor","city":"Green Bay","zip":"54301","latitude":44.4814,"last name":"Morissette","resource type":"Third Party","resource id":6161923,"longitude":-88.0196,"id":"a87s27yo1p3d","first name":"Curtis","state":"WI"},"type":"Feature","geometry":{"type":"Point","coordinates":[-88.0196,44.4814]}},{"properties":{"company":"Sole Proprietor","city":"Jackson","zip":"38305","latitude":35.667471,"last name":"mullen","resource type":"Third Party","resource id":7067108,"longitude":-88.839173,"id":"a87s27nrpg1e","first name":"wayne","state":"TN"},"type":"Feature","geometry":{"type":"Point","coordinates":[-88.839173,35.667471]}},{"properties":{"company":"Sole Proprietor","city":"Comstock Park","zip":"49321","latitude":43.0682,"last name":"Murrell","resource type":"Third Party","resource id":3861064,"longitude":-85.6853,"id":"a87s27nkjmar","first name":"Aaron","state":"MI"},"type":"Feature","geometry":{"type":"Point","coordinates":[-85.6853,43.0682]}},{"properties":{"company":"Telmon, Inc.","city":"Lenexa","zip":"66215","latitude":38.9562,"last name":"Nelson","resource type":"Internal User","resource id":1746697,"longitude":-94.7433,"id":"a87s27md6tbi","first name":"Steve","state":"KS"},"type":"Feature","geometry":{"type":"Point","coordinates":[-94.7433,38.9562]}},{"properties":{"company":"Centritech Communications","city":"glen allen","zip":"23060","latitude":37.6839,"last name":"Nester","resource type":"Third Party","resource id":7746246,"longitude":-77.558,"id":"a87s27mp1i8f","first name":"Ryan","state":"VA"},"type":"Feature","geometry":{"type":"Point","coordinates":[-77.558,37.6839]}},{"properties":{"company":"Sole Proprietor","city":"woodbridge","zip":"22191","latitude":38.6245,"last name":"Nguyen","resource type":"Third Party","resource id":4853299,"longitude":-77.2692,"id":"a87s27nggivx","first name":"Jimmy","state":"VA"},"type":"Feature","geometry":{"type":"Point","coordinates":[-77.2692,38.6245]}},{"properties":{"company":"Sole Proprietor","city":"Salt Lake City","zip":"84120","latitude":40.6939,"last name":"Nguyen","resource type":"Third Party","resource id":5741051,"longitude":-112.009,"id":"a87s27zjifwo","first name":"Thang","state":"UT"},"type":"Feature","geometry":{"type":"Point","coordinates":[-112.009,40.6939]}},{"properties":{"company":"Sole Proprietor","city":"South Burlington","zip":"05403","latitude":44.446,"last name":"Nicholson","resource type":"Third Party","resource id":9341506,"longitude":-73.1725,"id":"a87s27x6y2jt","first name":"Scott","state":"VT"},"type":"Feature","geometry":{"type":"Point","coordinates":[-73.1725,44.446]}},{"properties":{"company":"Sole Proprietor","city":"Little Chute","zip":"54140","latitude":44.2876,"last name":"Nienhaus","resource type":"Third Party","resource id":6442449,"longitude":-88.3146,"id":"a87s2811qc1t","first name":"Jay","state":"WI"},"type":"Feature","geometry":{"type":"Point","coordinates":[-88.3146,44.2876]}},{"properties":{"company":"The 18 Inch Dish Company","city":"Orlando","zip":"32837","latitude":28.3845,"last name":"Nixon","resource type":"Third Party","resource id":7682507,"longitude":-81.4133,"id":"a87s27whax79","first name":"BIll","state":"FL"},"type":"Feature","geometry":{"type":"Point","coordinates":[-81.4133,28.3845]}},{"properties":{"company":"Milky Way Technologies","city":"las vegas","zip":"89148","latitude":36.0993,"last name":"Norland","resource type":"Third Party","resource id":1125811,"longitude":-115.2838,"id":"a87s27uumv01","first name":"Christopher","state":"NV"},"type":"Feature","geometry":{"type":"Point","coordinates":[-115.2838,36.0993]}},{"properties":{"company":"Sole Proprietor","city":"Dummerston","zip":"05346","latitude":42.963364,"last name":"North","resource type":"Third Party","resource id":7626934,"longitude":-72.530762,"id":"a87s27nuozgl","first name":"Doug","state":"VT"},"type":"Feature","geometry":{"type":"Point","coordinates":[-72.530762,42.963364]}},{"properties":{"company":"Sole Proprietor","city":"St Joseph","zip":"64504","latitude":39.6696,"last name":"ODell","resource type":"Third Party","resource id":1443553,"longitude":-94.9198,"id":"a87s27s924kj","first name":"Ellen","state":"MO"},"type":"Feature","geometry":{"type":"Point","coordinates":[-94.9198,39.6696]}},{"properties":{"company":"Sole Proprietor","city":"Worcester","zip":"01608","latitude":42.2617,"last name":"Ofosu","resource type":"Third Party","resource id":7640766,"longitude":-71.8015,"id":"a87s27pstmiv","first name":"Prince","state":"MA"},"type":"Feature","geometry":{"type":"Point","coordinates":[-71.8015,42.2617]}},{"properties":{"company":"Sole Proprietor","city":"Rego Park","zip":"11374","latitude":40.727336,"last name":"Ohana","resource type":"Third Party","resource id":7345022,"longitude":-73.867155,"id":"a87s280v9g3b","first name":"Daniel","state":"NY"},"type":"Feature","geometry":{"type":"Point","coordinates":[-73.867155,40.727336]}},{"properties":{"company":"Computer Magic","city":"Plover","zip":"54467","latitude":44.4751,"last name":"Olrikowski","resource type":"Third Party","resource id":5132232,"longitude":-89.529,"id":"a87s28249fjv","first name":"Kurt","state":"WI"},"type":"Feature","geometry":{"type":"Point","coordinates":[-89.529,44.4751]}},{"properties":{"company":"Worldairsealand, INC","city":"miramar","zip":"33023","latitude":25.9895,"last name":"Onye","resource type":"Third Party","resource id":1031709,"longitude":-80.2144,"id":"a87s281ce7mp","first name":"Hope","state":"FL"},"type":"Feature","geometry":{"type":"Point","coordinates":[-80.2144,25.9895]}},{"properties":{"company":"Sole Proprietor","city":"Valley Stream","zip":"11580","latitude":40.674724,"last name":"Ortiz","resource type":"Third Party","resource id":8716675,"longitude":-73.726655,"id":"a87s27y932f3","first name":"Orlando","state":"NY"},"type":"Feature","geometry":{"type":"Point","coordinates":[-73.726655,40.674724]}},{"properties":{"company":"Sole Proprietor","city":"newport news","zip":"23666","latitude":37.0595,"last name":"outlaw","resource type":"Third Party","resource id":8902892,"longitude":-76.4069,"id":"a87s280r88z2","first name":"monte","state":"VA"},"type":"Feature","geometry":{"type":"Point","coordinates":[-76.4069,37.0595]}},{"properties":{"company":"Sole Proprietor","city":"Milwaukee","zip":"53022","latitude":43.2326,"last name":"Palle","resource type":"Third Party","resource id":4203107,"longitude":-88.1158,"id":"a87s27wlq5gl","first name":"Ven","state":"WI"},"type":"Feature","geometry":{"type":"Point","coordinates":[-88.1158,43.2326]}},{"properties":{"company":"TNT Security, Inc.","city":"Loxahatchee","zip":"33470","latitude":26.8039,"last name":"Palmer","resource type":"Third Party","resource id":8710718,"longitude":-80.4376,"id":"a87s27zyjo30","first name":"Timothy","state":"FL"},"type":"Feature","geometry":{"type":"Point","coordinates":[-80.4376,26.8039]}},{"properties":{"company":"Sole Proprietor","city":"coventry","zip":"02816","latitude":41.725461,"last name":"Palumbo","resource type":"Third Party","resource id":2933569,"longitude":-71.544167,"id":"a87s27vtpfqb","first name":"Joe","state":"RI"},"type":"Feature","geometry":{"type":"Point","coordinates":[-71.544167,41.725461]}},{"properties":{"company":"GP Electronic Services","city":"Wesley Chapel","zip":"33544","latitude":28.178611,"last name":"Paraschak","resource type":"Third Party","resource id":2170333,"longitude":-82.350556,"id":"a87s27zupprs","first name":"Gary","state":"FL"},"type":"Feature","geometry":{"type":"Point","coordinates":[-82.350556,28.178611]}},{"properties":{"company":"Phoenix Technology","city":"Chattanooga","zip":"37411","latitude":35.022682,"last name":"Parham","resource type":"Third Party","resource id":3418319,"longitude":-85.244006,"id":"a87s27o7g3a9","first name":"Michael","state":"TN"},"type":"Feature","geometry":{"type":"Point","coordinates":[-85.244006,35.022682]}},{"properties":{"company":"Warrior Hill LLC","city":"Saint Joseph","zip":"64503","latitude":39.742416,"last name":"Park","resource type":"Third Party","resource id":8810979,"longitude":-94.775893,"id":"a87s27pb7pjs","first name":"Jason","state":"MO"},"type":"Feature","geometry":{"type":"Point","coordinates":[-94.775893,39.742416]}},{"properties":{"company":"KPI ADVISERS","city":"RALEIGH","zip":"27614","latitude":35.930668,"last name":"Parker","resource type":"Third Party","resource id":4529283,"longitude":-78.616838,"id":"a87s27oqjo7p","first name":"Stephen","state":"NC"},"type":"Feature","geometry":{"type":"Point","coordinates":[-78.616838,35.930668]}},{"properties":{"company":"Sole Proprietor","city":"New York","zip":"10011","latitude":40.7409,"last name":"Patel","resource type":"Third Party","resource id":9672819,"longitude":-73.9997,"id":"a87s27ovp3gz","first name":"Mihir","state":"NY"},"type":"Feature","geometry":{"type":"Point","coordinates":[-73.9997,40.7409]}},{"properties":{"company":"Dave The Computer Dude","city":"Linn Creek","zip":"65052","latitude":38.0483,"last name":"Payne","resource type":"Third Party","resource id":1171251,"longitude":-92.6543,"id":"a87s27rzwbh7","first name":"David","state":"MO"},"type":"Feature","geometry":{"type":"Point","coordinates":[-92.6543,38.0483]}},{"properties":{"company":"Sole Proprietor","city":null,"zip":null,"latitude":40.7933,"last name":"peer","resource type":"Third Party","resource id":8427808,"longitude":-74.0263,"id":"a87s27umzgec","first name":"kenneth","state":null},"type":"Feature","geometry":{"type":"Point","coordinates":[-74.0263,40.7933]}},{"properties":{"company":"Sole Proprietor","city":"Kissimmee","zip":"34759","latitude":28.081169,"last name":"Pereira","resource type":"Third Party","resource id":5592631,"longitude":-81.495799,"id":"a87s27ovete2","first name":"Hermenegildo","state":"FL"},"type":"Feature","geometry":{"type":"Point","coordinates":[-81.495799,28.081169]}},{"properties":{"company":"Sole Proprietor","city":"Woodbridge","zip":"22193","latitude":38.6486,"last name":"Phanthavong","resource type":"Third Party","resource id":1566037,"longitude":-77.3446,"id":"a87s27mz9h4z","first name":"Chanthasak","state":"VA"},"type":"Feature","geometry":{"type":"Point","coordinates":[-77.3446,38.6486]}},{"properties":{"company":"Sole Proprietor","city":"Brooklyn","zip":"11219","latitude":40.6327,"last name":"Philips","resource type":"Third Party","resource id":3066182,"longitude":-73.9967,"id":"a87s27vryihi","first name":"Jeff","state":"NY"},"type":"Feature","geometry":{"type":"Point","coordinates":[-73.9967,40.6327]}},{"properties":{"company":"Sole Proprietor","city":"Anchorage","zip":"99508","latitude":61.198,"last name":"Pickles","resource type":"Third Party","resource id":7917982,"longitude":-149.8115,"id":"a87s27yq5zhs","first name":"Roger","state":"AK"},"type":"Feature","geometry":{"type":"Point","coordinates":[-149.8115,61.198]}},{"properties":{"company":"Sole Proprietor","city":"St. Charles","zip":"63301","latitude":38.8615,"last name":"Plank","resource type":"Third Party","resource id":3274498,"longitude":-90.4548,"id":"a87s2815fstw","first name":"Jordan","state":"MO"},"type":"Feature","geometry":{"type":"Point","coordinates":[-90.4548,38.8615]}},{"properties":{"company":"Sole Proprietor","city":"Coweta","zip":"74429","latitude":35.977,"last name":"Pollard","resource type":"Third Party","resource id":5975764,"longitude":-95.6229,"id":"a87s27qt1lij","first name":"Bradlie","state":"OK"},"type":"Feature","geometry":{"type":"Point","coordinates":[-95.6229,35.977]}},{"properties":{"company":"Low Voltage Professionals","city":"Glen Allen","zip":"23059","latitude":37.7009,"last name":"Potter","resource type":"Third Party","resource id":8651802,"longitude":-77.473,"id":"a87s27qr0pa6","first name":"Wayne","state":"VA"},"type":"Feature","geometry":{"type":"Point","coordinates":[-77.473,37.7009]}},{"properties":{"company":"Sole Proprietor","city":"Memphis","zip":"38119","latitude":35.079,"last name":"Powell","resource type":"Third Party","resource id":7539832,"longitude":-89.8452,"id":"a87s27otxh82","first name":"Jimmy","state":"TN"},"type":"Feature","geometry":{"type":"Point","coordinates":[-89.8452,35.079]}},{"properties":{"company":"JLP Computer Solutions","city":"Marquette Township","zip":"49855","latitude":46.5095,"last name":"Powell","resource type":"Third Party","resource id":2494412,"longitude":-87.3836,"id":"a87s27yv6dt9","first name":"Josh","state":"MI"},"type":"Feature","geometry":{"type":"Point","coordinates":[-87.3836,46.5095]}},{"properties":{"company":"Computer Troubleshooters Northern NJ","city":"Wayne","zip":"07470","latitude":40.964285,"last name":"Presburger","resource type":"Third Party","resource id":2745166,"longitude":-74.243311,"id":"a87s27z21lks","first name":"Rami","state":"NJ"},"type":"Feature","geometry":{"type":"Point","coordinates":[-74.243311,40.964285]}},{"properties":{"company":"Sole Proprietor","city":"linden","zip":"48451","latitude":42.8053,"last name":"Pressnell","resource type":"Third Party","resource id":5652843,"longitude":-83.8146,"id":"a87s27okv8n6","first name":"Daniel","state":"MI"},"type":"Feature","geometry":{"type":"Point","coordinates":[-83.8146,42.8053]}},{"properties":{"company":"Allstar Communications, Inc.","city":"Las Vegas","zip":"89156","latitude":36.2,"last name":"Pytrysson","resource type":"Third Party","resource id":4685852,"longitude":-115.0347,"id":"a87s27xjd1e9","first name":"Pete","state":"NV"},"type":"Feature","geometry":{"type":"Point","coordinates":[-115.0347,36.2]}},{"properties":{"company":"Quick Technologies, LLC","city":"Wild Rose","zip":"54984","latitude":44.191,"last name":"Quick","resource type":"Third Party","resource id":2564686,"longitude":-89.1801,"id":"a87s27tpt7u5","first name":"Jeremiah","state":"WI"},"type":"Feature","geometry":{"type":"Point","coordinates":[-89.1801,44.191]}},{"properties":{"company":"Sole Proprietor","city":"Durham","zip":"27705","latitude":36.067448,"last name":"Quinn","resource type":"Third Party","resource id":5522367,"longitude":-79.001993,"id":"a87s281widy1","first name":"Michael","state":"NC"},"type":"Feature","geometry":{"type":"Point","coordinates":[-79.001993,36.067448]}},{"properties":{"company":"TQC","city":"Wytheville","zip":"24382","latitude":36.9511,"last name":"Quinn","resource type":"Third Party","resource id":7449752,"longitude":-81.112,"id":"a87s27xtbxum","first name":"John","state":"VA"},"type":"Feature","geometry":{"type":"Point","coordinates":[-81.112,36.9511]}},{"properties":{"company":"Sole Proprietor","city":"Burlington","zip":"05408","latitude":44.503959,"last name":"Quirk","resource type":"Third Party","resource id":5072597,"longitude":-73.244692,"id":"a87s27no2wzx","first name":"John","state":"VT"},"type":"Feature","geometry":{"type":"Point","coordinates":[-73.244692,44.503959]}},{"properties":{"company":"Sole Proprietor","city":"Miami","zip":"33176","latitude":25.6574,"last name":"Ramirez","resource type":"Third Party","resource id":1322091,"longitude":-80.359,"id":"a87s280lxw1f","first name":"Alex","state":"FL"},"type":"Feature","geometry":{"type":"Point","coordinates":[-80.359,25.6574]}},{"properties":{"company":"Patrick Ramsey","city":"Briarwood","zip":"11435","latitude":40.7006,"last name":"Ramsey","resource type":"Third Party","resource id":9845957,"longitude":-73.8099,"id":"a87s27rx85o6","first name":"Patrick","state":"NY"},"type":"Feature","geometry":{"type":"Point","coordinates":[-73.8099,40.7006]}},{"properties":{"company":"Sole Proprietor","city":"Salt Lake City","zip":"84101","latitude":40.7566,"last name":"Rasmussen","resource type":"Third Party","resource id":5404443,"longitude":-111.8992,"id":"a87s27v7y9pw","first name":"David","state":"UT"},"type":"Feature","geometry":{"type":"Point","coordinates":[-111.8992,40.7566]}},{"properties":{"company":"redick's communication","city":"DURHAM","zip":"27703","latitude":35.9655,"last name":"Redick","resource type":"Third Party","resource id":7138993,"longitude":-78.8009,"id":"a87s27vnlh5u","first name":"Richard","state":"NC"},"type":"Feature","geometry":{"type":"Point","coordinates":[-78.8009,35.9655]}},{"properties":{"company":"Sole Proprietor","city":"Las Vegas","zip":"89183","latitude":36.0015,"last name":"Reid","resource type":"Third Party","resource id":5383789,"longitude":-115.1489,"id":"a87s27w6rcq4","first name":"Marcellus","state":"NV"},"type":"Feature","geometry":{"type":"Point","coordinates":[-115.1489,36.0015]}},{"properties":{"company":"Design Studios","city":"Miami","zip":"33130","latitude":25.7673,"last name":"Renck","resource type":"Third Party","resource id":1594826,"longitude":-80.2044,"id":"a87s27m12b5m","first name":"Andrew","state":"FL"},"type":"Feature","geometry":{"type":"Point","coordinates":[-80.2044,25.7673]}},{"properties":{"company":"Sole Proprietor","city":"valley stream","zip":"11580","latitude":40.6745,"last name":"Richards","resource type":"Third Party","resource id":4356613,"longitude":-73.7041,"id":"a87s27ygs0y3","first name":"Julian","state":"NY"},"type":"Feature","geometry":{"type":"Point","coordinates":[-73.7041,40.6745]}},{"properties":{"company":"NCIS","city":"Chelsea","zip":"04330","latitude":44.3261,"last name":"Richford","resource type":"Third Party","resource id":8565494,"longitude":-69.698,"id":"a87s27r8vtvz","first name":"Cory","state":"ME"},"type":"Feature","geometry":{"type":"Point","coordinates":[-69.698,44.3261]}},{"properties":{"company":"Sole Proprietor","city":"Casco","zip":"48064","latitude":42.7668,"last name":"Riley","resource type":"Third Party","resource id":5721431,"longitude":-82.6735,"id":"a87s27ucolnd","first name":"Chris","state":"MI"},"type":"Feature","geometry":{"type":"Point","coordinates":[-82.6735,42.7668]}},{"properties":{"company":"Sole Proprietor","city":"virginia beach","zip":"23464","latitude":36.7981,"last name":"Rios","resource type":"Third Party","resource id":6808686,"longitude":-76.1793,"id":"a87s27wfwhrd","first name":"Raymond","state":"VA"},"type":"Feature","geometry":{"type":"Point","coordinates":[-76.1793,36.7981]}},{"properties":{"company":"Steve Roberts","city":"Ofallon","zip":"63366","latitude":38.8357,"last name":"Roberts","resource type":"Third Party","resource id":1187003,"longitude":-90.7206,"id":"a87s27r8dnyo","first name":"Steve","state":"MO"},"type":"Feature","geometry":{"type":"Point","coordinates":[-90.7206,38.8357]}},{"properties":{"company":"Sole Proprietor","city":"Mebane","zip":"27302","latitude":36.1105,"last name":"Robinson","resource type":"Third Party","resource id":9060344,"longitude":-79.2671,"id":"a87s280aiyt6","first name":"David","state":"NC"},"type":"Feature","geometry":{"type":"Point","coordinates":[-79.2671,36.1105]}},{"properties":{"company":"Sole Proprietor","city":"Ashburn","zip":"20147","latitude":39.0333,"last name":"Rockowitz","resource type":"Third Party","resource id":9187744,"longitude":-77.4915,"id":"a87s27ypvaym","first name":"Stuart","state":"VA"},"type":"Feature","geometry":{"type":"Point","coordinates":[-77.4915,39.0333]}},{"properties":{"company":"Sole Proprietor","city":"Colonial Heights","zip":"23834","latitude":37.2887,"last name":"Rodgers","resource type":"Third Party","resource id":2626145,"longitude":-77.3954,"id":"a87s27wrzaha","first name":"Tessie","state":"VA"},"type":"Feature","geometry":{"type":"Point","coordinates":[-77.3954,37.2887]}},{"properties":{"company":"Sole Proprietor","city":"Homestead","zip":"33033","latitude":25.482152,"last name":"Rodriguez","resource type":"Third Party","resource id":4963328,"longitude":-80.434167,"id":"a87s27sehymu","first name":"Carlos","state":"FL"},"type":"Feature","geometry":{"type":"Point","coordinates":[-80.434167,25.482152]}},{"properties":{"company":"Systm of Central Florida Inc.","city":"Staten Island","zip":"10314","latitude":40.6,"last name":"Rodriguez","resource type":"Third Party","resource id":8783783,"longitude":-74.1607,"id":"a87s27yhn0iq","first name":"Rudy","state":"NY"},"type":"Feature","geometry":{"type":"Point","coordinates":[-74.1607,40.6]}},{"properties":{"company":"Tri-State Solutions LLC","city":"Elizabeth","zip":"07206","latitude":40.6522,"last name":"Rodriguez","resource type":"Third Party","resource id":6564049,"longitude":-74.1905,"id":"a87s27nqvonb","first name":"Randolph","state":"NJ"},"type":"Feature","geometry":{"type":"Point","coordinates":[-74.1905,40.6522]}},{"properties":{"company":"Sole Proprietor","city":"Richmond","zip":"23224","latitude":37.4971,"last name":"Rogez","resource type":"Third Party","resource id":8184135,"longitude":-77.4668,"id":"a87s27ulbizr","first name":"Mathieu","state":"VA"},"type":"Feature","geometry":{"type":"Point","coordinates":[-77.4668,37.4971]}},{"properties":{"company":"Beyond Communications LLC","city":"Fenton","zip":"63026","latitude":38.5035,"last name":"Roland","resource type":"Third Party","resource id":8890098,"longitude":-90.4616,"id":"a87s27vjuymp","first name":"Geoff","state":"MO"},"type":"Feature","geometry":{"type":"Point","coordinates":[-90.4616,38.5035]}},{"properties":{"company":"Sole Proprietor","city":"Pauls Valley","zip":"73075","latitude":34.7565,"last name":"Rose","resource type":"Third Party","resource id":5855991,"longitude":-97.1869,"id":"a87s27nxrft6","first name":"Dillon","state":"OK"},"type":"Feature","geometry":{"type":"Point","coordinates":[-97.1869,34.7565]}},{"properties":{"company":"Jemcom Security","city":"Staten Island","zip":"10314","latitude":40.6,"last name":"Rosen","resource type":"Third Party","resource id":5208587,"longitude":-74.1607,"id":"a87s27wgp8ie","first name":"Lee","state":"NY"},"type":"Feature","geometry":{"type":"Point","coordinates":[-74.1607,40.6]}},{"properties":{"company":"Sole Proprietor","city":"Flint","zip":"48507","latitude":42.9649,"last name":"Rothley","resource type":"Third Party","resource id":7493298,"longitude":-83.7172,"id":"a87s27z2ra27","first name":"Jeff","state":"MI"},"type":"Feature","geometry":{"type":"Point","coordinates":[-83.7172,42.9649]}},{"properties":{"company":"Sole Proprietor","city":"lansing","zip":"48911","latitude":42.6719,"last name":"Russeau","resource type":"Third Party","resource id":4135386,"longitude":-84.5729,"id":"a87s27twq84d","first name":"Aaron","state":"MI"},"type":"Feature","geometry":{"type":"Point","coordinates":[-84.5729,42.6719]}},{"properties":{"company":"Sole Proprietor","city":"Cary","zip":"27511","latitude":35.7524,"last name":"Saffir","resource type":"Third Party","resource id":8704708,"longitude":-78.7781,"id":"a87s27mluhea","first name":"Jeremy","state":"NC"},"type":"Feature","geometry":{"type":"Point","coordinates":[-78.7781,35.7524]}},{"properties":{"company":"Rockaway Today","city":"Arverne","zip":"11692","latitude":40.5936,"last name":"Sampson","resource type":"Third Party","resource id":8441314,"longitude":-73.7956,"id":"a87s27yzhik0","first name":"Englebert","state":"NY"},"type":"Feature","geometry":{"type":"Point","coordinates":[-73.7956,40.5936]}},{"properties":{"company":"Sole Proprietor","city":"bronx","zip":"10451","latitude":40.8208,"last name":"Sanchez","resource type":"Third Party","resource id":6593267,"longitude":-73.9235,"id":"a87s27nnaqiq","first name":"Pedro","state":"NY"},"type":"Feature","geometry":{"type":"Point","coordinates":[-73.9235,40.8208]}},{"properties":{"company":"Sole Proprietor","city":"Miami Beach","zip":"33139","latitude":25.784,"last name":"sandoval","resource type":"Third Party","resource id":3402254,"longitude":-80.1359,"id":"a87s27u0outi","first name":"carlos","state":"FL"},"type":"Feature","geometry":{"type":"Point","coordinates":[-80.1359,25.784]}},{"properties":{"company":"Sole Proprietor","city":"Tulsa","zip":"74106","latitude":36.1912,"last name":"Santana","resource type":"Third Party","resource id":5836783,"longitude":-95.9848,"id":"a87s27w6md0c","first name":"Eddie","state":"OK"},"type":"Feature","geometry":{"type":"Point","coordinates":[-95.9848,36.1912]}},{"properties":{"company":"Sole Proprietor","city":"benton harbor","zip":"49022","latitude":42.115,"last name":"satter","resource type":"Third Party","resource id":9591968,"longitude":-86.3578,"id":"a87s27nctdav","first name":"elmer","state":"MI"},"type":"Feature","geometry":{"type":"Point","coordinates":[-86.3578,42.115]}},{"properties":{"company":"Sole Proprietor","city":"Saint Louis Park","zip":"55416","latitude":44.9496,"last name":"Savage","resource type":"Third Party","resource id":6758127,"longitude":-93.3423,"id":"a87s27tyutll","first name":"Daniel","state":"MN"},"type":"Feature","geometry":{"type":"Point","coordinates":[-93.3423,44.9496]}},{"properties":{"company":"Computer Services","city":"Lighthouse Point","zip":"33064","latitude":26.2789,"last name":"Sawicki","resource type":"Third Party","resource id":6085633,"longitude":-80.1171,"id":"a87s27voytjs","first name":"Daniel","state":"FL"},"type":"Feature","geometry":{"type":"Point","coordinates":[-80.1171,26.2789]}},{"properties":{"company":"Sole Proprietor","city":"Portage","zip":"49002","latitude":42.1977,"last name":"Schoenfeld","resource type":"Third Party","resource id":2042337,"longitude":-85.5572,"id":"a87s27yq9bq2","first name":"Andrew","state":"MI"},"type":"Feature","geometry":{"type":"Point","coordinates":[-85.5572,42.1977]}},{"properties":{"company":"Sole Proprietor","city":"Burlington","zip":"53105","latitude":42.6816,"last name":"Schrank","resource type":"Third Party","resource id":7292745,"longitude":-88.3289,"id":"a87s27s52msr","first name":"Andrew","state":"WI"},"type":"Feature","geometry":{"type":"Point","coordinates":[-88.3289,42.6816]}},{"properties":{"company":"Sole Proprietor","city":"Eau Claire","zip":"54703","latitude":44.8179,"last name":"Schrofe","resource type":"Third Party","resource id":3861488,"longitude":-91.5831,"id":"a87s27s8ep12","first name":"Jason","state":"WI"},"type":"Feature","geometry":{"type":"Point","coordinates":[-91.5831,44.8179]}},{"properties":{"company":"Ez-Pc Repair Center LLC","city":"crossville","zip":"38555","latitude":35.8867,"last name":"Schubert","resource type":"Third Party","resource id":6256572,"longitude":-85.0211,"id":"a87s281rtb40","first name":"James P.","state":"TN"},"type":"Feature","geometry":{"type":"Point","coordinates":[-85.0211,35.8867]}},{"properties":{"company":"Sole Proprietor","city":"Springfield","zip":"65810","latitude":37.119,"last name":"Schuler","resource type":"Third Party","resource id":9538859,"longitude":-93.3204,"id":"a87s27uaoiz4","first name":"Chris","state":"MO"},"type":"Feature","geometry":{"type":"Point","coordinates":[-93.3204,37.119]}},{"properties":{"company":"Sole Proprietor","city":"Defuniak Springs","zip":"32433","latitude":30.807278,"last name":"Schultz","resource type":"Third Party","resource id":9472051,"longitude":-86.12485,"id":"a87s27olu6b4","first name":"Charles","state":"FL"},"type":"Feature","geometry":{"type":"Point","coordinates":[-86.12485,30.807278]}},{"properties":{"company":"Tampa IT Specialists","city":"Seffner","zip":"33584","latitude":28.008,"last name":"Scott","resource type":"Third Party","resource id":4979597,"longitude":-82.2859,"id":"a87s2829rvvp","first name":"Don","state":"FL"},"type":"Feature","geometry":{"type":"Point","coordinates":[-82.2859,28.008]}},{"properties":{"company":"Norman Knights Technology","city":"Wonewoc","zip":"53968","latitude":43.657234,"last name":"Scott","resource type":"Third Party","resource id":7615065,"longitude":-90.222367,"id":"a87s27xetpkg","first name":"Barbara","state":"WI"},"type":"Feature","geometry":{"type":"Point","coordinates":[-90.222367,43.657234]}},{"properties":{"company":"Diva Technology LLC","city":null,"zip":null,"latitude":35.9655,"last name":"Scott","resource type":"Third Party","resource id":8776565,"longitude":-78.8009,"id":"a87s280imtoo","first name":"Felisa","state":null},"type":"Feature","geometry":{"type":"Point","coordinates":[-78.8009,35.9655]}},{"properties":{"company":"SDER","city":"Gulf Breeze","zip":"32563","latitude":30.4073,"last name":"Searcy","resource type":"Third Party","resource id":1273484,"longitude":-86.9875,"id":"a87s281wme1t","first name":"David","state":"FL"},"type":"Feature","geometry":{"type":"Point","coordinates":[-86.9875,30.4073]}},{"properties":{"company":"Sole Proprietor","city":"New York","zip":"10014","latitude":40.733,"last name":"Sen","resource type":"Third Party","resource id":7433626,"longitude":-74.0071,"id":"a87s27pnz701","first name":"Mondip","state":"NY"},"type":"Feature","geometry":{"type":"Point","coordinates":[-74.0071,40.733]}},{"properties":{"company":"Blue Dog Computer Services","city":"Chesterfield","zip":"23832","latitude":37.45221,"last name":"Sheehy","resource type":"Third Party","resource id":5146789,"longitude":-77.537522,"id":"a87s280dnl2q","first name":"Chris","state":"VA"},"type":"Feature","geometry":{"type":"Point","coordinates":[-77.537522,37.45221]}},{"properties":{"company":"Sole Proprietor","city":"New Hyde Park","zip":"11040","latitude":40.748731,"last name":"Simonetti","resource type":"Third Party","resource id":8795907,"longitude":-73.680573,"id":"a87s27p5113r","first name":"Stephen","state":"NY"},"type":"Feature","geometry":{"type":"Point","coordinates":[-73.680573,40.748731]}},{"properties":{"company":"Diversity Computing Services","city":"New Port Richey","zip":"34655","latitude":28.196183,"last name":"Sistrunk","resource type":"Third Party","resource id":4537827,"longitude":-82.689269,"id":"a87s27ybx29b","first name":"Charles","state":"FL"},"type":"Feature","geometry":{"type":"Point","coordinates":[-82.689269,28.196183]}},{"properties":{"company":"Teridium","city":"Bountiful","zip":"84010","latitude":40.8715,"last name":"smith","resource type":"Third Party","resource id":1322159,"longitude":-111.8314,"id":"a87s27m9nycz","first name":"cory","state":"UT"},"type":"Feature","geometry":{"type":"Point","coordinates":[-111.8314,40.8715]}},{"properties":{"company":"Sole Proprietor","city":"Salt Lake City","zip":"84084","latitude":40.6225,"last name":"smith","resource type":"Third Party","resource id":1201959,"longitude":-111.9765,"id":"a87s27odgp8s","first name":"angela","state":"UT"},"type":"Feature","geometry":{"type":"Point","coordinates":[-111.9765,40.6225]}},{"properties":{"company":"The Branding Buzz","city":"Elmsford","zip":"10523","latitude":41.0597,"last name":"Smith","resource type":"Third Party","resource id":1976337,"longitude":-73.817,"id":"a87s27wx3zul","first name":"Ryan","state":"NY"},"type":"Feature","geometry":{"type":"Point","coordinates":[-73.817,41.0597]}},{"properties":{"company":"Geeks Uneek LLC","city":"West Palm Beach","zip":"33406","latitude":26.6662,"last name":"Smith","resource type":"Third Party","resource id":6135377,"longitude":-80.0908,"id":"a87s27pw8hg8","first name":"Mansa","state":"FL"},"type":"Feature","geometry":{"type":"Point","coordinates":[-80.0908,26.6662]}},{"properties":{"company":"Your Computer Fixer, LLC.","city":"Fair Lawn","zip":"07410","latitude":40.9359,"last name":"Smith","resource type":"Third Party","resource id":6452268,"longitude":-74.1174,"id":"a87s27u62zb4","first name":"Adam","state":"NJ"},"type":"Feature","geometry":{"type":"Point","coordinates":[-74.1174,40.9359]}},{"properties":{"company":"Sole Proprietor","city":"Biddeford","zip":"04005","latitude":43.4906,"last name":"Smith","resource type":"Third Party","resource id":8763206,"longitude":-70.5283,"id":"a87s27rpnanw","first name":"Dana","state":"ME"},"type":"Feature","geometry":{"type":"Point","coordinates":[-70.5283,43.4906]}},{"properties":{"company":"Sole Proprietor","city":"elizabeth","zip":"02702","latitude":40.6552,"last name":"Smith","resource type":"Third Party","resource id":6013932,"longitude":-74.2189,"id":"a87s280puoh7","first name":"Walter","state":"NJ"},"type":"Feature","geometry":{"type":"Point","coordinates":[-74.2189,40.6552]}},{"properties":{"company":"Sole Proprietor","city":"Richmond","zip":"23227","latitude":37.598574,"last name":"Smith","resource type":"Third Party","resource id":4133838,"longitude":-77.477131,"id":"a87s27oj99sn","first name":"Reginald","state":"VA"},"type":"Feature","geometry":{"type":"Point","coordinates":[-77.477131,37.598574]}},{"properties":{"company":"Sole Proprietor","city":"PROVIDENCE","zip":"02904","latitude":41.8605,"last name":"Soares","resource type":"Third Party","resource id":5790834,"longitude":-71.4362,"id":"a87s27z6ywia","first name":"Jeff","state":"RI"},"type":"Feature","geometry":{"type":"Point","coordinates":[-71.4362,41.8605]}},{"properties":{"company":"SIS Consulting, Inc","city":"Cassselberry","zip":"32707","latitude":28.661656,"last name":"Sorkin","resource type":"Third Party","resource id":9529459,"longitude":-81.33235,"id":"a87s27sv59gw","first name":"Steve","state":"FL"},"type":"Feature","geometry":{"type":"Point","coordinates":[-81.33235,28.661656]}},{"properties":{"company":"Sole Proprietor","city":"Yonkers","zip":"10705","latitude":40.9161,"last name":"Soto","resource type":"Third Party","resource id":8103245,"longitude":-73.8905,"id":"a87s27tfosq1","first name":"Malcolm","state":"NY"},"type":"Feature","geometry":{"type":"Point","coordinates":[-73.8905,40.9161]}},{"properties":{"company":"Sole Proprietor","city":"Springfield","zip":"65802","latitude":37.2081,"last name":"sowersby","resource type":"Third Party","resource id":7579937,"longitude":-93.3404,"id":"a87s27m14po5","first name":"lonnie","state":"MO"},"type":"Feature","geometry":{"type":"Point","coordinates":[-93.3404,37.2081]}},{"properties":{"company":"Sole Proprietor","city":"Henderson","zip":"89002","latitude":36.0003,"last name":"Spaeth","resource type":"Third Party","resource id":2127954,"longitude":-114.9551,"id":"a87s27ulm897","first name":"Chuck","state":"NV"},"type":"Feature","geometry":{"type":"Point","coordinates":[-114.9551,36.0003]}},{"properties":{"company":"Sole Proprietor","city":"Long Island City","zip":"11101","latitude":40.7457,"last name":"Sparkman","resource type":"Third Party","resource id":8953063,"longitude":-73.9381,"id":"a87s27vew0b6","first name":"Richard","state":"NY"},"type":"Feature","geometry":{"type":"Point","coordinates":[-73.9381,40.7457]}},{"properties":{"company":"Sole Proprietor","city":"Altamonte Springs","zip":"32701","latitude":28.670399,"last name":"Speck","resource type":"Third Party","resource id":9270907,"longitude":-81.374902,"id":"a87s27v0fivu","first name":"George","state":"FL"},"type":"Feature","geometry":{"type":"Point","coordinates":[-81.374902,28.670399]}},{"properties":{"company":"Sole Proprietor","city":"Knoxville","zip":"37920","latitude":35.900804,"last name":"Spence","resource type":"Third Party","resource id":4184144,"longitude":-83.841416,"id":"a87s27vp2gm4","first name":"Gregory","state":"TN"},"type":"Feature","geometry":{"type":"Point","coordinates":[-83.841416,35.900804]}},{"properties":{"company":"Sole Proprietor","city":"Pensacola","zip":"32504","latitude":30.4842,"last name":"Staley","resource type":"Third Party","resource id":2777916,"longitude":-87.1905,"id":"a87s281x5mud","first name":"John","state":"FL"},"type":"Feature","geometry":{"type":"Point","coordinates":[-87.1905,30.4842]}},{"properties":{"company":"Sole Proprietor","city":"Superior","zip":"54880","latitude":46.6228,"last name":"Starr","resource type":"Third Party","resource id":3368286,"longitude":-92.1463,"id":"a87s27n96d9m","first name":"Katherine","state":"WI"},"type":"Feature","geometry":{"type":"Point","coordinates":[-92.1463,46.6228]}},{"properties":{"company":"Sole Proprietor","city":"richmond","zip":"23223","latitude":37.556,"last name":"Steadman","resource type":"Third Party","resource id":1518565,"longitude":-77.3779,"id":"a87s27u2w5hd","first name":"James","state":"VA"},"type":"Feature","geometry":{"type":"Point","coordinates":[-77.3779,37.556]}},{"properties":{"company":"Sole Proprietor","city":"Skandia","zip":"49885","latitude":46.3395,"last name":"Stephens-Brown","resource type":"Third Party","resource id":2734412,"longitude":-87.2209,"id":"a87s27rqogiu","first name":"Pete","state":"MI"},"type":"Feature","geometry":{"type":"Point","coordinates":[-87.2209,46.3395]}},{"properties":{"company":"Sole Proprietor","city":"Roanoke","zip":"24018","latitude":37.2112,"last name":"Stokes III","resource type":"Third Party","resource id":3112743,"longitude":-80.0525,"id":"a87s27m1vmp6","first name":"James E","state":"VA"},"type":"Feature","geometry":{"type":"Point","coordinates":[-80.0525,37.2112]}},{"properties":{"company":"Sole Proprietor","city":"Richmond","zip":"23224","latitude":37.4971,"last name":"Sykes","resource type":"Third Party","resource id":8928432,"longitude":-77.4668,"id":"a87s27r7hg8w","first name":"Joel","state":"VA"},"type":"Feature","geometry":{"type":"Point","coordinates":[-77.4668,37.4971]}},{"properties":{"company":"ESAR Enterprises","city":"Brooklyn","zip":"11201","latitude":40.6944,"last name":"Szumski","resource type":"Third Party","resource id":1244240,"longitude":-73.9902,"id":"a87s27ycssdc","first name":"Radek","state":"NY"},"type":"Feature","geometry":{"type":"Point","coordinates":[-73.9902,40.6944]}},{"properties":{"company":"Sole Proprietor","city":"norfolk","zip":"23513","latitude":36.8894,"last name":"taylor","resource type":"Third Party","resource id":2791342,"longitude":-76.2382,"id":"a87s27z36w46","first name":"michael","state":"VA"},"type":"Feature","geometry":{"type":"Point","coordinates":[-76.2382,36.8894]}},{"properties":{"company":"Sole Proprietor","city":"Bronx","zip":"10473","latitude":40.819179,"last name":"Tazari","resource type":"Third Party","resource id":6139179,"longitude":-73.864708,"id":"a87s27nuc01r","first name":"Andrienne","state":"NY"},"type":"Feature","geometry":{"type":"Point","coordinates":[-73.864708,40.819179]}},{"properties":{"company":"Sole Proprietor","city":"Gorham","zip":"04038","latitude":43.6907,"last name":"Tedford","resource type":"Third Party","resource id":8957874,"longitude":-70.4722,"id":"a87s27rdrxap","first name":"Victor","state":"ME"},"type":"Feature","geometry":{"type":"Point","coordinates":[-70.4722,43.6907]}},{"properties":{"company":"Sole Proprietor","city":"Madison","zip":"37115","latitude":36.274242,"last name":"Thiel","resource type":"Third Party","resource id":7466093,"longitude":-86.699067,"id":"a87s27qorqac","first name":"Rod","state":"TN"},"type":"Feature","geometry":{"type":"Point","coordinates":[-86.699067,36.274242]}},{"properties":{"company":"Thompson Computer Repair","city":"Springfield","zip":"65807","latitude":37.1661,"last name":"Thompson","resource type":"Third Party","resource id":9259498,"longitude":-93.3246,"id":"a87s27nhegu1","first name":"Zachary","state":"MO"},"type":"Feature","geometry":{"type":"Point","coordinates":[-93.3246,37.1661]}},{"properties":{"company":"Merlin Thompson","city":"SOUTH BURLINGTON","zip":"05403","latitude":44.446,"last name":"Thompson","resource type":"Third Party","resource id":6884704,"longitude":-73.1725,"id":"a87s27n0ma7b","first name":"Merlin","state":"VT"},"type":"Feature","geometry":{"type":"Point","coordinates":[-73.1725,44.446]}},{"properties":{"company":"Sole Proprietor","city":"nokomis","zip":"34275","latitude":27.121813,"last name":"tinsley","resource type":"Third Party","resource id":2156473,"longitude":-82.457752,"id":"a87s27uzyn3d","first name":"scott","state":"FL"},"type":"Feature","geometry":{"type":"Point","coordinates":[-82.457752,27.121813]}},{"properties":{"company":"ALL ELECTRONICS SERVICE","city":"RALEIGH","zip":"27615","latitude":35.8981,"last name":"tomecek","resource type":"Third Party","resource id":8119095,"longitude":-78.6367,"id":"a87s27yfuwbj","first name":"kathleen","state":"NC"},"type":"Feature","geometry":{"type":"Point","coordinates":[-78.6367,35.8981]}},{"properties":{"company":"simple systems","city":"milwaukee","zip":"53219","latitude":42.9957,"last name":"topczewski","resource type":"Third Party","resource id":6343818,"longitude":-87.9925,"id":"a87s27wq34an","first name":"Ben","state":"WI"},"type":"Feature","geometry":{"type":"Point","coordinates":[-87.9925,42.9957]}},{"properties":{"company":"Wildcard Technologies, LLC","city":"Bartlett","zip":"38135","latitude":35.2403,"last name":"Tremba","resource type":"Third Party","resource id":2784793,"longitude":-89.8527,"id":"a87s27s3tbul","first name":"Shaun","state":"TN"},"type":"Feature","geometry":{"type":"Point","coordinates":[-89.8527,35.2403]}},{"properties":{"company":"Sole Proprietor","city":"Germantown","zip":"38139","latitude":35.086,"last name":"Turman","resource type":"Third Party","resource id":8459808,"longitude":-89.7557,"id":"a87s27zg858z","first name":"Blake","state":"TN"},"type":"Feature","geometry":{"type":"Point","coordinates":[-89.7557,35.086]}},{"properties":{"company":"Sole Proprietor","city":"W.Bridgewater","zip":"02379","latitude":42.0209,"last name":"Turner","resource type":"Third Party","resource id":4193469,"longitude":-71.0267,"id":"a87s27nesp10","first name":"Venison","state":"MA"},"type":"Feature","geometry":{"type":"Point","coordinates":[-71.0267,42.0209]}},{"properties":{"company":"Sole Proprietor","city":"Tallahassee","zip":"32311","latitude":30.405772,"last name":"Upham","resource type":"Third Party","resource id":4503701,"longitude":-84.233532,"id":"a87s27zi515v","first name":"Gregory","state":"FL"},"type":"Feature","geometry":{"type":"Point","coordinates":[-84.233532,30.405772]}},{"properties":{"company":"Sole Proprietor","city":"New Franken","zip":"54229","latitude":44.5647,"last name":"Van Drisse","resource type":"Third Party","resource id":4543334,"longitude":-87.8197,"id":"a87s27r62s55","first name":"Brett","state":"WI"},"type":"Feature","geometry":{"type":"Point","coordinates":[-87.8197,44.5647]}},{"properties":{"company":"Sole Proprietor","city":"Fairview","zip":"07022","latitude":40.8181,"last name":"Vasquez","resource type":"Third Party","resource id":2917557,"longitude":-74.0027,"id":"a87s27yj8zku","first name":"Reynaldo","state":"NJ"},"type":"Feature","geometry":{"type":"Point","coordinates":[-74.0027,40.8181]}},{"properties":{"company":"Sole Proprietor","city":"Yonkers","zip":"10704","latitude":40.9195,"last name":"Vidal","resource type":"Third Party","resource id":4741438,"longitude":-73.8617,"id":"a87s27vna564","first name":"Cesar","state":"NY"},"type":"Feature","geometry":{"type":"Point","coordinates":[-73.8617,40.9195]}},{"properties":{"company":"Sole Proprietor","city":"Smithfield","zip":"02917","latitude":41.888929,"last name":"Vieira","resource type":"Third Party","resource id":4119858,"longitude":-71.507162,"id":"a87s27scg97b","first name":"Mark","state":"RI"},"type":"Feature","geometry":{"type":"Point","coordinates":[-71.507162,41.888929]}},{"properties":{"company":"NetStream Data","city":"Eagle","zip":"48822","latitude":42.8353,"last name":"Walling","resource type":"Third Party","resource id":8690260,"longitude":-84.7624,"id":"a87s27wi8bbm","first name":"Robert","state":"MI"},"type":"Feature","geometry":{"type":"Point","coordinates":[-84.7624,42.8353]}},{"properties":{"company":"Sole Proprietor","city":"Richmond","zip":"23220","latitude":37.5498,"last name":"Wandell","resource type":"Third Party","resource id":4819054,"longitude":-77.4598,"id":"a87s27w80a8x","first name":"Phillip","state":"VA"},"type":"Feature","geometry":{"type":"Point","coordinates":[-77.4598,37.5498]}},{"properties":{"company":"Sole Proprietor","city":"Ponca City","zip":"74601","latitude":36.7012,"last name":"Ware","resource type":"Third Party","resource id":6194213,"longitude":-97.1444,"id":"a87s27z352n9","first name":"Jeff","state":"OK"},"type":"Feature","geometry":{"type":"Point","coordinates":[-97.1444,36.7012]}},{"properties":{"company":"Sole Proprietor","city":"Las Vegas","zip":"89134","latitude":36.2119,"last name":"WARREN","resource type":"Third Party","resource id":7356131,"longitude":-115.2962,"id":"a87s27wwy968","first name":"LEE","state":"NV"},"type":"Feature","geometry":{"type":"Point","coordinates":[-115.2962,36.2119]}},{"properties":{"company":"Sole Proprietor","city":"Detroit","zip":"48219","latitude":42.4256,"last name":"Warrick","resource type":"Third Party","resource id":3203095,"longitude":-83.253,"id":"a87s281cows1","first name":"Ramon","state":"MI"},"type":"Feature","geometry":{"type":"Point","coordinates":[-83.253,42.4256]}},{"properties":{"company":"Sole Proprietor","city":"PROVO","zip":"84601","latitude":40.2247,"last name":"Washburn","resource type":"Third Party","resource id":1356784,"longitude":-111.6938,"id":"a87s280df77t","first name":"Daniel","state":"UT"},"type":"Feature","geometry":{"type":"Point","coordinates":[-111.6938,40.2247]}},{"properties":{"company":"Sole Proprietor","city":"Menasha","zip":"54952","latitude":44.2033,"last name":"Weber-Reek","resource type":"Third Party","resource id":2204100,"longitude":-88.3113,"id":"a87s27v4n2rt","first name":"Jeffrey","state":"WI"},"type":"Feature","geometry":{"type":"Point","coordinates":[-88.3113,44.2033]}},{"properties":{"company":"Sole Proprietor","city":"Oshkosh","zip":"54901","latitude":43.95,"last name":"Weber-Reek","resource type":"Third Party","resource id":5615239,"longitude":-88.5387,"id":"a87s27xp685b","first name":"Miles","state":"WI"},"type":"Feature","geometry":{"type":"Point","coordinates":[-88.5387,43.95]}},{"properties":{"company":"D&amp;D Computers","city":"Michie","zip":"38357","latitude":35.0691,"last name":"Webster","resource type":"Third Party","resource id":9621947,"longitude":-88.4454,"id":"a87s27qa9eon","first name":"Dana","state":"TN"},"type":"Feature","geometry":{"type":"Point","coordinates":[-88.4454,35.0691]}},{"properties":{"company":"WyzGuys Computer and Network Support","city":"Bayport","zip":"55003","latitude":45.0174,"last name":"Weiss","resource type":"Third Party","resource id":7718468,"longitude":-92.7808,"id":"a87s27xqxx0l","first name":"Bob","state":"MN"},"type":"Feature","geometry":{"type":"Point","coordinates":[-92.7808,45.0174]}},{"properties":{"company":"Tech Savvy 561, Inc.","city":"West Palm Beach","zip":"33470","latitude":26.8039,"last name":"Wheatley","resource type":"Third Party","resource id":6495047,"longitude":-80.4376,"id":"a87s27qv9r0p","first name":"Thomas","state":"FL"},"type":"Feature","geometry":{"type":"Point","coordinates":[-80.4376,26.8039]}},{"properties":{"company":"Sole Proprietor","city":"durham","zip":"27707","latitude":35.956021,"last name":"wheeler","resource type":"Third Party","resource id":4851001,"longitude":-78.908076,"id":"a87s27nyux98","first name":"chauncey","state":"NC"},"type":"Feature","geometry":{"type":"Point","coordinates":[-78.908076,35.956021]}},{"properties":{"company":"Geeks to Call","city":"high ridge","zip":"63049","latitude":38.469077,"last name":"whitehill","resource type":"Third Party","resource id":8547025,"longitude":-90.528358,"id":"a87s27yas32c","first name":"Timothy","state":"MO"},"type":"Feature","geometry":{"type":"Point","coordinates":[-90.528358,38.469077]}},{"properties":{"company":"Sole Proprietor","city":"Fort Gordon","zip":"30905","latitude":33.364,"last name":"Wilder","resource type":"Third Party","resource id":9341651,"longitude":-82.215,"id":"a87s27z4vxhx","first name":"Christine","state":"GA"},"type":"Feature","geometry":{"type":"Point","coordinates":[-82.215,33.364]}},{"properties":{"company":"Sole Proprietor","city":"springfield","zip":"65803","latitude":37.3202,"last name":"wildes","resource type":"Third Party","resource id":8389916,"longitude":-93.2988,"id":"a87s27ykpvtt","first name":"james","state":"MO"},"type":"Feature","geometry":{"type":"Point","coordinates":[-93.2988,37.3202]}},{"properties":{"company":"New World Technology Inc","city":"Las Vegas","zip":"89120","latitude":36.072812,"last name":"Williams","resource type":"Third Party","resource id":1946182,"longitude":-115.116148,"id":"a87s27tj8wuy","first name":"Deonnes","state":"NV"},"type":"Feature","geometry":{"type":"Point","coordinates":[-115.116148,36.072812]}},{"properties":{"company":"Sole Proprietor","city":"Norman","zip":"73071","latitude":35.233,"last name":"Wilson Fry","resource type":"Third Party","resource id":5501524,"longitude":-97.3061,"id":"a87s27unkofb","first name":"Taylor","state":"OK"},"type":"Feature","geometry":{"type":"Point","coordinates":[-97.3061,35.233]}},{"properties":{"company":"Printer Repair Specialist","city":"Jacksonville","zip":"32266","latitude":30.3165,"last name":"Winant","resource type":"Third Party","resource id":7428914,"longitude":-81.4114,"id":"a87s27po5sh8","first name":"John","state":"FL"},"type":"Feature","geometry":{"type":"Point","coordinates":[-81.4114,30.3165]}},{"properties":{"company":"Sole Proprietor","city":"Jacksonville","zip":"32207","latitude":30.264856,"last name":"Winant","resource type":"Third Party","resource id":1450652,"longitude":-81.644058,"id":"a87s27r2lflb","first name":"Marc","state":"FL"},"type":"Feature","geometry":{"type":"Point","coordinates":[-81.644058,30.264856]}},{"properties":{"company":"D A Wintz Corp","city":"Brooklyn","zip":"11236","latitude":40.6398,"last name":"Wintz","resource type":"Third Party","resource id":1530010,"longitude":-73.901,"id":"a87s2819nyq9","first name":"Denise","state":"NY"},"type":"Feature","geometry":{"type":"Point","coordinates":[-73.901,40.6398]}},{"properties":{"company":"Sole Proprietor","city":"St. Peters","zip":"63376","latitude":38.8003,"last name":"Wisa","resource type":"Third Party","resource id":8338649,"longitude":-90.6176,"id":"a87s27xft3ib","first name":"Russell","state":"MO"},"type":"Feature","geometry":{"type":"Point","coordinates":[-90.6176,38.8003]}},{"properties":{"company":"Wolff PRo, LLC","city":"prairie du sac","zip":"53578","latitude":43.3094,"last name":"Wolff","resource type":"Third Party","resource id":4599701,"longitude":-89.8029,"id":"a87s27xg38ni","first name":"Thomas","state":"WI"},"type":"Feature","geometry":{"type":"Point","coordinates":[-89.8029,43.3094]}},{"properties":{"company":"Wisconsin Tech Doctors","city":"Sun Prairie","zip":"53590","latitude":43.182578,"last name":"Wrezenski","resource type":"Third Party","resource id":5327087,"longitude":-89.212777,"id":"a87s27sfhtkx","first name":"Marty","state":"WI"},"type":"Feature","geometry":{"type":"Point","coordinates":[-89.212777,43.182578]}},{"properties":{"company":"Elite Computer Care","city":"Richmond","zip":"23225","latitude":37.5175,"last name":"Yarborough","resource type":"Third Party","resource id":5255968,"longitude":-77.5123,"id":"a87s27p1niuc","first name":"Asmar","state":"VA"},"type":"Feature","geometry":{"type":"Point","coordinates":[-77.5123,37.5175]}},{"properties":{"company":"Unified Technologies, Inc.","city":"Madison","zip":"53719","latitude":43.048576,"last name":"Yeazel","resource type":"Third Party","resource id":1075311,"longitude":-89.475128,"id":"a87s281i2rvf","first name":"Garth","state":"WI"},"type":"Feature","geometry":{"type":"Point","coordinates":[-89.475128,43.048576]}},{"properties":{"company":"Sole Proprietor","city":"Robbinsdale","zip":"55422","latitude":45.0089,"last name":"Yoak","resource type":"Third Party","resource id":7890576,"longitude":-93.3395,"id":"a87s280leeow","first name":"Todd","state":"MN"},"type":"Feature","geometry":{"type":"Point","coordinates":[-93.3395,45.0089]}},{"properties":{"company":"network one","city":"dearborn","zip":"48124","latitude":42.292222,"last name":"zurawski","resource type":"Third Party","resource id":8602134,"longitude":-83.26222,"id":"a87s27rw8llu","first name":"dorn","state":"MI"},"type":"Feature","geometry":{"type":"Point","coordinates":[-83.26222,42.292222]}}],"is_temporal":false,"author":{"url":null,"metadata":null,"contact_name":null,"contact_address":null,"source":null,"contact_phone":null},"source":null,"pagination":{"sort":null,"start":0,"total":448,"limit":1000000},"state":"complete","tags":"","published":"2014-08-14T16:16:15-04:00","id":271255}