{"type":"FeatureCollection","data_type":"Dataset","url_type":null,"permissions":[{"permissions":{"download":true,"view":true},"group_id":"everyone"}],"classification":null,"title":"SP Teams Volunteers 2011 1","count":276,"stream_id":271349,"contributor":{"url":"http://geocommons.com/users/51062","name":"nathanghall"},"data_attributes":null,"calculation_params":null,"icon_link":null,"link":"http://geocommons.com/overlays/271349.json","extent":[-129.0,-45.0,153.617,69.051],"geometry_types":["point"],"unique_name":null,"name":"SP Teams Volunteers 2011 1","feature_count":276,"description":"","next_feature":null,"is_raster":false,"short_classification":"Y","stats":{},"features":[{"properties":{"city":"Airdrie","country":"Canada","geo_score":0.714,"id":"a884pwrehrww","province":"Alberta","geo_precision":"zip"},"type":"Feature","geometry":{"type":"Point","coordinates":[-37.4833333,-7.75]}},{"properties":{"city":"Banff","country":"Canada","geo_score":0.714,"id":"a884pwm7kgqa","province":"Alberta","geo_precision":"zip"},"type":"Feature","geometry":{"type":"Point","coordinates":[43.7516667,-12.2880556]}},{"properties":{"city":"Banff","country":"Canada","geo_score":0.714,"id":"a884pwp9ptrn","province":"Alberta","geo_precision":"zip"},"type":"Feature","geometry":{"type":"Point","coordinates":[43.7516667,-12.2880556]}},{"properties":{"city":"Calgary","country":"Canada","geo_score":0.714,"id":"a884pwrk8oz6","province":"Alberta","geo_precision":"zip"},"type":"Feature","geometry":{"type":"Point","coordinates":[25.4833333,44.15]}},{"properties":{"city":"Calgary","country":"Canada","geo_score":0.714,"id":"a884pwobrmrc","province":"Alberta","geo_precision":"zip"},"type":"Feature","geometry":{"type":"Point","coordinates":[25.4833333,44.15]}},{"properties":{"city":"Calgary","country":"Canada","geo_score":0.714,"id":"a884pwjxcigr","province":"Alberta","geo_precision":"zip"},"type":"Feature","geometry":{"type":"Point","coordinates":[25.4833333,44.15]}},{"properties":{"city":"Calgary","country":"Canada","geo_score":0.714,"id":"a884pwt5nv5d","province":"Alberta","geo_precision":"zip"},"type":"Feature","geometry":{"type":"Point","coordinates":[25.4833333,44.15]}},{"properties":{"city":"Calgary","country":"Canada","geo_score":0.714,"id":"a884pwpzqv2t","province":"Alberta","geo_precision":"zip"},"type":"Feature","geometry":{"type":"Point","coordinates":[25.4833333,44.15]}},{"properties":{"city":"Calgary","country":"Canada","geo_score":0.714,"id":"a884pwsep9ak","province":"Alberta","geo_precision":"zip"},"type":"Feature","geometry":{"type":"Point","coordinates":[25.4833333,44.15]}},{"properties":{"city":"Calgary","country":"Canada","geo_score":0.714,"id":"a884pwjycu3u","province":"Alberta","geo_precision":"zip"},"type":"Feature","geometry":{"type":"Point","coordinates":[25.4833333,44.15]}},{"properties":{"city":"Calgary","country":"Canada","geo_score":0.714,"id":"a884pwoxqjs8","province":"Alberta","geo_precision":"zip"},"type":"Feature","geometry":{"type":"Point","coordinates":[25.4833333,44.15]}},{"properties":{"city":"Calgary","country":"Canada","geo_score":0.714,"id":"a884pwr1imd7","province":"Alberta","geo_precision":"zip"},"type":"Feature","geometry":{"type":"Point","coordinates":[25.4833333,44.15]}},{"properties":{"city":"Calgary","country":"Canada","geo_score":0.714,"id":"a884pwuqe9tm","province":"Alberta","geo_precision":"zip"},"type":"Feature","geometry":{"type":"Point","coordinates":[25.4833333,44.15]}},{"properties":{"city":"Calgary","country":"Canada","geo_score":0.714,"id":"a884pwurbh6h","province":"Alberta","geo_precision":"zip"},"type":"Feature","geometry":{"type":"Point","coordinates":[25.4833333,44.15]}},{"properties":{"city":"Calgary","country":"Canada","geo_score":0.714,"id":"a884pwyn7fjm","province":"Alberta","geo_precision":"zip"},"type":"Feature","geometry":{"type":"Point","coordinates":[25.4833333,44.15]}},{"properties":{"city":"Calgary","country":"Canada","geo_score":0.714,"id":"a884pwmkhpxx","province":"Alberta","geo_precision":"zip"},"type":"Feature","geometry":{"type":"Point","coordinates":[25.4833333,44.15]}},{"properties":{"city":"Calgary","country":"Canada","geo_score":0.714,"id":"a884pwnu36qm","province":"Alberta","geo_precision":"zip"},"type":"Feature","geometry":{"type":"Point","coordinates":[25.4833333,44.15]}},{"properties":{"city":"Calgary","country":"Canada","geo_score":0.714,"id":"a884pwplrxqj","province":"Alberta","geo_precision":"zip"},"type":"Feature","geometry":{"type":"Point","coordinates":[25.4833333,44.15]}},{"properties":{"city":"Calgary","country":"Canada","geo_score":0.714,"id":"a884pwqk7sum","province":"Alberta","geo_precision":"zip"},"type":"Feature","geometry":{"type":"Point","coordinates":[25.4833333,44.15]}},{"properties":{"city":"Calgary","country":"Canada","geo_score":0.714,"id":"a884pwsbhzn7","province":"Alberta","geo_precision":"zip"},"type":"Feature","geometry":{"type":"Point","coordinates":[25.4833333,44.15]}},{"properties":{"city":"Calgary","country":"Canada","geo_score":0.714,"id":"a884px066837","province":"Alberta","geo_precision":"zip"},"type":"Feature","geometry":{"type":"Point","coordinates":[25.4833333,44.15]}},{"properties":{"city":"Calgary","country":"Canada","geo_score":0.714,"id":"a884pwsfdmqx","province":"Alberta","geo_precision":"zip"},"type":"Feature","geometry":{"type":"Point","coordinates":[25.4833333,44.15]}},{"properties":{"city":"Calgary","country":"Canada","geo_score":0.714,"id":"a884pwx284zt","province":"Alberta","geo_precision":"zip"},"type":"Feature","geometry":{"type":"Point","coordinates":[25.4833333,44.15]}},{"properties":{"city":"Calgary","country":"Canada","geo_score":0.714,"id":"a884pwurz59u","province":"Alberta","geo_precision":"zip"},"type":"Feature","geometry":{"type":"Point","coordinates":[25.4833333,44.15]}},{"properties":{"city":"Calgary","country":"Canada","geo_score":0.714,"id":"a884pwxwciiq","province":"Alberta","geo_precision":"zip"},"type":"Feature","geometry":{"type":"Point","coordinates":[25.4833333,44.15]}},{"properties":{"city":"Calgary","country":"Canada","geo_score":0.714,"id":"a884pwladfnf","province":"Alberta","geo_precision":"zip"},"type":"Feature","geometry":{"type":"Point","coordinates":[25.4833333,44.15]}},{"properties":{"city":"Calgary","country":"Canada","geo_score":0.714,"id":"a884pwxzlrug","province":"Alberta","geo_precision":"zip"},"type":"Feature","geometry":{"type":"Point","coordinates":[25.4833333,44.15]}},{"properties":{"city":"Calgary","country":"Canada","geo_score":0.714,"id":"a884pwpcqbw7","province":"Alberta","geo_precision":"zip"},"type":"Feature","geometry":{"type":"Point","coordinates":[25.4833333,44.15]}},{"properties":{"city":"Calgary","country":"Canada","geo_score":0.714,"id":"a884pwr4g1fp","province":"Alberta","geo_precision":"zip"},"type":"Feature","geometry":{"type":"Point","coordinates":[25.4833333,44.15]}},{"properties":{"city":"Calgary","country":"Canada","geo_score":0.714,"id":"a884pwkrmbgu","province":"Alberta","geo_precision":"zip"},"type":"Feature","geometry":{"type":"Point","coordinates":[25.4833333,44.15]}},{"properties":{"city":"Calgary","country":"Canada","geo_score":0.714,"id":"a884pwpx9894","province":"Alberta","geo_precision":"zip"},"type":"Feature","geometry":{"type":"Point","coordinates":[25.4833333,44.15]}},{"properties":{"city":"Calgary","country":"Canada","geo_score":0.714,"id":"a884pwvesmlf","province":"Alberta","geo_precision":"zip"},"type":"Feature","geometry":{"type":"Point","coordinates":[25.4833333,44.15]}},{"properties":{"city":"Calgary","country":"Canada","geo_score":0.714,"id":"a884pwzjn1k6","province":"Alberta","geo_precision":"zip"},"type":"Feature","geometry":{"type":"Point","coordinates":[25.4833333,44.15]}},{"properties":{"city":"Calgary","country":"Canada","geo_score":0.714,"id":"a884pwzw3zl7","province":"Alberta","geo_precision":"zip"},"type":"Feature","geometry":{"type":"Point","coordinates":[25.4833333,44.15]}},{"properties":{"city":"Calgary","country":"Canada","geo_score":0.714,"id":"a884pwxcwct8","province":"Alberta","geo_precision":"zip"},"type":"Feature","geometry":{"type":"Point","coordinates":[25.4833333,44.15]}},{"properties":{"city":"Calgary","country":"Canada","geo_score":0.714,"id":"a884pwz67bah","province":"Alberta","geo_precision":"zip"},"type":"Feature","geometry":{"type":"Point","coordinates":[25.4833333,44.15]}},{"properties":{"city":"Calgary","country":"Canada","geo_score":0.714,"id":"a884pwruyg24","province":"Alberta","geo_precision":"zip"},"type":"Feature","geometry":{"type":"Point","coordinates":[25.4833333,44.15]}},{"properties":{"city":"Calgary","country":"Canada","geo_score":0.714,"id":"a884pwuehdle","province":"Alberta","geo_precision":"zip"},"type":"Feature","geometry":{"type":"Point","coordinates":[25.4833333,44.15]}},{"properties":{"city":"Calgary","country":"Canada","geo_score":0.714,"id":"a884pwstzou2","province":"Alberta","geo_precision":"zip"},"type":"Feature","geometry":{"type":"Point","coordinates":[25.4833333,44.15]}},{"properties":{"city":"Calgary","country":"Canada","geo_score":0.714,"id":"a884pwmuk9wk","province":"Alberta","geo_precision":"zip"},"type":"Feature","geometry":{"type":"Point","coordinates":[25.4833333,44.15]}},{"properties":{"city":"Calgary","country":"Canada","geo_score":0.714,"id":"a884pwtxync9","province":"Alberta","geo_precision":"zip"},"type":"Feature","geometry":{"type":"Point","coordinates":[25.4833333,44.15]}},{"properties":{"city":"Calgary","country":"Canada","geo_score":0.714,"id":"a884pwwrhtmh","province":"Alberta","geo_precision":"zip"},"type":"Feature","geometry":{"type":"Point","coordinates":[25.4833333,44.15]}},{"properties":{"city":"Calgary","country":"Canada","geo_score":0.714,"id":"a884pwv393jg","province":"Alberta","geo_precision":"zip"},"type":"Feature","geometry":{"type":"Point","coordinates":[25.4833333,44.15]}},{"properties":{"city":"Calgary","country":"Canada","geo_score":0.714,"id":"a884pwvh8jl1","province":"Alberta","geo_precision":"zip"},"type":"Feature","geometry":{"type":"Point","coordinates":[25.4833333,44.15]}},{"properties":{"city":"Calgary","country":"Canada","geo_score":0.714,"id":"a884pwtxevkv","province":"Alberta","geo_precision":"zip"},"type":"Feature","geometry":{"type":"Point","coordinates":[25.4833333,44.15]}},{"properties":{"city":"Calgary","country":"Canada","geo_score":0.714,"id":"a884pwnful0k","province":"Alberta","geo_precision":"zip"},"type":"Feature","geometry":{"type":"Point","coordinates":[25.4833333,44.15]}},{"properties":{"city":"Calgary","country":"Canada","geo_score":0.714,"id":"a884pwzonvrz","province":"Alberta","geo_precision":"zip"},"type":"Feature","geometry":{"type":"Point","coordinates":[25.4833333,44.15]}},{"properties":{"city":"Calgary","country":"Canada","geo_score":0.714,"id":"a884pwqy0yfc","province":"Alberta","geo_precision":"zip"},"type":"Feature","geometry":{"type":"Point","coordinates":[25.4833333,44.15]}},{"properties":{"city":"Calgary","country":"Canada","geo_score":0.714,"id":"a884pwk38lm9","province":"Alberta","geo_precision":"zip"},"type":"Feature","geometry":{"type":"Point","coordinates":[25.4833333,44.15]}},{"properties":{"city":"Calgary","country":"Canada","geo_score":0.714,"id":"a884pwqu8s78","province":"Alberta","geo_precision":"zip"},"type":"Feature","geometry":{"type":"Point","coordinates":[25.4833333,44.15]}},{"properties":{"city":"Calgary","country":"Canada","geo_score":0.714,"id":"a884pwrvhlq8","province":"Alberta","geo_precision":"zip"},"type":"Feature","geometry":{"type":"Point","coordinates":[25.4833333,44.15]}},{"properties":{"city":"Calgary","country":"Canada","geo_score":0.714,"id":"a884pwz4algv","province":"Alberta","geo_precision":"zip"},"type":"Feature","geometry":{"type":"Point","coordinates":[25.4833333,44.15]}},{"properties":{"city":"Calgary","country":"Canada","geo_score":0.714,"id":"a884pwteueiy","province":"Alberta","geo_precision":"zip"},"type":"Feature","geometry":{"type":"Point","coordinates":[25.4833333,44.15]}},{"properties":{"city":"Calgary","country":"Canada","geo_score":0.714,"id":"a884pwvwfpx0","province":"Alberta","geo_precision":"zip"},"type":"Feature","geometry":{"type":"Point","coordinates":[25.4833333,44.15]}},{"properties":{"city":"Calgary","country":"Canada","geo_score":0.714,"id":"a884pwooh886","province":"Alberta","geo_precision":"zip"},"type":"Feature","geometry":{"type":"Point","coordinates":[25.4833333,44.15]}},{"properties":{"city":"Calgary","country":"Canada","geo_score":0.714,"id":"a884pwxa46jh","province":"Alberta","geo_precision":"zip"},"type":"Feature","geometry":{"type":"Point","coordinates":[25.4833333,44.15]}},{"properties":{"city":"Calgary","country":"Canada","geo_score":0.714,"id":"a884pwkapjc8","province":"Alberta","geo_precision":"zip"},"type":"Feature","geometry":{"type":"Point","coordinates":[25.4833333,44.15]}},{"properties":{"city":"Calgary","country":"Canada","geo_score":0.714,"id":"a884pwz6s197","province":"Alberta","geo_precision":"zip"},"type":"Feature","geometry":{"type":"Point","coordinates":[25.4833333,44.15]}},{"properties":{"city":"Calgary","country":"Canada","geo_score":0.714,"id":"a884px0btvke","province":"Alberta","geo_precision":"zip"},"type":"Feature","geometry":{"type":"Point","coordinates":[25.4833333,44.15]}},{"properties":{"city":"Calgary","country":"Canada","geo_score":0.714,"id":"a884pwom1ck5","province":"Alberta","geo_precision":"zip"},"type":"Feature","geometry":{"type":"Point","coordinates":[25.4833333,44.15]}},{"properties":{"city":"Calgary","country":"Canada","geo_score":0.714,"id":"a884pwl8yzbc","province":"Alberta","geo_precision":"zip"},"type":"Feature","geometry":{"type":"Point","coordinates":[25.4833333,44.15]}},{"properties":{"city":"Calgary","country":"Canada","geo_score":0.714,"id":"a884pwz5ccai","province":"Alberta","geo_precision":"zip"},"type":"Feature","geometry":{"type":"Point","coordinates":[25.4833333,44.15]}},{"properties":{"city":"Calgary","country":"Canada","geo_score":0.714,"id":"a884pwkscbcd","province":"Alberta","geo_precision":"zip"},"type":"Feature","geometry":{"type":"Point","coordinates":[25.4833333,44.15]}},{"properties":{"city":"Calgary","country":"Canada","geo_score":0.714,"id":"a884pwnh5ytv","province":"Alberta","geo_precision":"zip"},"type":"Feature","geometry":{"type":"Point","coordinates":[25.4833333,44.15]}},{"properties":{"city":"Calgary","country":"Canada","geo_score":0.714,"id":"a884pwquj7of","province":"Alberta","geo_precision":"zip"},"type":"Feature","geometry":{"type":"Point","coordinates":[25.4833333,44.15]}},{"properties":{"city":"Calgary","country":"Canada","geo_score":0.714,"id":"a884pwwfeun4","province":"Alberta","geo_precision":"zip"},"type":"Feature","geometry":{"type":"Point","coordinates":[25.4833333,44.15]}},{"properties":{"city":"Calgary","country":"Canada","geo_score":0.714,"id":"a884pwvjm1g4","province":"Alberta","geo_precision":"zip"},"type":"Feature","geometry":{"type":"Point","coordinates":[25.4833333,44.15]}},{"properties":{"city":"Calgary","country":"Canada","geo_score":0.714,"id":"a884pwxy94su","province":"Alberta","geo_precision":"zip"},"type":"Feature","geometry":{"type":"Point","coordinates":[25.4833333,44.15]}},{"properties":{"city":"Calgary","country":"Canada","geo_score":0.714,"id":"a884pwrkg066","province":"Alberta","geo_precision":"zip"},"type":"Feature","geometry":{"type":"Point","coordinates":[25.4833333,44.15]}},{"properties":{"city":"Calgary","country":"Canada","geo_score":0.714,"id":"a884pwzankkf","province":"Alberta","geo_precision":"zip"},"type":"Feature","geometry":{"type":"Point","coordinates":[25.4833333,44.15]}},{"properties":{"city":"Calgary","country":"Canada","geo_score":0.714,"id":"a884pwk5suso","province":"Alberta","geo_precision":"zip"},"type":"Feature","geometry":{"type":"Point","coordinates":[25.4833333,44.15]}},{"properties":{"city":"Calgary","country":"Canada","geo_score":0.714,"id":"a884pwvyhwe9","province":"Alberta","geo_precision":"zip"},"type":"Feature","geometry":{"type":"Point","coordinates":[25.4833333,44.15]}},{"properties":{"city":"Calgary","country":"Canada","geo_score":0.714,"id":"a884pwu0i5t2","province":"Alberta","geo_precision":"zip"},"type":"Feature","geometry":{"type":"Point","coordinates":[25.4833333,44.15]}},{"properties":{"city":"Calgary","country":"Canada","geo_score":0.714,"id":"a884pwkgsb10","province":"Alberta","geo_precision":"zip"},"type":"Feature","geometry":{"type":"Point","coordinates":[25.4833333,44.15]}},{"properties":{"city":"Calgary","country":"Canada","geo_score":0.714,"id":"a884pwxp1plm","province":"Alberta","geo_precision":"zip"},"type":"Feature","geometry":{"type":"Point","coordinates":[25.4833333,44.15]}},{"properties":{"city":"Calgary","country":"Canada","geo_score":0.714,"id":"a884pwvw79nb","province":"Alberta","geo_precision":"zip"},"type":"Feature","geometry":{"type":"Point","coordinates":[25.4833333,44.15]}},{"properties":{"city":"Calgary","country":"Canada","geo_score":0.714,"id":"a884pwt3og0p","province":"Alberta","geo_precision":"zip"},"type":"Feature","geometry":{"type":"Point","coordinates":[25.4833333,44.15]}},{"properties":{"city":"Calgary","country":"Canada","geo_score":0.714,"id":"a884pwtt4jij","province":"Alberta","geo_precision":"zip"},"type":"Feature","geometry":{"type":"Point","coordinates":[25.4833333,44.15]}},{"properties":{"city":"Calgary","country":"Canada","geo_score":0.714,"id":"a884pwodstjr","province":"Alberta","geo_precision":"zip"},"type":"Feature","geometry":{"type":"Point","coordinates":[25.4833333,44.15]}},{"properties":{"city":"Calgary","country":"Canada","geo_score":0.714,"id":"a884pwpzjtmn","province":"Alberta","geo_precision":"zip"},"type":"Feature","geometry":{"type":"Point","coordinates":[25.4833333,44.15]}},{"properties":{"city":"Calgary","country":"Canada","geo_score":0.714,"id":"a884pwk0ei0t","province":"Alberta","geo_precision":"zip"},"type":"Feature","geometry":{"type":"Point","coordinates":[25.4833333,44.15]}},{"properties":{"city":"Calgary","country":"Canada","geo_score":0.714,"id":"a884pwm1qog6","province":"Alberta","geo_precision":"zip"},"type":"Feature","geometry":{"type":"Point","coordinates":[25.4833333,44.15]}},{"properties":{"city":"Calgary","country":"Canada","geo_score":0.714,"id":"a884pwww6zvu","province":"Alberta","geo_precision":"zip"},"type":"Feature","geometry":{"type":"Point","coordinates":[25.4833333,44.15]}},{"properties":{"city":"Calgary","country":"Canada","geo_score":0.714,"id":"a884pwo93snt","province":"Alberta","geo_precision":"zip"},"type":"Feature","geometry":{"type":"Point","coordinates":[25.4833333,44.15]}},{"properties":{"city":"Calgary","country":"Canada","geo_score":0.714,"id":"a884pwzskof5","province":"Alberta","geo_precision":"zip"},"type":"Feature","geometry":{"type":"Point","coordinates":[25.4833333,44.15]}},{"properties":{"city":"Calgary","country":"Canada","geo_score":0.714,"id":"a884pwz93dma","province":"Alberta","geo_precision":"zip"},"type":"Feature","geometry":{"type":"Point","coordinates":[25.4833333,44.15]}},{"properties":{"city":"Calgary","country":"Canada","geo_score":0.714,"id":"a884pwuj9ozf","province":"Alberta","geo_precision":"zip"},"type":"Feature","geometry":{"type":"Point","coordinates":[25.4833333,44.15]}},{"properties":{"city":"Calgary","country":"Canada","geo_score":0.714,"id":"a884pwvnqv2k","province":"Alberta","geo_precision":"zip"},"type":"Feature","geometry":{"type":"Point","coordinates":[25.4833333,44.15]}},{"properties":{"city":"Camrose","country":"Canada","geo_score":0.714,"id":"a884pwqwsxqb","province":"Alberta","geo_precision":"zip"},"type":"Feature","geometry":{"type":"Point","coordinates":[69.4188889,31.2516667]}},{"properties":{"city":"Carstairs","country":"Canada","geo_score":0.857,"id":"a884pwwhsk3e","province":"Alberta","geo_precision":"zip"},"type":"Feature","geometry":{"type":"Point","coordinates":[45.0,-45.0]}},{"properties":{"city":"Chestermere","country":"Canada","geo_score":0.714,"id":"a884pwkd6i0o","province":"Alberta","geo_precision":"zip"},"type":"Feature","geometry":{"type":"Point","coordinates":[152.425,-22.0458333]}},{"properties":{"city":"Chestermere","country":"Canada","geo_score":0.714,"id":"a884pwkmnzed","province":"Alberta","geo_precision":"zip"},"type":"Feature","geometry":{"type":"Point","coordinates":[152.425,-22.0458333]}},{"properties":{"city":"Cochrane","country":"Canada","geo_score":0.714,"id":"a884pwl9wfmw","province":"Alberta","geo_precision":"zip"},"type":"Feature","geometry":{"type":"Point","coordinates":[-68.25,-16.0333333]}},{"properties":{"city":"Cochrane","country":"Canada","geo_score":0.714,"id":"a884pwz8wzxi","province":"Alberta","geo_precision":"zip"},"type":"Feature","geometry":{"type":"Point","coordinates":[-68.25,-16.0333333]}},{"properties":{"city":"Cremona","country":"Canada","geo_score":0.714,"id":"a884pwor8lo7","province":"Alberta","geo_precision":"zip"},"type":"Feature","geometry":{"type":"Point","coordinates":[-10.6666667,9.2833333]}},{"properties":{"city":"Crossfield","country":"Canada","geo_score":0.714,"id":"a884pwxpqpt3","province":"Alberta","geo_precision":"zip"},"type":"Feature","geometry":{"type":"Point","coordinates":[45.8311111,39.1705556]}},{"properties":{"city":"Didsbury","country":"Canada","geo_score":0.714,"id":"a884pwvfi5j3","province":"Alberta","geo_precision":"zip"},"type":"Feature","geometry":{"type":"Point","coordinates":[-2.23554611206055,53.4151594027985]}},{"properties":{"city":"Didsbury","country":"Canada","geo_score":0.714,"id":"a884pwoi4hsj","province":"Alberta","geo_precision":"zip"},"type":"Feature","geometry":{"type":"Point","coordinates":[-2.23554611206055,53.4151594027985]}},{"properties":{"city":"Didsbury","country":"Canada","geo_score":0.714,"id":"a884pwpt5cfn","province":"Alberta","geo_precision":"zip"},"type":"Feature","geometry":{"type":"Point","coordinates":[-2.23554611206055,53.4151594027985]}},{"properties":{"city":"Didsbury","country":"Canada","geo_score":0.714,"id":"a884pwteggii","province":"Alberta","geo_precision":"zip"},"type":"Feature","geometry":{"type":"Point","coordinates":[-2.23554611206055,53.4151594027985]}},{"properties":{"city":"Drumheller","country":"Canada","geo_score":0.714,"id":"a884pwoggla9","province":"Alberta","geo_precision":"zip"},"type":"Feature","geometry":{"type":"Point","coordinates":[-112.713,51.4698]}},{"properties":{"city":"Edmonton","country":"Canada","geo_score":0.714,"id":"a884pwrnwfmm","province":"Alberta","geo_precision":"zip"},"type":"Feature","geometry":{"type":"Point","coordinates":[-61.6666667,-34.4666667]}},{"properties":{"city":"Edmonton","country":"Canada","geo_score":0.714,"id":"a884pwkrn6rw","province":"Alberta","geo_precision":"zip"},"type":"Feature","geometry":{"type":"Point","coordinates":[-61.6666667,-34.4666667]}},{"properties":{"city":"Edmonton","country":"Canada","geo_score":0.714,"id":"a884pwknm2y9","province":"Alberta","geo_precision":"zip"},"type":"Feature","geometry":{"type":"Point","coordinates":[-61.6666667,-34.4666667]}},{"properties":{"city":"Edmonton","country":"Canada","geo_score":0.714,"id":"a884pwow2mje","province":"Alberta","geo_precision":"zip"},"type":"Feature","geometry":{"type":"Point","coordinates":[-61.6666667,-34.4666667]}},{"properties":{"city":"Edmonton","country":"Canada","geo_score":0.714,"id":"a884pwokl2mx","province":"Alberta","geo_precision":"zip"},"type":"Feature","geometry":{"type":"Point","coordinates":[-61.6666667,-34.4666667]}},{"properties":{"city":"Edmonton","country":"Canada","geo_score":0.714,"id":"a884pwp1m8s8","province":"Alberta","geo_precision":"zip"},"type":"Feature","geometry":{"type":"Point","coordinates":[-61.6666667,-34.4666667]}},{"properties":{"city":"Edmonton","country":"Canada","geo_score":0.714,"id":"a884pwk7qyf0","province":"Alberta","geo_precision":"zip"},"type":"Feature","geometry":{"type":"Point","coordinates":[-61.6666667,-34.4666667]}},{"properties":{"city":"Edmonton","country":"Canada","geo_score":0.714,"id":"a884pwt2h766","province":"Alberta","geo_precision":"zip"},"type":"Feature","geometry":{"type":"Point","coordinates":[-61.6666667,-34.4666667]}},{"properties":{"city":"Edmonton","country":"Canada","geo_score":0.714,"id":"a884pwrbrl5b","province":"Alberta","geo_precision":"zip"},"type":"Feature","geometry":{"type":"Point","coordinates":[-61.6666667,-34.4666667]}},{"properties":{"city":"Edmonton","country":"Canada","geo_score":0.714,"id":"a884pwt7dukx","province":"Alberta","geo_precision":"zip"},"type":"Feature","geometry":{"type":"Point","coordinates":[-61.6666667,-34.4666667]}},{"properties":{"city":"Edmonton","country":"Canada","geo_score":0.714,"id":"a884pwnuc9km","province":"Alberta","geo_precision":"zip"},"type":"Feature","geometry":{"type":"Point","coordinates":[-61.6666667,-34.4666667]}},{"properties":{"city":"Edmonton","country":"Canada","geo_score":0.714,"id":"a884pwyunaii","province":"Alberta","geo_precision":"zip"},"type":"Feature","geometry":{"type":"Point","coordinates":[-61.6666667,-34.4666667]}},{"properties":{"city":"Edmonton","country":"Canada","geo_score":0.714,"id":"a884pwwila76","province":"Alberta","geo_precision":"zip"},"type":"Feature","geometry":{"type":"Point","coordinates":[-61.6666667,-34.4666667]}},{"properties":{"city":"Edmonton","country":"Canada","geo_score":0.714,"id":"a884pws8k985","province":"Alberta","geo_precision":"zip"},"type":"Feature","geometry":{"type":"Point","coordinates":[-61.6666667,-34.4666667]}},{"properties":{"city":"Edmonton","country":"Canada","geo_score":0.714,"id":"a884pwqtipij","province":"Alberta","geo_precision":"zip"},"type":"Feature","geometry":{"type":"Point","coordinates":[-61.6666667,-34.4666667]}},{"properties":{"city":"Edmonton","country":"Canada","geo_score":0.714,"id":"a884pwqguw4v","province":"Alberta","geo_precision":"zip"},"type":"Feature","geometry":{"type":"Point","coordinates":[-61.6666667,-34.4666667]}},{"properties":{"city":"Edmonton","country":"Canada","geo_score":0.714,"id":"a884pwq78tz9","province":"Alberta","geo_precision":"zip"},"type":"Feature","geometry":{"type":"Point","coordinates":[-61.6666667,-34.4666667]}},{"properties":{"city":"Edmonton","country":"Canada","geo_score":0.714,"id":"a884pwzcppon","province":"Alberta","geo_precision":"zip"},"type":"Feature","geometry":{"type":"Point","coordinates":[-61.6666667,-34.4666667]}},{"properties":{"city":"Edmonton","country":"Canada","geo_score":0.714,"id":"a884pwut9q5s","province":"Alberta","geo_precision":"zip"},"type":"Feature","geometry":{"type":"Point","coordinates":[-61.6666667,-34.4666667]}},{"properties":{"city":"Edmonton","country":"Canada","geo_score":0.714,"id":"a884pwqtt3hs","province":"Alberta","geo_precision":"zip"},"type":"Feature","geometry":{"type":"Point","coordinates":[-61.6666667,-34.4666667]}},{"properties":{"city":"Edmonton","country":"Canada","geo_score":0.714,"id":"a884pwy5xi11","province":"Alberta","geo_precision":"zip"},"type":"Feature","geometry":{"type":"Point","coordinates":[-61.6666667,-34.4666667]}},{"properties":{"city":"Edmonton","country":"Canada","geo_score":0.714,"id":"a884pwrfmm0o","province":"Alberta","geo_precision":"zip"},"type":"Feature","geometry":{"type":"Point","coordinates":[-61.6666667,-34.4666667]}},{"properties":{"city":"Edmonton","country":"Canada","geo_score":0.714,"id":"a884pwxy6tf6","province":"Alberta","geo_precision":"zip"},"type":"Feature","geometry":{"type":"Point","coordinates":[-61.6666667,-34.4666667]}},{"properties":{"city":"Edmonton","country":"Canada","geo_score":0.714,"id":"a884pwx47ud0","province":"Alberta","geo_precision":"zip"},"type":"Feature","geometry":{"type":"Point","coordinates":[-61.6666667,-34.4666667]}},{"properties":{"city":"Edmonton","country":"Canada","geo_score":0.714,"id":"a884pwyclq0d","province":"Alberta","geo_precision":"zip"},"type":"Feature","geometry":{"type":"Point","coordinates":[-61.6666667,-34.4666667]}},{"properties":{"city":"Edmonton","country":"Canada","geo_score":0.714,"id":"a884pwzjls05","province":"Alberta","geo_precision":"zip"},"type":"Feature","geometry":{"type":"Point","coordinates":[-61.6666667,-34.4666667]}},{"properties":{"city":"Edmonton","country":"Canada","geo_score":0.714,"id":"a884pwq0i1xy","province":"Alberta","geo_precision":"zip"},"type":"Feature","geometry":{"type":"Point","coordinates":[-61.6666667,-34.4666667]}},{"properties":{"city":"Edmonton","country":"Canada","geo_score":0.714,"id":"a884pwn113xa","province":"Alberta","geo_precision":"zip"},"type":"Feature","geometry":{"type":"Point","coordinates":[-61.6666667,-34.4666667]}},{"properties":{"city":"Keoma","country":"Canada","geo_score":0.714,"id":"a884pwxax7ea","province":"Alberta","geo_precision":"zip"},"type":"Feature","geometry":{"type":"Point","coordinates":[2.0333333,50.8]}},{"properties":{"city":"Leduc","country":"Canada","geo_score":0.714,"id":"a884pwvhb5yz","province":"Alberta","geo_precision":"zip"},"type":"Feature","geometry":{"type":"Point","coordinates":[21.1666667,14.3666667]}},{"properties":{"city":"Lethbridge","country":"Canada","geo_score":0.714,"id":"a884pwpyzpbt","province":"Alberta","geo_precision":"zip"},"type":"Feature","geometry":{"type":"Point","coordinates":[-112.8451,49.6947]}},{"properties":{"city":"Lethbridge","country":"Canada","geo_score":0.714,"id":"a884pwoc6b16","province":"Alberta","geo_precision":"zip"},"type":"Feature","geometry":{"type":"Point","coordinates":[-112.8451,49.6947]}},{"properties":{"city":"Lloydminster","country":"Canada","geo_score":0.714,"id":"a884pwy1gsvb","province":"Alberta","geo_precision":"zip"},"type":"Feature","geometry":{"type":"Point","coordinates":[-53.938427536,47.688795015]}},{"properties":{"city":"Lloydminster","country":"Canada","geo_score":0.714,"id":"a884pwz4267f","province":"Alberta","geo_precision":"zip"},"type":"Feature","geometry":{"type":"Point","coordinates":[-53.938427536,47.688795015]}},{"properties":{"city":"Lloydminster","country":"Canada","geo_score":0.714,"id":"a884pwpqthtc","province":"Alberta","geo_precision":"zip"},"type":"Feature","geometry":{"type":"Point","coordinates":[-53.938427536,47.688795015]}},{"properties":{"city":"Lloydminster","country":"Canada","geo_score":0.714,"id":"a884pwnycqh3","province":"Alberta","geo_precision":"zip"},"type":"Feature","geometry":{"type":"Point","coordinates":[-53.938427536,47.688795015]}},{"properties":{"city":"Lloydminster","country":"Canada","geo_score":0.714,"id":"a884pwzn6erg","province":"Alberta","geo_precision":"zip"},"type":"Feature","geometry":{"type":"Point","coordinates":[-53.938427536,47.688795015]}},{"properties":{"city":"Lloydminster","country":"Canada","geo_score":0.714,"id":"a884pwpt4q18","province":"Alberta","geo_precision":"zip"},"type":"Feature","geometry":{"type":"Point","coordinates":[-53.938427536,47.688795015]}},{"properties":{"city":"Lloydminster","country":"Canada","geo_score":0.714,"id":"a884pwwld4lt","province":"Alberta","geo_precision":"zip"},"type":"Feature","geometry":{"type":"Point","coordinates":[-53.938427536,47.688795015]}},{"properties":{"city":"Lloydminster","country":"Canada","geo_score":0.714,"id":"a884pwk8pzbc","province":"Alberta","geo_precision":"zip"},"type":"Feature","geometry":{"type":"Point","coordinates":[-53.938427536,47.688795015]}},{"properties":{"city":"Lloydminster","country":"Canada","geo_score":0.714,"id":"a884pwtxqyt8","province":"Alberta","geo_precision":"zip"},"type":"Feature","geometry":{"type":"Point","coordinates":[-53.938427536,47.688795015]}},{"properties":{"city":"Lloydminster","country":"Canada","geo_score":0.714,"id":"a884pww6jp9t","province":"Alberta","geo_precision":"zip"},"type":"Feature","geometry":{"type":"Point","coordinates":[-53.938427536,47.688795015]}},{"properties":{"city":"Lloydminster","country":"Canada","geo_score":0.714,"id":"a884pwr5pi88","province":"Alberta","geo_precision":"zip"},"type":"Feature","geometry":{"type":"Point","coordinates":[-53.938427536,47.688795015]}},{"properties":{"city":"Lloydminster","country":"Canada","geo_score":0.714,"id":"a884pwrtdc5x","province":"Alberta","geo_precision":"zip"},"type":"Feature","geometry":{"type":"Point","coordinates":[-53.938427536,47.688795015]}},{"properties":{"city":"Lloydminster","country":"Canada","geo_score":0.714,"id":"a884pwqvgdx3","province":"Alberta","geo_precision":"zip"},"type":"Feature","geometry":{"type":"Point","coordinates":[-53.938427536,47.688795015]}},{"properties":{"city":"Lloydminster","country":"Canada","geo_score":0.714,"id":"a884pwnx89w5","province":"Alberta","geo_precision":"zip"},"type":"Feature","geometry":{"type":"Point","coordinates":[-53.938427536,47.688795015]}},{"properties":{"city":"Lloydminster","country":"Canada","geo_score":0.714,"id":"a884pwpw46a9","province":"Alberta","geo_precision":"zip"},"type":"Feature","geometry":{"type":"Point","coordinates":[-53.938427536,47.688795015]}},{"properties":{"city":"Lloydminster","country":"Canada","geo_score":0.714,"id":"a884pwr15jmm","province":"Alberta","geo_precision":"zip"},"type":"Feature","geometry":{"type":"Point","coordinates":[-53.938427536,47.688795015]}},{"properties":{"city":"Lumby","country":"Canada","geo_score":0.714,"id":"a884pwrr4o6x","province":"Alberta","geo_precision":"zip"},"type":"Feature","geometry":{"type":"Point","coordinates":[19.1166667,4.0333333]}},{"properties":{"city":"Madden","country":"Canada","geo_score":0.714,"id":"a884pwoze5r8","province":"Alberta","geo_precision":"zip"},"type":"Feature","geometry":{"type":"Point","coordinates":[12.35,4.9]}},{"properties":{"city":"Medicine Hat","country":"Canada","geo_score":0.714,"id":"a884pwmckqvb","province":"Alberta","geo_precision":"zip"},"type":"Feature","geometry":{"type":"Point","coordinates":[14.166667,49.866667]}},{"properties":{"city":"New Sarepta","country":"Canada","geo_score":0.714,"id":"a884px0cmmaw","province":"Alberta","geo_precision":"zip"},"type":"Feature","geometry":{"type":"Point","coordinates":[21.2166667,-0.5166667]}},{"properties":{"city":"New Sarepta","country":"Canada","geo_score":0.714,"id":"a884pwx41w7t","province":"Alberta","geo_precision":"zip"},"type":"Feature","geometry":{"type":"Point","coordinates":[21.2166667,-0.5166667]}},{"properties":{"city":"New Sarepta","country":"Canada","geo_score":0.714,"id":"a884pwroski3","province":"Alberta","geo_precision":"zip"},"type":"Feature","geometry":{"type":"Point","coordinates":[21.2166667,-0.5166667]}},{"properties":{"city":"New Sarepta","country":"Canada","geo_score":0.714,"id":"a884pwxzzzt7","province":"Alberta","geo_precision":"zip"},"type":"Feature","geometry":{"type":"Point","coordinates":[21.2166667,-0.5166667]}},{"properties":{"city":"Okotoks","country":"Canada","geo_score":0.714,"id":"a884pwn1fnx7","province":"Alberta","geo_precision":"zip"},"type":"Feature","geometry":{"type":"Point","coordinates":[-93.9279654,33.7765073]}},{"properties":{"city":"Okotoks","country":"Canada","geo_score":0.714,"id":"a884pww8ebni","province":"Alberta","geo_precision":"zip"},"type":"Feature","geometry":{"type":"Point","coordinates":[-93.9279654,33.7765073]}},{"properties":{"city":"Red Deer","country":"Canada","geo_score":0.714,"id":"a884pwrt1wn6","province":"Alberta","geo_precision":"zip"},"type":"Feature","geometry":{"type":"Point","coordinates":[66.76,32.4]}},{"properties":{"city":"Red Deer","country":"Canada","geo_score":0.714,"id":"a884pwovgwqc","province":"Alberta","geo_precision":"zip"},"type":"Feature","geometry":{"type":"Point","coordinates":[66.76,32.4]}},{"properties":{"city":"Rocky View","country":"Canada","geo_score":0.714,"id":"a884pwt80tlf","province":"Alberta","geo_precision":"zip"},"type":"Feature","geometry":{"type":"Point","coordinates":[24.7166667,53.9666667]}},{"properties":{"city":"Sarnia","country":"Canada","geo_score":0.714,"id":"a884pwwqrh1v","province":"Alberta","geo_precision":"zip"},"type":"Feature","geometry":{"type":"Point","coordinates":[-0.8868,14.3077]}},{"properties":{"city":"Scandia","country":"Canada","geo_score":0.714,"id":"a884pwquw8v9","province":"Alberta","geo_precision":"zip"},"type":"Feature","geometry":{"type":"Point","coordinates":[109.5902778,-7.3358333]}},{"properties":{"city":"Sherwood Park","country":"Canada","geo_score":0.714,"id":"a884pws2pkgd","province":"Alberta","geo_precision":"zip"},"type":"Feature","geometry":{"type":"Point","coordinates":[20.09,40.6233333]}},{"properties":{"city":"Sherwood Park","country":"Canada","geo_score":0.714,"id":"a884pwlf9kvg","province":"Alberta","geo_precision":"zip"},"type":"Feature","geometry":{"type":"Point","coordinates":[20.09,40.6233333]}},{"properties":{"city":"Sherwood Park","country":"Canada","geo_score":0.714,"id":"a884pwzren05","province":"Alberta","geo_precision":"zip"},"type":"Feature","geometry":{"type":"Point","coordinates":[20.09,40.6233333]}},{"properties":{"city":"Sherwood Park","country":"Canada","geo_score":0.714,"id":"a884pwkqqo33","province":"Alberta","geo_precision":"zip"},"type":"Feature","geometry":{"type":"Point","coordinates":[20.09,40.6233333]}},{"properties":{"city":"Sherwood Park","country":"Canada","geo_score":0.714,"id":"a884pwr1am05","province":"Alberta","geo_precision":"zip"},"type":"Feature","geometry":{"type":"Point","coordinates":[20.09,40.6233333]}},{"properties":{"city":"St. Albert","country":"Canada","geo_score":0.714,"id":"a884pwv6pvj5","province":"Alberta","geo_precision":"zip"},"type":"Feature","geometry":{"type":"Point","coordinates":[118.218537,27.002969]}},{"properties":{"city":"Stony Plain","country":"Canada","geo_score":0.714,"id":"a884pwuuydis","province":"Alberta","geo_precision":"zip"},"type":"Feature","geometry":{"type":"Point","coordinates":[-81.2448227,33.7632063]}},{"properties":{"city":"Stony Plain","country":"Canada","geo_score":0.714,"id":"a884pwl0gxsu","province":"Alberta","geo_precision":"zip"},"type":"Feature","geometry":{"type":"Point","coordinates":[-81.2448227,33.7632063]}},{"properties":{"city":"Stony Plain","country":"Canada","geo_score":0.714,"id":"a884pwo5c8bu","province":"Alberta","geo_precision":"zip"},"type":"Feature","geometry":{"type":"Point","coordinates":[-81.2448227,33.7632063]}},{"properties":{"city":"Tofield","country":"Canada","geo_score":0.714,"id":"a884pwqbzjmx","province":"Alberta","geo_precision":"zip"},"type":"Feature","geometry":{"type":"Point","coordinates":[-72.915833617,46.295056891]}},{"properties":{"city":"Trochu","country":"Canada","geo_score":0.714,"id":"a884pws5jay8","province":"Alberta","geo_precision":"zip"},"type":"Feature","geometry":{"type":"Point","coordinates":[12.7998447418213,54.1404173207413]}},{"properties":{"city":"Trochu","country":"Canada","geo_score":0.714,"id":"a884pwwy4ax4","province":"Alberta","geo_precision":"zip"},"type":"Feature","geometry":{"type":"Point","coordinates":[12.7998447418213,54.1404173207413]}},{"properties":{"city":"Trochu","country":"Canada","geo_score":0.714,"id":"a884pwk5lsmd","province":"Alberta","geo_precision":"zip"},"type":"Feature","geometry":{"type":"Point","coordinates":[12.7998447418213,54.1404173207413]}},{"properties":{"city":"Turner Valley","country":"Canada","geo_score":0.857,"id":"a884pwzcn89b","province":"Alberta","geo_precision":"zip"},"type":"Feature","geometry":{"type":"Point","coordinates":[-70.2166667,42.5333333]}},{"properties":{"city":"Westlock","country":"Canada","geo_score":0.714,"id":"a884pwy4p0jw","province":"Alberta","geo_precision":"zip"},"type":"Feature","geometry":{"type":"Point","coordinates":[-98.1025513,38.9577841]}},{"properties":{"city":"Abbotsford","country":"Canada","geo_score":0.714,"id":"a884pwme0jw3","province":"British Columbia","geo_precision":"zip"},"type":"Feature","geometry":{"type":"Point","coordinates":[147.9,-41.65]}},{"properties":{"city":"Abbotsford","country":"Canada","geo_score":0.714,"id":"a884pwti1bvg","province":"British Columbia","geo_precision":"zip"},"type":"Feature","geometry":{"type":"Point","coordinates":[147.9,-41.65]}},{"properties":{"city":"Abbotsford","country":"Canada","geo_score":0.714,"id":"a884pwpq47du","province":"British Columbia","geo_precision":"zip"},"type":"Feature","geometry":{"type":"Point","coordinates":[147.9,-41.65]}},{"properties":{"city":"Abbotsford","country":"Canada","geo_score":0.714,"id":"a884pwwk2js3","province":"British Columbia","geo_precision":"zip"},"type":"Feature","geometry":{"type":"Point","coordinates":[147.9,-41.65]}},{"properties":{"city":"Aldergrove","country":"Canada","geo_score":0.714,"id":"a884pwltzs0t","province":"British Columbia","geo_precision":"zip"},"type":"Feature","geometry":{"type":"Point","coordinates":[-90.9098238,33.1937322]}},{"properties":{"city":"Burnaby","country":"Canada","geo_score":0.714,"id":"a884pwnjgb8l","province":"British Columbia","geo_precision":"zip"},"type":"Feature","geometry":{"type":"Point","coordinates":[153.6166667,-28.6333333]}},{"properties":{"city":"Cedarvale","country":"Canada","geo_score":0.857,"id":"a884pwvbs435","province":"British Columbia","geo_precision":"zip"},"type":"Feature","geometry":{"type":"Point","coordinates":[-129.0,51.3333333]}},{"properties":{"city":"Coquitlam","country":"Canada","geo_score":0.714,"id":"a884pwt5x5is","province":"British Columbia","geo_precision":"zip"},"type":"Feature","geometry":{"type":"Point","coordinates":[-122.802620269,49.249667392]}},{"properties":{"city":"Lumby","country":"Canada","geo_score":0.714,"id":"a884pwpay8n4","province":"British Columbia","geo_precision":"zip"},"type":"Feature","geometry":{"type":"Point","coordinates":[19.1166667,4.0333333]}},{"properties":{"city":"Lumby","country":"Canada","geo_score":0.714,"id":"a884pwr96oed","province":"British Columbia","geo_precision":"zip"},"type":"Feature","geometry":{"type":"Point","coordinates":[19.1166667,4.0333333]}},{"properties":{"city":"Lumby","country":"Canada","geo_score":0.714,"id":"a884pwp7g8dg","province":"British Columbia","geo_precision":"zip"},"type":"Feature","geometry":{"type":"Point","coordinates":[19.1166667,4.0333333]}},{"properties":{"city":"Lumby","country":"Canada","geo_score":0.714,"id":"a884pwsnxhpy","province":"British Columbia","geo_precision":"zip"},"type":"Feature","geometry":{"type":"Point","coordinates":[19.1166667,4.0333333]}},{"properties":{"city":"North Vancouver","country":"Canada","geo_score":0.857,"id":"a884pwnlulb0","province":"British Columbia","geo_precision":"zip"},"type":"Feature","geometry":{"type":"Point","coordinates":[-128.8333333,49.8333333]}},{"properties":{"city":"North Vancouver","country":"Canada","geo_score":0.857,"id":"a884px0br75i","province":"British Columbia","geo_precision":"zip"},"type":"Feature","geometry":{"type":"Point","coordinates":[-128.8333333,49.8333333]}},{"properties":{"city":"Peachland","country":"Canada","geo_score":0.714,"id":"a884pwwiumzx","province":"British Columbia","geo_precision":"zip"},"type":"Feature","geometry":{"type":"Point","coordinates":[-118.5450861,34.3752758]}},{"properties":{"city":"Prince George","country":"Canada","geo_score":0.714,"id":"a884pwpkzsjh","province":"British Columbia","geo_precision":"zip"},"type":"Feature","geometry":{"type":"Point","coordinates":[28.0333333,43.25]}},{"properties":{"city":"Sparwood","country":"Canada","geo_score":0.714,"id":"a884pwryst3f","province":"British Columbia","geo_precision":"zip"},"type":"Feature","geometry":{"type":"Point","coordinates":[115.7833333,-32.1]}},{"properties":{"city":"Summerland","country":"Canada","geo_score":0.714,"id":"a884pwyu0deb","province":"British Columbia","geo_precision":"zip"},"type":"Feature","geometry":{"type":"Point","coordinates":[-119.669109538,49.599768944]}},{"properties":{"city":"Surrey","country":"Canada","geo_score":0.714,"id":"a884pwkol3tz","province":"British Columbia","geo_precision":"zip"},"type":"Feature","geometry":{"type":"Point","coordinates":[117.9666667,28.4666667]}},{"properties":{"city":"Terrace","country":"Canada","geo_score":0.714,"id":"a884pwxqahzc","province":"British Columbia","geo_precision":"zip"},"type":"Feature","geometry":{"type":"Point","coordinates":[3.25,47.75]}},{"properties":{"city":"Terrace","country":"Canada","geo_score":0.714,"id":"a884pws9kizk","province":"British Columbia","geo_precision":"zip"},"type":"Feature","geometry":{"type":"Point","coordinates":[3.25,47.75]}},{"properties":{"city":"Terrace","country":"Canada","geo_score":0.714,"id":"a884pwmbdinh","province":"British Columbia","geo_precision":"zip"},"type":"Feature","geometry":{"type":"Point","coordinates":[3.25,47.75]}},{"properties":{"city":"Terrace","country":"Canada","geo_score":0.714,"id":"a884pwvg7406","province":"British Columbia","geo_precision":"zip"},"type":"Feature","geometry":{"type":"Point","coordinates":[3.25,47.75]}},{"properties":{"city":"Terrace","country":"Canada","geo_score":0.714,"id":"a884pwros2q3","province":"British Columbia","geo_precision":"zip"},"type":"Feature","geometry":{"type":"Point","coordinates":[3.25,47.75]}},{"properties":{"city":"Terrace","country":"Canada","geo_score":0.714,"id":"a884pwt4ebub","province":"British Columbia","geo_precision":"zip"},"type":"Feature","geometry":{"type":"Point","coordinates":[3.25,47.75]}},{"properties":{"city":"Terrace","country":"Canada","geo_score":0.714,"id":"a884pwqi4opy","province":"British Columbia","geo_precision":"zip"},"type":"Feature","geometry":{"type":"Point","coordinates":[3.25,47.75]}},{"properties":{"city":"Terrace","country":"Canada","geo_score":0.714,"id":"a884pwnenw26","province":"British Columbia","geo_precision":"zip"},"type":"Feature","geometry":{"type":"Point","coordinates":[3.25,47.75]}},{"properties":{"city":"Vancouver","country":"Canada","geo_score":0.857,"id":"a884pwqh9bnt","province":"British Columbia","geo_precision":"zip"},"type":"Feature","geometry":{"type":"Point","coordinates":[-128.8333333,49.8333333]}},{"properties":{"city":"Vancouver","country":"Canada","geo_score":0.857,"id":"a884pwy3ycc8","province":"British Columbia","geo_precision":"zip"},"type":"Feature","geometry":{"type":"Point","coordinates":[-128.8333333,49.8333333]}},{"properties":{"city":"Victoria","country":"Canada","geo_score":0.714,"id":"a884pwsxktq9","province":"British Columbia","geo_precision":"zip"},"type":"Feature","geometry":{"type":"Point","coordinates":[-4.421239,36.718467]}},{"properties":{"city":"Grunthal","country":"Canada","geo_score":0.714,"id":"a884pwp8fesb","province":"Manitoba","geo_precision":"zip"},"type":"Feature","geometry":{"type":"Point","coordinates":[13.7333333,52.7666667]}},{"properties":{"city":"Grunthal","country":"Canada","geo_score":0.714,"id":"a884pwntx6q0","province":"Manitoba","geo_precision":"zip"},"type":"Feature","geometry":{"type":"Point","coordinates":[13.7333333,52.7666667]}},{"properties":{"city":"Grunthal","country":"Canada","geo_score":0.714,"id":"a884pwqb5rfb","province":"Manitoba","geo_precision":"zip"},"type":"Feature","geometry":{"type":"Point","coordinates":[13.7333333,52.7666667]}},{"properties":{"city":"Grunthal","country":"Canada","geo_score":0.714,"id":"a884pwwg2dsp","province":"Manitoba","geo_precision":"zip"},"type":"Feature","geometry":{"type":"Point","coordinates":[13.7333333,52.7666667]}},{"properties":{"city":"Grunthal","country":"Canada","geo_score":0.714,"id":"a884pwp9tv1s","province":"Manitoba","geo_precision":"zip"},"type":"Feature","geometry":{"type":"Point","coordinates":[13.7333333,52.7666667]}},{"properties":{"city":"Grunthal","country":"Canada","geo_score":0.714,"id":"a884pwyqkzga","province":"Manitoba","geo_precision":"zip"},"type":"Feature","geometry":{"type":"Point","coordinates":[13.7333333,52.7666667]}},{"properties":{"city":"Grunthal","country":"Canada","geo_score":0.714,"id":"a884pwny93bg","province":"Manitoba","geo_precision":"zip"},"type":"Feature","geometry":{"type":"Point","coordinates":[13.7333333,52.7666667]}},{"properties":{"city":"Grunthal","country":"Canada","geo_score":0.714,"id":"a884pwom7n3i","province":"Manitoba","geo_precision":"zip"},"type":"Feature","geometry":{"type":"Point","coordinates":[13.7333333,52.7666667]}},{"properties":{"city":"Kleefeld","country":"Canada","geo_score":0.714,"id":"a884pwtl97kh","province":"Manitoba","geo_precision":"zip"},"type":"Feature","geometry":{"type":"Point","coordinates":[35.7666667,47.0333333]}},{"properties":{"city":"Kleefeld","country":"Canada","geo_score":0.714,"id":"a884pwro97gl","province":"Manitoba","geo_precision":"zip"},"type":"Feature","geometry":{"type":"Point","coordinates":[35.7666667,47.0333333]}},{"properties":{"city":"Kleefeld","country":"Canada","geo_score":0.714,"id":"a884pwobp3kx","province":"Manitoba","geo_precision":"zip"},"type":"Feature","geometry":{"type":"Point","coordinates":[35.7666667,47.0333333]}},{"properties":{"city":"Kleefeld","country":"Canada","geo_score":0.714,"id":"a884pwsjy9xr","province":"Manitoba","geo_precision":"zip"},"type":"Feature","geometry":{"type":"Point","coordinates":[35.7666667,47.0333333]}},{"properties":{"city":"Morden","country":"Canada","geo_score":0.714,"id":"a884pwod691s","province":"Manitoba","geo_precision":"zip"},"type":"Feature","geometry":{"type":"Point","coordinates":[-72.3555556,7.0011111]}},{"properties":{"city":"Ninette","country":"Canada","geo_score":0.714,"id":"a884pww37atv","province":"Manitoba","geo_precision":"zip"},"type":"Feature","geometry":{"type":"Point","coordinates":[29.0833333,-3.8166667]}},{"properties":{"city":"Goulds","country":"Canada","geo_score":0.714,"id":"a884pwyzxvq2","province":"Newfoundland","geo_precision":"zip"},"type":"Feature","geometry":{"type":"Point","coordinates":[11.1666667,52.6166667]}},{"properties":{"city":"St John's","country":"Canada","geo_score":0.714,"id":"a884pwtxr597","province":"Newfoundland","geo_precision":"zip"},"type":"Feature","geometry":{"type":"Point","coordinates":[15.9827778,46.3811111]}},{"properties":{"city":"Barrie","country":"Canada","geo_score":0.714,"id":"a884pws8etp3","province":"Ontario","geo_precision":"zip"},"type":"Feature","geometry":{"type":"Point","coordinates":[15.8,4.7166667]}},{"properties":{"city":"Barrie","country":"Canada","geo_score":0.714,"id":"a884pwml4uxu","province":"Ontario","geo_precision":"zip"},"type":"Feature","geometry":{"type":"Point","coordinates":[15.8,4.7166667]}},{"properties":{"city":"Barrie","country":"Canada","geo_score":0.714,"id":"a884pwxlvdjf","province":"Ontario","geo_precision":"zip"},"type":"Feature","geometry":{"type":"Point","coordinates":[15.8,4.7166667]}},{"properties":{"city":"Barrie","country":"Canada","geo_score":0.714,"id":"a884pwzjafst","province":"Ontario","geo_precision":"zip"},"type":"Feature","geometry":{"type":"Point","coordinates":[15.8,4.7166667]}},{"properties":{"city":"Barrie","country":"Canada","geo_score":0.714,"id":"a884pwku0jqc","province":"Ontario","geo_precision":"zip"},"type":"Feature","geometry":{"type":"Point","coordinates":[15.8,4.7166667]}},{"properties":{"city":"Bradford","country":"Canada","geo_score":0.714,"id":"a884pwy506py","province":"Ontario","geo_precision":"zip"},"type":"Feature","geometry":{"type":"Point","coordinates":[-115.935422738,49.966616862]}},{"properties":{"city":"Cambridge","country":"Canada","geo_score":0.714,"id":"a884pwwkjs1v","province":"Ontario","geo_precision":"zip"},"type":"Feature","geometry":{"type":"Point","coordinates":[-105.118736314,69.050987963]}},{"properties":{"city":"Churchill","country":"Canada","geo_score":0.714,"id":"a884px0a31qj","province":"Ontario","geo_precision":"zip"},"type":"Feature","geometry":{"type":"Point","coordinates":[-106.645622951,52.100086284]}},{"properties":{"city":"Innisfil","country":"Canada","geo_score":0.714,"id":"a884pwtkrmp7","province":"Ontario","geo_precision":"zip"},"type":"Feature","geometry":{"type":"Point","coordinates":[-118.5553599,34.038342]}},{"properties":{"city":"Innisfil","country":"Canada","geo_score":0.714,"id":"a884pwpbljkw","province":"Ontario","geo_precision":"zip"},"type":"Feature","geometry":{"type":"Point","coordinates":[-118.5553599,34.038342]}},{"properties":{"city":"Innisfil","country":"Canada","geo_score":0.714,"id":"a884pwyxfdim","province":"Ontario","geo_precision":"zip"},"type":"Feature","geometry":{"type":"Point","coordinates":[-118.5553599,34.038342]}},{"properties":{"city":"Kitchener","country":"Canada","geo_score":0.714,"id":"a884pwt8d04m","province":"Ontario","geo_precision":"zip"},"type":"Feature","geometry":{"type":"Point","coordinates":[100.6686111,42.4222222]}},{"properties":{"city":"Kitchener","country":"Canada","geo_score":0.714,"id":"a884pwrgp872","province":"Ontario","geo_precision":"zip"},"type":"Feature","geometry":{"type":"Point","coordinates":[100.6686111,42.4222222]}},{"properties":{"city":"Kitchener","country":"Canada","geo_score":0.714,"id":"a884pwzl3odv","province":"Ontario","geo_precision":"zip"},"type":"Feature","geometry":{"type":"Point","coordinates":[100.6686111,42.4222222]}},{"properties":{"city":"Mount Brydges","country":"Canada","geo_score":0.714,"id":"a884pwtyivpl","province":"Ontario","geo_precision":"zip"},"type":"Feature","geometry":{"type":"Point","coordinates":[3.5,46.2166667]}},{"properties":{"city":"Orleans","country":"Canada","geo_score":0.857,"id":"a884pwp6lyd1","province":"Ontario","geo_precision":"zip"},"type":"Feature","geometry":{"type":"Point","coordinates":[-91.05,27.0166667]}},{"properties":{"city":"Orleans","country":"Canada","geo_score":0.857,"id":"a884pwmv8vk4","province":"Ontario","geo_precision":"zip"},"type":"Feature","geometry":{"type":"Point","coordinates":[-91.05,27.0166667]}},{"properties":{"city":"Pembrook","country":"Canada","geo_score":0.714,"id":"a884pwtq98lp","province":"Ontario","geo_precision":"zip"},"type":"Feature","geometry":{"type":"Point","coordinates":[80.5166667,7.65]}},{"properties":{"city":"Petawawa","country":"Canada","geo_score":0.714,"id":"a884pwu2clon","province":"Ontario","geo_precision":"zip"},"type":"Feature","geometry":{"type":"Point","coordinates":[-14.3068576,16.5424458]}},{"properties":{"city":"Pickering","country":"Canada","geo_score":0.714,"id":"a884pwqza0nz","province":"Ontario","geo_precision":"zip"},"type":"Feature","geometry":{"type":"Point","coordinates":[104.7833333,-4.9333333]}},{"properties":{"city":"St Thomas","country":"Canada","geo_score":0.714,"id":"a884pwqus2pz","province":"Ontario","geo_precision":"zip"},"type":"Feature","geometry":{"type":"Point","coordinates":[96.2166667,19.2]}},{"properties":{"city":"St. George","country":"Canada","geo_score":0.714,"id":"a884pworlsjo","province":"Ontario","geo_precision":"zip"},"type":"Feature","geometry":{"type":"Point","coordinates":[13.4333333,8.4833333]}},{"properties":{"city":"Sydenham","country":"Canada","geo_score":0.714,"id":"a884pwwhue4v","province":"Ontario","geo_precision":"zip"},"type":"Feature","geometry":{"type":"Point","coordinates":[-79.945439039,43.265407695]}},{"properties":{"city":"Thunder Bay","country":"Canada","geo_score":0.714,"id":"a884pwy4qqjz","province":"Ontario","geo_precision":"zip"},"type":"Feature","geometry":{"type":"Point","coordinates":[148.3166667,-28.4]}},{"properties":{"city":"Thunder Bay","country":"Canada","geo_score":0.714,"id":"a884pwxludwt","province":"Ontario","geo_precision":"zip"},"type":"Feature","geometry":{"type":"Point","coordinates":[148.3166667,-28.4]}},{"properties":{"city":"Tillsonburg","country":"Canada","geo_score":0.714,"id":"a884pwq4hiqn","province":"Ontario","geo_precision":"zip"},"type":"Feature","geometry":{"type":"Point","coordinates":[9.0833333,53.6]}},{"properties":{"city":"Toronto","country":"Canada","geo_score":0.714,"id":"a884pwxurvit","province":"Ontario","geo_precision":"zip"},"type":"Feature","geometry":{"type":"Point","coordinates":[119.9252778,-2.8819444]}},{"properties":{"city":"Toronto","country":"Canada","geo_score":0.714,"id":"a884pwt4adsu","province":"Ontario","geo_precision":"zip"},"type":"Feature","geometry":{"type":"Point","coordinates":[119.9252778,-2.8819444]}},{"properties":{"city":"Toronto","country":"Canada","geo_score":0.714,"id":"a884pwwpv4el","province":"Ontario","geo_precision":"zip"},"type":"Feature","geometry":{"type":"Point","coordinates":[119.9252778,-2.8819444]}},{"properties":{"city":"Trenton","country":"Canada","geo_score":0.714,"id":"a884pwxthl43","province":"Ontario","geo_precision":"zip"},"type":"Feature","geometry":{"type":"Point","coordinates":[-53.29111111,-27.67472222]}},{"properties":{"city":"Gatineau","country":"Canada","geo_score":0.714,"id":"a884pwzvrrvt","province":"Quebec","geo_precision":"zip"},"type":"Feature","geometry":{"type":"Point","coordinates":[21.9333333,45.8166667]}},{"properties":{"city":"Forget","country":"Canada","geo_score":0.714,"id":"a884pwjzq4rr","province":"Saskatchewan","geo_precision":"zip"},"type":"Feature","geometry":{"type":"Point","coordinates":[3.4666667,45.7333333]}},{"properties":{"city":"Lashburn","country":"Canada","geo_score":0.714,"id":"a884pws5dpwy","province":"Saskatchewan","geo_precision":"zip"},"type":"Feature","geometry":{"type":"Point","coordinates":[-78.0294454,41.4270084]}},{"properties":{"city":"Martensville","country":"Canada","geo_score":0.857,"id":"a884pwszydl8","province":"Saskatchewan","geo_precision":"zip"},"type":"Feature","geometry":{"type":"Point","coordinates":[-33.2166667,-7.5166667]}},{"properties":{"city":"McMahon","country":"Canada","geo_score":0.714,"id":"a884pwly3wgk","province":"Saskatchewan","geo_precision":"zip"},"type":"Feature","geometry":{"type":"Point","coordinates":[-98.398942,34.6178518]}},{"properties":{"city":"McMahon","country":"Canada","geo_score":0.714,"id":"a884pwvd34xb","province":"Saskatchewan","geo_precision":"zip"},"type":"Feature","geometry":{"type":"Point","coordinates":[-98.398942,34.6178518]}},{"properties":{"city":"McMahon","country":"Canada","geo_score":0.714,"id":"a884pwxmpfnl","province":"Saskatchewan","geo_precision":"zip"},"type":"Feature","geometry":{"type":"Point","coordinates":[-98.398942,34.6178518]}},{"properties":{"city":"McMahon","country":"Canada","geo_score":0.714,"id":"a884pwnjnl2k","province":"Saskatchewan","geo_precision":"zip"},"type":"Feature","geometry":{"type":"Point","coordinates":[-98.398942,34.6178518]}},{"properties":{"city":"McMahon","country":"Canada","geo_score":0.714,"id":"a884pwsj52va","province":"Saskatchewan","geo_precision":"zip"},"type":"Feature","geometry":{"type":"Point","coordinates":[-98.398942,34.6178518]}},{"properties":{"city":"Myrtle Beach","country":"Canada","geo_score":0.714,"id":"a884pwx4bqnq","province":"Saskatchewan","geo_precision":"zip"},"type":"Feature","geometry":{"type":"Point","coordinates":[80.7,22.45]}},{"properties":{"city":"Saskatoon","country":"Canada","geo_score":0.714,"id":"a884pwzmbawo","province":"Saskatchewan","geo_precision":"zip"},"type":"Feature","geometry":{"type":"Point","coordinates":[-95.465807084,49.637493596]}},{"properties":{"city":"Saskatoon","country":"Canada","geo_score":0.714,"id":"a884pwzlk4oc","province":"Saskatchewan","geo_precision":"zip"},"type":"Feature","geometry":{"type":"Point","coordinates":[-95.465807084,49.637493596]}},{"properties":{"city":"Saskatoon","country":"Canada","geo_score":0.714,"id":"a884pwm8p4w8","province":"Saskatchewan","geo_precision":"zip"},"type":"Feature","geometry":{"type":"Point","coordinates":[-95.465807084,49.637493596]}},{"properties":{"city":"Swift Current","country":"Canada","geo_score":0.714,"id":"a884pwymhyg1","province":"Saskatchewan","geo_precision":"zip"},"type":"Feature","geometry":{"type":"Point","coordinates":[22.0611111,60.3788889]}},{"properties":{"city":"Swift Current","country":"Canada","geo_score":0.714,"id":"a884pwymzpld","province":"Saskatchewan","geo_precision":"zip"},"type":"Feature","geometry":{"type":"Point","coordinates":[22.0611111,60.3788889]}},{"properties":{"city":"Swift Current","country":"Canada","geo_score":0.714,"id":"a884pwlhai7j","province":"Saskatchewan","geo_precision":"zip"},"type":"Feature","geometry":{"type":"Point","coordinates":[22.0611111,60.3788889]}},{"properties":{"city":"Swift Current","country":"Canada","geo_score":0.714,"id":"a884pwvffkcg","province":"Saskatchewan","geo_precision":"zip"},"type":"Feature","geometry":{"type":"Point","coordinates":[22.0611111,60.3788889]}},{"properties":{"city":"Swift Current","country":"Canada","geo_score":0.714,"id":"a884pwnetw9y","province":"Saskatchewan","geo_precision":"zip"},"type":"Feature","geometry":{"type":"Point","coordinates":[22.0611111,60.3788889]}},{"properties":{"city":"Swift Current","country":"Canada","geo_score":0.714,"id":"a884pwybhtwh","province":"Saskatchewan","geo_precision":"zip"},"type":"Feature","geometry":{"type":"Point","coordinates":[22.0611111,60.3788889]}},{"properties":{"city":"Swift Current","country":"Canada","geo_score":0.714,"id":"a884pwwsjgya","province":"Saskatchewan","geo_precision":"zip"},"type":"Feature","geometry":{"type":"Point","coordinates":[22.0611111,60.3788889]}},{"properties":{"city":"Wymark","country":"Canada","geo_score":0.714,"id":"a884pwyb1roc","province":"Saskatchewan","geo_precision":"zip"},"type":"Feature","geometry":{"type":"Point","coordinates":[123.4797222,7.8263889]}},{"properties":{"city":"Wymark","country":"Canada","geo_score":0.714,"id":"a884pwr5gmlt","province":"Saskatchewan","geo_precision":"zip"},"type":"Feature","geometry":{"type":"Point","coordinates":[123.4797222,7.8263889]}}],"is_temporal":false,"author":{"url":"","metadata":"","contact_name":"","contact_address":"","source":"","contact_phone":""},"source":"","pagination":{"sort":null,"start":0,"total":276,"limit":1000000},"state":"complete","tags":"","published":"2014-08-14T16:24:03-04:00","id":271349}