{"type":"FeatureCollection","data_type":"Dataset","url_type":null,"permissions":[{"permissions":{"download":true,"view":true},"group_id":"everyone"}],"classification":null,"title":"North Carolina Center for Geographic Information and Analysis (NCCGIA), Universities - Private, North Carolina, 2003","count":37,"stream_id":2715,"contributor":{"url":"http://geocommons.com/users/139","name":"Burkey"},"data_attributes":null,"calculation_params":null,"icon_link":null,"link":"http://geocommons.com/overlays/2715.json","extent":[-82.7317,34.7515,-77.1048,36.4421],"geometry_types":["point"],"unique_name":null,"name":"North Carolina Center for Geographic Information and Analysis (NCCGIA), Universities - Private, North Carolina, 2003","feature_count":37,"description":"NC Center for Geographic Information and Analysis developed the digital NC Independent Colleges and Universities data from addresses provided by the State Library of North Carolina on 7/08/03. This file enables users to identify independent college and university locations. These data cover the entire extent of North Carolina.\n\nThese data were created to assist governmental agencies and others in making resource management decisions through use of a Geographic Information System (GIS).\n\n","next_feature":null,"is_raster":false,"short_classification":"Y","stats":{"ZIP":{"max":28778.0,"mean":27952.7567567568,"variance":236563.744744745,"stdev":486.378191066113,"min":27101.0,"median":28017.0},"TELEPHONE":{"max":9197602828.0,"mean":7153938232.83784,"variance":4.66834097267565e+18,"stdev":2160634391.25541,"min":2523986500.0,"median":8003456993.0}},"features":[{"properties":{"CITY":"WINGATE","NAME":"WINGATE UNIVERSITY","ZIP":28174.0,"TELEPHONE":8007555550.0,"STATE":"NC","id":"a674xujqw33v","ADDRESS":""},"type":"Feature","geometry":{"type":"Point","coordinates":[-80.4438933848523,34.9862935137892]}},{"properties":{"CITY":"DURHAM","NAME":"DUKE UNIVERSITY","ZIP":27708.0,"TELEPHONE":9196848111.0,"STATE":"NC","id":"a674xu8uxi5t","ADDRESS":""},"type":"Feature","geometry":{"type":"Point","coordinates":[-78.9398641527215,36.0069509738084]}},{"properties":{"CITY":"MARS HILL","NAME":"MARS HILL COLLEGE","ZIP":28754.0,"TELEPHONE":8666424968.0,"STATE":"NC","id":"a674xudztsz7","ADDRESS":"100 ATHLETIC ST"},"type":"Feature","geometry":{"type":"Point","coordinates":[-82.5506723429325,35.8262823819652]}},{"properties":{"CITY":"CHARLOTTE","NAME":"JOHNSON C SMITH UNIVERSITY","ZIP":28216.0,"TELEPHONE":7043781000.0,"STATE":"NC","id":"a674xumq7elq","ADDRESS":"100 BEATTIES FORD RD"},"type":"Feature","geometry":{"type":"Point","coordinates":[-80.8587123724749,35.2417348211212]}},{"properties":{"CITY":"BELMONT","NAME":"BELMONT ABBEY COLLEGE","ZIP":28012.0,"TELEPHONE":8882220110.0,"STATE":"NC","id":"a674xul5i7ez","ADDRESS":"100 BELMONT MT HOLLY RD"},"type":"Feature","geometry":{"type":"Point","coordinates":[-81.0448541026695,35.2599580485693]}},{"properties":{"CITY":"RALEIGH","NAME":"SHAW UNIVERSITY","ZIP":27601.0,"TELEPHONE":9195468200.0,"STATE":"NC","id":"a674xuekg487","ADDRESS":"118 E SOUTH ST"},"type":"Feature","geometry":{"type":"Point","coordinates":[-78.6375820235652,35.7721084834895]}},{"properties":{"CITY":"RALEIGH","NAME":"SAINT AUGUSTINES COLLEGE","ZIP":27610.0,"TELEPHONE":9195164000.0,"STATE":"NC","id":"a674xuj3cqci","ADDRESS":"1315 OAKWOOD AVE"},"type":"Feature","geometry":{"type":"Point","coordinates":[-78.6218820242762,35.7844387186046]}},{"properties":{"CITY":"CONCORD","NAME":"BARBER SCOTIA COLLEGE","ZIP":28205.0,"TELEPHONE":7047892900.0,"STATE":"NC","id":"a674xu8igfl5","ADDRESS":"145 CABARRUS AVE"},"type":"Feature","geometry":{"type":"Point","coordinates":[-80.5855643258618,35.4073187165441]}},{"properties":{"CITY":"RALEIGH","NAME":"PEACE COLLEGE","ZIP":27604.0,"TELEPHONE":8007322347.0,"STATE":"NC","id":"a674xuhxt93o","ADDRESS":"15 E PEACE ST"},"type":"Feature","geometry":{"type":"Point","coordinates":[-78.6377351775909,35.7879824734225]}},{"properties":{"CITY":"LAURINBURG","NAME":"ST ANDREWS PRESBYTERIAN COLLEGE","ZIP":28352.0,"TELEPHONE":9102775555.0,"STATE":"NC","id":"a674xua0zoiz","ADDRESS":"1700 DOGWOOD MILE"},"type":"Feature","geometry":{"type":"Point","coordinates":[-79.4802179512914,34.7514895957837]}},{"properties":{"CITY":"WINSTON-SALEM","NAME":"WAKE FOREST UNIVERSITY","ZIP":27106.0,"TELEPHONE":3367585255.0,"STATE":"NC","id":"a674xudkg1vj","ADDRESS":"1834 WAKE FOREST RD"},"type":"Feature","geometry":{"type":"Point","coordinates":[-80.2789132245412,36.1350840321334]}},{"properties":{"CITY":"CHARLOTTE","NAME":"QUEENS UNIVERSITY OF CHARLOTTE","ZIP":28274.0,"TELEPHONE":7043372200.0,"STATE":"NC","id":"a674xug5hdwg","ADDRESS":"1900 SELWYN AVE"},"type":"Feature","geometry":{"type":"Point","coordinates":[-80.830730592154,35.1891570789843]}},{"properties":{"CITY":"MURFREESBORO","NAME":"CHOWAN COLLEGE","ZIP":27855.0,"TELEPHONE":2523986500.0,"STATE":"NC","id":"a674xukpognh","ADDRESS":"200 JONES DR"},"type":"Feature","geometry":{"type":"Point","coordinates":[-77.1048207376081,36.4420496661098]}},{"properties":{"CITY":"DAVIDSON","NAME":"DAVIDSON COLLEGE","ZIP":28036.0,"TELEPHONE":7048942000.0,"STATE":"NC","id":"a674xuocv921","ADDRESS":"209 RIDGE ROAD"},"type":"Feature","geometry":{"type":"Point","coordinates":[-80.8405710720598,35.5080049761104]}},{"properties":{"CITY":"SALISBURY","NAME":"CATAWBA COLLEGE","ZIP":28144.0,"TELEPHONE":8002282922.0,"STATE":"NC","id":"a674xuccil9s","ADDRESS":"2300 W INNES ST"},"type":"Feature","geometry":{"type":"Point","coordinates":[-80.4820645217305,35.6906912914963]}},{"properties":{"CITY":"ELON COLLEGE","NAME":"ELON UNIVERSITY","ZIP":27244.0,"TELEPHONE":8003348448.0,"STATE":"NC","id":"a674xuer1cru","ADDRESS":"2700 CAMPUS BOX"},"type":"Feature","geometry":{"type":"Point","coordinates":[-79.5050408789244,36.1032333569932]}},{"properties":{"CITY":"MONTREAT","NAME":"MONTREAT COLLEGE","ZIP":28757.0,"TELEPHONE":8286698012.0,"STATE":"NC","id":"a674xuimzl01","ADDRESS":"310 GAITHER CIRCLE"},"type":"Feature","geometry":{"type":"Point","coordinates":[-82.2976191245029,35.6460746546618]}},{"properties":{"CITY":"ROCKY MOUNT","NAME":"NC WESLEYAN COLLEGE","ZIP":27804.0,"TELEPHONE":2529855100.0,"STATE":"NC","id":"a674xuhm3ela","ADDRESS":"3400 N WESLEYAN BLVD"},"type":"Feature","geometry":{"type":"Point","coordinates":[-77.7712424682342,36.0154619587335]}},{"properties":{"CITY":"BANNER ELK","NAME":"LEES MCRAE COLLEGE","ZIP":28604.0,"TELEPHONE":8288985241.0,"STATE":"NC","id":"a674xu8jh3ay","ADDRESS":"375 COLLEGE DR"},"type":"Feature","geometry":{"type":"Point","coordinates":[-81.8761836905868,36.1614678661951]}},{"properties":{"CITY":"RALEIGH","NAME":"MEREDITH COLLEGE","ZIP":27607.0,"TELEPHONE":9197602828.0,"STATE":"NC","id":"a674xumc80xi","ADDRESS":"3800 HILLSBOROUGH ST"},"type":"Feature","geometry":{"type":"Point","coordinates":[-78.687780154947,35.7942178514154]}},{"properties":{"CITY":"BREVARD","NAME":"BREVARD COLLEGE","ZIP":28712.0,"TELEPHONE":8288838292.0,"STATE":"NC","id":"a674xuew1rgl","ADDRESS":"400 N BROAD ST"},"type":"Feature","geometry":{"type":"Point","coordinates":[-82.7316585432568,35.2369496556743]}},{"properties":{"CITY":"CONCORD","NAME":"CABARRUS COLLEGE OF HEALTH SCIENCES","ZIP":28025.0,"TELEPHONE":7047831555.0,"STATE":"NC","id":"a674xu86z2co","ADDRESS":"431 COPPERFIELD BLVD NE"},"type":"Feature","geometry":{"type":"Point","coordinates":[-80.5988832810482,35.4464389505176]}},{"properties":{"CITY":"MISENHEIMER","NAME":"PFEIFFER UNIVERSITY","ZIP":28109.0,"TELEPHONE":7044631360.0,"STATE":"NC","id":"a674xucmhlbm","ADDRESS":"48380 US HWY 52 N"},"type":"Feature","geometry":{"type":"Point","coordinates":[-80.2899297834464,35.4864978166586]}},{"properties":{"CITY":"LOUISBURG","NAME":"LOUISBURG COLLEGE","ZIP":27549.0,"TELEPHONE":9194962521.0,"STATE":"NC","id":"a674xuh8i73j","ADDRESS":"501 N MAIN ST"},"type":"Feature","geometry":{"type":"Point","coordinates":[-78.297295503182,36.1042220048071]}},{"properties":{"CITY":"FAYETTEVILLE","NAME":"METHODIST COLLEGE","ZIP":28311.0,"TELEPHONE":8004887110.0,"STATE":"NC","id":"a674xu833fdt","ADDRESS":"5400 RAMSEY ST"},"type":"Feature","geometry":{"type":"Point","coordinates":[-78.8730563235465,35.1424157004574]}},{"properties":{"CITY":"GREENSBORO","NAME":"GUILFORD COLLEGE","ZIP":27410.0,"TELEPHONE":3363162301.0,"STATE":"NC","id":"a674xuo2gxzo","ADDRESS":"5800 W FRIENDLY AVE"},"type":"Feature","geometry":{"type":"Point","coordinates":[-79.8886175391738,36.0897846629782]}},{"properties":{"CITY":"WINSTON-SALEM","NAME":"SALEM COLLEGE","ZIP":27101.0,"TELEPHONE":3367212600.0,"STATE":"NC","id":"a674xu84zth6","ADDRESS":"601 S CHURCH ST"},"type":"Feature","geometry":{"type":"Point","coordinates":[-80.241308966663,36.0871868636829]}},{"properties":{"CITY":"HICKORY","NAME":"LENOIR RHYNE COLLEGE","ZIP":28601.0,"TELEPHONE":8283281741.0,"STATE":"NC","id":"a674xu9qo2em","ADDRESS":"625 7TH AVE NE"},"type":"Feature","geometry":{"type":"Point","coordinates":[-81.3279598238371,35.7386844500272]}},{"properties":{"CITY":"MOUNT OLIVE","NAME":"MOUNT OLIVE COLLEGE","ZIP":28365.0,"TELEPHONE":9196582502.0,"STATE":"NC","id":"a674xuigf1e4","ADDRESS":"634 HENDERSON ST"},"type":"Feature","geometry":{"type":"Point","coordinates":[-78.0705053535697,35.2048162954534]}},{"properties":{"CITY":"SALISBURY","NAME":"LIVINGSTONE COLLEGE","ZIP":28144.0,"TELEPHONE":7042166000.0,"STATE":"NC","id":"a674xubsuish","ADDRESS":"701 W MONROE ST"},"type":"Feature","geometry":{"type":"Point","coordinates":[-80.4805704803042,35.6692381728743]}},{"properties":{"CITY":"SWANNANOA","NAME":"WARREN WILSON COLLEGE","ZIP":28778.0,"TELEPHONE":8282983325.0,"STATE":"NC","id":"a674xudcfq1z","ADDRESS":"701 WARREN WILSON RD"},"type":"Feature","geometry":{"type":"Point","coordinates":[-82.4400620981502,35.6133376377147]}},{"properties":{"CITY":"GREENSBORO","NAME":"GREENSBORO COLLEGE","ZIP":27401.0,"TELEPHONE":8003468226.0,"STATE":"NC","id":"a674xuaebrhr","ADDRESS":"815 W MARKET ST"},"type":"Feature","geometry":{"type":"Point","coordinates":[-79.8006463854341,36.0730040883299]}},{"properties":{"CITY":"HIGH POINT","NAME":"HIGH POINT UNIVERSITY","ZIP":27262.0,"TELEPHONE":8003456993.0,"STATE":"NC","id":"a674xulo9dhs","ADDRESS":"833 MONTLIEU AVE"},"type":"Feature","geometry":{"type":"Point","coordinates":[-79.9941631893418,35.9687690829165]}},{"properties":{"CITY":"GREENSBORO","NAME":"BENNETT COLLEGE","ZIP":27401.0,"TELEPHONE":3362734431.0,"STATE":"NC","id":"a674xun0eav6","ADDRESS":"900 E WASHINGTON ST"},"type":"Feature","geometry":{"type":"Point","coordinates":[-79.7807747987672,36.0695627764643]}},{"properties":{"CITY":"BUIES CREEK","NAME":"CAMPBELL UNIVERSITY","ZIP":27506.0,"TELEPHONE":8003344111.0,"STATE":"NC","id":"a674xugoes8s","ADDRESS":"PO BOX 488"},"type":"Feature","geometry":{"type":"Point","coordinates":[-78.7381302790915,35.4091355997022]}},{"properties":{"CITY":"WILSON","NAME":"BARTON COLLEGE","ZIP":27893.0,"TELEPHONE":2523996300.0,"STATE":"NC","id":"a674xu82y10o","ADDRESS":"PO BOX 5000"},"type":"Feature","geometry":{"type":"Point","coordinates":[-77.9168629599659,35.7332776907499]}},{"properties":{"CITY":"BOILING SPRINGS","NAME":"GARDNER WEBB UNIVERSITY","ZIP":28017.0,"TELEPHONE":7044064000.0,"STATE":"NC","id":"a674xuh2o818","ADDRESS":"PO BOX 976"},"type":"Feature","geometry":{"type":"Point","coordinates":[-81.6661074281817,35.2475163356036]}}],"is_temporal":false,"author":{"url":"http://www.nconemap.com/default.aspx?tabid=286","metadata":"http://www.nconemap.com/Portals/7/documents/metadata_records/univ_private.htm","contact_name":"","contact_address":"","source":"State Library of North Carolina; North Carolina Center for Geographic Information and Analysis (NCCGIA)","contact_phone":""},"source":"http://www.nconemap.com/default.aspx?tabid=286","pagination":{"sort":null,"start":0,"total":37,"limit":1000000},"state":"complete","tags":"carolina,colleges,education,nccgia,north,private,universities","published":"2003-07-10T12:00:00Z","id":2715}