{"type":"FeatureCollection","data_type":"Dataset","url_type":null,"permissions":[{"permissions":{"download":true,"view":true},"group_id":"everyone"}],"classification":null,"title":"Baldwin BPP 2012","count":7,"stream_id":272210,"contributor":{"url":"http://geocommons.com/users/32742","name":"mnash"},"data_attributes":null,"calculation_params":null,"icon_link":null,"link":"http://geocommons.com/overlays/272210.json","extent":[-87.8459,30.2684,-87.6812,31.0268],"geometry_types":["point"],"unique_name":null,"name":"Baldwin BPP 2012","feature_count":7,"description":"","next_feature":null,"is_raster":false,"short_classification":"Y","stats":{},"features":[{"properties":{"city":"Bay Minette","zip":"36507","county":"Baldwin County","child nutrition program site":"Bay Minette Elementary School","geo_score":0.488,"sponsor":"Backpack","id":"a8cz8fr720sp","address":"800 Blackburn Avenue","geo_precision":"zip"},"type":"Feature","geometry":{"type":"Point","coordinates":[-87.724991,31.026847]}},{"properties":{"city":"Bay Minette","zip":"36507","county":"Baldwin County","child nutrition program site":"Delta Elementary School","geo_score":0.864,"sponsor":"Backpack","id":"a8cz8fjbe4oc","address":"10251 Whitehouse Fork Road Extension","geo_precision":"range"},"type":"Feature","geometry":{"type":"Point","coordinates":[-87.845886,30.793965]}},{"properties":{"city":"Foley","zip":"36535","county":"Baldwin County","child nutrition program site":"Foley Elementary School","geo_score":0.589,"sponsor":"Backpack","id":"a8cz8fqcw2ik","address":"450 North Cedar Street","geo_precision":"street"},"type":"Feature","geometry":{"type":"Point","coordinates":[-87.693727,30.411583]}},{"properties":{"city":"Gulf Shores","zip":"36542","county":"Baldwin County","child nutrition program site":"Gulf Shores Elementary School","geo_score":0.829,"sponsor":"Backpack","id":"a8cz8fqqdp24","address":"1600 East 3rd Street","geo_precision":"range"},"type":"Feature","geometry":{"type":"Point","coordinates":[-87.68117,30.268351]}},{"properties":{"city":"Loxley","zip":"36551","county":"Baldwin County","child nutrition program site":"Loxley Elementary School","geo_score":0.708,"sponsor":"Backpack","id":"a8cz8fk1tjdb","address":"4999 County Road 49","geo_precision":"street"},"type":"Feature","geometry":{"type":"Point","coordinates":[-87.759177,30.615747]}},{"properties":{"city":"Bon Secour","zip":"36511","county":"Baldwin County","child nutrition program site":"Swift Elementary School","geo_score":0.902,"sponsor":"Backpack","id":"a8cz8fn2vfli","address":"6330 Bon Secour Highway","geo_precision":"range"},"type":"Feature","geometry":{"type":"Point","coordinates":[-87.72998,30.315035]}},{"properties":{"city":"Silverhill","zip":"36576","county":"Baldwin County","child nutrition program site":"Silverhill Elementary","geo_score":0.819,"sponsor":"Backpack","id":"a8cz8fs6xk9r","address":"15800 4th Avenue","geo_precision":"range"},"type":"Feature","geometry":{"type":"Point","coordinates":[-87.752893,30.543727]}}],"is_temporal":false,"author":{"url":"","metadata":"","contact_name":"","contact_address":"","source":"","contact_phone":""},"source":"","pagination":{"sort":null,"start":0,"total":7,"limit":1000000},"state":"complete","tags":"","published":"2014-08-14T17:21:24-04:00","id":272210}