{"type":"FeatureCollection","data_type":"Dataset","url_type":null,"permissions":[{"permissions":{"download":true,"view":true},"group_id":"everyone"}],"classification":null,"title":"Maker Ford Program Jim Scarpa","count":36,"stream_id":273272,"contributor":{"url":"http://geocommons.com/users/6861","name":"pbiegen"},"data_attributes":null,"calculation_params":null,"icon_link":null,"link":"http://geocommons.com/overlays/273272.json","extent":[-112.166,24.0667,128.999,44.4999],"geometry_types":["point"],"unique_name":null,"name":"Maker Ford Program Jim Scarpa","feature_count":36,"description":"","next_feature":null,"is_raster":false,"short_classification":"Y","stats":{"latitude":{"max":44.49989,"variance":36.8166878494415,"mean":36.9994426583333,"stdev":6.06767565460131,"min":24.0666667,"median":38.42339},"weight":{"max":742.4,"variance":43811.6683876894,"mean":143.005757575758,"stdev":209.3123703647,"min":0.45,"median":68.5},"longitude":{"max":128.999481,"variance":7859.41714061752,"mean":-42.5378769277778,"stdev":88.6533538035506,"min":-112.165689,"median":-82.843384}},"features":[{"properties":{"name":"MJ CELCO MEXICO","city":"Apodaca","latitude":25.778465,"weight":690.0,"longitude":-100.188969,"id":"a8hy9s5u338a","state":"Nuevo Leon"},"type":"Feature","geometry":{"type":"Point","coordinates":[-100.188969,25.778465]}},{"properties":{"name":"LMC INDUSTRIES USA","city":"arnold","latitude":38.42339,"weight":106.6,"longitude":-90.375225,"id":"a8hy9sbubqys","state":"MO"},"type":"Feature","geometry":{"type":"Point","coordinates":[-90.375225,38.42339]}},{"properties":{"name":"TALENT TOOL USA","city":"berea","latitude":41.365067,"weight":417.1,"longitude":-81.852576,"id":"a8hy9s8qtt76","state":"OH"},"type":"Feature","geometry":{"type":"Point","coordinates":[-81.852576,41.365067]}},{"properties":{"name":"KSS BROWNSVILLE","city":"Brownsville","latitude":25.899585,"weight":570.0,"longitude":-97.495529,"id":"a8hy9s3gcy53","state":"TX"},"type":"Feature","geometry":{"type":"Point","coordinates":[-97.495529,25.899585]}},{"properties":{"name":"BRUNSWICK MFG USA\n/TINNERMAN","city":"brunswick","latitude":41.23827,"weight":0.45,"longitude":-81.839634,"id":"a8hy9s8rzdei","state":"OH"},"type":"Feature","geometry":{"type":"Point","coordinates":[-81.839634,41.23827]}},{"properties":{"name":"BOSUNG","city":"Busan","latitude":35.170429,"weight":null,"longitude":128.999481,"id":"a8hy9s13k545","state":null},"type":"Feature","geometry":{"type":"Point","coordinates":[128.999481,35.170429]}},{"properties":{"name":"CATALINA COMPONENTS USA","city":"chandler","latitude":33.303385,"weight":4.5,"longitude":-111.840829,"id":"a8hy9saoqio6","state":"AZ"},"type":"Feature","geometry":{"type":"Point","coordinates":[-111.840829,33.303385]}},{"properties":{"name":"Waffer / Mitac (EVO)","city":"CHANGHSU CITY","latitude":24.08,"weight":null,"longitude":120.5333333,"id":"a8hy9sbiqsbo","state":null},"type":"Feature","geometry":{"type":"Point","coordinates":[120.5333333,24.08]}},{"properties":{"name":"MITAC PRECISION CHINA","city":"CHANGHSU CITY","latitude":24.0666667,"weight":103.0,"longitude":120.5333333,"id":"a8hy9s8m1coj","state":null},"type":"Feature","geometry":{"type":"Point","coordinates":[120.5333333,24.0666667]}},{"properties":{"name":"COATS NORTH AMERICA","city":"Charlotte","latitude":35.22269,"weight":4.0,"longitude":-80.837764,"id":"a8hy9rz8edpy","state":"NC"},"type":"Feature","geometry":{"type":"Point","coordinates":[-80.837764,35.22269]}},{"properties":{"name":"DAVALOR MOLD USA","city":"chesterfield","latitude":42.662029,"weight":13.0,"longitude":-82.843384,"id":"a8hy9s80lm4m","state":"MI"},"type":"Feature","geometry":{"type":"Point","coordinates":[-82.843384,42.662029]}},{"properties":{"name":"AVERY DENNISION USA","city":"cleveland","latitude":41.50438,"weight":2.7,"longitude":-81.690434,"id":"a8hy9s0leubm","state":"OH"},"type":"Feature","geometry":{"type":"Point","coordinates":[-81.690434,41.50438]}},{"properties":{"name":"ECLIPSE MOLD USA","city":"clinton township","latitude":42.065343,"weight":117.0,"longitude":-83.944762,"id":"a8hy9rycwrez","state":"MI"},"type":"Feature","geometry":{"type":"Point","coordinates":[-83.944762,42.065343]}},{"properties":{"name":"VOA CANADA","city":"collingwood","latitude":44.49989,"weight":482.0,"longitude":-80.216824,"id":"a8hy9s33qbr1","state":"ON"},"type":"Feature","geometry":{"type":"Point","coordinates":[-80.216824,44.49989]}},{"properties":{"name":"D&amp;D MANUFACTURING USA","city":"el paso","latitude":31.77,"weight":75.0,"longitude":-106.487494,"id":"a8hy9s7e2fm3","state":"TX"},"type":"Feature","geometry":{"type":"Point","coordinates":[-106.487494,31.77]}},{"properties":{"name":"LEGGETT&amp;PLATT AUTOMOTIVE USA","city":"el paso","latitude":31.759165,"weight":72.0,"longitude":-106.487494,"id":"a8hy9saattpc","state":"TX"},"type":"Feature","geometry":{"type":"Point","coordinates":[-106.487494,31.759165]}},{"properties":{"name":"AUTOMATIC SPRINGS USA","city":"grand haven","latitude":43.06295,"weight":12.86,"longitude":-86.225984,"id":"a8hy9s7py4c7","state":"MI"},"type":"Feature","geometry":{"type":"Point","coordinates":[-86.225984,43.06295]}},{"properties":{"name":"WAHISONS INDIA","city":"Gurgaon (Haryana)","latitude":28.45438,"weight":40.0,"longitude":77.03924,"id":"a8hy9sc90bwz","state":null},"type":"Feature","geometry":{"type":"Point","coordinates":[77.03924,28.45438]}},{"properties":{"name":"KOMOTECH KOREA","city":"Gyeonggi-do","latitude":37.585384,"weight":null,"longitude":127.113277,"id":"a8hy9s0jdmoc","state":null},"type":"Feature","geometry":{"type":"Point","coordinates":[127.113277,37.585384]}},{"properties":{"name":"CELLTRION DBI KOREA","city":"gyonggi-do","latitude":35.859205,"weight":1.5,"longitude":127.771023,"id":"a8hy9s0yj1v7","state":null},"type":"Feature","geometry":{"type":"Point","coordinates":[127.771023,35.859205]}},{"properties":{"name":"ITD PRECISION USA","city":"houston","latitude":29.76045,"weight":742.4,"longitude":-95.369784,"id":"a8hy9s25ydyb","state":"TX"},"type":"Feature","geometry":{"type":"Point","coordinates":[-95.369784,29.76045]}},{"properties":{"name":"WONTAE DIE-CASTING COREA","city":"inchon","latitude":37.704639,"weight":285.0,"longitude":126.440872,"id":"a8hy9sajuieo","state":null},"type":"Feature","geometry":{"type":"Point","coordinates":[126.440872,37.704639]}},{"properties":{"name":"HARRISON MANUFACTURING USA","city":"jackson","latitude":32.29869,"weight":1.0,"longitude":-90.180489,"id":"a8hy9s833flz","state":"MS"},"type":"Feature","geometry":{"type":"Point","coordinates":[-90.180489,32.29869]}},{"properties":{"name":"SWISS TECHNOLOGIES USA","city":"knoxville","latitude":35.960495,"weight":39.77,"longitude":-83.920914,"id":"a8hy9s9k210h","state":"TN"},"type":"Feature","geometry":{"type":"Point","coordinates":[-83.920914,35.960495]}},{"properties":{"name":"ATF INC USA","city":"lincolnwood","latitude":42.006945,"weight":16.0,"longitude":-87.733194,"id":"a8hy9s4rb92m","state":"IL"},"type":"Feature","geometry":{"type":"Point","coordinates":[-87.733194,42.006945]}},{"properties":{"name":"FLEXIBLE METAL USA","city":"Mount Juliet","latitude":36.195248,"weight":92.0,"longitude":-86.518582,"id":"a8hy9s3fw96l","state":"TN"},"type":"Feature","geometry":{"type":"Point","coordinates":[-86.518582,36.195248]}},{"properties":{"name":"FORTRESS FORMS USA","city":"new berlin","latitude":42.975375,"weight":79.5,"longitude":-88.118559,"id":"a8hy9sd81zxc","state":"WI"},"type":"Feature","geometry":{"type":"Point","coordinates":[-88.118559,42.975375]}},{"properties":{"name":"BOSUNG METAL COREA","city":"nomandong","latitude":35.859205,"weight":149.0,"longitude":127.771023,"id":"a8hy9rxvv6uk","state":null},"type":"Feature","geometry":{"type":"Point","coordinates":[127.771023,35.859205]}},{"properties":{"name":"CONTINENTAL MIDLAND USA","city":"park forest","latitude":41.481741,"weight":371.54,"longitude":-87.681043,"id":"a8hy9s918lhd","state":"IL"},"type":"Feature","geometry":{"type":"Point","coordinates":[-87.681043,41.481741]}},{"properties":{"name":"DYNACAST USA","city":"Peterborough","latitude":44.305925,"weight":34.0,"longitude":-78.319504,"id":"a8hy9rzvtdm2","state":"ON"},"type":"Feature","geometry":{"type":"Point","coordinates":[-78.319504,44.305925]}},{"properties":{"name":"NEW PROCESS FIBRE USA","city":"philadelphia","latitude":39.95228,"weight":5.0,"longitude":-75.162454,"id":"a8hy9s6aggj5","state":"PA"},"type":"Feature","geometry":{"type":"Point","coordinates":[-75.162454,39.95228]}},{"properties":{"name":"PRISM PLASTICS USA","city":"port huron","latitude":42.97583,"weight":71.0,"longitude":-82.428449,"id":"a8hy9scqxjx2","state":"MI"},"type":"Feature","geometry":{"type":"Point","coordinates":[-82.428449,42.97583]}},{"properties":{"name":"SUPPLY TECHNOLOGIES USA","city":"solon","latitude":41.38712,"weight":68.5,"longitude":-81.434401,"id":"a8hy9s6dpksc","state":"OH"},"type":"Feature","geometry":{"type":"Point","coordinates":[-81.434401,41.38712]}},{"properties":{"name":"JACOBSON MFG-TIFFIN USA","city":"tiffin","latitude":41.115224,"weight":17.27,"longitude":-83.176669,"id":"a8hy9s2nokom","state":"OH"},"type":"Feature","geometry":{"type":"Point","coordinates":[-83.176669,41.115224]}},{"properties":{"name":"AUTOLIV ASP INC (Dangerous Goods)","city":"Tremonton","latitude":41.71898,"weight":16.0,"longitude":-112.165689,"id":"a8hy9s59k553","state":"UT"},"type":"Feature","geometry":{"type":"Point","coordinates":[-112.165689,41.71898]}},{"properties":{"name":"ANTICIPATED PLASTICS USA","city":"warren","latitude":42.511115,"weight":19.5,"longitude":-83.028519,"id":"a8hy9sb2rr8c","state":"MI"},"type":"Feature","geometry":{"type":"Point","coordinates":[-83.028519,42.511115]}}],"is_temporal":false,"author":{"url":"","metadata":"","contact_name":"","contact_address":"","source":"","contact_phone":""},"source":"","pagination":{"sort":null,"start":0,"total":36,"limit":1000000},"state":"complete","tags":"","published":"2014-08-14T18:55:37-04:00","id":273272}