{"type":"FeatureCollection","data_type":"Dataset","url_type":null,"permissions":[{"permissions":{"download":true,"view":true},"group_id":"everyone"}],"classification":null,"title":"UVints BC Count City","count":93,"stream_id":273400,"contributor":{"url":"http://geocommons.com/users/50905","name":"rdaudt"},"data_attributes":null,"calculation_params":null,"icon_link":null,"link":"http://geocommons.com/overlays/273400.json","extent":[-132.094,46.3097,-58.0462,56.2525],"geometry_types":["point"],"unique_name":null,"name":"UVints BC Count City","feature_count":93,"description":"","next_feature":null,"is_raster":false,"short_classification":"Y","stats":{"latitude":{"max":56.252465,"variance":3.44960890986504,"mean":50.2065122150538,"stdev":1.85731228119157,"min":46.309742,"median":49.458675},"longitude":{"max":-58.04617,"variance":94.8944788175486,"mean":-120.318710247312,"stdev":9.74137971837401,"min":-132.094284,"median":-122.656549},"uvints":{"max":24,"variance":12.0014025245442,"mean":2.90322580645161,"stdev":3.46430404620382,"min":1,"median":2}},"features":[{"properties":{"city":"100 Mile House","latitude":51.314024,"longitude":-121.391162,"id":"a8iddqjl68uz","address":"100 Mile House, BC, Canada","uvints":1},"type":"Feature","geometry":{"type":"Point","coordinates":[-121.391162,51.314024]}},{"properties":{"city":"Abbotsford","latitude":49.05798,"longitude":-122.252571,"id":"a8iddqurz01l","address":"Abbotsford, BC, Canada","uvints":5},"type":"Feature","geometry":{"type":"Point","coordinates":[-122.252571,49.05798]}},{"properties":{"city":"Aldergrovde","latitude":49.056855,"longitude":-122.472289,"id":"a8iddqqpb58b","address":"Aldergrovde, BC, Canada","uvints":1},"type":"Feature","geometry":{"type":"Point","coordinates":[-122.472289,49.056855]}},{"properties":{"city":"Armstrong","latitude":50.441817,"longitude":-119.183698,"id":"a8iddqrt5wtb","address":"Armstrong, BC, Canada","uvints":1},"type":"Feature","geometry":{"type":"Point","coordinates":[-119.183698,50.441817]}},{"properties":{"city":"Blind Bay","latitude":50.874599,"longitude":-119.375801,"id":"a8iddqnbtd7c","address":"Blind Bay, BC, Canada","uvints":1},"type":"Feature","geometry":{"type":"Point","coordinates":[-119.375801,50.874599]}},{"properties":{"city":"Bowen Island","latitude":49.37986,"longitude":-123.341911,"id":"a8iddqr34xjd","address":"Bowen Island, BC, Canada","uvints":1},"type":"Feature","geometry":{"type":"Point","coordinates":[-123.341911,49.37986]}},{"properties":{"city":"Burnaby","latitude":49.244535,"longitude":-122.972989,"id":"a8iddqth54wo","address":"Burnaby, BC, Canada","uvints":6},"type":"Feature","geometry":{"type":"Point","coordinates":[-122.972989,49.244535]}},{"properties":{"city":"Campbell River","latitude":50.03765,"longitude":-125.291488,"id":"a8iddqinq92t","address":"Campbell River, BC, Canada","uvints":4},"type":"Feature","geometry":{"type":"Point","coordinates":[-125.291488,50.03765]}},{"properties":{"city":"Castlegar","latitude":49.296255,"longitude":-117.654184,"id":"a8iddqqg0uxd","address":"Castlegar, BC, Canada","uvints":2},"type":"Feature","geometry":{"type":"Point","coordinates":[-117.654184,49.296255]}},{"properties":{"city":"Chilliwack","latitude":49.161955,"longitude":-121.947929,"id":"a8iddqi034je","address":"Chilliwack, BC, Canada","uvints":5},"type":"Feature","geometry":{"type":"Point","coordinates":[-121.947929,49.161955]}},{"properties":{"city":"Clearwater","latitude":49.13313,"longitude":-99.036314,"id":"a8iddqo1epqu","address":"Clearwater, BC, Canada","uvints":1},"type":"Feature","geometry":{"type":"Point","coordinates":[-99.036314,49.13313]}},{"properties":{"city":"Cloverdale","latitude":46.309742,"longitude":-67.362201,"id":"a8iddqrg09ll","address":"Cloverdale, BC, Canada","uvints":1},"type":"Feature","geometry":{"type":"Point","coordinates":[-67.362201,46.309742]}},{"properties":{"city":"Comox","latitude":49.67354,"longitude":-124.926819,"id":"a8iddqrh8hlx","address":"Comox, BC, Canada","uvints":1},"type":"Feature","geometry":{"type":"Point","coordinates":[-124.926819,49.67354]}},{"properties":{"city":"Coombs","latitude":49.305613,"longitude":-124.412806,"id":"a8iddqy99u8p","address":"Coombs, BC, Canada","uvints":1},"type":"Feature","geometry":{"type":"Point","coordinates":[-124.412806,49.305613]}},{"properties":{"city":"Coquitlam","latitude":49.284895,"longitude":-122.793954,"id":"a8iddqsvtsjm","address":"Coquitlam, BC, Canada","uvints":7},"type":"Feature","geometry":{"type":"Point","coordinates":[-122.793954,49.284895]}},{"properties":{"city":"Courtenay","latitude":49.68672,"longitude":-124.993141,"id":"a8iddqqoajwf","address":"Courtenay, BC, Canada","uvints":4},"type":"Feature","geometry":{"type":"Point","coordinates":[-124.993141,49.68672]}},{"properties":{"city":"Cranbrook","latitude":49.513502,"longitude":-115.768701,"id":"a8iddqiknmps","address":"Cranbrook, BC, Canada","uvints":5},"type":"Feature","geometry":{"type":"Point","coordinates":[-115.768701,49.513502]}},{"properties":{"city":"Creston","latitude":49.095464,"longitude":-116.512674,"id":"a8iddqslvmtz","address":"Creston, BC, Canada","uvints":2},"type":"Feature","geometry":{"type":"Point","coordinates":[-116.512674,49.095464]}},{"properties":{"city":"Dawson Creek","latitude":55.761725,"longitude":-120.237059,"id":"a8iddqxsw607","address":"Dawson Creek, BC, Canada","uvints":1},"type":"Feature","geometry":{"type":"Point","coordinates":[-120.237059,55.761725]}},{"properties":{"city":"Delta","latitude":49.0848,"longitude":-123.059619,"id":"a8iddqshyk1b","address":"Delta, BC, Canada","uvints":7},"type":"Feature","geometry":{"type":"Point","coordinates":[-123.059619,49.0848]}},{"properties":{"city":"Duncan","latitude":48.779095,"longitude":-123.707384,"id":"a8iddqs2533e","address":"Duncan, BC, Canada","uvints":3},"type":"Feature","geometry":{"type":"Point","coordinates":[-123.707384,48.779095]}},{"properties":{"city":"Elkford","latitude":50.020915,"longitude":-114.916702,"id":"a8iddqkpxjeo","address":"Elkford, BC, Canada","uvints":1},"type":"Feature","geometry":{"type":"Point","coordinates":[-114.916702,50.020915]}},{"properties":{"city":"Fernie","latitude":49.509485,"longitude":-115.062949,"id":"a8iddqug6lys","address":"Fernie, BC, Canada","uvints":1},"type":"Feature","geometry":{"type":"Point","coordinates":[-115.062949,49.509485]}},{"properties":{"city":"Fort St. John","latitude":56.252465,"longitude":-120.847459,"id":"a8iddqsy6dci","address":"Fort St. John, BC, Canada","uvints":2},"type":"Feature","geometry":{"type":"Point","coordinates":[-120.847459,56.252465]}},{"properties":{"city":"Gabriola","latitude":49.186386,"longitude":-123.828151,"id":"a8iddqp2lcis","address":"Gabriola, BC, Canada","uvints":1},"type":"Feature","geometry":{"type":"Point","coordinates":[-123.828151,49.186386]}},{"properties":{"city":"Gibsons","latitude":49.403454,"longitude":-123.503439,"id":"a8iddqp2gv3k","address":"Gibsons, BC, Canada","uvints":1},"type":"Feature","geometry":{"type":"Point","coordinates":[-123.503439,49.403454]}},{"properties":{"city":"Golden","latitude":51.294735,"longitude":-116.963039,"id":"a8iddqssovi1","address":"Golden, BC, Canada","uvints":1},"type":"Feature","geometry":{"type":"Point","coordinates":[-116.963039,51.294735]}},{"properties":{"city":"Greenwood","latitude":49.091795,"longitude":-118.677425,"id":"a8iddqv1xyke","address":"Greenwood, BC, Canada","uvints":1},"type":"Feature","geometry":{"type":"Point","coordinates":[-118.677425,49.091795]}},{"properties":{"city":"Heriot Bay","latitude":50.094368,"longitude":-125.201437,"id":"a8iddqjtk3o0","address":"Heriot Bay, BC, Canada","uvints":1},"type":"Feature","geometry":{"type":"Point","coordinates":[-125.201437,50.094368]}},{"properties":{"city":"Hope","latitude":49.378965,"longitude":-121.444454,"id":"a8iddqqxitcv","address":"Hope, BC, Canada","uvints":1},"type":"Feature","geometry":{"type":"Point","coordinates":[-121.444454,49.378965]}},{"properties":{"city":"Houston","latitude":54.400645,"longitude":-126.647054,"id":"a8iddqqxv3ke","address":"Houston, BC, Canada","uvints":1},"type":"Feature","geometry":{"type":"Point","coordinates":[-126.647054,54.400645]}},{"properties":{"city":"Invermere","latitude":50.50917,"longitude":-116.030369,"id":"a8iddqwkvm7u","address":"Invermere, BC, Canada","uvints":2},"type":"Feature","geometry":{"type":"Point","coordinates":[-116.030369,50.50917]}},{"properties":{"city":"Kamloops","latitude":50.676125,"longitude":-120.337889,"id":"a8iddqk32x27","address":"Kamloops, BC, Canada","uvints":5},"type":"Feature","geometry":{"type":"Point","coordinates":[-120.337889,50.676125]}},{"properties":{"city":"Kelowna","latitude":49.886815,"longitude":-119.496599,"id":"a8iddqqu9ivy","address":"Kelowna, BC, Canada","uvints":8},"type":"Feature","geometry":{"type":"Point","coordinates":[-119.496599,49.886815]}},{"properties":{"city":"Keremeos","latitude":49.20514,"longitude":-119.824124,"id":"a8iddqy2kff5","address":"Keremeos, BC, Canada","uvints":1},"type":"Feature","geometry":{"type":"Point","coordinates":[-119.824124,49.20514]}},{"properties":{"city":"Ladysmith","latitude":48.997356,"longitude":-123.820544,"id":"a8iddqqw122q","address":"Ladysmith, BC, Canada","uvints":2},"type":"Feature","geometry":{"type":"Point","coordinates":[-123.820544,48.997356]}},{"properties":{"city":"Langford","latitude":48.448701,"longitude":-123.513511,"id":"a8iddqvwc1m6","address":"Langford, BC, Canada","uvints":1},"type":"Feature","geometry":{"type":"Point","coordinates":[-123.513511,48.448701]}},{"properties":{"city":"Langley","latitude":49.104114,"longitude":-122.656549,"id":"a8iddqu0fjjo","address":"Langley, BC, Canada","uvints":8},"type":"Feature","geometry":{"type":"Point","coordinates":[-122.656549,49.104114]}},{"properties":{"city":"Lone Butte","latitude":51.553112,"longitude":-121.191485,"id":"a8iddqntwnsg","address":"Lone Butte, BC, Canada","uvints":1},"type":"Feature","geometry":{"type":"Point","coordinates":[-121.191485,51.553112]}},{"properties":{"city":"MacKenzie","latitude":55.330091,"longitude":-123.094328,"id":"a8iddqpluyjj","address":"MacKenzie, BC, Canada","uvints":1},"type":"Feature","geometry":{"type":"Point","coordinates":[-123.094328,55.330091]}},{"properties":{"city":"Madeira Park","latitude":50.623685,"longitude":-99.969409,"id":"a8iddqwuoqxb","address":"Madeira Park, BC, Canada","uvints":1},"type":"Feature","geometry":{"type":"Point","coordinates":[-99.969409,50.623685]}},{"properties":{"city":"Maple Ridge","latitude":49.216845,"longitude":-122.605829,"id":"a8iddqiilfgi","address":"Maple Ridge, BC, Canada","uvints":4},"type":"Feature","geometry":{"type":"Point","coordinates":[-122.605829,49.216845]}},{"properties":{"city":"Merritt","latitude":50.111565,"longitude":-120.787364,"id":"a8iddqnerz6v","address":"Merritt, BC, Canada","uvints":1},"type":"Feature","geometry":{"type":"Point","coordinates":[-120.787364,50.111565]}},{"properties":{"city":"Mill bay","latitude":48.644299,"longitude":-123.555679,"id":"a8iddqtftok4","address":"Mill bay, BC, Canada","uvints":2},"type":"Feature","geometry":{"type":"Point","coordinates":[-123.555679,48.644299]}},{"properties":{"city":"Mission","latitude":49.159995,"longitude":-122.282804,"id":"a8iddqwni2o5","address":"Mission, BC, Canada","uvints":3},"type":"Feature","geometry":{"type":"Point","coordinates":[-122.282804,49.159995]}},{"properties":{"city":"Naksup","latitude":54.154531,"longitude":-126.550709,"id":"a8iddqs3pi9v","address":"Naksup, BC, Canada","uvints":1},"type":"Feature","geometry":{"type":"Point","coordinates":[-126.550709,54.154531]}},{"properties":{"city":"Nanaimo","latitude":49.164268,"longitude":-123.93618,"id":"a8iddqu9mvgh","address":"Nanaimo, BC, Canada","uvints":10},"type":"Feature","geometry":{"type":"Point","coordinates":[-123.93618,49.164268]}},{"properties":{"city":"Nanoose","latitude":49.28723,"longitude":-124.140822,"id":"a8iddqqcve9f","address":"Nanoose, BC, Canada","uvints":1},"type":"Feature","geometry":{"type":"Point","coordinates":[-124.140822,49.28723]}},{"properties":{"city":"Nelson","latitude":49.49754,"longitude":-117.288814,"id":"a8iddqv1yfwu","address":"Nelson, BC, Canada","uvints":2},"type":"Feature","geometry":{"type":"Point","coordinates":[-117.288814,49.49754]}},{"properties":{"city":"New Westminster","latitude":49.206395,"longitude":-122.909634,"id":"a8iddqjxng6b","address":"New Westminster, BC, Canada","uvints":4},"type":"Feature","geometry":{"type":"Point","coordinates":[-122.909634,49.206395]}},{"properties":{"city":"North Vancouver","latitude":49.321065,"longitude":-123.074159,"id":"a8iddqs42xc0","address":"North Vancouver, BC, Canada","uvints":9},"type":"Feature","geometry":{"type":"Point","coordinates":[-123.074159,49.321065]}},{"properties":{"city":"Oliver","latitude":49.1826,"longitude":-119.550464,"id":"a8iddqlmg7qj","address":"Oliver, BC, Canada","uvints":2},"type":"Feature","geometry":{"type":"Point","coordinates":[-119.550464,49.1826]}},{"properties":{"city":"Osoyoos","latitude":49.03284,"longitude":-119.466244,"id":"a8iddqjvewbc","address":"Osoyoos, BC, Canada","uvints":2},"type":"Feature","geometry":{"type":"Point","coordinates":[-119.466244,49.03284]}},{"properties":{"city":"Parksville","latitude":49.31969,"longitude":-124.313644,"id":"a8iddqxotb6b","address":"Parksville, BC, Canada","uvints":1},"type":"Feature","geometry":{"type":"Point","coordinates":[-124.313644,49.31969]}},{"properties":{"city":"Peachland","latitude":49.773525,"longitude":-119.736294,"id":"a8iddqx52jcq","address":"Peachland, BC, Canada","uvints":1},"type":"Feature","geometry":{"type":"Point","coordinates":[-119.736294,49.773525]}},{"properties":{"city":"Penticton","latitude":49.50023,"longitude":-119.593859,"id":"a8iddqxihkjc","address":"Penticton, BC, Canada","uvints":6},"type":"Feature","geometry":{"type":"Point","coordinates":[-119.593859,49.50023]}},{"properties":{"city":"Pitt Meadows","latitude":48.994771,"longitude":-58.04617,"id":"a8iddqjotuh3","address":"Pitt Meadows, BC, Canada","uvints":2},"type":"Feature","geometry":{"type":"Point","coordinates":[-58.04617,48.994771]}},{"properties":{"city":"Port Alberni","latitude":49.233985,"longitude":-124.807574,"id":"a8iddqrxaduj","address":"Port Alberni, BC, Canada","uvints":1},"type":"Feature","geometry":{"type":"Point","coordinates":[-124.807574,49.233985]}},{"properties":{"city":"Port Coquitlam","latitude":49.284895,"longitude":-122.793954,"id":"a8iddqqnzaqe","address":"Port Coquitlam, BC, Canada","uvints":4},"type":"Feature","geometry":{"type":"Point","coordinates":[-122.793954,49.284895]}},{"properties":{"city":"Port Hardy","latitude":50.72419,"longitude":-127.495494,"id":"a8iddqpi2d1u","address":"Port Hardy, BC, Canada","uvints":1},"type":"Feature","geometry":{"type":"Point","coordinates":[-127.495494,50.72419]}},{"properties":{"city":"Port McNeil","latitude":50.584381,"longitude":-127.082062,"id":"a8iddqr3r5nu","address":"Port McNeil, BC, Canada","uvints":1},"type":"Feature","geometry":{"type":"Point","coordinates":[-127.082062,50.584381]}},{"properties":{"city":"Port Moody","latitude":49.28242,"longitude":-122.829343,"id":"a8iddqrtgyaf","address":"Port Moody, BC, Canada","uvints":1},"type":"Feature","geometry":{"type":"Point","coordinates":[-122.829343,49.28242]}},{"properties":{"city":"Powell River","latitude":49.835892,"longitude":-124.523811,"id":"a8iddqn8i38v","address":"Powell River, BC, Canada","uvints":3},"type":"Feature","geometry":{"type":"Point","coordinates":[-124.523811,49.835892]}},{"properties":{"city":"Prince George","latitude":53.91235,"longitude":-122.745089,"id":"a8iddqjtm0nn","address":"Prince George, BC, Canada","uvints":2},"type":"Feature","geometry":{"type":"Point","coordinates":[-122.745089,53.91235]}},{"properties":{"city":"Prince Rupert","latitude":54.320648,"longitude":-130.291915,"id":"a8iddql8uflz","address":"Prince Rupert, BC, Canada","uvints":1},"type":"Feature","geometry":{"type":"Point","coordinates":[-130.291915,54.320648]}},{"properties":{"city":"Princeton","latitude":49.458675,"longitude":-120.505899,"id":"a8iddqsx4thp","address":"Princeton, BC, Canada","uvints":1},"type":"Feature","geometry":{"type":"Point","coordinates":[-120.505899,49.458675]}},{"properties":{"city":"Qualicum Beach","latitude":49.34773,"longitude":-124.444339,"id":"a8iddqm0tjip","address":"Qualicum Beach, BC, Canada","uvints":2},"type":"Feature","geometry":{"type":"Point","coordinates":[-124.444339,49.34773]}},{"properties":{"city":"Queen Charlotte","latitude":53.254238,"longitude":-132.094284,"id":"a8iddqo4leq8","address":"Queen Charlotte, BC, Canada","uvints":1},"type":"Feature","geometry":{"type":"Point","coordinates":[-132.094284,53.254238]}},{"properties":{"city":"Quesnel","latitude":53.01772,"longitude":-122.457739,"id":"a8iddqput37g","address":"Quesnel, BC, Canada","uvints":3},"type":"Feature","geometry":{"type":"Point","coordinates":[-122.457739,53.01772]}},{"properties":{"city":"Revelstoke","latitude":51.010197,"longitude":-118.214512,"id":"a8iddquglb9a","address":"Revelstoke, BC, Canada","uvints":1},"type":"Feature","geometry":{"type":"Point","coordinates":[-118.214512,51.010197]}},{"properties":{"city":"Richmond","latitude":49.16337,"longitude":-123.136624,"id":"a8iddqwbtsu8","address":"Richmond, BC, Canada","uvints":6},"type":"Feature","geometry":{"type":"Point","coordinates":[-123.136624,49.16337]}},{"properties":{"city":"Rossland","latitude":49.079076,"longitude":-117.830688,"id":"a8iddql4nws6","address":"Rossland, BC, Canada","uvints":1},"type":"Feature","geometry":{"type":"Point","coordinates":[-117.830688,49.079076]}},{"properties":{"city":"Saanichton","latitude":48.5952,"longitude":-123.416894,"id":"a8iddqmu43r0","address":"Saanichton, BC, Canada","uvints":2},"type":"Feature","geometry":{"type":"Point","coordinates":[-123.416894,48.5952]}},{"properties":{"city":"Salmon Arm","latitude":50.702228,"longitude":-119.271885,"id":"a8iddqkwx2nw","address":"Salmon Arm, BC, Canada","uvints":2},"type":"Feature","geometry":{"type":"Point","coordinates":[-119.271885,50.702228]}},{"properties":{"city":"Saltspring Island","latitude":48.859558,"longitude":-123.50808,"id":"a8iddquudk87","address":"Saltspring Island, BC, Canada","uvints":2},"type":"Feature","geometry":{"type":"Point","coordinates":[-123.50808,48.859558]}},{"properties":{"city":"Sechelt","latitude":49.47346,"longitude":-123.754609,"id":"a8iddqp19hsr","address":"Sechelt, BC, Canada","uvints":3},"type":"Feature","geometry":{"type":"Point","coordinates":[-123.754609,49.47346]}},{"properties":{"city":"Sicamous","latitude":50.837915,"longitude":-118.970324,"id":"a8iddqqzj180","address":"Sicamous, BC, Canada","uvints":1},"type":"Feature","geometry":{"type":"Point","coordinates":[-118.970324,50.837915]}},{"properties":{"city":"Sidney","latitude":48.650215,"longitude":-123.398424,"id":"a8iddqwsqn4c","address":"Sidney, BC, Canada","uvints":3},"type":"Feature","geometry":{"type":"Point","coordinates":[-123.398424,48.650215]}},{"properties":{"city":"Smithers","latitude":54.782875,"longitude":-127.168038,"id":"a8iddquplz86","address":"Smithers, BC, Canada","uvints":1},"type":"Feature","geometry":{"type":"Point","coordinates":[-127.168038,54.782875]}},{"properties":{"city":"Sorrento","latitude":50.87693,"longitude":-119.470089,"id":"a8iddqqzg4jm","address":"Sorrento, BC, Canada","uvints":1},"type":"Feature","geometry":{"type":"Point","coordinates":[-119.470089,50.87693]}},{"properties":{"city":"Squamish","latitude":49.697985,"longitude":-123.155454,"id":"a8iddqnb316a","address":"Squamish, BC, Canada","uvints":2},"type":"Feature","geometry":{"type":"Point","coordinates":[-123.155454,49.697985]}},{"properties":{"city":"Summerland","latitude":49.6023,"longitude":-119.682174,"id":"a8iddqi2fe1d","address":"Summerland, BC, Canada","uvints":1},"type":"Feature","geometry":{"type":"Point","coordinates":[-119.682174,49.6023]}},{"properties":{"city":"Surrey","latitude":49.10522,"longitude":-122.831374,"id":"a8iddqk6rx69","address":"Surrey, BC, Canada","uvints":11},"type":"Feature","geometry":{"type":"Point","coordinates":[-122.831374,49.10522]}},{"properties":{"city":"Terrace","latitude":54.51587,"longitude":-128.602177,"id":"a8iddqkqo863","address":"Terrace, BC, Canada","uvints":2},"type":"Feature","geometry":{"type":"Point","coordinates":[-128.602177,54.51587]}},{"properties":{"city":"Trail","latitude":49.096452,"longitude":-117.71221,"id":"a8iddqm3ljzn","address":"Trail, BC, Canada","uvints":2},"type":"Feature","geometry":{"type":"Point","coordinates":[-117.71221,49.096452]}},{"properties":{"city":"Vancouver","latitude":49.26044,"longitude":-123.114034,"id":"a8iddquj8fb2","address":"Vancouver, BC, Canada","uvints":16},"type":"Feature","geometry":{"type":"Point","coordinates":[-123.114034,49.26044]}},{"properties":{"city":"Vanderhoof","latitude":54.013976,"longitude":-124.012899,"id":"a8iddqlof3v5","address":"Vanderhoof, BC, Canada","uvints":1},"type":"Feature","geometry":{"type":"Point","coordinates":[-124.012899,54.013976]}},{"properties":{"city":"Vernon","latitude":50.265685,"longitude":-119.273804,"id":"a8iddqsxnl86","address":"Vernon, BC, Canada","uvints":7},"type":"Feature","geometry":{"type":"Point","coordinates":[-119.273804,50.265685]}},{"properties":{"city":"Victoria","latitude":48.428315,"longitude":-123.364514,"id":"a8iddqrbrdsv","address":"Victoria, BC, Canada","uvints":24},"type":"Feature","geometry":{"type":"Point","coordinates":[-123.364514,48.428315]}},{"properties":{"city":"West Kelowna","latitude":49.886815,"longitude":-119.496599,"id":"a8iddqtr3d7f","address":"West Kelowna, BC, Canada","uvints":1},"type":"Feature","geometry":{"type":"Point","coordinates":[-119.496599,49.886815]}},{"properties":{"city":"Westbank","latitude":49.82957,"longitude":-119.629614,"id":"a8iddqoemh0b","address":"Westbank, BC, Canada","uvints":1},"type":"Feature","geometry":{"type":"Point","coordinates":[-119.629614,49.82957]}},{"properties":{"city":"White Rock","latitude":49.02392,"longitude":-122.796789,"id":"a8iddqlkldcc","address":"White Rock, BC, Canada","uvints":4},"type":"Feature","geometry":{"type":"Point","coordinates":[-122.796789,49.02392]}},{"properties":{"city":"Williams Lake","latitude":52.162273,"longitude":-122.196462,"id":"a8iddqkz739f","address":"Williams Lake, BC, Canada","uvints":2},"type":"Feature","geometry":{"type":"Point","coordinates":[-122.196462,52.162273]}}],"is_temporal":false,"author":{"url":"","metadata":"","contact_name":"","contact_address":"","source":"","contact_phone":""},"source":"","pagination":{"sort":null,"start":0,"total":93,"limit":1000000},"state":"complete","tags":"","published":"2014-08-14T19:14:56-04:00","id":273400}