{"type":"FeatureCollection","data_type":"Dataset","url_type":null,"permissions":[{"permissions":{"download":true,"view":true},"group_id":"everyone"}],"classification":null,"title":"Station 5 0802-0831 Calls","count":178,"stream_id":273619,"contributor":{"url":"http://geocommons.com/users/51527","name":"radoni"},"data_attributes":null,"calculation_params":null,"icon_link":null,"link":"http://geocommons.com/overlays/273619.json","extent":[-122.032,37.2583,-121.802,37.3842],"geometry_types":["point"],"unique_name":null,"name":"Station 5 0802-0831 Calls","feature_count":178,"description":"All calls considered emergency calls in station 5 area distributed geographically","next_feature":null,"is_raster":false,"short_classification":"Y","stats":{"number":{"max":2390,"variance":303899.69594514,"mean":1198.66923076923,"stdev":551.270982317354,"min":43,"median":1202}},"features":[{"properties":{"city":"SAN JOSE","zip":"95112","number":null,"addr_2":null,"geo_score":0.385,"st_type":"ST","street":"4TH","id":"a8isx39q7l4a","st_prefix":"N","geo_precision":"street"},"type":"Feature","geometry":{"type":"Point","coordinates":[-121.886029,37.335832]}},{"properties":{"city":"SAN JOSE","zip":"95112","number":1460,"addr_2":null,"geo_score":0.385,"st_type":"ST","street":"4TH","id":"a8isx3agvxov","st_prefix":"N","geo_precision":"street"},"type":"Feature","geometry":{"type":"Point","coordinates":[-121.886029,37.335832]}},{"properties":{"city":"SAN JOSE","zip":"95112","number":1350,"addr_2":null,"geo_score":0.385,"st_type":"ST","street":"4TH","id":"a8isx3bmbqpo","st_prefix":"N","geo_precision":"street"},"type":"Feature","geometry":{"type":"Point","coordinates":[-121.886029,37.335832]}},{"properties":{"city":"SAN JOSE","zip":"95112","number":1440,"addr_2":null,"geo_score":0.385,"st_type":"ST","street":"1ST","id":"a8isx3jfjopn","st_prefix":"N","geo_precision":"street"},"type":"Feature","geometry":{"type":"Point","coordinates":[-121.890566,37.336168]}},{"properties":{"city":"SAN JOSE","zip":"95112","number":1350,"addr_2":null,"geo_score":0.385,"st_type":"ST","street":"1ST","id":"a8isx3h0vvi3","st_prefix":"N","geo_precision":"street"},"type":"Feature","geometry":{"type":"Point","coordinates":[-121.890566,37.336168]}},{"properties":{"city":"SAN JOSE","zip":"95112","number":55,"addr_2":null,"geo_score":0.562,"st_type":"AV","street":"YOUNGER","id":"a8isx3im0nm7","st_prefix":"W","geo_precision":"street"},"type":"Feature","geometry":{"type":"Point","coordinates":[-121.903679,37.355636]}},{"properties":{"city":"SAN JOSE","zip":"95112","number":1460,"addr_2":null,"geo_score":0.385,"st_type":"ST","street":"4TH","id":"a8isx3emm7f0","st_prefix":"N","geo_precision":"street"},"type":"Feature","geometry":{"type":"Point","coordinates":[-121.886029,37.335832]}},{"properties":{"city":"SAN JOSE","zip":"95112","number":1350,"addr_2":null,"geo_score":0.385,"st_type":"ST","street":"4TH","id":"a8isx35hhgpt","st_prefix":"N","geo_precision":"street"},"type":"Feature","geometry":{"type":"Point","coordinates":[-121.886029,37.335832]}},{"properties":{"city":"SAN JOSE","zip":"95112","number":1275,"addr_2":null,"geo_score":0.385,"st_type":"ST","street":"4TH","id":"a8isx3h15au0","st_prefix":"N","geo_precision":"street"},"type":"Feature","geometry":{"type":"Point","coordinates":[-121.886029,37.335832]}},{"properties":{"city":"SAN JOSE","zip":"95112","number":null,"addr_2":null,"geo_score":0.385,"st_type":"ST","street":"6TH","id":"a8isx34ofixb","st_prefix":"N","geo_precision":"street"},"type":"Feature","geometry":{"type":"Point","coordinates":[-121.885248,37.338696]}},{"properties":{"city":"SAN JOSE","zip":"95112","number":1001,"addr_2":null,"geo_score":0.385,"st_type":"ST","street":"6TH","id":"a8isx35zdi2l","st_prefix":"N","geo_precision":"street"},"type":"Feature","geometry":{"type":"Point","coordinates":[-121.885248,37.338696]}},{"properties":{"city":"SAN JOSE","zip":"95112","number":914,"addr_2":null,"geo_score":0.385,"st_type":"ST","street":"5TH","id":"a8isx3gsw75c","st_prefix":"N","geo_precision":"street"},"type":"Feature","geometry":{"type":"Point","coordinates":[-121.885673,37.337305]}},{"properties":{"city":"SAN JOSE","zip":"95112","number":297,"addr_2":null,"geo_score":0.661,"st_type":"ST","street":"COMMERCIAL","id":"a8isx3cgji4d","st_prefix":null,"geo_precision":"street"},"type":"Feature","geometry":{"type":"Point","coordinates":[-121.900199,37.360676]}},{"properties":{"city":"SAN JOSE","zip":"95112","number":1471,"addr_2":null,"geo_score":0.385,"st_type":"ST","street":"4TH","id":"a8isx3i041gg","st_prefix":"N","geo_precision":"street"},"type":"Feature","geometry":{"type":"Point","coordinates":[-121.886029,37.335832]}},{"properties":{"city":"SAN JOSE","zip":"95112","number":1039,"addr_2":null,"geo_score":0.385,"st_type":"ST","street":"3RD","id":"a8isx39h9c6a","st_prefix":"N","geo_precision":"street"},"type":"Feature","geometry":{"type":"Point","coordinates":[-121.88958,37.338671]}},{"properties":{"city":"SAN JOSE","zip":"95112","number":null,"addr_2":null,"geo_score":0.385,"st_type":"ST","street":"1ST","id":"a8isx3gxfs68","st_prefix":"N","geo_precision":"street"},"type":"Feature","geometry":{"type":"Point","coordinates":[-121.890566,37.336168]}},{"properties":{"city":"SAN JOSE","zip":"95112","number":663,"addr_2":null,"geo_score":0.565,"st_type":"ST","street":"TAYLOR","id":"a8isx3bj7gab","st_prefix":"E","geo_precision":"street"},"type":"Feature","geometry":{"type":"Point","coordinates":[-121.89914,37.349593]}},{"properties":{"city":"SAN JOSE","zip":"95112","number":1801,"addr_2":null,"geo_score":0.617,"st_type":"DR","street":"BERING","id":"a8isx36el787","st_prefix":null,"geo_precision":"street"},"type":"Feature","geometry":{"type":"Point","coordinates":[-121.911762,37.373118]}},{"properties":{"city":"SAN JOSE","zip":"95112","number":null,"addr_2":null,"geo_score":0.385,"st_type":"ST","street":"1ST","id":"a8isx3ixs2zg","st_prefix":"N","geo_precision":"street"},"type":"Feature","geometry":{"type":"Point","coordinates":[-121.890566,37.336168]}},{"properties":{"city":"SAN JOSE","zip":"95112","number":1440,"addr_2":null,"geo_score":0.385,"st_type":"ST","street":"1ST","id":"a8isx36p5h9s","st_prefix":"N","geo_precision":"street"},"type":"Feature","geometry":{"type":"Point","coordinates":[-121.890566,37.336168]}},{"properties":{"city":"SAN JOSE","zip":"95112","number":1441,"addr_2":null,"geo_score":0.385,"st_type":"ST","street":"4TH","id":"a8isx39av3at","st_prefix":"N","geo_precision":"street"},"type":"Feature","geometry":{"type":"Point","coordinates":[-121.886029,37.335832]}},{"properties":{"city":"SAN JOSE","zip":"95112","number":null,"addr_2":null,"geo_score":0.643,"st_type":null,"street":"AIRPORT PY","id":"a8isx38kproj","st_prefix":null,"geo_precision":"street"},"type":"Feature","geometry":{"type":"Point","coordinates":[-121.92262,37.369327]}},{"properties":{"city":"SAN JOSE","zip":"95112","number":1303,"addr_2":null,"geo_score":0.582,"st_type":"AV","street":"FORRESTAL","id":"a8isx3ecc0g8","st_prefix":null,"geo_precision":"street"},"type":"Feature","geometry":{"type":"Point","coordinates":[-121.910125,37.356857]}},{"properties":{"city":"SAN JOSE","zip":"95112","number":null,"addr_2":null,"geo_score":0.385,"st_type":"ST","street":"4TH","id":"a8isx39cai5l","st_prefix":"N","geo_precision":"street"},"type":"Feature","geometry":{"type":"Point","coordinates":[-121.886029,37.335832]}},{"properties":{"city":"SAN JOSE","zip":"95112","number":null,"addr_2":null,"geo_score":0.488,"st_type":null,"street":"880","id":"a8isx3d2iewx","st_prefix":null,"geo_precision":"zip"},"type":"Feature","geometry":{"type":"Point","coordinates":[-121.892093,37.37004]}},{"properties":{"city":"SAN JOSE","zip":"95112","number":null,"addr_2":null,"geo_score":0.465,"st_type":"RP","street":"SB 880 TO SB 101","id":"a8isx3a8huzr","st_prefix":null,"geo_precision":"street"},"type":"Feature","geometry":{"type":"Point","coordinates":[-121.896169,37.363436]}},{"properties":{"city":"SAN JOSE","zip":"95112","number":null,"addr_2":null,"geo_score":0.661,"st_type":"ST","street":"COMMERCIAL","id":"a8isx3i7q308","st_prefix":null,"geo_precision":"street"},"type":"Feature","geometry":{"type":"Point","coordinates":[-121.900199,37.360676]}},{"properties":{"city":"SAN JOSE","zip":"95112","number":null,"addr_2":null,"geo_score":0.385,"st_type":"ST","street":"1ST","id":"a8isx3810axx","st_prefix":"N","geo_precision":"street"},"type":"Feature","geometry":{"type":"Point","coordinates":[-121.890566,37.336168]}},{"properties":{"city":"SAN JOSE","zip":"95112","number":297,"addr_2":null,"geo_score":0.661,"st_type":"ST","street":"COMMERCIAL","id":"a8isx3805pp1","st_prefix":null,"geo_precision":"street"},"type":"Feature","geometry":{"type":"Point","coordinates":[-121.900199,37.360676]}},{"properties":{"city":"SAN JOSE","zip":"95112","number":1550,"addr_2":null,"geo_score":0.385,"st_type":"ST","street":"1ST","id":"a8isx394rflx","st_prefix":"N","geo_precision":"street"},"type":"Feature","geometry":{"type":"Point","coordinates":[-121.890566,37.336168]}},{"properties":{"city":"SAN JOSE","zip":"95112","number":117,"addr_2":null,"geo_score":0.595,"st_type":"ST","street":"ROSEMARY","id":"a8isx39klsz1","st_prefix":"W","geo_precision":"street"},"type":"Feature","geometry":{"type":"Point","coordinates":[-121.906784,37.36079]}},{"properties":{"city":"SAN JOSE","zip":"95112","number":null,"addr_2":null,"geo_score":0.531,"st_type":"DR","street":"RUFF","id":"a8isx3f6cut2","st_prefix":null,"geo_precision":"street"},"type":"Feature","geometry":{"type":"Point","coordinates":[-121.912142,37.350115]}},{"properties":{"city":"SAN JOSE","zip":"95112","number":43,"addr_2":null,"geo_score":0.522,"st_type":"RD","street":"GISH","id":"a8isx3b381ry","st_prefix":"E","geo_precision":"street"},"type":"Feature","geometry":{"type":"Point","coordinates":[-121.909637,37.361737]}},{"properties":{"city":"SAN JOSE","zip":"95112","number":1355,"addr_2":null,"geo_score":0.385,"st_type":"ST","street":"4TH","id":"a8isx36ntoe2","st_prefix":"N","geo_precision":"street"},"type":"Feature","geometry":{"type":"Point","coordinates":[-121.886029,37.335832]}},{"properties":{"city":"SAN JOSE","zip":"95112","number":null,"addr_2":null,"geo_score":0.349,"st_type":null,"street":"101","id":"a8isx33o4czq","st_prefix":null,"geo_precision":"street"},"type":"Feature","geometry":{"type":"Point","coordinates":[-121.896169,37.363436]}},{"properties":{"city":"SAN JOSE","zip":"95112","number":98,"addr_2":null,"geo_score":0.617,"st_type":"ST","street":"ARCHER","id":"a8isx3i8z0xh","st_prefix":null,"geo_precision":"street"},"type":"Feature","geometry":{"type":"Point","coordinates":[-121.91178,37.36509]}},{"properties":{"city":"SAN JOSE","zip":"95112","number":1412,"addr_2":null,"geo_score":0.385,"st_type":"ST","street":"1ST","id":"a8isx37ougyy","st_prefix":"N","geo_precision":"street"},"type":"Feature","geometry":{"type":"Point","coordinates":[-121.890566,37.336168]}},{"properties":{"city":"SAN JOSE","zip":"95112","number":271,"addr_2":null,"geo_score":0.617,"st_type":"DR","street":"KINNEY","id":"a8isx36ubfv6","st_prefix":null,"geo_precision":"street"},"type":"Feature","geometry":{"type":"Point","coordinates":[-121.900744,37.359038]}},{"properties":{"city":"SAN JOSE","zip":"95112","number":283,"addr_2":null,"geo_score":0.617,"st_type":"DR","street":"KINNEY","id":"a8isx3aidtsf","st_prefix":null,"geo_precision":"street"},"type":"Feature","geometry":{"type":"Point","coordinates":[-121.900744,37.359038]}},{"properties":{"city":"SAN JOSE","zip":"95112","number":900,"addr_2":null,"geo_score":0.385,"st_type":"ST","street":"1ST","id":"a8isx3didijh","st_prefix":"N","geo_precision":"street"},"type":"Feature","geometry":{"type":"Point","coordinates":[-121.890566,37.336168]}},{"properties":{"city":"SAN JOSE","zip":"95112","number":null,"addr_2":null,"geo_score":0.349,"st_type":null,"street":"101","id":"a8isx35gbdyl","st_prefix":null,"geo_precision":"street"},"type":"Feature","geometry":{"type":"Point","coordinates":[-121.896169,37.363436]}},{"properties":{"city":"SAN JOSE","zip":"95112","number":1280,"addr_2":null,"geo_score":0.385,"st_type":"ST","street":"4TH","id":"a8isx3anrzto","st_prefix":"N","geo_precision":"street"},"type":"Feature","geometry":{"type":"Point","coordinates":[-121.886029,37.335832]}},{"properties":{"city":"SAN JOSE","zip":"95112","number":null,"addr_2":null,"geo_score":0.385,"st_type":"ST","street":"1ST","id":"a8isx3fqlk0x","st_prefix":"N","geo_precision":"street"},"type":"Feature","geometry":{"type":"Point","coordinates":[-121.890566,37.336168]}},{"properties":{"city":"SAN JOSE","zip":"95112","number":null,"addr_2":null,"geo_score":0.349,"st_type":null,"street":"101","id":"a8isx35m7ush","st_prefix":null,"geo_precision":"street"},"type":"Feature","geometry":{"type":"Point","coordinates":[-121.896169,37.363436]}},{"properties":{"city":"SAN JOSE","zip":"95112","number":1275,"addr_2":null,"geo_score":0.385,"st_type":"ST","street":"4TH","id":"a8isx33xiyry","st_prefix":"N","geo_precision":"street"},"type":"Feature","geometry":{"type":"Point","coordinates":[-121.886029,37.335832]}},{"properties":{"city":"SAN JOSE","zip":"95112","number":1290,"addr_2":null,"geo_score":0.571,"st_type":"AV","street":"SAN JUAN","id":"a8isx39n79rc","st_prefix":null,"geo_precision":"street"},"type":"Feature","geometry":{"type":"Point","coordinates":[-121.91289,37.357889]}},{"properties":{"city":"SAN JOSE","zip":"95112","number":null,"addr_2":null,"geo_score":0.661,"st_type":"ST","street":"COMMERCIAL","id":"a8isx3jiqree","st_prefix":null,"geo_precision":"street"},"type":"Feature","geometry":{"type":"Point","coordinates":[-121.900199,37.360676]}},{"properties":{"city":"SAN JOSE","zip":"95112","number":967,"addr_2":null,"geo_score":0.381,"st_type":"DR","street":"SAKURA","id":"a8isx36srhpn","st_prefix":null,"geo_precision":"street"},"type":"Feature","geometry":{"type":"Point","coordinates":[-121.802067,37.356432]}},{"properties":{"city":"SAN JOSE","zip":"95112","number":1555,"addr_2":null,"geo_score":0.617,"st_type":"DR","street":"BERGER","id":"a8isx3catbxw","st_prefix":null,"geo_precision":"street"},"type":"Feature","geometry":{"type":"Point","coordinates":[-121.897067,37.369688]}},{"properties":{"city":"SAN JOSE","zip":"95112","number":1380,"addr_2":null,"geo_score":0.427,"st_type":"ST","street":"10TH","id":"a8isx36k2jga","st_prefix":"N","geo_precision":"street"},"type":"Feature","geometry":{"type":"Point","coordinates":[-121.881038,37.340693]}},{"properties":{"city":"SAN JOSE","zip":"95112","number":900,"addr_2":null,"geo_score":0.385,"st_type":"ST","street":"1ST","id":"a8isx38bqn8u","st_prefix":"N","geo_precision":"street"},"type":"Feature","geometry":{"type":"Point","coordinates":[-121.890566,37.336168]}},{"properties":{"city":"SAN JOSE","zip":"95112","number":1174,"addr_2":null,"geo_score":0.653,"st_type":null,"street":"OLD BAYSHORE","id":"a8isx39d04an","st_prefix":null,"geo_precision":"street"},"type":"Feature","geometry":{"type":"Point","coordinates":[-121.896701,37.364688]}},{"properties":{"city":"SAN JOSE","zip":"95112","number":null,"addr_2":"SO 880","geo_score":0.349,"st_type":null,"street":"101","id":"a8isx3d0e7lu","st_prefix":null,"geo_precision":"street"},"type":"Feature","geometry":{"type":"Point","coordinates":[-121.896169,37.363436]}},{"properties":{"city":"SAN JOSE","zip":"95112","number":858,"addr_2":null,"geo_score":0.427,"st_type":"ST","street":"13TH","id":"a8isx3cbr0yc","st_prefix":"N","geo_precision":"street"},"type":"Feature","geometry":{"type":"Point","coordinates":[-121.876734,37.340275]}},{"properties":{"city":"SAN JOSE","zip":"95112","number":1174,"addr_2":null,"geo_score":0.653,"st_type":null,"street":"OLD BAYSHORE","id":"a8isx35qlk79","st_prefix":null,"geo_precision":"street"},"type":"Feature","geometry":{"type":"Point","coordinates":[-121.896701,37.364688]}},{"properties":{"city":"SAN JOSE","zip":"95112","number":1181,"addr_2":null,"geo_score":0.489,"st_type":"RD","street":"OAKLAND","id":"a8isx3bub2rx","st_prefix":null,"geo_precision":"range"},"type":"Feature","geometry":{"type":"Point","coordinates":[-121.892777,37.369528]}},{"properties":{"city":"SAN JOSE","zip":"95112","number":1350,"addr_2":null,"geo_score":0.489,"st_type":"RD","street":"OAKLAND","id":"a8isx3edqwf2","st_prefix":null,"geo_precision":"range"},"type":"Feature","geometry":{"type":"Point","coordinates":[-121.892777,37.369528]}},{"properties":{"city":"SAN JOSE","zip":"95112","number":1174,"addr_2":null,"geo_score":0.653,"st_type":null,"street":"OLD BAYSHORE","id":"a8isx3c091ow","st_prefix":null,"geo_precision":"street"},"type":"Feature","geometry":{"type":"Point","coordinates":[-121.896701,37.364688]}},{"properties":{"city":"SAN JOSE","zip":"95112","number":1174,"addr_2":null,"geo_score":0.653,"st_type":null,"street":"OLD BAYSHORE","id":"a8isx3a1zrej","st_prefix":null,"geo_precision":"street"},"type":"Feature","geometry":{"type":"Point","coordinates":[-121.896701,37.364688]}},{"properties":{"city":"SAN JOSE","zip":"95112","number":null,"addr_2":null,"geo_score":0.427,"st_type":"ST","street":"13TH","id":"a8isx356gq1k","st_prefix":"N","geo_precision":"street"},"type":"Feature","geometry":{"type":"Point","coordinates":[-121.876734,37.340275]}},{"properties":{"city":"SAN JOSE","zip":"95112","number":900,"addr_2":null,"geo_score":0.487,"st_type":"DR","street":"GOLDEN WHEEL PARK","id":"a8isx37qvnv5","st_prefix":null,"geo_precision":"street"},"type":"Feature","geometry":{"type":"Point","coordinates":[-121.990767,37.302108]}},{"properties":{"city":"SAN JOSE","zip":"95112","number":null,"addr_2":null,"geo_score":0.427,"st_type":"ST","street":"13TH","id":"a8isx3g0mise","st_prefix":"N","geo_precision":"street"},"type":"Feature","geometry":{"type":"Point","coordinates":[-121.876734,37.340275]}},{"properties":{"city":"SAN JOSE","zip":"95112","number":1354,"addr_2":null,"geo_score":0.565,"st_type":"ST","street":"TAYLOR","id":"a8isx33zwo88","st_prefix":"E","geo_precision":"street"},"type":"Feature","geometry":{"type":"Point","coordinates":[-121.89914,37.349593]}},{"properties":{"city":"SAN JOSE","zip":"95112","number":611,"addr_2":null,"geo_score":0.653,"st_type":"RD","street":"BERRYESSA","id":"a8isx3h4ujuy","st_prefix":null,"geo_precision":"street"},"type":"Feature","geometry":{"type":"Point","coordinates":[-121.890445,37.360306]}},{"properties":{"city":"SAN JOSE","zip":"95112","number":776,"addr_2":null,"geo_score":0.427,"st_type":"ST","street":"13TH","id":"a8isx3b86yc3","st_prefix":"N","geo_precision":"street"},"type":"Feature","geometry":{"type":"Point","coordinates":[-121.876734,37.340275]}},{"properties":{"city":"SAN JOSE","zip":"95112","number":1410,"addr_2":null,"geo_score":0.427,"st_type":"ST","street":"10TH","id":"a8isx3eo6zou","st_prefix":"N","geo_precision":"street"},"type":"Feature","geometry":{"type":"Point","coordinates":[-121.881038,37.340693]}},{"properties":{"city":"SAN JOSE","zip":"95112","number":718,"addr_2":null,"geo_score":0.653,"st_type":"RD","street":"BERRYESSA","id":"a8isx3a6ek7o","st_prefix":null,"geo_precision":"street"},"type":"Feature","geometry":{"type":"Point","coordinates":[-121.890445,37.360306]}},{"properties":{"city":"SAN JOSE","zip":"95112","number":1410,"addr_2":null,"geo_score":0.427,"st_type":"ST","street":"10TH","id":"a8isx35wj7zl","st_prefix":"N","geo_precision":"street"},"type":"Feature","geometry":{"type":"Point","coordinates":[-121.881038,37.340693]}},{"properties":{"city":"SAN JOSE","zip":"95112","number":1124,"addr_2":null,"geo_score":0.653,"st_type":null,"street":"OLD BAYSHORE","id":"a8isx3cvyedd","st_prefix":null,"geo_precision":"street"},"type":"Feature","geometry":{"type":"Point","coordinates":[-121.896701,37.364688]}},{"properties":{"city":"SAN JOSE","zip":"95112","number":659,"addr_2":null,"geo_score":0.427,"st_type":"ST","street":"12TH","id":"a8isx35jdy98","st_prefix":"N","geo_precision":"street"},"type":"Feature","geometry":{"type":"Point","coordinates":[-121.879054,37.341637]}},{"properties":{"city":"SAN JOSE","zip":"95112","number":660,"addr_2":null,"geo_score":0.522,"st_type":"RD","street":"GISH","id":"a8isx3guquus","st_prefix":"E","geo_precision":"street"},"type":"Feature","geometry":{"type":"Point","coordinates":[-121.909637,37.361737]}},{"properties":{"city":"SAN JOSE","zip":"95112","number":1378,"addr_2":null,"geo_score":0.489,"st_type":"RD","street":"OAKLAND","id":"a8isx38lghia","st_prefix":null,"geo_precision":"range"},"type":"Feature","geometry":{"type":"Point","coordinates":[-121.892777,37.369528]}},{"properties":{"city":"SAN JOSE","zip":"95112","number":1135,"addr_2":null,"geo_score":0.489,"st_type":"RD","street":"OAKLAND","id":"a8isx37fbuzt","st_prefix":null,"geo_precision":"range"},"type":"Feature","geometry":{"type":"Point","coordinates":[-121.892777,37.369528]}},{"properties":{"city":"SAN JOSE","zip":"95112","number":1291,"addr_2":null,"geo_score":0.489,"st_type":"RD","street":"OAKLAND","id":"a8isx3fnhuwz","st_prefix":null,"geo_precision":"range"},"type":"Feature","geometry":{"type":"Point","coordinates":[-121.892777,37.369528]}},{"properties":{"city":"SAN JOSE","zip":"95112","number":967,"addr_2":null,"geo_score":0.617,"st_type":"RD","street":"MABURY","id":"a8isx37crgmd","st_prefix":null,"geo_precision":"street"},"type":"Feature","geometry":{"type":"Point","coordinates":[-121.878627,37.359744]}},{"properties":{"city":"SAN JOSE","zip":"95112","number":null,"addr_2":null,"geo_score":0.488,"st_type":null,"street":"880","id":"a8isx384si3g","st_prefix":null,"geo_precision":"zip"},"type":"Feature","geometry":{"type":"Point","coordinates":[-121.892093,37.37004]}},{"properties":{"city":"SAN JOSE","zip":"95112","number":55,"addr_2":null,"geo_score":0.522,"st_type":"RD","street":"GISH","id":"a8isx3ewbhue","st_prefix":"E","geo_precision":"street"},"type":"Feature","geometry":{"type":"Point","coordinates":[-121.909637,37.361737]}},{"properties":{"city":"SAN JOSE","zip":"95112","number":702,"addr_2":null,"geo_score":0.427,"st_type":"ST","street":"13TH","id":"a8isx3hvojo2","st_prefix":"N","geo_precision":"street"},"type":"Feature","geometry":{"type":"Point","coordinates":[-121.876734,37.340275]}},{"properties":{"city":"SAN JOSE","zip":"95112","number":null,"addr_2":null,"geo_score":0.427,"st_type":"ST","street":"13TH","id":"a8isx3ejrtx8","st_prefix":"N","geo_precision":"street"},"type":"Feature","geometry":{"type":"Point","coordinates":[-121.876734,37.340275]}},{"properties":{"city":"SAN JOSE","zip":"95112","number":540,"addr_2":null,"geo_score":0.581,"st_type":"ST","street":"HEDDING","id":"a8isx3fnxdog","st_prefix":"E","geo_precision":"street"},"type":"Feature","geometry":{"type":"Point","coordinates":[-121.902332,37.353877]}},{"properties":{"city":"SAN JOSE","zip":"95112","number":null,"addr_2":null,"geo_score":0.427,"st_type":"ST","street":"13TH","id":"a8isx3c6igvl","st_prefix":"N","geo_precision":"street"},"type":"Feature","geometry":{"type":"Point","coordinates":[-121.876734,37.340275]}},{"properties":{"city":"SAN JOSE","zip":"95112","number":747,"addr_2":null,"geo_score":0.427,"st_type":"ST","street":"13TH","id":"a8isx39vzp5h","st_prefix":"N","geo_precision":"street"},"type":"Feature","geometry":{"type":"Point","coordinates":[-121.876734,37.340275]}},{"properties":{"city":"SAN JOSE","zip":"95112","number":null,"addr_2":null,"geo_score":0.565,"st_type":"ST","street":"TAYLOR","id":"a8isx3dabsyc","st_prefix":"E","geo_precision":"street"},"type":"Feature","geometry":{"type":"Point","coordinates":[-121.89914,37.349593]}},{"properties":{"city":"SAN JOSE","zip":"95112","number":655,"addr_2":null,"geo_score":0.481,"st_type":"DR","street":"MODERN ICE","id":"a8isx39uti1u","st_prefix":null,"geo_precision":"street"},"type":"Feature","geometry":{"type":"Point","coordinates":[-121.898167,37.287752]}},{"properties":{"city":"SAN JOSE","zip":"95112","number":952,"addr_2":null,"geo_score":0.714,"st_type":null,"street":"PAVILION","id":"a8isx362cyy6","st_prefix":null,"geo_precision":"zip"},"type":"Feature","geometry":{"type":"Point","coordinates":[-121.892093,37.37004]}},{"properties":{"city":"SAN JOSE","zip":"95112","number":610,"addr_2":null,"geo_score":0.581,"st_type":"ST","street":"HEDDING","id":"a8isx3boplr7","st_prefix":"E","geo_precision":"street"},"type":"Feature","geometry":{"type":"Point","coordinates":[-121.902332,37.353877]}},{"properties":{"city":"SAN JOSE","zip":"95112","number":null,"addr_2":null,"geo_score":0.581,"st_type":"ST","street":"HEDDING","id":"a8isx3717vrb","st_prefix":"E","geo_precision":"street"},"type":"Feature","geometry":{"type":"Point","coordinates":[-121.902332,37.353877]}},{"properties":{"city":"SAN JOSE","zip":"95112","number":845,"addr_2":null,"geo_score":0.427,"st_type":"ST","street":"18TH","id":"a8isx3hm6v0p","st_prefix":"N","geo_precision":"street"},"type":"Feature","geometry":{"type":"Point","coordinates":[-121.875636,37.347229]}},{"properties":{"city":"SAN JOSE","zip":"95112","number":812,"addr_2":null,"geo_score":0.427,"st_type":"ST","street":"13TH","id":"a8isx3bfyf87","st_prefix":"N","geo_precision":"street"},"type":"Feature","geometry":{"type":"Point","coordinates":[-121.876734,37.340275]}},{"properties":{"city":"SAN JOSE","zip":"95112","number":798,"addr_2":null,"geo_score":0.617,"st_type":"ST","street":"VESTAL","id":"a8isx3ipfmgb","st_prefix":null,"geo_precision":"street"},"type":"Feature","geometry":{"type":"Point","coordinates":[-121.893062,37.356829]}},{"properties":{"city":"SAN JOSE","zip":"95112","number":null,"addr_2":null,"geo_score":0.349,"st_type":null,"street":"101","id":"a8isx3h3wors","st_prefix":null,"geo_precision":"street"},"type":"Feature","geometry":{"type":"Point","coordinates":[-121.896169,37.363436]}},{"properties":{"city":"SAN JOSE","zip":"95112","number":null,"addr_2":null,"geo_score":0.427,"st_type":"ST","street":"13TH","id":"a8isx3f514f1","st_prefix":"N","geo_precision":"street"},"type":"Feature","geometry":{"type":"Point","coordinates":[-121.876734,37.340275]}},{"properties":{"city":"SAN JOSE","zip":"95112","number":1174,"addr_2":null,"geo_score":0.653,"st_type":null,"street":"OLD BAYSHORE","id":"a8isx3ftnbqj","st_prefix":null,"geo_precision":"street"},"type":"Feature","geometry":{"type":"Point","coordinates":[-121.896701,37.364688]}},{"properties":{"city":"SAN JOSE","zip":"95112","number":775,"addr_2":null,"geo_score":0.427,"st_type":"ST","street":"10TH","id":"a8isx3j2zr26","st_prefix":"N","geo_precision":"street"},"type":"Feature","geometry":{"type":"Point","coordinates":[-121.881038,37.340693]}},{"properties":{"city":"SAN JOSE","zip":"95112","number":997,"addr_2":null,"geo_score":0.427,"st_type":"ST","street":"16TH","id":"a8isx3hqu6xy","st_prefix":"N","geo_precision":"street"},"type":"Feature","geometry":{"type":"Point","coordinates":[-121.876426,37.344899]}},{"properties":{"city":"SAN JOSE","zip":"95112","number":868,"addr_2":null,"geo_score":0.427,"st_type":"ST","street":"14TH","id":"a8isx35mza29","st_prefix":"N","geo_precision":"street"},"type":"Feature","geometry":{"type":"Point","coordinates":[-121.878292,37.344013]}},{"properties":{"city":"SAN JOSE","zip":"95112","number":null,"addr_2":null,"geo_score":0.427,"st_type":"ST","street":"13TH","id":"a8isx36v5abo","st_prefix":"N","geo_precision":"street"},"type":"Feature","geometry":{"type":"Point","coordinates":[-121.876734,37.340275]}},{"properties":{"city":"SAN JOSE","zip":"95112","number":null,"addr_2":null,"geo_score":0.631,"st_type":"ST","street":"CHARLES","id":"a8isx36qjqby","st_prefix":null,"geo_precision":"street"},"type":"Feature","geometry":{"type":"Point","coordinates":[-121.896662,37.365251]}},{"properties":{"city":"SAN JOSE","zip":"95112","number":486,"addr_2":null,"geo_score":0.653,"st_type":"AV","street":"SANTA ANA","id":"a8isx36nto6d","st_prefix":null,"geo_precision":"street"},"type":"Feature","geometry":{"type":"Point","coordinates":[-121.89489,37.359286]}},{"properties":{"city":"SAN JOSE","zip":"95112","number":null,"addr_2":null,"geo_score":0.427,"st_type":"ST","street":"10TH","id":"a8isx350qjue","st_prefix":"N","geo_precision":"street"},"type":"Feature","geometry":{"type":"Point","coordinates":[-121.881038,37.340693]}},{"properties":{"city":"SAN JOSE","zip":"95112","number":516,"addr_2":null,"geo_score":0.565,"st_type":"ST","street":"TAYLOR","id":"a8isx3bv2mts","st_prefix":"E","geo_precision":"street"},"type":"Feature","geometry":{"type":"Point","coordinates":[-121.89914,37.349593]}},{"properties":{"city":"SAN JOSE","zip":"95112","number":null,"addr_2":null,"geo_score":0.714,"st_type":null,"street":null,"id":"a8isx3akd3dy","st_prefix":null,"geo_precision":"zip"},"type":"Feature","geometry":{"type":"Point","coordinates":[-121.892093,37.37004]}},{"properties":{"city":"SAN JOSE","zip":"95112","number":901,"addr_2":null,"geo_score":0.489,"st_type":"RD","street":"OAKLAND","id":"a8isx368msut","st_prefix":null,"geo_precision":"range"},"type":"Feature","geometry":{"type":"Point","coordinates":[-121.892777,37.369528]}},{"properties":{"city":"SAN JOSE","zip":"95112","number":1338,"addr_2":null,"geo_score":0.615,"st_type":"CT","street":"ASPEN LAKE","id":"a8isx3d0suvr","st_prefix":null,"geo_precision":"street"},"type":"Feature","geometry":{"type":"Point","coordinates":[-121.894053,37.384223]}},{"properties":{"city":"SAN JOSE","zip":"95112","number":2151,"addr_2":null,"geo_score":0.489,"st_type":"RD","street":"OAKLAND","id":"a8isx34q6vd5","st_prefix":null,"geo_precision":"range"},"type":"Feature","geometry":{"type":"Point","coordinates":[-121.892777,37.369528]}},{"properties":{"city":"SAN JOSE","zip":"95112","number":2151,"addr_2":null,"geo_score":0.489,"st_type":"RD","street":"OAKLAND","id":"a8isx38125wo","st_prefix":null,"geo_precision":"range"},"type":"Feature","geometry":{"type":"Point","coordinates":[-121.892777,37.369528]}},{"properties":{"city":"SAN JOSE","zip":"95112","number":2151,"addr_2":null,"geo_score":0.489,"st_type":"RD","street":"OAKLAND","id":"a8isx3flrim6","st_prefix":null,"geo_precision":"range"},"type":"Feature","geometry":{"type":"Point","coordinates":[-121.892777,37.369528]}},{"properties":{"city":"SAN JOSE","zip":"95112","number":1248,"addr_2":null,"geo_score":0.46,"st_type":"CL","street":"TEA ROSE","id":"a8isx3jlx6c1","st_prefix":null,"geo_precision":"street"},"type":"Feature","geometry":{"type":"Point","coordinates":[-121.874676,37.352506]}},{"properties":{"city":"SAN JOSE","zip":"95112","number":2390,"addr_2":null,"geo_score":0.571,"st_type":null,"street":"HARRIS","id":"a8isx3439gap","st_prefix":null,"geo_precision":"street"},"type":"Feature","geometry":{"type":"Point","coordinates":[-121.921553,37.279001]}},{"properties":{"city":"SAN JOSE","zip":"95112","number":2151,"addr_2":null,"geo_score":0.489,"st_type":"RD","street":"OAKLAND","id":"a8isx3ar6k0e","st_prefix":null,"geo_precision":"range"},"type":"Feature","geometry":{"type":"Point","coordinates":[-121.892777,37.369528]}},{"properties":{"city":"SAN JOSE","zip":"95112","number":775,"addr_2":null,"geo_score":0.622,"st_type":"DR","street":"RIDDER PARK","id":"a8isx397o6ob","st_prefix":null,"geo_precision":"street"},"type":"Feature","geometry":{"type":"Point","coordinates":[-121.901499,37.378709]}},{"properties":{"city":"SAN JOSE","zip":"95112","number":2151,"addr_2":null,"geo_score":0.489,"st_type":"RD","street":"OAKLAND","id":"a8isx366hcyg","st_prefix":null,"geo_precision":"range"},"type":"Feature","geometry":{"type":"Point","coordinates":[-121.892777,37.369528]}},{"properties":{"city":"SAN JOSE","zip":"95112","number":1045,"addr_2":null,"geo_score":0.565,"st_type":"RD","street":"BROKAW","id":"a8isx3j2opc8","st_prefix":"E","geo_precision":"street"},"type":"Feature","geometry":{"type":"Point","coordinates":[-121.91822,37.373252]}},{"properties":{"city":"SAN JOSE","zip":"95112","number":2151,"addr_2":null,"geo_score":0.489,"st_type":"RD","street":"OAKLAND","id":"a8isx3jxtfk1","st_prefix":null,"geo_precision":"range"},"type":"Feature","geometry":{"type":"Point","coordinates":[-121.892777,37.369528]}},{"properties":{"city":"SAN JOSE","zip":"95112","number":800,"addr_2":null,"geo_score":0.622,"st_type":"DR","street":"RIDDER PARK","id":"a8isx37mi4ne","st_prefix":null,"geo_precision":"street"},"type":"Feature","geometry":{"type":"Point","coordinates":[-121.901499,37.378709]}},{"properties":{"city":"SAN JOSE","zip":"95112","number":2151,"addr_2":null,"geo_score":0.489,"st_type":"RD","street":"OAKLAND","id":"a8isx39gqhg3","st_prefix":null,"geo_precision":"range"},"type":"Feature","geometry":{"type":"Point","coordinates":[-121.892777,37.369528]}},{"properties":{"city":"SAN JOSE","zip":"95112","number":2151,"addr_2":null,"geo_score":0.489,"st_type":"RD","street":"OAKLAND","id":"a8isx3d4863l","st_prefix":null,"geo_precision":"range"},"type":"Feature","geometry":{"type":"Point","coordinates":[-121.892777,37.369528]}},{"properties":{"city":"SAN JOSE","zip":"95112","number":null,"addr_2":null,"geo_score":0.589,"st_type":"DR","street":"ARROYO","id":"a8isx37obktz","st_prefix":null,"geo_precision":"street"},"type":"Feature","geometry":{"type":"Point","coordinates":[-121.873,37.342048]}},{"properties":{"city":"SAN JOSE","zip":"95112","number":1710,"addr_2":null,"geo_score":0.489,"st_type":"RD","street":"OAKLAND","id":"a8isx3en5qba","st_prefix":null,"geo_precision":"range"},"type":"Feature","geometry":{"type":"Point","coordinates":[-121.892777,37.369528]}},{"properties":{"city":"SAN JOSE","zip":"95112","number":2151,"addr_2":null,"geo_score":0.489,"st_type":"RD","street":"OAKLAND","id":"a8isx3en2upk","st_prefix":null,"geo_precision":"range"},"type":"Feature","geometry":{"type":"Point","coordinates":[-121.892777,37.369528]}},{"properties":{"city":"SAN JOSE","zip":"95112","number":null,"addr_2":null,"geo_score":0.714,"st_type":"RD","street":"SCHALLENBERGER","id":"a8isx3bcdr8n","st_prefix":null,"geo_precision":"zip"},"type":"Feature","geometry":{"type":"Point","coordinates":[-121.892093,37.37004]}},{"properties":{"city":"SAN JOSE","zip":"95112","number":921,"addr_2":null,"geo_score":0.286,"st_type":"LN","street":"FOX","id":"a8isx37xw5xq","st_prefix":null,"geo_precision":"street"},"type":"Feature","geometry":{"type":"Point","coordinates":[-122.032257,37.306066]}},{"properties":{"city":"SAN JOSE","zip":"95112","number":1232,"addr_2":null,"geo_score":0.46,"st_type":"CL","street":"TEA ROSE","id":"a8isx33q55hh","st_prefix":null,"geo_precision":"street"},"type":"Feature","geometry":{"type":"Point","coordinates":[-121.874676,37.352506]}},{"properties":{"city":"SAN JOSE","zip":"95112","number":null,"addr_2":null,"geo_score":0.714,"st_type":"RD","street":"SCHALLENBERGER","id":"a8isx3brcrdj","st_prefix":null,"geo_precision":"zip"},"type":"Feature","geometry":{"type":"Point","coordinates":[-121.892093,37.37004]}},{"properties":{"city":"SAN JOSE","zip":"95112","number":2151,"addr_2":null,"geo_score":0.489,"st_type":"RD","street":"OAKLAND","id":"a8isx3c85ul3","st_prefix":null,"geo_precision":"range"},"type":"Feature","geometry":{"type":"Point","coordinates":[-121.892777,37.369528]}},{"properties":{"city":"SAN JOSE","zip":"95112","number":2081,"addr_2":null,"geo_score":0.385,"st_type":"ST","street":"1ST","id":"a8isx3jdtiy0","st_prefix":"N","geo_precision":"street"},"type":"Feature","geometry":{"type":"Point","coordinates":[-121.890566,37.336168]}},{"properties":{"city":"SAN JOSE","zip":"95112","number":1887,"addr_2":null,"geo_score":0.714,"st_type":null,"street":"MATRIX","id":"a8isx39au497","st_prefix":null,"geo_precision":"zip"},"type":"Feature","geometry":{"type":"Point","coordinates":[-121.892093,37.37004]}},{"properties":{"city":"SAN JOSE","zip":"95112","number":null,"addr_2":null,"geo_score":0.571,"st_type":"RD","street":"ZANKER","id":"a8isx3dh8m02","st_prefix":null,"geo_precision":"street"},"type":"Feature","geometry":{"type":"Point","coordinates":[-121.913016,37.372685]}},{"properties":{"city":"SAN JOSE","zip":"95112","number":null,"addr_2":null,"geo_score":0.489,"st_type":"RD","street":"OAKLAND","id":"a8isx346952w","st_prefix":null,"geo_precision":"range"},"type":"Feature","geometry":{"type":"Point","coordinates":[-121.892777,37.369528]}},{"properties":{"city":"SAN JOSE","zip":"95112","number":1801,"addr_2":null,"geo_score":0.617,"st_type":"DR","street":"BERING","id":"a8isx3bty8if","st_prefix":null,"geo_precision":"street"},"type":"Feature","geometry":{"type":"Point","coordinates":[-121.911762,37.373118]}},{"properties":{"city":"SAN JOSE","zip":"95112","number":1744,"addr_2":null,"geo_score":0.643,"st_type":"AV","street":"JUNCTION","id":"a8isx3ju1cxh","st_prefix":null,"geo_precision":"street"},"type":"Feature","geometry":{"type":"Point","coordinates":[-121.904695,37.375389]}},{"properties":{"city":"SAN JOSE","zip":"95112","number":1887,"addr_2":null,"geo_score":0.714,"st_type":null,"street":"MATRIX","id":"a8isx363v1q6","st_prefix":null,"geo_precision":"zip"},"type":"Feature","geometry":{"type":"Point","coordinates":[-121.892093,37.37004]}},{"properties":{"city":"SAN JOSE","zip":"95112","number":1025,"addr_2":null,"geo_score":0.476,"st_type":"DR","street":"MCKAY","id":"a8isx3icf31k","st_prefix":null,"geo_precision":"street"},"type":"Feature","geometry":{"type":"Point","coordinates":[-121.829605,37.258348]}},{"properties":{"city":"SAN JOSE","zip":"95112","number":996,"addr_2":null,"geo_score":0.385,"st_type":"ST","street":"4TH","id":"a8isx3bdsaom","st_prefix":"N","geo_precision":"street"},"type":"Feature","geometry":{"type":"Point","coordinates":[-121.886029,37.335832]}},{"properties":{"city":"SAN JOSE","zip":"95112","number":2110,"addr_2":null,"geo_score":0.571,"st_type":"RD","street":"ZANKER","id":"a8isx3i1z78x","st_prefix":null,"geo_precision":"street"},"type":"Feature","geometry":{"type":"Point","coordinates":[-121.913016,37.372685]}},{"properties":{"city":"SAN JOSE","zip":"95112","number":1610,"addr_2":null,"geo_score":0.599,"st_type":"CT","street":"CRANE","id":"a8isx3fyvld7","st_prefix":null,"geo_precision":"street"},"type":"Feature","geometry":{"type":"Point","coordinates":[-121.914553,37.372792]}},{"properties":{"city":"SAN JOSE","zip":"95112","number":55,"addr_2":null,"geo_score":0.565,"st_type":"RD","street":"BROKAW","id":"a8isx3994p5u","st_prefix":"E","geo_precision":"street"},"type":"Feature","geometry":{"type":"Point","coordinates":[-121.91822,37.373252]}},{"properties":{"city":"SAN JOSE","zip":"95112","number":null,"addr_2":null,"geo_score":0.714,"st_type":null,"street":null,"id":"a8isx3cirhdz","st_prefix":null,"geo_precision":"zip"},"type":"Feature","geometry":{"type":"Point","coordinates":[-121.892093,37.37004]}},{"properties":{"city":"SAN JOSE","zip":"95112","number":null,"addr_2":null,"geo_score":0.714,"st_type":null,"street":null,"id":"a8isx3fk0o18","st_prefix":null,"geo_precision":"zip"},"type":"Feature","geometry":{"type":"Point","coordinates":[-121.892093,37.37004]}},{"properties":{"city":"SAN JOSE","zip":"95112","number":125,"addr_2":null,"geo_score":0.536,"st_type":null,"street":"AIRPORT","id":"a8isx3g9v5v4","st_prefix":null,"geo_precision":"street"},"type":"Feature","geometry":{"type":"Point","coordinates":[-121.923606,37.368453]}},{"properties":{"city":"SAN JOSE","zip":"95112","number":2050,"addr_2":null,"geo_score":0.586,"st_type":"PL","street":"GATEWAY","id":"a8isx39opf9m","st_prefix":null,"geo_precision":"street"},"type":"Feature","geometry":{"type":"Point","coordinates":[-121.925071,37.372074]}},{"properties":{"city":"SAN JOSE","zip":"95112","number":1350,"addr_2":null,"geo_score":0.385,"st_type":"ST","street":"1ST","id":"a8isx35q34pc","st_prefix":"N","geo_precision":"street"},"type":"Feature","geometry":{"type":"Point","coordinates":[-121.890566,37.336168]}},{"properties":{"city":"SAN JOSE","zip":"95112","number":null,"addr_2":null,"geo_score":0.385,"st_type":"ST","street":"1ST","id":"a8isx3in515l","st_prefix":"N","geo_precision":"street"},"type":"Feature","geometry":{"type":"Point","coordinates":[-121.890566,37.336168]}},{"properties":{"city":"SAN JOSE","zip":"95112","number":null,"addr_2":null,"geo_score":0.714,"st_type":null,"street":null,"id":"a8isx3g1tpqh","st_prefix":null,"geo_precision":"zip"},"type":"Feature","geometry":{"type":"Point","coordinates":[-121.892093,37.37004]}},{"properties":{"city":"SAN JOSE","zip":"95112","number":null,"addr_2":null,"geo_score":0.586,"st_type":"DR","street":"SKYPORT","id":"a8isx34epbwx","st_prefix":null,"geo_precision":"street"},"type":"Feature","geometry":{"type":"Point","coordinates":[-121.913556,37.366997]}},{"properties":{"city":"SAN JOSE","zip":"95112","number":1421,"addr_2":null,"geo_score":0.385,"st_type":"ST","street":"1ST","id":"a8isx37vrnpp","st_prefix":"N","geo_precision":"street"},"type":"Feature","geometry":{"type":"Point","coordinates":[-121.890566,37.336168]}},{"properties":{"city":"SAN JOSE","zip":"95112","number":1050,"addr_2":null,"geo_score":0.385,"st_type":"ST","street":"5TH","id":"a8isx3al8p5u","st_prefix":"N","geo_precision":"street"},"type":"Feature","geometry":{"type":"Point","coordinates":[-121.885673,37.337305]}},{"properties":{"city":"SAN JOSE","zip":"95112","number":null,"addr_2":null,"geo_score":0.349,"st_type":null,"street":"101","id":"a8isx3bl06y3","st_prefix":null,"geo_precision":"street"},"type":"Feature","geometry":{"type":"Point","coordinates":[-121.896169,37.363436]}},{"properties":{"city":"SAN JOSE","zip":"95112","number":null,"addr_2":null,"geo_score":0.385,"st_type":"ST","street":"1ST","id":"a8isx3jv4n1v","st_prefix":"N","geo_precision":"street"},"type":"Feature","geometry":{"type":"Point","coordinates":[-121.890566,37.336168]}},{"properties":{"city":"SAN JOSE","zip":"95112","number":null,"addr_2":null,"geo_score":0.465,"st_type":"RP","street":"NB 880 TO NB 101","id":"a8isx3a7dqcf","st_prefix":null,"geo_precision":"street"},"type":"Feature","geometry":{"type":"Point","coordinates":[-121.896169,37.363436]}},{"properties":{"city":"SAN JOSE","zip":"95112","number":1408,"addr_2":null,"geo_score":0.385,"st_type":"ST","street":"1ST","id":"a8isx38ezmmd","st_prefix":"N","geo_precision":"street"},"type":"Feature","geometry":{"type":"Point","coordinates":[-121.890566,37.336168]}},{"properties":{"city":"SAN JOSE","zip":"95112","number":2077,"addr_2":null,"geo_score":0.385,"st_type":"ST","street":"1ST","id":"a8isx3end056","st_prefix":"N","geo_precision":"street"},"type":"Feature","geometry":{"type":"Point","coordinates":[-121.890566,37.336168]}},{"properties":{"city":"SAN JOSE","zip":"95112","number":1801,"addr_2":null,"geo_score":0.617,"st_type":"DR","street":"BERING","id":"a8isx3c1rpn4","st_prefix":null,"geo_precision":"street"},"type":"Feature","geometry":{"type":"Point","coordinates":[-121.911762,37.373118]}},{"properties":{"city":"SAN JOSE","zip":"95112","number":null,"addr_2":null,"geo_score":0.385,"st_type":"ST","street":"1ST","id":"a8isx3bzu21g","st_prefix":"N","geo_precision":"street"},"type":"Feature","geometry":{"type":"Point","coordinates":[-121.890566,37.336168]}},{"properties":{"city":"SAN JOSE","zip":"95112","number":1801,"addr_2":null,"geo_score":0.617,"st_type":"DR","street":"BERING","id":"a8isx39ckyib","st_prefix":null,"geo_precision":"street"},"type":"Feature","geometry":{"type":"Point","coordinates":[-121.911762,37.373118]}},{"properties":{"city":"SAN JOSE","zip":"95112","number":1355,"addr_2":null,"geo_score":0.622,"st_type":"DR","street":"RIDDER PARK","id":"a8isx33lbg2i","st_prefix":null,"geo_precision":"street"},"type":"Feature","geometry":{"type":"Point","coordinates":[-121.901499,37.378709]}},{"properties":{"city":"SAN JOSE","zip":"95112","number":2050,"addr_2":null,"geo_score":0.385,"st_type":"ST","street":"1ST","id":"a8isx3gwaxmh","st_prefix":"N","geo_precision":"street"},"type":"Feature","geometry":{"type":"Point","coordinates":[-121.890566,37.336168]}},{"properties":{"city":"SAN JOSE","zip":"95112","number":2010,"addr_2":null,"geo_score":0.385,"st_type":"ST","street":"1ST","id":"a8isx3cj9n6b","st_prefix":"N","geo_precision":"street"},"type":"Feature","geometry":{"type":"Point","coordinates":[-121.890566,37.336168]}},{"properties":{"city":"SAN JOSE","zip":"95112","number":null,"addr_2":null,"geo_score":0.571,"st_type":"RD","street":"ZANKER","id":"a8isx35ls0x6","st_prefix":null,"geo_precision":"street"},"type":"Feature","geometry":{"type":"Point","coordinates":[-121.913016,37.372685]}},{"properties":{"city":"SAN JOSE","zip":"95112","number":null,"addr_2":null,"geo_score":0.565,"st_type":"RD","street":"BROKAW","id":"a8isx3axq7e6","st_prefix":"E","geo_precision":"street"},"type":"Feature","geometry":{"type":"Point","coordinates":[-121.91822,37.373252]}},{"properties":{"city":"SAN JOSE","zip":"95112","number":1610,"addr_2":null,"geo_score":0.599,"st_type":"CT","street":"CRANE","id":"a8isx34hu1g0","st_prefix":null,"geo_precision":"street"},"type":"Feature","geometry":{"type":"Point","coordinates":[-121.914553,37.372792]}},{"properties":{"city":"SAN JOSE","zip":"95112","number":null,"addr_2":null,"geo_score":0.385,"st_type":"ST","street":"1ST","id":"a8isx3e1vysb","st_prefix":"N","geo_precision":"street"},"type":"Feature","geometry":{"type":"Point","coordinates":[-121.890566,37.336168]}},{"properties":{"city":"SAN JOSE","zip":"95112","number":1003,"addr_2":null,"geo_score":0.653,"st_type":"RD","street":"BERRYESSA","id":"a8isx3gt85fa","st_prefix":null,"geo_precision":"street"},"type":"Feature","geometry":{"type":"Point","coordinates":[-121.890445,37.360306]}},{"properties":{"city":"SAN JOSE","zip":"95112","number":850,"addr_2":null,"geo_score":0.653,"st_type":"CT","street":"FAULSTICH","id":"a8isx3jjwlpe","st_prefix":null,"geo_precision":"street"},"type":"Feature","geometry":{"type":"Point","coordinates":[-121.890388,37.370962]}},{"properties":{"city":"SAN JOSE","zip":"95112","number":1460,"addr_2":null,"geo_score":0.617,"st_type":"AV","street":"TERMINAL","id":"a8isx33le5ac","st_prefix":null,"geo_precision":"street"},"type":"Feature","geometry":{"type":"Point","coordinates":[-121.903384,37.365413]}},{"properties":{"city":"SAN JOSE","zip":"95112","number":1275,"addr_2":null,"geo_score":0.385,"st_type":"ST","street":"4TH","id":"a8isx3iao6e4","st_prefix":"N","geo_precision":"street"},"type":"Feature","geometry":{"type":"Point","coordinates":[-121.886029,37.335832]}},{"properties":{"city":"SAN JOSE","zip":"95112","number":1174,"addr_2":null,"geo_score":0.653,"st_type":null,"street":"OLD BAYSHORE","id":"a8isx3gv9184","st_prefix":null,"geo_precision":"street"},"type":"Feature","geometry":{"type":"Point","coordinates":[-121.896701,37.364688]}},{"properties":{"city":"SAN JOSE","zip":"95112","number":null,"addr_2":null,"geo_score":0.489,"st_type":"RD","street":"OAKLAND","id":"a8isx34bccvr","st_prefix":null,"geo_precision":"range"},"type":"Feature","geometry":{"type":"Point","coordinates":[-121.892777,37.369528]}},{"properties":{"city":"SAN JOSE","zip":"95112","number":1460,"addr_2":null,"geo_score":0.489,"st_type":"RD","street":"OAKLAND","id":"a8isx37kl6uh","st_prefix":null,"geo_precision":"range"},"type":"Feature","geometry":{"type":"Point","coordinates":[-121.892777,37.369528]}},{"properties":{"city":"SAN JOSE","zip":"95112","number":1174,"addr_2":null,"geo_score":0.653,"st_type":null,"street":"OLD BAYSHORE","id":"a8isx3bt1zls","st_prefix":null,"geo_precision":"street"},"type":"Feature","geometry":{"type":"Point","coordinates":[-121.896701,37.364688]}},{"properties":{"city":"SAN JOSE","zip":"95112","number":1202,"addr_2":null,"geo_score":0.489,"st_type":"RD","street":"OAKLAND","id":"a8isx3jwoxw8","st_prefix":null,"geo_precision":"range"},"type":"Feature","geometry":{"type":"Point","coordinates":[-121.892777,37.369528]}},{"properties":{"city":"SAN JOSE","zip":"95112","number":798,"addr_2":null,"geo_score":0.617,"st_type":"ST","street":"VESTAL","id":"a8isx3jyztrq","st_prefix":null,"geo_precision":"street"},"type":"Feature","geometry":{"type":"Point","coordinates":[-121.893062,37.356829]}},{"properties":{"city":"SAN JOSE","zip":"95112","number":580,"addr_2":null,"geo_score":0.631,"st_type":"ST","street":"CHARLES","id":"a8isx3gvn02o","st_prefix":null,"geo_precision":"street"},"type":"Feature","geometry":{"type":"Point","coordinates":[-121.896662,37.365251]}},{"properties":{"city":"SAN JOSE","zip":"95112","number":1003,"addr_2":null,"geo_score":0.653,"st_type":"RD","street":"BERRYESSA","id":"a8isx384bljx","st_prefix":null,"geo_precision":"street"},"type":"Feature","geometry":{"type":"Point","coordinates":[-121.890445,37.360306]}},{"properties":{"city":"SAN JOSE","zip":"95112","number":1555,"addr_2":null,"geo_score":0.617,"st_type":"DR","street":"BERGER","id":"a8isx3iyfevw","st_prefix":null,"geo_precision":"street"},"type":"Feature","geometry":{"type":"Point","coordinates":[-121.897067,37.369688]}},{"properties":{"city":"SAN JOSE","zip":"95112","number":1155,"addr_2":null,"geo_score":0.617,"st_type":"RD","street":"MABURY","id":"a8isx33u4jqp","st_prefix":null,"geo_precision":"street"},"type":"Feature","geometry":{"type":"Point","coordinates":[-121.878627,37.359744]}},{"properties":{"city":"SAN JOSE","zip":"95112","number":1291,"addr_2":null,"geo_score":0.489,"st_type":"RD","street":"OAKLAND","id":"a8isx367e0mh","st_prefix":null,"geo_precision":"range"},"type":"Feature","geometry":{"type":"Point","coordinates":[-121.892777,37.369528]}},{"properties":{"city":"SAN JOSE","zip":"95112","number":580,"addr_2":null,"geo_score":0.631,"st_type":"ST","street":"CHARLES","id":"a8isx36oqhdq","st_prefix":null,"geo_precision":"street"},"type":"Feature","geometry":{"type":"Point","coordinates":[-121.896662,37.365251]}}],"is_temporal":false,"author":{"url":"","metadata":"","contact_name":"","contact_address":"","source":"","contact_phone":""},"source":"","pagination":{"sort":null,"start":0,"total":178,"limit":1000000},"state":"complete","tags":"","published":"2014-08-14T19:35:58-04:00","id":273619}