{"type":"FeatureCollection","data_type":"Dataset","url_type":null,"permissions":[{"permissions":{"download":true,"view":true},"group_id":"everyone"}],"classification":null,"title":"Maker_Suppliers_Handled_by_Protrans_in_Memphis","count":18,"stream_id":274766,"contributor":{"url":"http://geocommons.com/users/6861","name":"pbiegen"},"data_attributes":null,"calculation_params":null,"icon_link":null,"link":"http://geocommons.com/overlays/274766.json","extent":[-96.8902,25.8267,-80.2815,42.9754],"geometry_types":["point"],"unique_name":null,"name":"Maker_Suppliers_Handled_by_Protrans_in_Memphis","feature_count":18,"description":"","next_feature":null,"is_raster":false,"short_classification":"Y","stats":{"latitude":{"max":42.975375,"variance":25.0189861262577,"mean":35.6879775,"stdev":5.00189825228959,"min":25.826745,"median":35.95763},"weight":{"max":42347,"variance":98356606.0555555,"mean":5709.94444444444,"stdev":9917.48990700548,"min":197,"median":1833},"longitude":{"max":-80.281494,"variance":20.9301578978324,"mean":-86.8275461666667,"stdev":4.57494895029796,"min":-96.890229,"median":-86.534244}},"features":[{"properties":{"name":"AAA COATINGS","city":"SMITHVILLE","latitude":35.95763,"weight":11000,"longitude":-85.817289,"id":"a8mowtizbpsp","state":"TN"},"type":"Feature","geometry":{"type":"Point","coordinates":[-85.817289,35.95763]}},{"properties":{"name":"COATS NORTH AMERICA","city":"MARION","latitude":35.684314,"weight":869,"longitude":-82.008388,"id":"a8mowtodcmvc","state":"NC"},"type":"Feature","geometry":{"type":"Point","coordinates":[-82.008388,35.684314]}},{"properties":{"name":"CONTINENTAL MIDLAND","city":"PARK FOREST","latitude":41.481741,"weight":42347,"longitude":-87.681043,"id":"a8mowtmkc531","state":"IL"},"type":"Feature","geometry":{"type":"Point","coordinates":[-87.681043,41.481741]}},{"properties":{"name":"D R TECH","city":"CAROL STREAM","latitude":41.916055,"weight":680,"longitude":-88.120559,"id":"a8mowtb21tut","state":"IL"},"type":"Feature","geometry":{"type":"Point","coordinates":[-88.120559,41.916055]}},{"properties":{"name":"ELANTAS PDG INC","city":"ST LOUIS","latitude":38.62774,"weight":541,"longitude":-90.199514,"id":"a8mowtbl3g9h","state":"MO"},"type":"Feature","geometry":{"type":"Point","coordinates":[-90.199514,38.62774]}},{"properties":{"name":"ELLSWORTH ADHESIVES","city":"CARROLLTON","latitude":32.975555,"weight":1723,"longitude":-96.890229,"id":"a8mowtpo9sec","state":"TX"},"type":"Feature","geometry":{"type":"Point","coordinates":[-96.890229,32.975555]}},{"properties":{"name":"FLEXIBLE METAL PRODUCTS","city":"MOUNT JULIET","latitude":36.195248,"weight":2314,"longitude":-86.518582,"id":"a8mowtpxowan","state":"TN"},"type":"Feature","geometry":{"type":"Point","coordinates":[-86.518582,36.195248]}},{"properties":{"name":"FORTRESS FORMS","city":"NEW BERLIN","latitude":42.975375,"weight":1183,"longitude":-88.118559,"id":"a8mowthhv0a8","state":"WI"},"type":"Feature","geometry":{"type":"Point","coordinates":[-88.118559,42.975375]}},{"properties":{"name":"GIBBS DIE CASTING","city":"HENDERSON","latitude":37.8299,"weight":11447,"longitude":-87.597034,"id":"a8mowtmlrzny","state":"KY"},"type":"Feature","geometry":{"type":"Point","coordinates":[-87.597034,37.8299]}},{"properties":{"name":"GRINER ENGINEERING INC","city":"BLOOMINGTON","latitude":39.16659,"weight":1168,"longitude":-86.534244,"id":"a8mowtp07ov4","state":"IN"},"type":"Feature","geometry":{"type":"Point","coordinates":[-86.534244,39.16659]}},{"properties":{"name":"INDUSTRIAL ELECTRIC WIRE","city":"PLANO","latitude":33.020795,"weight":1833,"longitude":-96.699214,"id":"a8mowtq8spzm","state":"TX"},"type":"Feature","geometry":{"type":"Point","coordinates":[-96.699214,33.020795]}},{"properties":{"name":"KEY SAFETY SYSTEMS #44","city":"GREENVILLE","latitude":31.829446,"weight":9833,"longitude":-86.633489,"id":"a8mowtdqcbsd","state":"AL"},"type":"Feature","geometry":{"type":"Point","coordinates":[-86.633489,31.829446]}},{"properties":{"name":"MILLIKEN CO","city":"LAGRANGE","latitude":33.041415,"weight":4496,"longitude":-85.031084,"id":"a8mowtc3fipr","state":"GA"},"type":"Feature","geometry":{"type":"Point","coordinates":[-85.031084,33.041415]}},{"properties":{"name":"MILLIKEN MCCORMICK PLANT","city":"MCCORMICK","latitude":33.912425,"weight":2965,"longitude":-82.294284,"id":"a8mowtm5cvyc","state":"SC"},"type":"Feature","geometry":{"type":"Point","coordinates":[-82.294284,33.912425]}},{"properties":{"name":"MJ CELCO INC","city":"SCHILLER PARK","latitude":41.95494,"weight":8354,"longitude":-87.866929,"id":"a8mowtn07yea","state":"IL"},"type":"Feature","geometry":{"type":"Point","coordinates":[-87.866929,41.95494]}},{"properties":{"name":"NATIONAL MOLDING LLC","city":"MIAMI LAKES","latitude":25.912311,"weight":197,"longitude":-80.309342,"id":"a8mowtkuyxil","state":"FL"},"type":"Feature","geometry":{"type":"Point","coordinates":[-80.309342,25.912311]}},{"properties":{"name":"SECURITY PLASTICS INC","city":"HIALEAH","latitude":25.826745,"weight":429,"longitude":-80.281494,"id":"a8mowtopts57","state":"FL"},"type":"Feature","geometry":{"type":"Point","coordinates":[-80.281494,25.826745]}},{"properties":{"name":"XT RACING","city":"ALPHARETTA","latitude":34.07537,"weight":1400,"longitude":-84.294554,"id":"a8mowtlolsqr","state":"GA"},"type":"Feature","geometry":{"type":"Point","coordinates":[-84.294554,34.07537]}}],"is_temporal":false,"author":{"url":"","metadata":null,"contact_name":null,"contact_address":null,"source":null,"contact_phone":null},"source":"","pagination":{"sort":null,"start":0,"total":18,"limit":1000000},"state":"complete","tags":"","published":"2014-08-14T21:23:49-04:00","id":274766}