{"type":"FeatureCollection","data_type":"Dataset","url_type":null,"permissions":[{"permissions":{"download":true,"view":true},"group_id":"everyone"}],"classification":null,"title":"Maker_Suppliers_Handled_by_Protrans_in_El_Paso","count":5,"stream_id":274763,"contributor":{"url":"http://geocommons.com/users/6861","name":"pbiegen"},"data_attributes":null,"calculation_params":null,"icon_link":null,"link":"http://geocommons.com/overlays/274763.json","extent":[-117.648,29.3662,-80.0725,36.1195],"geometry_types":["point"],"unique_name":null,"name":"Maker_Suppliers_Handled_by_Protrans_in_El_Paso","feature_count":5,"description":"","next_feature":null,"is_raster":false,"short_classification":"Y","stats":{"latitude":{"max":36.119525,"variance":6.56475165255081,"mean":32.6312146,"stdev":2.56217713137691,"min":29.366245,"median":31.846563},"weight":{"max":178470,"variance":5955829651.0,"mean":41137.0,"stdev":77174.0218661695,"min":210,"median":7153},"longitude":{"max":-80.072514,"variance":191.961715384075,"mean":-102.3468752,"stdev":13.855024914596,"min":-117.648099,"median":-106.487494}},"features":[{"properties":{"name":"D A INC","city":"SANTA TERESA","latitude":31.846563,"weight":210,"longitude":-106.62809,"id":"a8mou081be47","state":"NM"},"type":"Feature","geometry":{"type":"Point","coordinates":[-106.62809,31.846563]}},{"properties":{"name":"HIGHLAND INDUSTRIES","city":"KERNERSVILLE","latitude":36.119525,"weight":19538,"longitude":-80.072514,"id":"a8mou0cparjy","state":"NC"},"type":"Feature","geometry":{"type":"Point","coordinates":[-80.072514,36.119525]}},{"properties":{"name":"D D MANUFACTURING, DELFINGEN, ELLIOT GROUP INTERNATIONA, FCI USA INC C O BROKER L, LEGGET PLAT AUTOMOTIVE, PANALPINA INC CISCO 370, REGENCY PLASTICS HENRY B","city":"EL PASO","latitude":31.759165,"weight":178470,"longitude":-106.487494,"id":"a8mou08o3g79","state":"TX"},"type":"Feature","geometry":{"type":"Point","coordinates":[-106.487494,31.759165]}},{"properties":{"name":"TYCO ELECTRONICS","city":"ONTARIO","latitude":34.064575,"weight":314,"longitude":-117.648099,"id":"a8mou0atc9nn","state":"CA"},"type":"Feature","geometry":{"type":"Point","coordinates":[-117.648099,34.064575]}},{"properties":{"name":"WET AUTOMOTIVE SYSTEMS","city":"DEL RIO","latitude":29.366245,"weight":7153,"longitude":-100.898179,"id":"a8mou0enpzvx","state":"TX"},"type":"Feature","geometry":{"type":"Point","coordinates":[-100.898179,29.366245]}}],"is_temporal":false,"author":{"url":"","metadata":null,"contact_name":null,"contact_address":null,"source":null,"contact_phone":null},"source":"","pagination":{"sort":null,"start":0,"total":5,"limit":1000000},"state":"complete","tags":"","published":"2014-08-14T21:23:49-04:00","id":274763}