{"type":"FeatureCollection","data_type":"Dataset","url_type":null,"permissions":[{"permissions":{"download":true,"view":true},"group_id":"everyone"}],"classification":null,"title":"2010 Primary mail-in ballots (Dem)","count":185,"stream_id":274804,"contributor":{"url":"http://geocommons.com/users/51793","name":"BegumMiniel"},"data_attributes":null,"calculation_params":null,"icon_link":null,"link":"http://geocommons.com/overlays/274804.json","extent":[-98.2772,25.907,-97.4625,26.2349],"geometry_types":["point"],"unique_name":null,"name":"2010 Primary mail-in ballots (Dem)","feature_count":185,"description":"Democrat primary 2010 mail in ballots countywide","next_feature":null,"is_raster":false,"short_classification":"Y","stats":{},"features":[{"properties":{"city":"RANCHO VIEJO","zip":"78575","geo_score":0.927,"id":"a8n940a9z0z3","address":"316   ESCANDON AVE","geo_precision":"range","state":"TX"},"type":"Feature","geometry":{"type":"Point","coordinates":[-97.560586,26.027966]}},{"properties":{"city":"BROWNSVILLE","zip":"78521","geo_score":0.87,"id":"a8n940n4r04i","address":"24   LINDALE DR APT 321","geo_precision":"range","state":"TX"},"type":"Feature","geometry":{"type":"Point","coordinates":[-97.48608,25.92958]}},{"properties":{"city":"BROWNSVILLE","zip":"78521","geo_score":1.0,"id":"a8n940flry5t","address":"2455   EASTERN BLVD","geo_precision":"range","state":"TX"},"type":"Feature","geometry":{"type":"Point","coordinates":[-97.484146,25.924687]}},{"properties":{"city":"BROWNSVILLE","zip":"78521","geo_score":1.0,"id":"a8n940o8liif","address":"354   CEDAR ST","geo_precision":"range","state":"TX"},"type":"Feature","geometry":{"type":"Point","coordinates":[-97.4828,25.926077]}},{"properties":{"city":"BROWNSVILLE","zip":"78521","geo_score":0.979,"id":"a8n940l2rjig","address":"315   MCDAVITT BLVD","geo_precision":"range","state":"TX"},"type":"Feature","geometry":{"type":"Point","coordinates":[-97.483561,25.916558]}},{"properties":{"city":"BROWNSVILLE","zip":"78521","geo_score":0.87,"id":"a8n940pgkgol","address":"24   LINDALE DR APT 536","geo_precision":"range","state":"TX"},"type":"Feature","geometry":{"type":"Point","coordinates":[-97.48608,25.92958]}},{"properties":{"city":"BROWNSVILLE","zip":"78520","geo_score":1.0,"id":"a8n940hmtiyj","address":"1545  W SAINT CHARLES ST","geo_precision":"range","state":"TX"},"type":"Feature","geometry":{"type":"Point","coordinates":[-97.519738,25.918651]}},{"properties":{"city":"BROWNSVILLE","zip":"78520","geo_score":1.0,"id":"a8n940deiddk","address":"1545  W SAINT CHARLES ST","geo_precision":"range","state":"TX"},"type":"Feature","geometry":{"type":"Point","coordinates":[-97.519738,25.918651]}},{"properties":{"city":"BROWNSVILLE","zip":"78520","geo_score":1.0,"id":"a8n940kf6veo","address":"304  N PARK DR","geo_precision":"range","state":"TX"},"type":"Feature","geometry":{"type":"Point","coordinates":[-97.519576,25.911924]}},{"properties":{"city":"BROWNSVILLE","zip":"78520","geo_score":1.0,"id":"a8n940qcb39k","address":"304  N PARK DR","geo_precision":"range","state":"TX"},"type":"Feature","geometry":{"type":"Point","coordinates":[-97.519576,25.911924]}},{"properties":{"city":"BROWNSVILLE","zip":"78520","geo_score":1.0,"id":"a8n940cvwsjx","address":"304  N PARK DR","geo_precision":"range","state":"TX"},"type":"Feature","geometry":{"type":"Point","coordinates":[-97.519576,25.911924]}},{"properties":{"city":"BROWNSVILLE","zip":"78520","geo_score":1.0,"id":"a8n940hjag99","address":"1243  W ELIZABETH ST","geo_precision":"range","state":"TX"},"type":"Feature","geometry":{"type":"Point","coordinates":[-97.516105,25.917703]}},{"properties":{"city":"BROWNSVILLE","zip":"78520","geo_score":1.0,"id":"a8n940ki8zf9","address":"914  W SAINT FRANCIS ST","geo_precision":"range","state":"TX"},"type":"Feature","geometry":{"type":"Point","coordinates":[-97.515925,25.914003]}},{"properties":{"city":"BROWNSVILLE","zip":"78520","geo_score":1.0,"id":"a8n940mousyt","address":"1435   BROWNFIELD RD","geo_precision":"range","state":"TX"},"type":"Feature","geometry":{"type":"Point","coordinates":[-97.512236,25.929098]}},{"properties":{"city":"BROWNSVILLE","zip":"78520","geo_score":1.0,"id":"a8n940p5pze0","address":"123  S CORIA ST","geo_precision":"range","state":"TX"},"type":"Feature","geometry":{"type":"Point","coordinates":[-97.508787,25.920206]}},{"properties":{"city":"BROWNSVILLE","zip":"78520","geo_score":1.0,"id":"a8n940h6kkaq","address":"614  W WASHINGTON ST","geo_precision":"range","state":"TX"},"type":"Feature","geometry":{"type":"Point","coordinates":[-97.510333,25.91376]}},{"properties":{"city":"BROWNSVILLE","zip":"78520","geo_score":0.916,"id":"a8n940dzgx9w","address":"301  E WASHINGTON ST APT 5","geo_precision":"range","state":"TX"},"type":"Feature","geometry":{"type":"Point","coordinates":[-97.50316,25.906958]}},{"properties":{"city":"BROWNSVILLE","zip":"78520","geo_score":1.0,"id":"a8n940c1dnii","address":"735   VILLA MARIA BLVD","geo_precision":"range","state":"TX"},"type":"Feature","geometry":{"type":"Point","coordinates":[-97.509926,25.915443]}},{"properties":{"city":"BROWNSVILLE","zip":"78520","geo_score":1.0,"id":"a8n940jb5dd0","address":"123  S CORIA ST","geo_precision":"range","state":"TX"},"type":"Feature","geometry":{"type":"Point","coordinates":[-97.508787,25.920206]}},{"properties":{"city":"BROWNSVILLE","zip":"78520","geo_score":1.0,"id":"a8n940j1soee","address":"138  E MONROE ST","geo_precision":"range","state":"TX"},"type":"Feature","geometry":{"type":"Point","coordinates":[-97.50216,25.910979]}},{"properties":{"city":"BROWNSVILLE","zip":"78520","geo_score":1.0,"id":"a8n940l5oe8e","address":"138  E MONROE ST","geo_precision":"range","state":"TX"},"type":"Feature","geometry":{"type":"Point","coordinates":[-97.50216,25.910979]}},{"properties":{"city":"BROWNSVILLE","zip":"78520","geo_score":1.0,"id":"a8n940e2wk8l","address":"138  E MONROE ST","geo_precision":"range","state":"TX"},"type":"Feature","geometry":{"type":"Point","coordinates":[-97.50216,25.910979]}},{"properties":{"city":"BROWNSVILLE","zip":"78520","geo_score":1.0,"id":"a8n940irn2gn","address":"138  E MONROE ST","geo_precision":"range","state":"TX"},"type":"Feature","geometry":{"type":"Point","coordinates":[-97.50216,25.910979]}},{"properties":{"city":"BROWNSVILLE","zip":"78521","geo_score":0.772,"id":"a8n940kltnup","address":"1657  E LOS EBANOS BLVD","geo_precision":"street","state":"TX"},"type":"Feature","geometry":{"type":"Point","coordinates":[-97.49091,25.928171]}},{"properties":{"city":"BROWNSVILLE","zip":"78521","geo_score":0.772,"id":"a8n940hu7wkl","address":"1657  E LOS EBANOS BLVD","geo_precision":"street","state":"TX"},"type":"Feature","geometry":{"type":"Point","coordinates":[-97.49091,25.928171]}},{"properties":{"city":"BROWNSVILLE","zip":"78520","geo_score":1.0,"id":"a8n940k5738u","address":"1707   VILLANOVA AVE","geo_precision":"range","state":"TX"},"type":"Feature","geometry":{"type":"Point","coordinates":[-97.492154,25.924446]}},{"properties":{"city":"BROWNSVILLE","zip":"78520","geo_score":1.0,"id":"a8n940p764f1","address":"1707   VILLANOVA AVE","geo_precision":"range","state":"TX"},"type":"Feature","geometry":{"type":"Point","coordinates":[-97.492154,25.924446]}},{"properties":{"city":"BROWNSVILLE","zip":"78520","geo_score":1.0,"id":"a8n940g4mlpv","address":"1535   HARVARD AVE","geo_precision":"range","state":"TX"},"type":"Feature","geometry":{"type":"Point","coordinates":[-97.50052,25.93015]}},{"properties":{"city":"BROWNSVILLE","zip":"78520","geo_score":1.0,"id":"a8n940m695y7","address":"1535   HARVARD AVE","geo_precision":"range","state":"TX"},"type":"Feature","geometry":{"type":"Point","coordinates":[-97.50052,25.93015]}},{"properties":{"city":"BROWNSVILLE","zip":"78521","geo_score":0.772,"id":"a8n940hdu5bw","address":"1663  E LOS EBANOS BLVD","geo_precision":"street","state":"TX"},"type":"Feature","geometry":{"type":"Point","coordinates":[-97.49091,25.928171]}},{"properties":{"city":"BROWNSVILLE","zip":"78521","geo_score":0.772,"id":"a8n940n2v7wm","address":"1663  E LOS EBANOS BLVD","geo_precision":"street","state":"TX"},"type":"Feature","geometry":{"type":"Point","coordinates":[-97.49091,25.928171]}},{"properties":{"city":"BROWNSVILLE","zip":"78520","geo_score":1.0,"id":"a8n940ekfn7m","address":"1661   TULANE AVE","geo_precision":"range","state":"TX"},"type":"Feature","geometry":{"type":"Point","coordinates":[-97.496974,25.928854]}},{"properties":{"city":"BROWNSVILLE","zip":"78520","geo_score":1.0,"id":"a8n940e1ordj","address":"79   YORK DR","geo_precision":"range","state":"TX"},"type":"Feature","geometry":{"type":"Point","coordinates":[-97.497659,25.913916]}},{"properties":{"city":"BROWNSVILLE","zip":"78520","geo_score":1.0,"id":"a8n940jo4qqh","address":"79   YORK DR","geo_precision":"range","state":"TX"},"type":"Feature","geometry":{"type":"Point","coordinates":[-97.497659,25.913916]}},{"properties":{"city":"BROWNSVILLE","zip":"78520","geo_score":1.0,"id":"a8n940cfw9h3","address":"203   SUNSET DR","geo_precision":"range","state":"TX"},"type":"Feature","geometry":{"type":"Point","coordinates":[-97.494221,25.920313]}},{"properties":{"city":"BROWNSVILLE","zip":"78520","geo_score":1.0,"id":"a8n940kbbzv4","address":"79   YORK DR","geo_precision":"range","state":"TX"},"type":"Feature","geometry":{"type":"Point","coordinates":[-97.497659,25.913916]}},{"properties":{"city":"BROWNSVILLE","zip":"78520","geo_score":1.0,"id":"a8n940logpew","address":"1180   TOYA LN","geo_precision":"range","state":"TX"},"type":"Feature","geometry":{"type":"Point","coordinates":[-97.505849,25.922681]}},{"properties":{"city":"BROWNSVILLE","zip":"78520","geo_score":0.87,"id":"a8n940ojl3e7","address":"2425   BARNARD RD APT 13D","geo_precision":"range","state":"TX"},"type":"Feature","geometry":{"type":"Point","coordinates":[-97.503222,25.936125]}},{"properties":{"city":"BROWNSVILLE","zip":"78520","geo_score":0.691,"id":"a8n940hdnh71","address":"2575   RUSSELL AVE APT 5D","geo_precision":"street","state":"TX"},"type":"Feature","geometry":{"type":"Point","coordinates":[-97.513669,25.926173]}},{"properties":{"city":"BROWNSVILLE","zip":"78520","geo_score":0.682,"id":"a8n940eb92ey","address":"2575   RUSSELL AVE APT 15A","geo_precision":"street","state":"TX"},"type":"Feature","geometry":{"type":"Point","coordinates":[-97.513669,25.926173]}},{"properties":{"city":"BROWNSVILLE","zip":"78520","geo_score":0.902,"id":"a8n940a6wzj9","address":"2041   CENTRAL BLVD APT C","geo_precision":"range","state":"TX"},"type":"Feature","geometry":{"type":"Point","coordinates":[-97.510639,25.933389]}},{"properties":{"city":"BROWNSVILLE","zip":"78520","geo_score":0.87,"id":"a8n940csggyz","address":"2425   BARNARD RD APT 11C","geo_precision":"range","state":"TX"},"type":"Feature","geometry":{"type":"Point","coordinates":[-97.503222,25.936125]}},{"properties":{"city":"BROWNSVILLE","zip":"78520","geo_score":0.89,"id":"a8n940m7qkem","address":"2425   BARNARD RD APT D7","geo_precision":"range","state":"TX"},"type":"Feature","geometry":{"type":"Point","coordinates":[-97.503222,25.936125]}},{"properties":{"city":"BROWNSVILLE","zip":"78520","geo_score":0.879,"id":"a8n940iu7gxq","address":"2425   BARNARD RD APT 4C","geo_precision":"range","state":"TX"},"type":"Feature","geometry":{"type":"Point","coordinates":[-97.503222,25.936125]}},{"properties":{"city":"BROWNSVILLE","zip":"78520","geo_score":0.879,"id":"a8n940lspwcg","address":"2575   RUSSELL DR APT 5A","geo_precision":"range","state":"TX"},"type":"Feature","geometry":{"type":"Point","coordinates":[-97.512414,25.936782]}},{"properties":{"city":"BROWNSVILLE","zip":"78520","geo_score":0.861,"id":"a8n940jshtpw","address":"301   HORIZON LN APT 1301","geo_precision":"range","state":"TX"},"type":"Feature","geometry":{"type":"Point","coordinates":[-97.513925,25.935938]}},{"properties":{"city":"BROWNSVILLE","zip":"78520","geo_score":0.854,"id":"a8n940nuz7gj","address":"1025   WILDROSE LN APT 703C","geo_precision":"range","state":"TX"},"type":"Feature","geometry":{"type":"Point","coordinates":[-97.502919,25.938653]}},{"properties":{"city":"BROWNSVILLE","zip":"78520","geo_score":1.0,"id":"a8n940olicym","address":"276   SWEET ROSE CT","geo_precision":"range","state":"TX"},"type":"Feature","geometry":{"type":"Point","coordinates":[-97.513813,25.964034]}},{"properties":{"city":"BROWNSVILLE","zip":"78520","geo_score":0.854,"id":"a8n940en4c5f","address":"3375   MCALLEN RD APT 204","geo_precision":"range","state":"TX"},"type":"Feature","geometry":{"type":"Point","coordinates":[-97.514265,25.963136]}},{"properties":{"city":"BROWNSVILLE","zip":"78520","geo_score":1.0,"id":"a8n940qdzr4e","address":"4505   LAKEWAY DR","geo_precision":"range","state":"TX"},"type":"Feature","geometry":{"type":"Point","coordinates":[-97.535219,25.9748]}},{"properties":{"city":"BROWNSVILLE","zip":"78520","geo_score":0.724,"id":"a8n940pzh9hs","address":"3385   MCALLEN RD APT 5702","geo_precision":"range","state":"TX"},"type":"Feature","geometry":{"type":"Point","coordinates":[-97.51417,25.963244]}},{"properties":{"city":"BROWNSVILLE","zip":"78520","geo_score":0.973,"id":"a8n940nbjex5","address":"2555   MCALLEN RD","geo_precision":"range","state":"TX"},"type":"Feature","geometry":{"type":"Point","coordinates":[-97.515312,25.955092]}},{"properties":{"city":"BROWNSVILLE","zip":"78520","geo_score":1.0,"id":"a8n940lmwxew","address":"1274   SANDY HILL DR","geo_precision":"range","state":"TX"},"type":"Feature","geometry":{"type":"Point","coordinates":[-97.531792,25.977807]}},{"properties":{"city":"BROWNSVILLE","zip":"78520","geo_score":0.846,"id":"a8n940j9csvs","address":"3375   MCALLEN RD APT 1301","geo_precision":"range","state":"TX"},"type":"Feature","geometry":{"type":"Point","coordinates":[-97.514265,25.963136]}},{"properties":{"city":"BROWNSVILLE","zip":"78520","geo_score":1.0,"id":"a8n940gqg7w8","address":"276   SWEET ROSE CT","geo_precision":"range","state":"TX"},"type":"Feature","geometry":{"type":"Point","coordinates":[-97.513813,25.964034]}},{"properties":{"city":"BROWNSVILLE","zip":"78520","geo_score":0.415,"id":"a8n940hpgzpf","address":"2749   MALTA ST","geo_precision":"street","state":"TX"},"type":"Feature","geometry":{"type":"Point","coordinates":[-98.277193,26.234911]}},{"properties":{"city":"BROWNSVILLE","zip":"78520","geo_score":0.805,"id":"a8n940m4b88v","address":"3585   TORRES RD","geo_precision":"street","state":"TX"},"type":"Feature","geometry":{"type":"Point","coordinates":[-97.552259,25.959035]}},{"properties":{"city":"BROWNSVILLE","zip":"78520","geo_score":0.498,"id":"a8n940qev01s","address":"3897   OLD HIGHWAY 77  APT 1-A","geo_precision":"street","state":"TX"},"type":"Feature","geometry":{"type":"Point","coordinates":[-97.517907,25.978545]}},{"properties":{"city":"BROWNSVILLE","zip":"78520","geo_score":1.0,"id":"a8n940pbefwk","address":"2414   LA FERIA RD","geo_precision":"range","state":"TX"},"type":"Feature","geometry":{"type":"Point","coordinates":[-97.518529,25.95312]}},{"properties":{"city":"BROWNSVILLE","zip":"78520","geo_score":1.0,"id":"a8n940qi554g","address":"111   TARA PL","geo_precision":"range","state":"TX"},"type":"Feature","geometry":{"type":"Point","coordinates":[-97.519775,25.952209]}},{"properties":{"city":"BROWNSVILLE","zip":"78520","geo_score":0.859,"id":"a8n940bg4g1r","address":"420   RUBEN M TORRES BLVD APT 221","geo_precision":"range","state":"TX"},"type":"Feature","geometry":{"type":"Point","coordinates":[-97.525336,25.945364]}},{"properties":{"city":"BROWNSVILLE","zip":"78520","geo_score":1.0,"id":"a8n940q8qdlh","address":"104   APPLEWOOD ST","geo_precision":"range","state":"TX"},"type":"Feature","geometry":{"type":"Point","coordinates":[-97.517792,25.955767]}},{"properties":{"city":"BROWNSVILLE","zip":"78520","geo_score":1.0,"id":"a8n940ch6pun","address":"104   APPLEWOOD ST","geo_precision":"range","state":"TX"},"type":"Feature","geometry":{"type":"Point","coordinates":[-97.517792,25.955767]}},{"properties":{"city":"BROWNSVILLE","zip":"78520","geo_score":1.0,"id":"a8n940kycemy","address":"104   APPLEWOOD ST","geo_precision":"range","state":"TX"},"type":"Feature","geometry":{"type":"Point","coordinates":[-97.517792,25.955767]}},{"properties":{"city":"BROWNSVILLE","zip":"78526","geo_score":1.0,"id":"a8n940i7qoxx","address":"440   WINDWOOD WAY","geo_precision":"range","state":"TX"},"type":"Feature","geometry":{"type":"Point","coordinates":[-97.509477,25.978666]}},{"properties":{"city":"BROWNSVILLE","zip":"78526","geo_score":1.0,"id":"a8n940aatytk","address":"440   WINDWOOD WAY","geo_precision":"range","state":"TX"},"type":"Feature","geometry":{"type":"Point","coordinates":[-97.509477,25.978666]}},{"properties":{"city":"BROWNSVILLE","zip":"78526","geo_score":1.0,"id":"a8n940e7s6ov","address":"1459   VENTURA DR","geo_precision":"range","state":"TX"},"type":"Feature","geometry":{"type":"Point","coordinates":[-97.493582,25.974881]}},{"properties":{"city":"BROWNSVILLE","zip":"78526","geo_score":0.464,"id":"a8n940dxkzd7","address":"4780   CAMINO VERDE DR","geo_precision":"street","state":"TX"},"type":"Feature","geometry":{"type":"Point","coordinates":[-97.757795,26.197822]}},{"properties":{"city":"BROWNSVILLE","zip":"78526","geo_score":0.464,"id":"a8n940cqxss0","address":"4780   CAMINO VERDE DR","geo_precision":"street","state":"TX"},"type":"Feature","geometry":{"type":"Point","coordinates":[-97.757795,26.197822]}},{"properties":{"city":"BROWNSVILLE","zip":"78526","geo_score":0.464,"id":"a8n940k5d68j","address":"4780   CAMINO VERDE DR","geo_precision":"street","state":"TX"},"type":"Feature","geometry":{"type":"Point","coordinates":[-97.757795,26.197822]}},{"properties":{"city":"BROWNSVILLE","zip":"78526","geo_score":0.464,"id":"a8n940mea56s","address":"4780   CAMINO VERDE DR","geo_precision":"street","state":"TX"},"type":"Feature","geometry":{"type":"Point","coordinates":[-97.757795,26.197822]}},{"properties":{"city":"BROWNSVILLE","zip":"78526","geo_score":1.0,"id":"a8n940o7ucc6","address":"1104   PASADERO DR","geo_precision":"range","state":"TX"},"type":"Feature","geometry":{"type":"Point","coordinates":[-97.500916,25.974625]}},{"properties":{"city":"BROWNSVILLE","zip":"78526","geo_score":1.0,"id":"a8n940pvlkt7","address":"421   TRAILWIND WAY","geo_precision":"range","state":"TX"},"type":"Feature","geometry":{"type":"Point","coordinates":[-97.511365,25.977138]}},{"properties":{"city":"BROWNSVILLE","zip":"78520","geo_score":0.89,"id":"a8n940csq2xt","address":"455   EL PASO RD APT C1","geo_precision":"range","state":"TX"},"type":"Feature","geometry":{"type":"Point","coordinates":[-97.523614,25.933868]}},{"properties":{"city":"BROWNSVILLE","zip":"78520","geo_score":1.0,"id":"a8n940e1cg8x","address":"118   WESTERN BLVD","geo_precision":"range","state":"TX"},"type":"Feature","geometry":{"type":"Point","coordinates":[-97.532387,25.937503]}},{"properties":{"city":"BROWNSVILLE","zip":"78520","geo_score":1.0,"id":"a8n940axy0yu","address":"33   WESTERN BLVD","geo_precision":"range","state":"TX"},"type":"Feature","geometry":{"type":"Point","coordinates":[-97.53086,25.938154]}},{"properties":{"city":"BROWNSVILLE","zip":"78520","geo_score":1.0,"id":"a8n940hnoox5","address":"33   WESTERN BLVD","geo_precision":"range","state":"TX"},"type":"Feature","geometry":{"type":"Point","coordinates":[-97.53086,25.938154]}},{"properties":{"city":"BROWNSVILLE","zip":"78520","geo_score":1.0,"id":"a8n940p6vipy","address":"118   WESTERN BLVD","geo_precision":"range","state":"TX"},"type":"Feature","geometry":{"type":"Point","coordinates":[-97.532387,25.937503]}},{"properties":{"city":"BROWNSVILLE","zip":"78520","geo_score":0.87,"id":"a8n940daubfn","address":"455   EL PASO RD APT I-5","geo_precision":"range","state":"TX"},"type":"Feature","geometry":{"type":"Point","coordinates":[-97.523614,25.933868]}},{"properties":{"city":"BROWNSVILLE","zip":"78520","geo_score":0.683,"id":"a8n940h2pdqz","address":"3080   EL PASO RD","geo_precision":"street","state":"TX"},"type":"Feature","geometry":{"type":"Point","coordinates":[-97.522987,25.939209]}},{"properties":{"city":"BROWNSVILLE","zip":"78520","geo_score":0.683,"id":"a8n940ci8v0c","address":"3080   EL PASO RD","geo_precision":"street","state":"TX"},"type":"Feature","geometry":{"type":"Point","coordinates":[-97.522987,25.939209]}},{"properties":{"city":"BROWNSVILLE","zip":"78520","geo_score":1.0,"id":"a8n940pfbvle","address":"75   WESTERN BLVD","geo_precision":"range","state":"TX"},"type":"Feature","geometry":{"type":"Point","coordinates":[-97.531572,25.937925]}},{"properties":{"city":"BROWNSVILLE","zip":"78520","geo_score":1.0,"id":"a8n940l3s5ct","address":"75   WESTERN BLVD","geo_precision":"range","state":"TX"},"type":"Feature","geometry":{"type":"Point","coordinates":[-97.531572,25.937925]}},{"properties":{"city":"BROWNSVILLE","zip":"78520","geo_score":1.0,"id":"a8n940heyjtp","address":"2703   OLD SPANISH TRL","geo_precision":"range","state":"TX"},"type":"Feature","geometry":{"type":"Point","coordinates":[-97.532743,25.950867]}},{"properties":{"city":"BROWNSVILLE","zip":"78520","geo_score":1.0,"id":"a8n940mk9uov","address":"2703   OLD SPANISH TRL","geo_precision":"range","state":"TX"},"type":"Feature","geometry":{"type":"Point","coordinates":[-97.532743,25.950867]}},{"properties":{"city":"BROWNSVILLE","zip":"78520","geo_score":0.89,"id":"a8n940g5bypg","address":"455   EL PASO RD APT A5","geo_precision":"range","state":"TX"},"type":"Feature","geometry":{"type":"Point","coordinates":[-97.523614,25.933868]}},{"properties":{"city":"BROWNSVILLE","zip":"78520","geo_score":0.89,"id":"a8n940fsubvb","address":"455   EL PASO RD APT A5","geo_precision":"range","state":"TX"},"type":"Feature","geometry":{"type":"Point","coordinates":[-97.523614,25.933868]}},{"properties":{"city":"BROWNSVILLE","zip":"78520","geo_score":1.0,"id":"a8n940q0ht30","address":"649   CENTER DR","geo_precision":"range","state":"TX"},"type":"Feature","geometry":{"type":"Point","coordinates":[-97.525869,25.941573]}},{"properties":{"city":"BROWNSVILLE","zip":"78520","geo_score":1.0,"id":"a8n940op5ub9","address":"649   CENTER DR","geo_precision":"range","state":"TX"},"type":"Feature","geometry":{"type":"Point","coordinates":[-97.525869,25.941573]}},{"properties":{"city":"BROWNSVILLE","zip":"78520","geo_score":1.0,"id":"a8n940jk7w0h","address":"435   WATER ST","geo_precision":"range","state":"TX"},"type":"Feature","geometry":{"type":"Point","coordinates":[-97.527381,25.933828]}},{"properties":{"city":"BROWNSVILLE","zip":"78520","geo_score":0.89,"id":"a8n940mj70cg","address":"455   EL PASO RD APT F5","geo_precision":"range","state":"TX"},"type":"Feature","geometry":{"type":"Point","coordinates":[-97.523614,25.933868]}},{"properties":{"city":"BROWNSVILLE","zip":"78520","geo_score":0.854,"id":"a8n940qgwclj","address":"64   SOUTH DR","geo_precision":"range","state":"TX"},"type":"Feature","geometry":{"type":"Point","coordinates":[-97.533622,25.937572]}},{"properties":{"city":"BROWNSVILLE","zip":"78520","geo_score":0.854,"id":"a8n940lwqwbs","address":"64   SOUTH DR","geo_precision":"range","state":"TX"},"type":"Feature","geometry":{"type":"Point","coordinates":[-97.533622,25.937572]}},{"properties":{"city":"BROWNSVILLE","zip":"78520","geo_score":1.0,"id":"a8n940myexg7","address":"2493   OLD SPANISH TRL","geo_precision":"range","state":"TX"},"type":"Feature","geometry":{"type":"Point","coordinates":[-97.526341,25.945669]}},{"properties":{"city":"BROWNSVILLE","zip":"78520","geo_score":1.0,"id":"a8n940ma23u4","address":"227   CENTER DR","geo_precision":"range","state":"TX"},"type":"Feature","geometry":{"type":"Point","coordinates":[-97.528457,25.937765]}},{"properties":{"city":"BROWNSVILLE","zip":"78520","geo_score":0.89,"id":"a8n940jdbf2q","address":"455   EL PASO RD APT F7","geo_precision":"range","state":"TX"},"type":"Feature","geometry":{"type":"Point","coordinates":[-97.523614,25.933868]}},{"properties":{"city":"BROWNSVILLE","zip":"78520","geo_score":1.0,"id":"a8n940bq0n5k","address":"2494   OLD SPANISH TRL","geo_precision":"range","state":"TX"},"type":"Feature","geometry":{"type":"Point","coordinates":[-97.526196,25.945713]}},{"properties":{"city":"BROWNSVILLE","zip":"78520","geo_score":1.0,"id":"a8n940f3a7bi","address":"129   WESTERN BLVD","geo_precision":"range","state":"TX"},"type":"Feature","geometry":{"type":"Point","coordinates":[-97.532616,25.937418]}},{"properties":{"city":"BROWNSVILLE","zip":"78520","geo_score":1.0,"id":"a8n940mzdjhl","address":"2455   OLD SPANISH TRL","geo_precision":"range","state":"TX"},"type":"Feature","geometry":{"type":"Point","coordinates":[-97.526585,25.946232]}},{"properties":{"city":"BROWNSVILLE","zip":"78520","geo_score":1.0,"id":"a8n940c5eubw","address":"129   WESTERN BLVD","geo_precision":"range","state":"TX"},"type":"Feature","geometry":{"type":"Point","coordinates":[-97.532616,25.937418]}},{"properties":{"city":"BROWNSVILLE","zip":"78520","geo_score":0.854,"id":"a8n940fitxaa","address":"237   NORTH DR","geo_precision":"range","state":"TX"},"type":"Feature","geometry":{"type":"Point","coordinates":[-97.528798,25.94008]}},{"properties":{"city":"BROWNSVILLE","zip":"78520","geo_score":0.854,"id":"a8n940mieo36","address":"237   NORTH DR","geo_precision":"range","state":"TX"},"type":"Feature","geometry":{"type":"Point","coordinates":[-97.528798,25.94008]}},{"properties":{"city":"BROWNSVILLE","zip":"78520","geo_score":0.89,"id":"a8n940mm0fko","address":"455   EL PASO RD APT E5","geo_precision":"range","state":"TX"},"type":"Feature","geometry":{"type":"Point","coordinates":[-97.523614,25.933868]}},{"properties":{"city":"BROWNSVILLE","zip":"78520","geo_score":1.0,"id":"a8n940fqxrq8","address":"304  N CAMINO DEL REY","geo_precision":"range","state":"TX"},"type":"Feature","geometry":{"type":"Point","coordinates":[-97.522467,25.935223]}},{"properties":{"city":"BROWNSVILLE","zip":"78520","geo_score":0.854,"id":"a8n940ambejw","address":"104   SOUTH DR","geo_precision":"range","state":"TX"},"type":"Feature","geometry":{"type":"Point","coordinates":[-97.53071,25.93913]}},{"properties":{"city":"BROWNSVILLE","zip":"78520","geo_score":1.0,"id":"a8n940f9ld2s","address":"2455   OLD SPANISH TRL","geo_precision":"range","state":"TX"},"type":"Feature","geometry":{"type":"Point","coordinates":[-97.526585,25.946232]}},{"properties":{"city":"BROWNSVILLE","zip":"78520","geo_score":1.0,"id":"a8n940lvblb5","address":"2455   OLD SPANISH TRL","geo_precision":"range","state":"TX"},"type":"Feature","geometry":{"type":"Point","coordinates":[-97.526585,25.946232]}},{"properties":{"city":"BROWNSVILLE","zip":"78520","geo_score":1.0,"id":"a8n940p9vfop","address":"104   WESTERN BLVD","geo_precision":"range","state":"TX"},"type":"Feature","geometry":{"type":"Point","coordinates":[-97.532195,25.937619]}},{"properties":{"city":"BROWNSVILLE","zip":"78520","geo_score":1.0,"id":"a8n940pn9jyh","address":"104   WESTERN BLVD","geo_precision":"range","state":"TX"},"type":"Feature","geometry":{"type":"Point","coordinates":[-97.532195,25.937619]}},{"properties":{"city":"BROWNSVILLE","zip":"78520","geo_score":0.89,"id":"a8n940g0bsda","address":"455   EL PASO RD APT E2","geo_precision":"range","state":"TX"},"type":"Feature","geometry":{"type":"Point","coordinates":[-97.523614,25.933868]}},{"properties":{"city":"BROWNSVILLE","zip":"78520","geo_score":1.0,"id":"a8n940c5zho8","address":"114   WESTERN BLVD","geo_precision":"range","state":"TX"},"type":"Feature","geometry":{"type":"Point","coordinates":[-97.532356,25.937541]}},{"properties":{"city":"BROWNSVILLE","zip":"78520","geo_score":0.87,"id":"a8n940hswvyq","address":"455   EL PASO RD APT G-6","geo_precision":"range","state":"TX"},"type":"Feature","geometry":{"type":"Point","coordinates":[-97.523614,25.933868]}},{"properties":{"city":"BROWNSVILLE","zip":"78520","geo_score":0.89,"id":"a8n940bekx5k","address":"455   EL PASO RD APT C4","geo_precision":"range","state":"TX"},"type":"Feature","geometry":{"type":"Point","coordinates":[-97.523614,25.933868]}},{"properties":{"city":"BROWNSVILLE","zip":"78520","geo_score":0.854,"id":"a8n940dpskbk","address":"615   NORTH DR","geo_precision":"range","state":"TX"},"type":"Feature","geometry":{"type":"Point","coordinates":[-97.526171,25.940847]}},{"properties":{"city":"BROWNSVILLE","zip":"78520","geo_score":0.854,"id":"a8n940njvuh7","address":"615   NORTH DR","geo_precision":"range","state":"TX"},"type":"Feature","geometry":{"type":"Point","coordinates":[-97.526171,25.940847]}},{"properties":{"city":"BROWNSVILLE","zip":"78520","geo_score":1.0,"id":"a8n940psfpc1","address":"117   WESTERN BLVD","geo_precision":"range","state":"TX"},"type":"Feature","geometry":{"type":"Point","coordinates":[-97.532503,25.9376]}},{"properties":{"city":"BROWNSVILLE","zip":"78520","geo_score":0.854,"id":"a8n940jgmtaz","address":"615   NORTH DR","geo_precision":"range","state":"TX"},"type":"Feature","geometry":{"type":"Point","coordinates":[-97.526171,25.940847]}},{"properties":{"city":"BROWNSVILLE","zip":"78520","geo_score":0.854,"id":"a8n940f2h9c7","address":"605   NORTH DR","geo_precision":"range","state":"TX"},"type":"Feature","geometry":{"type":"Point","coordinates":[-97.526111,25.940866]}},{"properties":{"city":"BROWNSVILLE","zip":"78520","geo_score":1.0,"id":"a8n940atxswu","address":"124  W LOS EBANOS BLVD","geo_precision":"range","state":"TX"},"type":"Feature","geometry":{"type":"Point","coordinates":[-97.522284,25.933801]}},{"properties":{"city":"BROWNSVILLE","zip":"78520","geo_score":1.0,"id":"a8n940dggw6w","address":"124  W LOS EBANOS BLVD","geo_precision":"range","state":"TX"},"type":"Feature","geometry":{"type":"Point","coordinates":[-97.522284,25.933801]}},{"properties":{"city":"BROWNSVILLE","zip":"78520","geo_score":0.87,"id":"a8n940l4pp3h","address":"455   EL PASO RD APT E-3","geo_precision":"range","state":"TX"},"type":"Feature","geometry":{"type":"Point","coordinates":[-97.523614,25.933868]}},{"properties":{"city":"BROWNSVILLE","zip":"78520","geo_score":0.89,"id":"a8n940cjdaki","address":"455   EL PASO RD APT F8","geo_precision":"range","state":"TX"},"type":"Feature","geometry":{"type":"Point","coordinates":[-97.523614,25.933868]}},{"properties":{"city":"BROWNSVILLE","zip":"78520","geo_score":0.89,"id":"a8n940clig1x","address":"455   EL PASO RD APT C5","geo_precision":"range","state":"TX"},"type":"Feature","geometry":{"type":"Point","coordinates":[-97.523614,25.933868]}},{"properties":{"city":"BROWNSVILLE","zip":"78520","geo_score":1.0,"id":"a8n940js3mju","address":"44   MIDWAY DR","geo_precision":"range","state":"TX"},"type":"Feature","geometry":{"type":"Point","coordinates":[-97.528636,25.933425]}},{"properties":{"city":"BROWNSVILLE","zip":"78520","geo_score":1.0,"id":"a8n940d3219o","address":"44   MIDWAY DR","geo_precision":"range","state":"TX"},"type":"Feature","geometry":{"type":"Point","coordinates":[-97.528636,25.933425]}},{"properties":{"city":"BROWNSVILLE","zip":"78520","geo_score":1.0,"id":"a8n940avlm4v","address":"124   WESTERN BLVD","geo_precision":"range","state":"TX"},"type":"Feature","geometry":{"type":"Point","coordinates":[-97.532444,25.937411]}},{"properties":{"city":"BROWNSVILLE","zip":"78520","geo_score":0.89,"id":"a8n940mng2u7","address":"455   EL PASO RD APT D4","geo_precision":"range","state":"TX"},"type":"Feature","geometry":{"type":"Point","coordinates":[-97.523614,25.933868]}},{"properties":{"city":"BROWNSVILLE","zip":"78520","geo_score":0.89,"id":"a8n940f6f312","address":"455   EL PASO RD APT G7","geo_precision":"range","state":"TX"},"type":"Feature","geometry":{"type":"Point","coordinates":[-97.523614,25.933868]}},{"properties":{"city":"BROWNSVILLE","zip":"78520","geo_score":0.89,"id":"a8n940odgm2g","address":"455   EL PASO RD APT B8","geo_precision":"range","state":"TX"},"type":"Feature","geometry":{"type":"Point","coordinates":[-97.523614,25.933868]}},{"properties":{"city":"BROWNSVILLE","zip":"78520","geo_score":1.0,"id":"a8n940gmmsxm","address":"124   WESTERN BLVD","geo_precision":"range","state":"TX"},"type":"Feature","geometry":{"type":"Point","coordinates":[-97.532444,25.937411]}},{"properties":{"city":"BROWNSVILLE","zip":"78520","geo_score":0.87,"id":"a8n940cqoqs0","address":"455   EL PASO RD APT G-2","geo_precision":"range","state":"TX"},"type":"Feature","geometry":{"type":"Point","coordinates":[-97.523614,25.933868]}},{"properties":{"city":"BROWNSVILLE","zip":"78520","geo_score":1.0,"id":"a8n940ll5br4","address":"635   CENTER DR","geo_precision":"range","state":"TX"},"type":"Feature","geometry":{"type":"Point","coordinates":[-97.525847,25.94177]}},{"properties":{"city":"BROWNSVILLE","zip":"78520","geo_score":1.0,"id":"a8n940fi2213","address":"635   CENTER DR","geo_precision":"range","state":"TX"},"type":"Feature","geometry":{"type":"Point","coordinates":[-97.525847,25.94177]}},{"properties":{"city":"BROWNSVILLE","zip":"78520","geo_score":0.854,"id":"a8n940hqetpz","address":"167   NORTH DR","geo_precision":"range","state":"TX"},"type":"Feature","geometry":{"type":"Point","coordinates":[-97.531796,25.939163]}},{"properties":{"city":"BROWNSVILLE","zip":"78520","geo_score":0.89,"id":"a8n940iylw1i","address":"455   EL PASO RD APT E6","geo_precision":"range","state":"TX"},"type":"Feature","geometry":{"type":"Point","coordinates":[-97.523614,25.933868]}},{"properties":{"city":"BROWNSVILLE","zip":"78520","geo_score":0.89,"id":"a8n940lkg15e","address":"455   EL PASO RD APT F1","geo_precision":"range","state":"TX"},"type":"Feature","geometry":{"type":"Point","coordinates":[-97.523614,25.933868]}},{"properties":{"city":"BROWNSVILLE","zip":"78520","geo_score":0.87,"id":"a8n940fkkkq8","address":"455   EL PASO RD APT I-8","geo_precision":"range","state":"TX"},"type":"Feature","geometry":{"type":"Point","coordinates":[-97.523614,25.933868]}},{"properties":{"city":"BROWNSVILLE","zip":"78520","geo_score":1.0,"id":"a8n940qihkup","address":"5   KUMQUAT ST","geo_precision":"range","state":"TX"},"type":"Feature","geometry":{"type":"Point","coordinates":[-97.528041,25.940918]}},{"properties":{"city":"BROWNSVILLE","zip":"78520","geo_score":1.0,"id":"a8n940i8xcrc","address":"5   KUMQUAT ST","geo_precision":"range","state":"TX"},"type":"Feature","geometry":{"type":"Point","coordinates":[-97.528041,25.940918]}},{"properties":{"city":"BROWNSVILLE","zip":"78520","geo_score":1.0,"id":"a8n940f6uvus","address":"424   WATER ST","geo_precision":"range","state":"TX"},"type":"Feature","geometry":{"type":"Point","coordinates":[-97.527439,25.933997]}},{"properties":{"city":"BROWNSVILLE","zip":"78520","geo_score":0.958,"id":"a8n940o8vw6f","address":"63   VILLA VISTA DR","geo_precision":"range","state":"TX"},"type":"Feature","geometry":{"type":"Point","coordinates":[-97.525929,25.932942]}},{"properties":{"city":"BROWNSVILLE","zip":"78520","geo_score":0.958,"id":"a8n940ddjfik","address":"63   VILLA VISTA DR","geo_precision":"range","state":"TX"},"type":"Feature","geometry":{"type":"Point","coordinates":[-97.525929,25.932942]}},{"properties":{"city":"BROWNSVILLE","zip":"78520","geo_score":1.0,"id":"a8n940lty41g","address":"435   WATER ST","geo_precision":"range","state":"TX"},"type":"Feature","geometry":{"type":"Point","coordinates":[-97.527381,25.933828]}},{"properties":{"city":"BROWNSVILLE","zip":"78520","geo_score":1.0,"id":"a8n940dfylrm","address":"435   WATER ST","geo_precision":"range","state":"TX"},"type":"Feature","geometry":{"type":"Point","coordinates":[-97.527381,25.933828]}},{"properties":{"city":"BROWNSVILLE","zip":"78526","geo_score":0.78,"id":"a8n940iutqwu","address":"2800   FM 802  APT 1042","geo_precision":"range","state":"TX"},"type":"Feature","geometry":{"type":"Point","coordinates":[-97.486866,25.951154]}},{"properties":{"city":"BROWNSVILLE","zip":"78526","geo_score":0.762,"id":"a8n940cfoc7f","address":"2800   FM 802  APT 1051","geo_precision":"range","state":"TX"},"type":"Feature","geometry":{"type":"Point","coordinates":[-97.486866,25.951154]}},{"properties":{"city":"BROWNSVILLE","zip":"78526","geo_score":0.762,"id":"a8n940edq0z9","address":"2800   FM 802  APT 1044","geo_precision":"range","state":"TX"},"type":"Feature","geometry":{"type":"Point","coordinates":[-97.486866,25.951154]}},{"properties":{"city":"BROWNSVILLE","zip":"78526","geo_score":0.762,"id":"a8n940gtln3p","address":"2800   FM 802  APT 1108","geo_precision":"range","state":"TX"},"type":"Feature","geometry":{"type":"Point","coordinates":[-97.486866,25.951154]}},{"properties":{"city":"BROWNSVILLE","zip":"78526","geo_score":0.78,"id":"a8n940pte4vi","address":"2800   FM 802  APT 3023","geo_precision":"range","state":"TX"},"type":"Feature","geometry":{"type":"Point","coordinates":[-97.486866,25.951154]}},{"properties":{"city":"BROWNSVILLE","zip":"78526","geo_score":0.762,"id":"a8n940dlw8yl","address":"2800   FM 802  APT 3009","geo_precision":"range","state":"TX"},"type":"Feature","geometry":{"type":"Point","coordinates":[-97.486866,25.951154]}},{"properties":{"city":"BROWNSVILLE","zip":"78526","geo_score":0.585,"id":"a8n940m9rp1g","address":"96   CASTELLANO CIR","geo_precision":"zip","state":"TX"},"type":"Feature","geometry":{"type":"Point","coordinates":[-97.469871,25.971728]}},{"properties":{"city":"BROWNSVILLE","zip":"78526","geo_score":0.585,"id":"a8n940m9j01q","address":"77   CASTELLANO CIR","geo_precision":"zip","state":"TX"},"type":"Feature","geometry":{"type":"Point","coordinates":[-97.469871,25.971728]}},{"properties":{"city":"BROWNSVILLE","zip":"78526","geo_score":0.762,"id":"a8n940biudwm","address":"2800   FM 802  APT 2088","geo_precision":"range","state":"TX"},"type":"Feature","geometry":{"type":"Point","coordinates":[-97.486866,25.951154]}},{"properties":{"city":"BROWNSVILLE","zip":"78526","geo_score":0.762,"id":"a8n940al33oa","address":"2800   FM 802  APT 1070","geo_precision":"range","state":"TX"},"type":"Feature","geometry":{"type":"Point","coordinates":[-97.486866,25.951154]}},{"properties":{"city":"BROWNSVILLE","zip":"78526","geo_score":0.762,"id":"a8n940nymgkf","address":"2800   FM 802  APT 1065","geo_precision":"range","state":"TX"},"type":"Feature","geometry":{"type":"Point","coordinates":[-97.486866,25.951154]}},{"properties":{"city":"BROWNSVILLE","zip":"78526","geo_score":1.0,"id":"a8n940kp55on","address":"3023   CANTERBURY CT","geo_precision":"range","state":"TX"},"type":"Feature","geometry":{"type":"Point","coordinates":[-97.4665,25.952641]}},{"properties":{"city":"BROWNSVILLE","zip":"78526","geo_score":0.762,"id":"a8n940fssopk","address":"2800   FM 802  APT 1043","geo_precision":"range","state":"TX"},"type":"Feature","geometry":{"type":"Point","coordinates":[-97.486866,25.951154]}},{"properties":{"city":"BROWNSVILLE","zip":"78526","geo_score":0.503,"id":"a8n940ezm1ez","address":"3546   BRASILIA DR","geo_precision":"street","state":"TX"},"type":"Feature","geometry":{"type":"Point","coordinates":[-97.725837,26.196454]}},{"properties":{"city":"BROWNSVILLE","zip":"78526","geo_score":0.503,"id":"a8n940mchpwl","address":"3546   BRASILIA DR","geo_precision":"street","state":"TX"},"type":"Feature","geometry":{"type":"Point","coordinates":[-97.725837,26.196454]}},{"properties":{"city":"BROWNSVILLE","zip":"78526","geo_score":0.878,"id":"a8n940k4d0ch","address":"257   AVENIDA DEL SOL","geo_precision":"street","state":"TX"},"type":"Feature","geometry":{"type":"Point","coordinates":[-97.508754,25.970292]}},{"properties":{"city":"BROWNSVILLE","zip":"78526","geo_score":1.0,"id":"a8n940px60av","address":"376   AVENIDA ESTRELLA","geo_precision":"range","state":"TX"},"type":"Feature","geometry":{"type":"Point","coordinates":[-97.510277,25.970626]}},{"properties":{"city":"BROWNSVILLE","zip":"78526","geo_score":1.0,"id":"a8n940nscyqy","address":"104   PINAR DEL RIO AVE","geo_precision":"range","state":"TX"},"type":"Feature","geometry":{"type":"Point","coordinates":[-97.494416,25.967876]}},{"properties":{"city":"BROWNSVILLE","zip":"78526","geo_score":0.812,"id":"a8n940nljnif","address":"2100  W SAN MARCELO BLVD APT 130","geo_precision":"street","state":"TX"},"type":"Feature","geometry":{"type":"Point","coordinates":[-97.499203,25.957779]}},{"properties":{"city":"BROWNSVILLE","zip":"78526","geo_score":1.0,"id":"a8n940oysojs","address":"64   MANTE CT","geo_precision":"range","state":"TX"},"type":"Feature","geometry":{"type":"Point","coordinates":[-97.502389,25.958796]}},{"properties":{"city":"BROWNSVILLE","zip":"78526","geo_score":1.0,"id":"a8n940h3p5ql","address":"64   MANTE CT","geo_precision":"range","state":"TX"},"type":"Feature","geometry":{"type":"Point","coordinates":[-97.502389,25.958796]}},{"properties":{"city":"BROWNSVILLE","zip":"78526","geo_score":0.878,"id":"a8n940p32xsh","address":"257   AVENIDA DEL SOL","geo_precision":"street","state":"TX"},"type":"Feature","geometry":{"type":"Point","coordinates":[-97.508754,25.970292]}},{"properties":{"city":"BROWNSVILLE","zip":"78526","geo_score":1.0,"id":"a8n940c0lpjh","address":"24   GUANAJAY CT","geo_precision":"range","state":"TX"},"type":"Feature","geometry":{"type":"Point","coordinates":[-97.494153,25.958924]}},{"properties":{"city":"BROWNSVILLE","zip":"78526","geo_score":1.0,"id":"a8n940kedfg7","address":"2212   EDUARDO AVE","geo_precision":"range","state":"TX"},"type":"Feature","geometry":{"type":"Point","coordinates":[-97.482395,25.973046]}},{"properties":{"city":"BROWNSVILLE","zip":"78526","geo_score":1.0,"id":"a8n940lu4rk9","address":"4602   EDUARDO AVE","geo_precision":"range","state":"TX"},"type":"Feature","geometry":{"type":"Point","coordinates":[-97.483558,25.972761]}},{"properties":{"city":"BROWNSVILLE","zip":"78526","geo_score":1.0,"id":"a8n940ocyliz","address":"4602   EDUARDO AVE","geo_precision":"range","state":"TX"},"type":"Feature","geometry":{"type":"Point","coordinates":[-97.483558,25.972761]}},{"properties":{"city":"BROWNSVILLE","zip":"78526","geo_score":0.766,"id":"a8n940qj6cr3","address":"2403   OFELIA AVE","geo_precision":"range","state":"TX"},"type":"Feature","geometry":{"type":"Point","coordinates":[-97.47532,25.975797]}},{"properties":{"city":"BROWNSVILLE","zip":"78526","geo_score":0.766,"id":"a8n940nfwlvz","address":"2403   OFELIA AVE","geo_precision":"range","state":"TX"},"type":"Feature","geometry":{"type":"Point","coordinates":[-97.47532,25.975797]}},{"properties":{"city":"BROWNSVILLE","zip":"78520","geo_score":1.0,"id":"a8n940dv57p4","address":"1681   CALLE ESPACIO","geo_precision":"range","state":"TX"},"type":"Feature","geometry":{"type":"Point","coordinates":[-97.544633,25.939143]}},{"properties":{"city":"BROWNSVILLE","zip":"78520","geo_score":0.702,"id":"a8n940gcd75t","address":"905   MILITARY RD APT 2","geo_precision":"street","state":"TX"},"type":"Feature","geometry":{"type":"Point","coordinates":[-97.520062,25.923357]}},{"properties":{"city":"BROWNSVILLE","zip":"78520","geo_score":0.691,"id":"a8n940bbsh01","address":"1165   MILITARY RD LOT 20","geo_precision":"street","state":"TX"},"type":"Feature","geometry":{"type":"Point","coordinates":[-97.520062,25.923357]}},{"properties":{"city":"BROWNSVILLE","zip":"78520","geo_score":0.702,"id":"a8n940e9ud6r","address":"905   MILITARY RD APT 2","geo_precision":"street","state":"TX"},"type":"Feature","geometry":{"type":"Point","coordinates":[-97.520062,25.923357]}},{"properties":{"city":"BROWNSVILLE","zip":"78520","geo_score":1.0,"id":"a8n940hzqomf","address":"255   JO ANN LN","geo_precision":"range","state":"TX"},"type":"Feature","geometry":{"type":"Point","coordinates":[-97.537162,25.934257]}},{"properties":{"city":"BROWNSVILLE","zip":"78520","geo_score":1.0,"id":"a8n940osqr7f","address":"425   JO ANN LN","geo_precision":"range","state":"TX"},"type":"Feature","geometry":{"type":"Point","coordinates":[-97.531987,25.934738]}},{"properties":{"city":"BROWNSVILLE","zip":"78521","geo_score":0.854,"id":"a8n940glf9xx","address":"2454   PRICE RD APT 186","geo_precision":"range","state":"TX"},"type":"Feature","geometry":{"type":"Point","coordinates":[-97.483159,25.934607]}},{"properties":{"city":"BROWNSVILLE","zip":"78521","geo_score":0.883,"id":"a8n940n3i9si","address":"95   POINCIANA DR APT 220","geo_precision":"range","state":"TX"},"type":"Feature","geometry":{"type":"Point","coordinates":[-97.498357,25.939347]}},{"properties":{"city":"BROWNSVILLE","zip":"78526","geo_score":0.806,"id":"a8n940chi4qs","address":"2234   OLD PORT ISABEL RD","geo_precision":"street","state":"TX"},"type":"Feature","geometry":{"type":"Point","coordinates":[-97.464777,25.949863]}},{"properties":{"city":"BROWNSVILLE","zip":"78526","geo_score":0.806,"id":"a8n940i9laso","address":"2234   OLD PORT ISABEL RD","geo_precision":"street","state":"TX"},"type":"Feature","geometry":{"type":"Point","coordinates":[-97.464777,25.949863]}},{"properties":{"city":"BROWNSVILLE","zip":"78526","geo_score":0.807,"id":"a8n940ic7f4b","address":"2300   OLD PORT ISABEL RD","geo_precision":"street","state":"TX"},"type":"Feature","geometry":{"type":"Point","coordinates":[-97.464777,25.949863]}},{"properties":{"city":"BROWNSVILLE","zip":"78526","geo_score":0.807,"id":"a8n940h3wnve","address":"2300   OLD PORT ISABEL RD","geo_precision":"street","state":"TX"},"type":"Feature","geometry":{"type":"Point","coordinates":[-97.464777,25.949863]}},{"properties":{"city":"BROWNSVILLE","zip":"78521","geo_score":0.875,"id":"a8n940i7hcyj","address":"4005   COFFEEPORT RD APT B-2","geo_precision":"range","state":"TX"},"type":"Feature","geometry":{"type":"Point","coordinates":[-97.462486,25.940822]}}],"is_temporal":false,"author":{"url":"","metadata":"","contact_name":"","contact_address":"","source":"Cameron county elections office","contact_phone":""},"source":"","pagination":{"sort":null,"start":0,"total":185,"limit":1000000},"state":"complete","tags":"","published":"2014-08-14T21:26:57-04:00","id":274804}