{"type":"FeatureCollection","data_type":"Dataset","url_type":null,"permissions":[{"permissions":{"download":true,"view":true},"group_id":"everyone"}],"classification":null,"title":"Alameda County Recreation Centers","count":73,"stream_id":275498,"contributor":{"url":"http://geocommons.com/users/22109","name":"urbanstrategies"},"data_attributes":null,"calculation_params":null,"icon_link":null,"link":"http://geocommons.com/overlays/275498.json","extent":[-122.3,37.4837,-121.728,38.0045],"geometry_types":["point"],"unique_name":null,"name":"Alameda County Recreation Centers","feature_count":73,"description":"Provided by First5 Alameda,source NCES","next_feature":null,"is_raster":false,"short_classification":"Y","stats":{},"features":[{"properties":{"city":"Alameda","zip":"94501","geo_score":0.512,"phone":"(510) 522-7538","organization":"Bayport Community Building","id":"a8qory48vpdz","address":"301 Jack London Avenue","geo_precision":"street"},"type":"Feature","geometry":{"type":"Point","coordinates":[-122.280886,37.774319]}},{"properties":{"city":"Alameda","zip":"94502","geo_score":0.857,"phone":"(510) 522-7538","organization":"Godfrey Center","id":"a8qorxwkwfkp","address":"281 Beach Rd., Bay Farm Island","geo_precision":"street"},"type":"Feature","geometry":{"type":"Point","coordinates":[-122.23363,37.73452]}},{"properties":{"city":"Alameda","zip":"94501","geo_score":0.902,"phone":"(510) 522-7538","organization":"LittleJohn Center","id":"a8qory4npts4","address":"1401 Pacific Avenue","geo_precision":"range"},"type":"Feature","geometry":{"type":"Point","coordinates":[-122.260781,37.775722]}},{"properties":{"city":"Alameda","zip":"94501","geo_score":0.863,"phone":"(510) 522-7538","organization":"McKinley Cneter","id":"a8qory2l8pr7","address":"2165 Buena Vista Avenue","geo_precision":"range"},"type":"Feature","geometry":{"type":"Point","coordinates":[-122.245232,37.770647]}},{"properties":{"city":"Alameda","zip":"94501","geo_score":0.902,"phone":"(510) 522-7538","organization":"Washington Center","id":"a8qory52vhyv","address":"740 Central Avenue","geo_precision":"range"},"type":"Feature","geometry":{"type":"Point","coordinates":[-122.273934,37.771309]}},{"properties":{"city":"Alameda","zip":"94502","geo_score":0.857,"phone":"(510) 522-7538","organization":"Leydecker Center","id":"a8qory0zpkl4","address":"3225 Mecartney Rd., Bay Farm Island","geo_precision":"street"},"type":"Feature","geometry":{"type":"Point","coordinates":[-122.239945,37.73553]}},{"properties":{"city":"Alameda","zip":"94501","geo_score":0.902,"phone":"(510) 522-7538","organization":"Woodstock Center","id":"a8qory7eb8d6","address":"351 Cypress Street","geo_precision":"range"},"type":"Feature","geometry":{"type":"Point","coordinates":[-122.287434,37.77724]}},{"properties":{"city":"Alameda","zip":"94501","geo_score":0.902,"phone":"(510) 522-7538","organization":"Veteran's Building","id":"a8qorxwmsjfa","address":"2203 Central Avenue","geo_precision":"range"},"type":"Feature","geometry":{"type":"Point","coordinates":[-122.244206,37.764825]}},{"properties":{"city":"Alameda","zip":"94501","geo_score":0.902,"phone":"(510) 522-7538","organization":"Longfellow Park","id":"a8qory1jpf80","address":"520 Lincoln Avenue","geo_precision":"range"},"type":"Feature","geometry":{"type":"Point","coordinates":[-122.282157,37.775212]}},{"properties":{"city":"Albany","zip":"94706","geo_score":0.902,"phone":"(510) 524-9283","organization":"City of Albany Recreation &amp; Community Services Department","id":"a8qory3yqg94","address":"1249 Marin Avenue","geo_precision":"range"},"type":"Feature","geometry":{"type":"Point","coordinates":[-122.293105,37.887639]}},{"properties":{"city":"Berkeley","zip":"94702","geo_score":0.902,"phone":"(510) 981-6640","organization":"Frances Albrier Community Center","id":"a8qory4sqz19","address":"2800 Park Street","geo_precision":"range"},"type":"Feature","geometry":{"type":"Point","coordinates":[-122.282899,37.854528]}},{"properties":{"city":"Berkeley","zip":"94710","geo_score":0.805,"phone":"(510) 981-6650","organization":"James Kenney Community Center","id":"a8qorxyg82xr","address":"1720 8th Street","geo_precision":"range"},"type":"Feature","geometry":{"type":"Point","coordinates":[-122.296563,37.871367]}},{"properties":{"city":"Berkeley","zip":"94709","geo_score":0.488,"phone":"(510) 981-6690","organization":"Live Oak Community Center","id":"a8qory0dt4tv","address":"1301 Shattuck Avenue","geo_precision":"zip"},"type":"Feature","geometry":{"type":"Point","coordinates":[-122.26553,37.879825]}},{"properties":{"city":"Berkeley","zip":"94703","geo_score":0.902,"phone":"(510) 981-6670","organization":"MLK Jr. Youth Services Center/Young Adult Project","id":"a8qoryb2q52s","address":"1730 Oregon Street","geo_precision":"range"},"type":"Feature","geometry":{"type":"Point","coordinates":[-122.27363,37.85671]}},{"properties":{"city":"Berkeley","zip":"94705","geo_score":0.834,"phone":"(510) 981-6730","organization":"Willard Clubhouse","id":"a8qorxyyib8f","address":"2720 Hillegass Avenure","geo_precision":"range"},"type":"Feature","geometry":{"type":"Point","coordinates":[-122.255958,37.860227]}},{"properties":{"city":"Castro Valley","zip":"94546","geo_score":0.765,"phone":"(510) 881-6700","organization":"Castro Valley Park and Community Center","id":"a8qory300ogm","address":"18988 Lake Chabot, Castro Valley","geo_precision":"street"},"type":"Feature","geometry":{"type":"Point","coordinates":[-122.120839,37.7283]}},{"properties":{"city":"Castro Valley","zip":"94546","geo_score":0.78,"phone":"(510) 881-6738","organization":"Kenneth Aitken Community","id":"a8qorxwvov7b","address":"17800 Redwood Road","geo_precision":"street"},"type":"Feature","geometry":{"type":"Point","coordinates":[-122.073729,37.716736]}},{"properties":{"city":"Dublin","zip":"94568","geo_score":0.902,"phone":"(925) 556-4500","organization":"Shannon Community Center","id":"a8qorxy9ay45","address":"11600 Shannon Avenue","geo_precision":"range"},"type":"Feature","geometry":{"type":"Point","coordinates":[-121.940956,37.713766]}},{"properties":{"city":"Dublin","zip":"94568","geo_score":0.708,"phone":"(925) 556-4500","organization":"Emerald Glen Activity Center","id":"a8qory91phyc","address":"4201 Central Parkway","geo_precision":"street"},"type":"Feature","geometry":{"type":"Point","coordinates":[-121.880263,37.708577]}},{"properties":{"city":"Emeryville","zip":"94608","geo_score":0.902,"phone":"(510) 596-4395","organization":"Recreation Center","id":"a8qoryah4mc4","address":"4300 San Pablo Avenue","geo_precision":"range"},"type":"Feature","geometry":{"type":"Point","coordinates":[-122.281003,37.83421]}},{"properties":{"city":"Fremont","zip":"94536","geo_score":0.902,"phone":"(510) 791-4324","organization":"Centerville Community Center","id":"a8qory3mxcpa","address":"3355 Country Dr.","geo_precision":"range"},"type":"Feature","geometry":{"type":"Point","coordinates":[-121.989802,37.554031]}},{"properties":{"city":"Fremont","zip":"94538","geo_score":0.463,"phone":"(510) 790-5541","organization":"Fremont Community Center","id":"a8qoryafkfvb","address":"40000 Paseo Padre Pkwy","geo_precision":"street"},"type":"Feature","geometry":{"type":"Point","coordinates":[-121.944948,37.71404]}},{"properties":{"city":"Fremont","zip":"94538","geo_score":0.805,"phone":"(510) 791-4351","organization":"Los Cerritos Community Center","id":"a8qory2fq71l","address":"3377 Alder Ave","geo_precision":"range"},"type":"Feature","geometry":{"type":"Point","coordinates":[-122.01152,37.56726]}},{"properties":{"city":"Fremont","zip":"94538","geo_score":0.902,"phone":"(510) 791-4334","organization":"Wally Pond Irvington Community Center","id":"a8qory1msrb6","address":"41885 Blacow Rd.","geo_precision":"range"},"type":"Feature","geometry":{"type":"Point","coordinates":[-121.960841,37.523433]}},{"properties":{"city":"Fremont","zip":"94539","geo_score":0.902,"phone":"(510) 791-4318","organization":"Warm Springs Community Center","id":"a8qorxxdnnod","address":"47300 Fernald St.","geo_precision":"range"},"type":"Feature","geometry":{"type":"Point","coordinates":[-121.921751,37.483683]}},{"properties":{"city":"Fremont","zip":"94536","geo_score":0.48,"phone":"(510) 494-4300","organization":"Niles Community Center","id":"a8qory46w6nc","address":"472 School St.","geo_precision":"street"},"type":"Feature","geometry":{"type":"Point","coordinates":[-122.067639,37.571313]}},{"properties":{"city":"Hayward","zip":"94544","geo_score":0.902,"phone":"510-887-0400","organization":"Matt Jimenez Community Center","id":"a8qory3mx3dz","address":"28200 Ruus Road","geo_precision":"range"},"type":"Feature","geometry":{"type":"Point","coordinates":[-122.067916,37.629912]}},{"properties":{"city":"Hayward","zip":"94545","geo_score":0.62,"phone":"(510) 670-7279","organization":"Southgate Community Center","id":"a8qory8hpwc0","address":"26782 Chiplay","geo_precision":"street"},"type":"Feature","geometry":{"type":"Point","coordinates":[-122.09562,37.636041]}},{"properties":{"city":"Hayward","zip":"94541","geo_score":0.902,"phone":"(510) 881-6747","organization":"Sulpher Creek Nature Center","id":"a8qory1bk0ws","address":"1801 D Street","geo_precision":"range"},"type":"Feature","geometry":{"type":"Point","coordinates":[-122.063906,37.678038]}},{"properties":{"city":"Hayward","zip":"94544","geo_score":0.488,"phone":"(510) 881-6700","organization":"Weekes Community Center","id":"a8qorxztudo5","address":"27182 Patrick Avenue","geo_precision":"zip"},"type":"Feature","geometry":{"type":"Point","coordinates":[-122.061673,37.613883]}},{"properties":{"city":"Livermore","zip":"94550","geo_score":0.902,"phone":"(925) 960-2478","organization":"Jane Addams House","id":"a8qoryama73d","address":"1310 Murdell Lane","geo_precision":"range"},"type":"Feature","geometry":{"type":"Point","coordinates":[-121.798342,37.664078]}},{"properties":{"city":"Livermore","zip":"94551","geo_score":0.902,"phone":"(925) 960-2451","organization":"May Nissen Park","id":"a8qory4nksi0","address":"685 Rincon Avenue","geo_precision":"range"},"type":"Feature","geometry":{"type":"Point","coordinates":[-121.783472,37.685904]}},{"properties":{"city":"Livermore","zip":"94550","geo_score":0.793,"phone":"(925) 373-5700","organization":"Livermore Community Center","id":"a8qorxxqb1q9","address":"4444 East Avenue","geo_precision":"range"},"type":"Feature","geometry":{"type":"Point","coordinates":[-121.742574,37.680022]}},{"properties":{"city":"Livermore","zip":"94551","geo_score":0.815,"phone":"(925) 606-4706","organization":"Croce Elementary School","id":"a8qorxx2mx7y","address":"5650 Scenic Avenue","geo_precision":"range"},"type":"Feature","geometry":{"type":"Point","coordinates":[-121.727925,37.717106]}},{"properties":{"city":"Livermore","zip":"94551","geo_score":0.902,"phone":"(925) 960-2475","organization":"Christensen Preschool","id":"a8qorxvl9hi7","address":"5611 Bridgeport Circle","geo_precision":"range"},"type":"Feature","geometry":{"type":"Point","coordinates":[-121.729978,37.723974]}},{"properties":{"city":"Livermore","zip":"94550","geo_score":0.488,"phone":"(925) 960-2477","organization":"Jackson School","id":"a8qory0tfft1","address":"554 Jackson Avenue","geo_precision":"zip"},"type":"Feature","geometry":{"type":"Point","coordinates":[-121.91605,37.676781]}},{"properties":{"city":"Newark","zip":"94560","geo_score":0.902,"phone":"(510) 578-4620","organization":"Silliman Activity and Family Aquatic Center","id":"a8qorxxavw40","address":"6800 Mowry Avenue","geo_precision":"range"},"type":"Feature","geometry":{"type":"Point","coordinates":[-122.012103,37.515625]}},{"properties":{"city":"Oakland","zip":"94605","geo_score":0.902,"phone":"(888) 327-2757","organization":"East Bay Regional Park District Headquarters","id":"a8qory01falw","address":"2950 Peralta Oaks Court","geo_precision":"range"},"type":"Feature","geometry":{"type":"Point","coordinates":[-122.144058,37.742632]}},{"properties":{"city":"Oakland","zip":"94601","geo_score":0.805,"phone":"(510) 615-5980","organization":"ADA Inclusion Center","id":"a8qory3oulyn","address":"7701 Krause Avenue","geo_precision":"range"},"type":"Feature","geometry":{"type":"Point","coordinates":[-122.175981,37.762479]}},{"properties":{"city":"Oakland","zip":"94619","geo_score":0.902,"phone":"(510)535-5635","organization":"Allendale Recreation Center","id":"a8qory5thz26","address":"3711 Suter Street","geo_precision":"range"},"type":"Feature","geometry":{"type":"Point","coordinates":[-122.202841,37.789762]}},{"properties":{"city":"Oakland","zip":"94601","geo_score":0.805,"phone":"(510) 615-5755","organization":"Arroyo Viejo Recreation Center","id":"a8qory8864od","address":"7701 Krause Avenue","geo_precision":"range"},"type":"Feature","geometry":{"type":"Point","coordinates":[-122.175981,37.762479]}},{"properties":{"city":"Oakland","zip":"94601","geo_score":0.382,"phone":"(510) 535-5632","organization":"Brookdale Recreation Center","id":"a8qory4x1jsa","address":"2535 High Street","geo_precision":"street"},"type":"Feature","geometry":{"type":"Point","coordinates":[-122.136995,37.76601]}},{"properties":{"city":"Oakland","zip":"94609","geo_score":0.777,"phone":"(510) 597-5031","organization":"Bushrod Recreation Center","id":"a8qory3sjqm1","address":"560-59th Street","geo_precision":"range"},"type":"Feature","geometry":{"type":"Point","coordinates":[-122.263399,37.844901]}},{"properties":{"city":"Oakland","zip":"94607","geo_score":0.902,"phone":"(510) 986-2888","organization":"Campbell Village","id":"a8qorxwoy3cj","address":"800 Willow Street","geo_precision":"range"},"type":"Feature","geometry":{"type":"Point","coordinates":[-122.300147,37.808181]}},{"properties":{"city":"Oakland","zip":"94601","geo_score":0.902,"phone":"(510) 535-5631","organization":"Carmen Flores Recreation Center","id":"a8qory1nq1qm","address":"1637 Fruitvale Avenue","geo_precision":"range"},"type":"Feature","geometry":{"type":"Point","coordinates":[-122.22414,37.781077]}},{"properties":{"city":"Oakland","zip":"94607","geo_score":0.902,"phone":"(510) 238-7739","organization":"deFremery Recreation Center","id":"a8qory41bd3i","address":"1651 Adeline Street","geo_precision":"range"},"type":"Feature","geometry":{"type":"Point","coordinates":[-122.285398,37.812025]}},{"properties":{"city":"Oakland","zip":"94602","geo_score":0.902,"phone":"(510) 482-7831","organization":"Dimond Recreation Center","id":"a8qory39i0x4","address":"3860 Hanly Road","geo_precision":"range"},"type":"Feature","geometry":{"type":"Point","coordinates":[-122.214624,37.80686]}},{"properties":{"city":"Oakland","zip":"94601","geo_score":0.382,"phone":"(510) 535-5657","organization":"Discovery Center","id":"a8qoryb1folg","address":"2521 High Street","geo_precision":"street"},"type":"Feature","geometry":{"type":"Point","coordinates":[-122.136995,37.76601]}},{"properties":{"city":"Oakland","zip":"94606","geo_score":0.902,"phone":"(510) 238-7742","organization":"F.M. Smith Recreation Center","id":"a8qory8wjgwp","address":"1969 Park Boulevard","geo_precision":"range"},"type":"Feature","geometry":{"type":"Point","coordinates":[-122.249173,37.800351]}},{"properties":{"city":"Oakland","zip":"94606","geo_score":0.482,"phone":"(510) 238-7741","organization":"Franklin Recreation Center","id":"a8qorxvimxi6","address":"1010 E. 15th Street","geo_precision":"street"},"type":"Feature","geometry":{"type":"Point","coordinates":[-122.245654,37.788544]}},{"properties":{"city":"Oakland","zip":"94608","geo_score":0.679,"phone":"(510) 597-5032","organization":"Golden Gate Recreation Center","id":"a8qory69g6fu","address":"1075-62nd Street","geo_precision":"range"},"type":"Feature","geometry":{"type":"Point","coordinates":[-122.280341,37.845568]}},{"properties":{"city":"Oakland","zip":"94603","geo_score":0.902,"phone":"(510) 615-5959","organization":"Ira Jinkins Recreation Center","id":"a8qory24y6bt","address":"9175 Edes Avenue","geo_precision":"range"},"type":"Feature","geometry":{"type":"Point","coordinates":[-122.189192,37.737894]}},{"properties":{"city":"Oakland","zip":"94607","geo_score":0.777,"phone":"(510) 238-7738","organization":"Lincoln Square Recreation Center","id":"a8qoryai1vy5","address":"250-10th Street","geo_precision":"range"},"type":"Feature","geometry":{"type":"Point","coordinates":[-122.267524,37.799445]}},{"properties":{"city":"Oakland","zip":"94612","geo_score":0.805,"phone":"(510) 238-7219","organization":"Malonga Casquelourd Center for the Arts","id":"a8qorybkn2bh","address":"1428 Alice Street","geo_precision":"street"},"type":"Feature","geometry":{"type":"Point","coordinates":[-122.264778,37.805119]}},{"properties":{"city":"Oakland","zip":"94606","geo_score":0.793,"phone":"(510) 535-5625","organization":"Manzanita Recreation Center","id":"a8qory8ctcle","address":"2701-22nd Avenue","geo_precision":"range"},"type":"Feature","geometry":{"type":"Point","coordinates":[-122.227468,37.794691]}},{"properties":{"city":"Oakland","zip":"94611","geo_score":0.902,"phone":"(510) 482-7812","organization":"Montclair Recreation Center","id":"a8qorxzc4f8q","address":"6300 Moraga Avenue","geo_precision":"range"},"type":"Feature","geometry":{"type":"Point","coordinates":[-122.213352,37.829676]}},{"properties":{"city":"Oakland","zip":"94609","geo_score":0.902,"phone":"(510) 597-5038","organization":"Mosswood Recreation Center","id":"a8qory3k6c58","address":"3612 Webster Street","geo_precision":"range"},"type":"Feature","geometry":{"type":"Point","coordinates":[-122.262021,37.823554]}},{"properties":{"city":"Oakland","zip":"94608","geo_score":0.805,"phone":"(510) 597-5042","organization":"Poplar Recreation Center","id":"a8qorybd7r61","address":"3131 Union Street","geo_precision":"range"},"type":"Feature","geometry":{"type":"Point","coordinates":[-122.283624,37.823134]}},{"properties":{"city":"Oakland","zip":"94621","geo_score":0.902,"phone":"(510) 615-5751","organization":"Rainbow Recreation Center","id":"a8qory8zu5gy","address":"5800 International Boulevard","geo_precision":"range"},"type":"Feature","geometry":{"type":"Point","coordinates":[-122.199502,37.765149]}},{"properties":{"city":"Oakland","zip":"94619","geo_score":0.902,"phone":"(510) 482-7827","organization":"Redwood Heights Recreation Center","id":"a8qory93lasu","address":"3883 Aliso Avenue","geo_precision":"range"},"type":"Feature","geometry":{"type":"Point","coordinates":[-122.186873,37.798544]}},{"properties":{"city":"Oakland","zip":"94610","geo_score":0.902,"phone":"(510) 238-3739","organization":"Rotary Nature Center","id":"a8qory8be2b0","address":"600 Bellevue Ave","geo_precision":"range"},"type":"Feature","geometry":{"type":"Point","coordinates":[-122.259598,37.809868]}},{"properties":{"city":"Oakland","zip":"94606","geo_score":0.837,"phone":"(510) 535-5608","organization":"San Antonio Recreation Center","id":"a8qorybk8fg0","address":"1701 East 19th Street","geo_precision":"range"},"type":"Feature","geometry":{"type":"Point","coordinates":[-122.238939,37.790407]}},{"properties":{"city":"Oakland","zip":"94605","geo_score":0.902,"phone":"(510) 638-7190","organization":"Sheffield Village Recreation Center","id":"a8qory53ohgi","address":"247 Marlow Drive","geo_precision":"range"},"type":"Feature","geometry":{"type":"Point","coordinates":[-122.134993,37.735206]}},{"properties":{"city":"Oakland","zip":"94605","geo_score":0.721,"phone":"(510) 597-5096","organization":"Studio One Art Center","id":"a8qory1d2zzo","address":"365 45th Street","geo_precision":"range"},"type":"Feature","geometry":{"type":"Point","coordinates":[-122.256908,37.833268]}},{"properties":{"city":"Oakland","zip":"94619","geo_score":0.695,"phone":"(510) 615-5764","organization":"Tassafaronga Recreation Center","id":"a8qory0ls80p","address":"975-85th Avenue","geo_precision":"range"},"type":"Feature","geometry":{"type":"Point","coordinates":[-122.185613,37.749424]}},{"properties":{"city":"Oakland","zip":"94603","geo_score":0.488,"phone":"(510) 615-5838","organization":"Verdese Carter Recreation Center","id":"a8qory6lqsp3","address":"9600 Sunnvside Street","geo_precision":"zip"},"type":"Feature","geometry":{"type":"Point","coordinates":[-122.198428,37.761778]}},{"properties":{"city":"Piedmont","zip":"94611","geo_score":0.902,"phone":"(510) 420-3072","organization":"Piedmont Recreation Department","id":"a8qory743gse","address":"358 Hillside Avenue","geo_precision":"range"},"type":"Feature","geometry":{"type":"Point","coordinates":[-122.234573,37.823461]}},{"properties":{"city":"Piedmont","zip":"94611","geo_score":0.488,"phone":"(510) 420-3081","organization":"Piedmont Community Hall","id":"a8qorxyavmdj","address":"711 Highland Avenue","geo_precision":"zip"},"type":"Feature","geometry":{"type":"Point","coordinates":[-122.231635,37.824372]}},{"properties":{"city":"Pleasanton","zip":"94538","geo_score":0.476,"phone":"(925) 931-3432","organization":"Amador Recreation Center","id":"a8qorxzkn8pq","address":"4333 Black Avenue","geo_precision":"street"},"type":"Feature","geometry":{"type":"Point","coordinates":[-121.998344,37.536273]}},{"properties":{"city":"San Leandro","zip":"94538","geo_score":0.805,"phone":"(510) 577-3462","organization":"Halcyon Park Building","id":"a8qorxz8gu73","address":"1245 147th Ave.","geo_precision":"range"},"type":"Feature","geometry":{"type":"Point","coordinates":[-122.137209,37.706726]}},{"properties":{"city":"San Leandro","zip":"94579","geo_score":0.78,"phone":"(510) 577-3462","organization":"Washington Manor Park Building","id":"a8qoryaa1vh3","address":"14900 Zelma St.","geo_precision":"street"},"type":"Feature","geometry":{"type":"Point","coordinates":[-122.147922,37.694093]}},{"properties":{"city":"San Lorenzo","zip":"94580","geo_score":0.902,"phone":"(510) 317-2309","organization":"San Lorenzo Park &amp; Community Center","id":"a8qory0b2d4y","address":"2000 Bandoni Ave","geo_precision":"range"},"type":"Feature","geometry":{"type":"Point","coordinates":[-122.145667,37.666197]}},{"properties":{"city":"Union City","zip":"94560","geo_score":0.815,"phone":"(510) 578-4620","organization":"Silliman Activity and Family Aquatic Center","id":"a8qory27glzh","address":"6800 Mowry Avenue","geo_precision":"range"},"type":"Feature","geometry":{"type":"Point","coordinates":[-122.012103,37.515625]}}],"is_temporal":false,"author":{"url":"","metadata":"","contact_name":"","contact_address":"","source":"","contact_phone":""},"source":"","pagination":{"sort":null,"start":0,"total":73,"limit":1000000},"state":"complete","tags":"alameda,county,development,education,play,youth","published":"2012-09-19T16:00:00Z","id":275498}