{"type":"FeatureCollection","data_type":"Dataset","url_type":null,"permissions":[{"permissions":{"download":true,"view":true},"group_id":"everyone"}],"classification":null,"title":"section_i_HS","count":79,"stream_id":275463,"contributor":{"url":"http://geocommons.com/users/39422","name":"rshek"},"data_attributes":null,"calculation_params":null,"icon_link":null,"link":"http://geocommons.com/overlays/275463.json","extent":[-74.2893,40.9024,-73.5905,41.6943],"geometry_types":["point"],"unique_name":null,"name":"section_i_HS","feature_count":79,"description":"","next_feature":null,"is_raster":false,"short_classification":"Y","stats":{},"features":[{"properties":{"city":"Bardonia","school name":"Albertus Magnus High School","geo_score":0.842,"zip code":"10954","street":"798 Route 304","id":"a8pll1tgsaca","geo_precision":"range","state":"NY","partnership manager":"Craig Meyerson"},"type":"Feature","geometry":{"type":"Point","coordinates":[-73.993524,41.117924]}},{"properties":{"city":"Elmsford","school name":"Alexander Hamilton HS","geo_score":1.0,"zip code":"10523","street":"98 South Goodwin Ave.","id":"a8pll1rild6x","geo_precision":"range","state":"NY","partnership manager":"Craig Meyerson"},"type":"Feature","geometry":{"type":"Point","coordinates":[-73.817396,41.050685]}},{"properties":{"city":"Ardsley","school name":"Ardsley High School","geo_score":1.0,"zip code":"10502","street":"300 Farm Rd.","id":"a8pll1wbwkr0","geo_precision":"range","state":"NY","partnership manager":"Craig Meyerson"},"type":"Feature","geometry":{"type":"Point","coordinates":[-73.834133,41.020645]}},{"properties":{"city":"LaGrangeville","school name":"Arlington High School","geo_score":0.538,"zip code":"12540","street":"1157 Route 55","id":"a8pll1lcexho","geo_precision":"street","state":"NY","partnership manager":"Brad Serton"},"type":"Feature","geometry":{"type":"Point","coordinates":[-73.705005,41.63104]}},{"properties":{"city":"Beacon","school name":"Beacon High School","geo_score":0.902,"zip code":"12508","street":"101 Matteawan Rd","id":"a8pll1wbqpkh","geo_precision":"street","state":"NY","partnership manager":"Yvette Rodriguez-Sedacca"},"type":"Feature","geometry":{"type":"Point","coordinates":[-73.964357,41.512402]}},{"properties":{"city":"Rye Brook","school name":"Blind Brook High School","geo_score":1.0,"zip code":"10573","street":"840 King St.","id":"a8pll1psqgf2","geo_precision":"range","state":"NY","partnership manager":"Brian Amen"},"type":"Feature","geometry":{"type":"Point","coordinates":[-73.670775,41.029866]}},{"properties":{"city":"Brewster","school name":"Brewster High School","geo_score":0.79,"zip code":"10509","street":"50 Foggintonwn Road","id":"a8pll1s403xk","geo_precision":"street","state":"NY","partnership manager":"Brad Serton"},"type":"Feature","geometry":{"type":"Point","coordinates":[-73.597627,41.440256]}},{"properties":{"city":"Briarcliff Manor","school name":"Briarcliff High School","geo_score":1.0,"zip code":"10510","street":"444 Pleasantville Rd.","id":"a8pll1le2plt","geo_precision":"range","state":"NY","partnership manager":"Craig Meyerson"},"type":"Feature","geometry":{"type":"Point","coordinates":[-73.810213,41.135482]}},{"properties":{"city":"Bronxville","school name":"Bronxville High School","geo_score":1.0,"zip code":"10708","street":"177 Pondfield Rd","id":"a8pll1s8ai13","geo_precision":"range","state":"NY","partnership manager":"Craig Meyerson"},"type":"Feature","geometry":{"type":"Point","coordinates":[-73.831589,40.937112]}},{"properties":{"city":"Armonk","school name":"Byram Hills High School","geo_score":1.0,"zip code":"10504","street":"12 Tripp Ln.","id":"a8pll1otb9cj","geo_precision":"range","state":"NY","partnership manager":"Joe Lombardi"},"type":"Feature","geometry":{"type":"Point","coordinates":[-73.688561,41.132997]}},{"properties":{"city":"Yonkers","school name":"Charles E. Gorton High School","geo_score":1.0,"zip code":"10703","street":"100 Shonnard Pl.","id":"a8pll1lxgq73","geo_precision":"range","state":"NY","partnership manager":"Kevin Carey"},"type":"Feature","geometry":{"type":"Point","coordinates":[-73.885221,40.950477]}},{"properties":{"city":"New City","school name":"Clarkstown North High School","geo_score":1.0,"zip code":"10956","street":"151 Congers Rd.","id":"a8pll1k7g3ra","geo_precision":"range","state":"NY","partnership manager":"Joe Lombardi"},"type":"Feature","geometry":{"type":"Point","coordinates":[-73.97629,41.147527]}},{"properties":{"city":"West Nyack","school name":"Clarkstown South High School","geo_score":1.0,"zip code":"10994","street":"31 Demarest Mill Rd.","id":"a8pll1mj72ii","geo_precision":"range","state":"NY","partnership manager":"Joe Lombardi"},"type":"Feature","geometry":{"type":"Point","coordinates":[-73.981101,41.106582]}},{"properties":{"city":"Croton-On Hudson","school name":"Croton-Harmon High School","geo_score":0.595,"zip code":"10520","street":"36 Old Post Rd. South","id":"a8pll1iu49b1","geo_precision":"street","state":"NY","partnership manager":"Joe Lombardi"},"type":"Feature","geometry":{"type":"Point","coordinates":[-73.882717,41.208391]}},{"properties":{"city":"Dobbs Ferry","school name":"Dobbs Ferry High School","geo_score":1.0,"zip code":"10522","street":"505 Broadway","id":"a8pll1jre5d5","geo_precision":"range","state":"NY","partnership manager":"Joe Lombardi"},"type":"Feature","geometry":{"type":"Point","coordinates":[-73.869759,41.019991]}},{"properties":{"city":"Eastchester","school name":"Eastchester High School","geo_score":1.0,"zip code":"10709","street":"2 Stewart Place","id":"a8pll1vjoty5","geo_precision":"range","state":"NY","partnership manager":"Kevin Carey"},"type":"Feature","geometry":{"type":"Point","coordinates":[-73.809595,40.962834]}},{"properties":{"city":"Edgemont","school name":"Edgemont Jr/Sr High School","geo_score":0.925,"zip code":"10583","street":"200 White Oak Ln","id":"a8pll1j9ampm","geo_precision":"range","state":"NY","partnership manager":"Kevin Carey"},"type":"Feature","geometry":{"type":"Point","coordinates":[-73.812094,40.99856]}},{"properties":{"city":"Bedford","school name":"Fox Lane High School","geo_score":0.607,"zip code":"10506","street":"632 S. Bedford Rd.","id":"a8pll1jew7ve","geo_precision":"street","state":"NY","partnership manager":"Joe Lombardi"},"type":"Feature","geometry":{"type":"Point","coordinates":[-73.660153,41.193777]}},{"properties":{"city":"Irvington","school name":"Greenburgh Academy","geo_score":1.0,"zip code":"10533","street":"100 North Broadway","id":"a8pll1s5vyip","geo_precision":"range","state":"NY","partnership manager":"Kevin Carey"},"type":"Feature","geometry":{"type":"Point","coordinates":[-73.862009,41.046039]}},{"properties":{"city":"Cold Spring","school name":"Haldane High School","geo_score":1.0,"zip code":"10516","street":"15 Craigside Dr.","id":"a8pll1kh2bx9","geo_precision":"range","state":"NY","partnership manager":"Yvette Rodriguez-Sedacca"},"type":"Feature","geometry":{"type":"Point","coordinates":[-73.953187,41.422991]}},{"properties":{"city":"Harrison","school name":"Harrison High School","geo_score":1.0,"zip code":"10528","street":"255 Union Ave.","id":"a8pll1s7snm1","geo_precision":"range","state":"NY","partnership manager":"Brian Amen"},"type":"Feature","geometry":{"type":"Point","coordinates":[-73.74238,40.981957]}},{"properties":{"city":"Hastings-on-Hudson","school name":"Hastings High School","geo_score":1.0,"zip code":"10706","street":"1 Mount Hope Blvd.","id":"a8pll1pv6z1d","geo_precision":"range","state":"NY","partnership manager":"Craig Meyerson"},"type":"Feature","geometry":{"type":"Point","coordinates":[-73.874686,40.992806]}},{"properties":{"city":"Hawthorne","school name":"Hawthorne Cedar Knolls","geo_score":1.0,"zip code":"10532","street":"226 Linda Ave.","id":"a8pll1kerahs","geo_precision":"range","state":"NY","partnership manager":"Joe Lombardi"},"type":"Feature","geometry":{"type":"Point","coordinates":[-73.787199,41.103226]}},{"properties":{"city":"Montrose","school name":"Hendrick Hudson High School","geo_score":0.683,"zip code":"10548","street":"2166 Albany Post Rd","id":"a8pll1pccjzs","geo_precision":"street","state":"NY","partnership manager":"Yvette Rodriguez-Sedacca"},"type":"Feature","geometry":{"type":"Point","coordinates":[-73.922181,41.239867]}},{"properties":{"city":"Chappaqua","school name":"Horace Greeley High School","geo_score":1.0,"zip code":"10514","street":"70 Roaring Brook Rd.","id":"a8pll1tjuew2","geo_precision":"range","state":"NY","partnership manager":"Joe Lombardi"},"type":"Feature","geometry":{"type":"Point","coordinates":[-73.757045,41.179464]}},{"properties":{"city":"Irvington","school name":"Irvington High School (NY)","geo_score":0.614,"zip code":"10533","street":"40 N. Broadway","id":"a8pll1rj728c","geo_precision":"street","state":"NY","partnership manager":"Joe Lombardi"},"type":"Feature","geometry":{"type":"Point","coordinates":[-73.864115,41.041413]}},{"properties":{"city":"Somers","school name":"John F. Kennedy-Catholic High School","geo_score":0.745,"zip code":"10589","street":"54 Route 138","id":"a8pll1k02xgp","geo_precision":"street","state":"NY","partnership manager":"Yvette Rodriguez-Sedacca"},"type":"Feature","geometry":{"type":"Point","coordinates":[-73.68781,41.302455]}},{"properties":{"city":"Cross River","school name":"John Jay High School - Cross River","geo_score":0.883,"zip code":"10518","street":"60 North Salem Route 121","id":"a8pll1mr4xov","geo_precision":"range","state":"NY","partnership manager":"Joe Lombardi"},"type":"Feature","geometry":{"type":"Point","coordinates":[-73.611861,41.279483]}},{"properties":{"city":"Hopewell Junction","school name":"John Jay High School - East Fishkill","geo_score":0.829,"zip code":"12533","street":"2012 Route 52","id":"a8pll1r5v7wi","geo_precision":"range","state":"NY","partnership manager":"Yvette Rodriguez-Sedacca"},"type":"Feature","geometry":{"type":"Point","coordinates":[-73.782012,41.55614]}},{"properties":{"city":"Purchase","school name":"Keio Academy","geo_score":1.0,"zip code":"10577","street":"3 College Road","id":"a8pll1h4804x","geo_precision":"range","state":"NY","partnership manager":"Craig Meyerson"},"type":"Feature","geometry":{"type":"Point","coordinates":[-73.717832,41.026163]}},{"properties":{"city":"Dobbs Ferry","school name":"Kenneth Clark Academy","geo_score":0.941,"zip code":"10522","street":"71 South Broadway","id":"a8pll1qlxt96","geo_precision":"range","state":"NY","partnership manager":"Kevin Carey"},"type":"Feature","geometry":{"type":"Point","coordinates":[-73.879956,41.004853]}},{"properties":{"city":"Shrub Oak","school name":"Lakeland High School","geo_score":1.0,"zip code":"10588","street":"1349 East Main St.","id":"a8pll1rjmfbc","geo_precision":"range","state":"NY","partnership manager":"Joe Lombardi"},"type":"Feature","geometry":{"type":"Point","coordinates":[-73.842738,41.328488]}},{"properties":{"city":"Yonkers","school name":"Lincoln High School (WE)","geo_score":1.0,"zip code":"10704","street":"375 Kneeland Ave.","id":"a8pll1k3reqa","geo_precision":"range","state":"NY","partnership manager":"Kevin Carey"},"type":"Feature","geometry":{"type":"Point","coordinates":[-73.874344,40.920735]}},{"properties":{"city":"Mahopac","school name":"Mahopac High School","geo_score":0.945,"zip code":"10541","street":"421 Baldwin Place Road","id":"a8pll1kmzllc","geo_precision":"range","state":"NY","partnership manager":"Brad Serton"},"type":"Feature","geometry":{"type":"Point","coordinates":[-73.752369,41.371435]}},{"properties":{"city":"Mamaroneck","school name":"Mamaroneck High School","geo_score":0.598,"zip code":"10543","street":"1000 W. Boston Post Rd.","id":"a8pll1s9ppwe","geo_precision":"street","state":"NY","partnership manager":"Brian Amen"},"type":"Feature","geometry":{"type":"Point","coordinates":[-73.73413,40.947354]}},{"properties":{"city":"Hastings-on-Hudson","school name":"Martin Luther King Jr. High School","geo_score":0.777,"zip code":"10706","street":"1 South Broadway","id":"a8pll1n9mrdh","geo_precision":"street","state":"NY","partnership manager":"Joe Lombardi"},"type":"Feature","geometry":{"type":"Point","coordinates":[-73.879207,40.989336]}},{"properties":{"city":"Pleasantville","school name":"Mount Pleasant Cottage School","geo_score":1.0,"zip code":"10570","street":"1075 Broadway","id":"a8pll1icwx9o","geo_precision":"range","state":"NY","partnership manager":"Joe Lombardi"},"type":"Feature","geometry":{"type":"Point","coordinates":[-73.777949,41.129414]}},{"properties":{"city":"Mount Vernon","school name":"Mount Vernon High School","geo_score":0.878,"zip code":"10552","street":"100 California Rd.","id":"a8pll1qgpl5m","geo_precision":"street","state":"NY","partnership manager":"Brad Serton"},"type":"Feature","geometry":{"type":"Point","coordinates":[-73.814701,40.927296]}},{"properties":{"city":"Nanuet","school name":"Nanuet High School","geo_score":1.0,"zip code":"10954","street":"103 Church St.","id":"a8pll1tbrm8y","geo_precision":"range","state":"NY","partnership manager":"Craig Meyerson"},"type":"Feature","geometry":{"type":"Point","coordinates":[-74.005447,41.08945]}},{"properties":{"city":"New Rochelle","school name":"New Rochelle High School","geo_score":1.0,"zip code":"10801","street":"265 Clove Rd","id":"a8pll1kzy425","geo_precision":"range","state":"NY","partnership manager":"Kevin Carey"},"type":"Feature","geometry":{"type":"Point","coordinates":[-73.796326,40.929487]}},{"properties":{"city":"Thiells","school name":"North Rockland High School","geo_score":1.0,"zip code":"10984","street":"106 Hammond Rd.","id":"a8pll1k1ko5w","geo_precision":"range","state":"NY","partnership manager":"Joe Lombardi"},"type":"Feature","geometry":{"type":"Point","coordinates":[-74.015282,41.217734]}},{"properties":{"city":"North Salem","school name":"North Salem High School","geo_score":1.0,"zip code":"10560","street":"230 June Rd.","id":"a8pll1hiz4ih","geo_precision":"range","state":"NY","partnership manager":"Joe Lombardi"},"type":"Feature","geometry":{"type":"Point","coordinates":[-73.593432,41.355469]}},{"properties":{"city":"Upper Nyack","school name":"Nyack High School","geo_score":0.425,"zip code":"10960","street":"360 Christian Herald Rd.","id":"a8pll1sgvdmk","geo_precision":"street","state":"NY","partnership manager":"Craig Meyerson"},"type":"Feature","geometry":{"type":"Point","coordinates":[-73.938876,41.113717]}},{"properties":{"city":"Ossining","school name":"Ossining High School","geo_score":0.325,"zip code":"10562","street":"29 S. Highland Ave.","id":"a8pll1nobz8w","geo_precision":"street","state":"NY","partnership manager":"Joe Lombardi"},"type":"Feature","geometry":{"type":"Point","coordinates":[-73.70908,40.967939]}},{"properties":{"city":"Poughkeepsie","school name":"Our Lady of Lourdes","geo_score":1.0,"zip code":"12603","street":"131 Boardman Rd.","id":"a8pll1stl58b","geo_precision":"range","state":"NY","partnership manager":"Yvette Rodriguez-Sedacca"},"type":"Feature","geometry":{"type":"Point","coordinates":[-73.890231,41.66673]}},{"properties":{"city":"Yonkers","school name":"Palisade Preparatory School","geo_score":0.816,"zip code":"10701","street":"201 Palisade Ave.","id":"a8pll1lxs4lg","geo_precision":"street","state":"NY","partnership manager":"Kevin Carey"},"type":"Feature","geometry":{"type":"Point","coordinates":[-73.893708,40.938449]}},{"properties":{"city":"Pawling","school name":"Pawling High School","geo_score":0.585,"zip code":"12564","street":"30 Wagner Drive","id":"a8pll1ix7bn8","geo_precision":"zip","state":"NY","partnership manager":"Nicholas Francesco"},"type":"Feature","geometry":{"type":"Point","coordinates":[-73.590491,41.663759]}},{"properties":{"city":"Pearl River","school name":"Pearl River High School","geo_score":0.955,"zip code":"10965","street":"275 Central Ave.","id":"a8pll1t3pqs5","geo_precision":"range","state":"NY","partnership manager":"Craig Meyerson"},"type":"Feature","geometry":{"type":"Point","coordinates":[-74.010674,41.060082]}},{"properties":{"city":"Peekskill","school name":"Peekskill High School","geo_score":1.0,"zip code":"10566","street":"1072 Elm St.","id":"a8pll1pc2ah8","geo_precision":"range","state":"NY","partnership manager":"Yvette Rodriguez-Sedacca"},"type":"Feature","geometry":{"type":"Point","coordinates":[-73.917883,41.286587]}},{"properties":{"city":"Pelham","school name":"Pelham Memorial High School","geo_score":0.878,"zip code":"10803","street":"575 Colonial Ave.","id":"a8pll1r8htqa","geo_precision":"range","state":"NY","partnership manager":"Kevin Carey"},"type":"Feature","geometry":{"type":"Point","coordinates":[-73.811836,40.902381]}},{"properties":{"city":"Pleasantville","school name":"Pleasantville High School","geo_score":1.0,"zip code":"10570","street":"60 Romer Ave.","id":"a8pll1nq7yjg","geo_precision":"range","state":"NY","partnership manager":"Joe Lombardi"},"type":"Feature","geometry":{"type":"Point","coordinates":[-73.785498,41.134387]}},{"properties":{"city":"Port Chester","school name":"Port Chester Sr. High School","geo_score":0.725,"zip code":"10573","street":"1 Tamarack Rd.","id":"a8pll1jatz4o","geo_precision":"range","state":"NY","partnership manager":"Brian Amen"},"type":"Feature","geometry":{"type":"Point","coordinates":[-73.716777,40.982464]}},{"properties":{"city":"Poughkeepsie","school name":"Poughkeepsie High School","geo_score":1.0,"zip code":"12603","street":"70 Forbus St","id":"a8pll1hpv9ye","geo_precision":"range","state":"NY","partnership manager":"Nicholas Francesco"},"type":"Feature","geometry":{"type":"Point","coordinates":[-73.914075,41.694313]}},{"properties":{"city":"Putnam Valley","school name":"Putnam Valley High School","geo_score":1.0,"zip code":"10579","street":"146 Peekskill Hollow Rd","id":"a8pll1nrcjm8","geo_precision":"range","state":"NY","partnership manager":"Yvette Rodriguez-Sedacca"},"type":"Feature","geometry":{"type":"Point","coordinates":[-73.855826,41.338166]}},{"properties":{"city":"Spring Valley","school name":"Ramapo High School (NY)","geo_score":1.0,"zip code":"10977","street":"400 Viola Rd.","id":"a8pll1lr21pn","geo_precision":"range","state":"NY","partnership manager":"Craig Meyerson"},"type":"Feature","geometry":{"type":"Point","coordinates":[-74.058774,41.133407]}},{"properties":{"city":"Yonkers","school name":"Riverside High School","geo_score":0.878,"zip code":"10701","street":"565 Warburton Ave","id":"a8pll1j991f5","geo_precision":"range","state":"NY","partnership manager":"Kevin Carey"},"type":"Feature","geometry":{"type":"Point","coordinates":[-73.895141,40.956146]}},{"properties":{"city":"Yonkers","school name":"Roosevelt High School (WEST)","geo_score":0.585,"zip code":"10710","street":"631 Tuckahoe Rd.","id":"a8pll1h1uzfa","geo_precision":"zip","state":"NY","partnership manager":"Kevin Carey"},"type":"Feature","geometry":{"type":"Point","coordinates":[-73.84736,40.967946]}},{"properties":{"city":"Wappingers Falls","school name":"Roy C Ketcham High School","geo_score":0.945,"zip code":"12590","street":"99 Myers Corners Rd.","id":"a8pll1ju7g99","geo_precision":"range","state":"NY","partnership manager":"Yvette Rodriguez-Sedacca"},"type":"Feature","geometry":{"type":"Point","coordinates":[-73.893639,41.591972]}},{"properties":{"city":"Rye","school name":"Rye High School","geo_score":1.0,"zip code":"10580","street":"1 Parsons St.","id":"a8pll1i2d06m","geo_precision":"range","state":"NY","partnership manager":"Brian Amen"},"type":"Feature","geometry":{"type":"Point","coordinates":[-73.687159,40.974449]}},{"properties":{"city":"Mamaroneck","school name":"Rye Neck High School","geo_score":1.0,"zip code":"10543","street":"300 Hornidge Road","id":"a8pll1wo47vf","geo_precision":"range","state":"NY","partnership manager":"Brian Amen"},"type":"Feature","geometry":{"type":"Point","coordinates":[-73.715902,40.956334]}},{"properties":{"city":"Yonkers","school name":"Saunders Trades and Technical High School","geo_score":1.0,"zip code":"10701","street":"183 Palmer Rd.","id":"a8pll1kaqaxh","geo_precision":"range","state":"NY","partnership manager":"Kevin Carey"},"type":"Feature","geometry":{"type":"Point","coordinates":[-73.873503,40.943405]}},{"properties":{"city":"Scarsdale","school name":"Scarsdale High School","geo_score":1.0,"zip code":"10583","street":"1057 Post Rd","id":"a8pll1wj27bm","geo_precision":"range","state":"NY","partnership manager":"Kevin Carey"},"type":"Feature","geometry":{"type":"Point","coordinates":[-73.792596,40.993403]}},{"properties":{"city":"Sleepy Hollow","school name":"Sleepy Hollow High School","geo_score":0.614,"zip code":"10591","street":"210 N. Broadway","id":"a8pll1nzfphs","geo_precision":"street","state":"NY","partnership manager":"Joe Lombardi"},"type":"Feature","geometry":{"type":"Point","coordinates":[-73.857655,41.078849]}},{"properties":{"city":"Hartsdale","school name":"Solomon Schechter Upper School","geo_score":0.6,"zip code":"10530","street":"555 W. Hartsdale Ave.","id":"a8pll1mh46yq","geo_precision":"street","state":"NY","partnership manager":"Craig Meyerson"},"type":"Feature","geometry":{"type":"Point","coordinates":[-73.799713,41.020375]}},{"properties":{"city":"Lincolndale","school name":"Somers High School (NY)","geo_score":0.902,"zip code":"10540","street":"120 Primrose St.","id":"a8pll1hl0tx6","geo_precision":"range","state":"NY","partnership manager":"Joe Lombardi"},"type":"Feature","geometry":{"type":"Point","coordinates":[-73.717246,41.312767]}},{"properties":{"city":"Spring Valley","school name":"Spring Valley High School","geo_score":0.512,"zip code":"10977","street":"361 East Rt. 59","id":"a8pll1lga7sn","geo_precision":"range","state":"NY","partnership manager":"Craig Meyerson"},"type":"Feature","geometry":{"type":"Point","coordinates":[-74.289325,41.323258]}},{"properties":{"city":"Suffern","school name":"Suffern High School","geo_score":1.0,"zip code":"10901","street":"49 Viola Rd.","id":"a8pll1o89ll4","geo_precision":"range","state":"NY","partnership manager":"Craig Meyerson"},"type":"Feature","geometry":{"type":"Point","coordinates":[-74.106619,41.135811]}},{"properties":{"city":"Orangeburg","school name":"Tappan Zee High School","geo_score":1.0,"zip code":"10962","street":"15 Dutch Hill Rd.","id":"a8pll1l6go17","geo_precision":"range","state":"NY","partnership manager":"Craig Meyerson"},"type":"Feature","geometry":{"type":"Point","coordinates":[-73.955153,41.049605]}},{"properties":{"city":"Yonkers","school name":"The Biondi Middle and High School","geo_score":1.0,"zip code":"10705","street":"463 Hawthorne Avenue","id":"a8pll1kepcsz","geo_precision":"range","state":"NY","partnership manager":"Joe Lombardi"},"type":"Feature","geometry":{"type":"Point","coordinates":[-73.905943,40.914276]}},{"properties":{"city":"Dobbs Ferry","school name":"The Children's Village","geo_score":0.688,"zip code":"10522","street":"1 Echo Hills","id":"a8pll1mvczgi","geo_precision":"range","state":"NY","partnership manager":"Joe Lombardi"},"type":"Feature","geometry":{"type":"Point","coordinates":[-73.762903,40.938431]}},{"properties":{"city":"New Rochelle","school name":"The Ursuline School","geo_score":0.789,"zip code":"10804","street":"1354 North Ave.","id":"a8pll1lmm5o5","geo_precision":"range","state":"NY","partnership manager":"Kevin Carey"},"type":"Feature","geometry":{"type":"Point","coordinates":[-73.796644,40.94881]}},{"properties":{"city":"Eastchester","school name":"Tuckahoe High School","geo_score":0.741,"zip code":"10707","street":"65 Siwanoy Blvd.","id":"a8pll1i0btqv","geo_precision":"street","state":"NY","partnership manager":"Kevin Carey"},"type":"Feature","geometry":{"type":"Point","coordinates":[-73.81548,40.94125]}},{"properties":{"city":"Valhalla","school name":"Valhalla High School","geo_score":0.902,"zip code":"10595","street":"300 Columbus Ave.","id":"a8pll1qtqy10","geo_precision":"street","state":"NY","partnership manager":"Craig Meyerson"},"type":"Feature","geometry":{"type":"Point","coordinates":[-73.777363,41.089776]}},{"properties":{"city":"Cortlandt Manor","school name":"Walter Panas High School","geo_score":1.0,"zip code":"10567","street":"300 Croton Ave.","id":"a8pll1lmx6jm","geo_precision":"range","state":"NY","partnership manager":"Joe Lombardi"},"type":"Feature","geometry":{"type":"Point","coordinates":[-73.855715,41.276911]}},{"properties":{"city":"Thornwood","school name":"Westlake High School","geo_score":1.0,"zip code":"10594","street":"825 Westlake Dr.","id":"a8pll1qawimn","geo_precision":"range","state":"NY","partnership manager":"Craig Meyerson"},"type":"Feature","geometry":{"type":"Point","coordinates":[-73.763894,41.116237]}},{"properties":{"city":"White Plains","school name":"White Plains High School","geo_score":0.854,"zip code":"10605","street":"550 North St.","id":"a8pll1hnea2g","geo_precision":"range","state":"NY","partnership manager":"Craig Meyerson"},"type":"Feature","geometry":{"type":"Point","coordinates":[-73.73844,41.018841]}},{"properties":{"city":"Hartsdale","school name":"Woodlands High School","geo_score":1.0,"zip code":"10530","street":"475 West Hartsdale Ave.","id":"a8pll1h8wal3","geo_precision":"range","state":"NY","partnership manager":"Craig Meyerson"},"type":"Feature","geometry":{"type":"Point","coordinates":[-73.808806,41.030802]}},{"properties":{"city":"Yonkers","school name":"Yonkers Middle/High School","geo_score":0.585,"zip code":"10705","street":"150 Rockland Ave.","id":"a8pll1vt8kd4","geo_precision":"zip","state":"NY","partnership manager":"Kevin Carey"},"type":"Feature","geometry":{"type":"Point","coordinates":[-73.872529,40.926538]}},{"properties":{"city":"Yorktown Heights","school name":"Yorktown High School","geo_score":1.0,"zip code":"10598","street":"2727 Crompond Rd.","id":"a8pll1wtawpn","geo_precision":"range","state":"NY","partnership manager":"Joe Lombardi"},"type":"Feature","geometry":{"type":"Point","coordinates":[-73.803747,41.294607]}}],"is_temporal":false,"author":{"url":"","metadata":null,"contact_name":null,"contact_address":null,"source":null,"contact_phone":null},"source":"","pagination":{"sort":null,"start":0,"total":79,"limit":1000000},"state":"complete","tags":"","published":"2014-08-14T22:22:20-04:00","id":275463}