{"type":"FeatureCollection","data_type":"Dataset","url_type":null,"permissions":[{"permissions":{"download":true,"view":true},"group_id":"everyone"}],"classification":null,"title":"Alameda County Libraries","count":48,"stream_id":275497,"contributor":{"url":"http://geocommons.com/users/22109","name":"urbanstrategies"},"data_attributes":null,"calculation_params":null,"icon_link":null,"link":"http://geocommons.com/overlays/275497.json","extent":[-122.293,37.5227,-121.739,37.8877],"geometry_types":["point"],"unique_name":null,"name":"Alameda County Libraries","feature_count":48,"description":"Libraries in Alameda County","next_feature":null,"is_raster":false,"short_classification":"Y","stats":{},"features":[{"properties":{"city":"ALAMEDA","zip":"94501","geo_score":0.902,"phone":"(510) 747-7777","libsysname":"ALAMEDA FREE LIBRARY","id":"a8polrmlog62","libname":"ALAMEDA FREE (MAIN) LIBRARY","address":"1550 OAK ST.","geo_precision":"range","web_addr":"www.alamedafree.org"},"type":"Feature","geometry":{"type":"Point","coordinates":[-122.242561,37.766965]}},{"properties":{"city":"ALAMEDA","zip":"94501","geo_score":0.683,"phone":"(510) 747-7787","libsysname":"ALAMEDA FREE LIBRARY","id":"a8polrkiwin0","libname":"BAY FARM ISLAND BRANCH","address":"3221 MECARTNEY RD.","geo_precision":"range","web_addr":"www.alamedafree.org"},"type":"Feature","geometry":{"type":"Point","coordinates":[-122.241063,37.735722]}},{"properties":{"city":"ALAMEDA","zip":"94501","geo_score":0.902,"phone":"(510) 747-7767","libsysname":"ALAMEDA FREE LIBRARY","id":"a8polrjwtyf9","libname":"WEST END BRANCH","address":"788 SANTA CLARA AVE.","geo_precision":"range","web_addr":"www.alamedafree.org"},"type":"Feature","geometry":{"type":"Point","coordinates":[-122.274627,37.773151]}},{"properties":{"city":"ALBANY","zip":"94706","geo_score":0.902,"phone":"(510) 526-3720","libsysname":"ALAMEDA COUNTY LIBRARY","id":"a8polruxm3pm","libname":"ALBANY LIBRARY","address":"1247 MARIN AVENUE","geo_precision":"range","web_addr":"http://www.aclibrary.org/branches"},"type":"Feature","geometry":{"type":"Point","coordinates":[-122.293044,37.887653]}},{"properties":{"city":"BERKELEY","zip":"94704","geo_score":0.902,"phone":"(510) 981-6100","libsysname":"BERKELEY PUBLIC LIBRARY","id":"a8polrxfgxij","libname":"BERKELEY PUBLIC LIBRARY - CENTRAL","address":"2090 KITTREDGE ST.","geo_precision":"range","web_addr":"infopeople.org/bpl/"},"type":"Feature","geometry":{"type":"Point","coordinates":[-122.26894,37.868278]}},{"properties":{"city":"BERKELEY","zip":"94705","geo_score":0.902,"phone":"(510) 981-6280","libsysname":"BERKELEY PUBLIC LIBRARY","id":"a8polrw9gzfq","libname":"CLAREMONT BRANCH LIBRARY","address":"2940 BENVENUE AVE.","geo_precision":"range","web_addr":"infopeople.org/bpl/"},"type":"Feature","geometry":{"type":"Point","coordinates":[-122.254364,37.856878]}},{"properties":{"city":"BERKELEY","zip":"94705","geo_score":0.805,"phone":"(510) 981-6250","libsysname":"BERKELEY PUBLIC LIBRARY","id":"a8polrouuj1c","libname":"NORTH BRANCH LIBRARY","address":"1170 THE ALAMEDA","geo_precision":"range","web_addr":"infopeople.org/bpl/"},"type":"Feature","geometry":{"type":"Point","coordinates":[-122.275279,37.885569]}},{"properties":{"city":"BERKELEY","zip":"94703","geo_score":0.902,"phone":"(510) 981-6260","libsysname":"BERKELEY PUBLIC LIBRARY","id":"a8polrmpm9z9","libname":"SOUTH BRANCH LIBRARY","address":"1901 RUSSELL ST.","geo_precision":"range","web_addr":"infopeople.org/bpl/"},"type":"Feature","geometry":{"type":"Point","coordinates":[-122.271282,37.856154]}},{"properties":{"city":"BERKELEY","zip":"94702","geo_score":0.902,"phone":"(510) 981-6270","libsysname":"BERKELEY PUBLIC LIBRARY","id":"a8polrl3dquu","libname":"WEST BRANCH LIBRARY","address":"1125 UNIVERSITY AVE.","geo_precision":"range","web_addr":"infopeople.org/bpl/"},"type":"Feature","geometry":{"type":"Point","coordinates":[-122.290623,37.869313]}},{"properties":{"city":"CASTRO VALLEY","zip":"94546","geo_score":0.857,"phone":"(510) 667-7980","libsysname":"ALAMEDA COUNTY LIBRARY","id":"a8polrjmxxvb","libname":"CASTRO VALLEY LIBRARY","address":"Norbridge Avenue","geo_precision":"street","web_addr":"http://www.aclibrary.org/branches"},"type":"Feature","geometry":{"type":"Point","coordinates":[-122.089711,37.691444]}},{"properties":{"city":"DUBLIN","zip":"94568","geo_score":0.805,"phone":"(925) 803-7252","libsysname":"ALAMEDA COUNTY LIBRARY","id":"a8polrm4frmh","libname":"DUBLIN LIBRARY","address":"200 CIVIC PLAZA","geo_precision":"street","web_addr":"http://www.aclibrary.org/branches"},"type":"Feature","geometry":{"type":"Point","coordinates":[-121.91718,37.703686]}},{"properties":{"city":"FREMONT","zip":"94538","geo_score":0.902,"phone":"(510) 745-1477","libsysname":"ALAMEDA COUNTY LIBRARY","id":"a8polrkg24rf","libname":"ALAMEDA COUNTY BOOKMOBILE","address":"2450 STEVENSON BLVD.","geo_precision":"range","web_addr":"http://www.aclibrary.org/branches"},"type":"Feature","geometry":{"type":"Point","coordinates":[-121.972242,37.550936]}},{"properties":{"city":"FREMONT","zip":"94536","geo_score":0.902,"phone":"(510) 795-2629","libsysname":"ALAMEDA COUNTY LIBRARY","id":"a8polrtjviep","libname":"CENTERVILLE LIBRARY","address":"3801 NICOLET AVE.","geo_precision":"range","web_addr":"http://www.aclibrary.org/branches"},"type":"Feature","geometry":{"type":"Point","coordinates":[-122.021894,37.567226]}},{"properties":{"city":"FREMONT","zip":"94538","geo_score":0.902,"phone":"(510) 745-1401","libsysname":"ALAMEDA COUNTY LIBRARY","id":"a8polrx8vtpx","libname":"FREMONT MAIN LIBRARY","address":"2400 STEVENSON BLVD.","geo_precision":"range","web_addr":"http://www.aclibrary.org/branches"},"type":"Feature","geometry":{"type":"Point","coordinates":[-121.9723,37.550749]}},{"properties":{"city":"FREMONT","zip":"94538","geo_score":0.902,"phone":"(510) 795-2631","libsysname":"ALAMEDA COUNTY LIBRARY","id":"a8polrnj94qo","libname":"IRVINGTON LIBRARY","address":"41825 GREENPARK DR.","geo_precision":"range","web_addr":"http://www.aclibrary.org/branches"},"type":"Feature","geometry":{"type":"Point","coordinates":[-121.965469,37.522691]}},{"properties":{"city":"FREMONT","zip":"94536","geo_score":0.902,"phone":"(510) 795-2626","libsysname":"ALAMEDA COUNTY LIBRARY","id":"a8polrj4lfc9","libname":"NILES LIBRARY","address":"150 I ST.","geo_precision":"range","web_addr":"http://www.aclibrary.org/branches"},"type":"Feature","geometry":{"type":"Point","coordinates":[-121.977986,37.576697]}},{"properties":{"city":"HAYWARD","zip":"94541","geo_score":0.902,"phone":"(510) 293-8685","libsysname":"HAYWARD PUBLIC LIBRARY","id":"a8polrlr0ghy","libname":"HAYWARD PUBLIC LIBRARY","address":"835 C ST.","geo_precision":"range","web_addr":"http://www.library.ci.hayward.ca.us/"},"type":"Feature","geometry":{"type":"Point","coordinates":[-122.083308,37.670759]}},{"properties":{"city":"HAYWARD","zip":"94544","geo_score":0.488,"phone":"(510) 782-2155","libsysname":"HAYWARD PUBLIC LIBRARY","id":"a8polrm4rbk0","libname":"WEEKES BRANCH LIBRARY","address":"27300 PATRICK AVE.","geo_precision":"zip","web_addr":"http://www.library.ci.hayward.ca.us/"},"type":"Feature","geometry":{"type":"Point","coordinates":[-122.061673,37.613883]}},{"properties":{"city":"LIVERMORE","zip":"94550","geo_score":0.457,"phone":"(925) 373-5500","libsysname":"LIVERMORE PUBLIC LIBRARY","id":"a8polro297p5","libname":"LIVERMORE PUBLIC LIBRARY CIVIC CENTER","address":"1188 S. LIVERMORE AVE.","geo_precision":"street","web_addr":"http://www.cityoflivermore.net/citygov/lib/default.asp"},"type":"Feature","geometry":{"type":"Point","coordinates":[-121.768444,37.681993]}},{"properties":{"city":"LIVERMORE","zip":"94551","geo_score":0.805,"phone":"(925) 373-5540","libsysname":"LIVERMORE PUBLIC LIBRARY","id":"a8polro7aa9g","libname":"RINCON BRANCH LIBRARY","address":"725 RINCON AVE.","geo_precision":"range","web_addr":"http://www.cityoflivermore.net/citygov/lib/default.asp"},"type":"Feature","geometry":{"type":"Point","coordinates":[-121.783454,37.687246]}},{"properties":{"city":"LIVERMORE","zip":"94551","geo_score":0.902,"phone":"(925) 373-5517","libsysname":"LIVERMORE PUBLIC LIBRARY","id":"a8polrn06y1e","libname":"SPRINGTOWN BRANCH LIBRARY","address":"998 BLUEBELL DR.","geo_precision":"range","web_addr":"http://www.cityoflivermore.net/citygov/lib/default.asp"},"type":"Feature","geometry":{"type":"Point","coordinates":[-121.738988,37.706174]}},{"properties":{"city":"NEWARK","zip":"94560","geo_score":0.834,"phone":"(510) 795-2627","libsysname":"ALAMEDA COUNTY LIBRARY","id":"a8polrmgg0yk","libname":"NEWARK LIBRARY","address":"6300 CIVIC TERRACE AVE.","geo_precision":"range","web_addr":"http://www.aclibrary.org/branches"},"type":"Feature","geometry":{"type":"Point","coordinates":[-122.028865,37.535617]}},{"properties":{"city":"OAKLAND","zip":"94621","geo_score":0.829,"phone":"(510) 615-5812","libsysname":"OAKLAND PUBLIC LIBRARY","id":"a8polrmh3vlw","libname":"81st AVE BRANCH LIBRARY","address":"1021 81ST AVE","geo_precision":"range","web_addr":"www.oaklandlibrary.org"},"type":"Feature","geometry":{"type":"Point","coordinates":[-122.191131,37.750397]}},{"properties":{"city":"OAKLAND","zip":"94612","geo_score":0.429,"phone":"(510) 637-0200","libsysname":"OAKLAND PUBLIC LIBRARY","id":"a8polrmwz1an","libname":"AFRICAN AMERICAN MUSEUM &amp; LIBRARY AT OAKLAND","address":"659 - 14TH ST.","geo_precision":"street","web_addr":"www.oaklandlibrary.org"},"type":"Feature","geometry":{"type":"Point","coordinates":[-122.261924,37.799486]}},{"properties":{"city":"OAKLAND","zip":"94607","geo_score":0.429,"phone":"(510) 238-3400","libsysname":"OAKLAND PUBLIC LIBRARY","id":"a8polrqbdxil","libname":"ASIAN BRANCH LIBRARY","address":"388 - 9TH ST. SUITE 190","geo_precision":"street","web_addr":"www.oaklandlibrary.org"},"type":"Feature","geometry":{"type":"Point","coordinates":[-122.265066,37.797622]}},{"properties":{"city":"OAKLAND","zip":"94603","geo_score":0.902,"phone":"(510) 615-5725","libsysname":"OAKLAND PUBLIC LIBRARY","id":"a8polrw568c9","libname":"BROOKFIELD VILLAGE LIBRARY","address":"9255 EDES AVE.","geo_precision":"range","web_addr":"www.oaklandlibrary.org"},"type":"Feature","geometry":{"type":"Point","coordinates":[-122.189914,37.73806]}},{"properties":{"city":"OAKLAND","zip":"94601","geo_score":0.476,"phone":"(510) 535-5620","libsysname":"OAKLAND PUBLIC LIBRARY","id":"a8polrkn7oul","libname":"CESAR E. CHAVEZ BRANCH LIBRARY","address":"3301 E. 12TH STREET","geo_precision":"street","web_addr":"www.oaklandlibrary.org"},"type":"Feature","geometry":{"type":"Point","coordinates":[-122.24798,37.789028]}},{"properties":{"city":"OAKLAND","zip":"94602","geo_score":0.902,"phone":"(510) 482-7844","libsysname":"OAKLAND PUBLIC LIBRARY","id":"a8polrrntg7n","libname":"DIMOND BRANCH LIBRARY","address":"3565 FRUITVALE AVE.","geo_precision":"range","web_addr":"www.oaklandlibrary.org"},"type":"Feature","geometry":{"type":"Point","coordinates":[-122.216062,37.801035]}},{"properties":{"city":"OAKLAND","zip":"94605","geo_score":0.464,"phone":"(510) 615-5726","libsysname":"OAKLAND PUBLIC LIBRARY","id":"a8polrw2fz74","libname":"EASTMONT BRANCH LIBRARY","address":"7200 BANCROFT AVE. SUITE 211","geo_precision":"street","web_addr":"www.oaklandlibrary.org"},"type":"Feature","geometry":{"type":"Point","coordinates":[-122.197348,37.771623]}},{"properties":{"city":"OAKLAND","zip":"94621","geo_score":0.429,"phone":"(510) 615-5727","libsysname":"OAKLAND PUBLIC LIBRARY","id":"a8polrpydiu0","libname":"ELMHURST BRANCH LIBRARY","address":"1427 - 88TH AVE.","geo_precision":"street","web_addr":"www.oaklandlibrary.org"},"type":"Feature","geometry":{"type":"Point","coordinates":[-122.18395,37.747201]}},{"properties":{"city":"OAKLAND","zip":"94608","geo_score":0.805,"phone":"(510) 597-5023","libsysname":"OAKLAND PUBLIC LIBRARY","id":"a8polrlbahji","libname":"GOLDEN GATE BRANCH LIBRARY","address":"5606 SAN PABLO AVE.","geo_precision":"range","web_addr":"www.oaklandlibrary.org"},"type":"Feature","geometry":{"type":"Point","coordinates":[-122.282677,37.839609]}},{"properties":{"city":"OAKLAND","zip":"94610","geo_score":0.902,"phone":"(510) 238-7344","libsysname":"OAKLAND PUBLIC LIBRARY","id":"a8polri4edwt","libname":"LAKEVIEW BRANCH LIBRARY","address":"550 EL EMBARCADERO","geo_precision":"range","web_addr":"www.oaklandlibrary.org"},"type":"Feature","geometry":{"type":"Point","coordinates":[-122.249486,37.808779]}},{"properties":{"city":"OAKLAND","zip":"94621","geo_score":0.902,"phone":"(510) 615-5728","libsysname":"OAKLAND PUBLIC LIBRARY","id":"a8polrlsuh1s","libname":"MARTIN LUTHER KING JR. BRANCH LIBRARY","address":"6833 INTERNATIONAL BLVD.","geo_precision":"range","web_addr":"www.oaklandlibrary.org"},"type":"Feature","geometry":{"type":"Point","coordinates":[-122.190564,37.760836]}},{"properties":{"city":"OAKLAND","zip":"94601","geo_score":0.902,"phone":"(510) 535-5623","libsysname":"OAKLAND PUBLIC LIBRARY","id":"a8polrkoa02y","libname":"MELROSE BRANCH LIBRARY","address":"4805 FOOTHILL BLVD.","geo_precision":"range","web_addr":"www.oaklandlibrary.org"},"type":"Feature","geometry":{"type":"Point","coordinates":[-122.207473,37.772627]}},{"properties":{"city":"OAKLAND","zip":"94611","geo_score":0.902,"phone":"(510) 482-7810","libsysname":"OAKLAND PUBLIC LIBRARY","id":"a8polrt9dt9h","libname":"MONTCLAIR BRANCH LIBRARY","address":"1687 MOUNTAIN BLVD.","geo_precision":"range","web_addr":"www.oaklandlibrary.org"},"type":"Feature","geometry":{"type":"Point","coordinates":[-122.213961,37.832136]}},{"properties":{"city":"OAKLAND","zip":"94612","geo_score":0.429,"phone":"(510) 238-3281","libsysname":"OAKLAND PUBLIC LIBRARY","id":"a8polrom3cms","libname":"OAKLAND PUBLIC LIBRARY","address":"125 - 14TH ST.","geo_precision":"street","web_addr":"www.oaklandlibrary.org"},"type":"Feature","geometry":{"type":"Point","coordinates":[-122.261924,37.799486]}},{"properties":{"city":"OAKLAND","zip":"94612","geo_score":0.429,"phone":"(510) 238-3134","libsysname":"OAKLAND PUBLIC LIBRARY","id":"a8polrme89ex","libname":"OAKLAND PUBLIC LIBRARY - MAIN LIBRARY","address":"125 - 14TH ST.","geo_precision":"street","web_addr":"www.oaklandlibrary.org"},"type":"Feature","geometry":{"type":"Point","coordinates":[-122.261924,37.799486]}},{"properties":{"city":"OAKLAND","zip":"94611","geo_score":0.429,"phone":"(510) 597-5011","libsysname":"OAKLAND PUBLIC LIBRARY","id":"a8polrshjrxi","libname":"PIEDMONT AVENUE BRANCH LIBRARY","address":"160 - 41ST ST.","geo_precision":"street","web_addr":"www.oaklandlibrary.org"},"type":"Feature","geometry":{"type":"Point","coordinates":[-122.252042,37.826676]}},{"properties":{"city":"OAKLAND","zip":"94618","geo_score":0.902,"phone":"(510) 597-5017","libsysname":"OAKLAND PUBLIC LIBRARY","id":"a8polrmfina8","libname":"ROCKRIDGE BRANCH LIBRARY","address":"5366 COLLEGE AVE.","geo_precision":"range","web_addr":"www.oaklandlibrary.org"},"type":"Feature","geometry":{"type":"Point","coordinates":[-122.25132,37.838669]}},{"properties":{"city":"OAKLAND","zip":"94609","geo_score":0.902,"phone":"(510) 597-5049","libsysname":"OAKLAND PUBLIC LIBRARY","id":"a8polrj9y0pz","libname":"TEMESCAL BRANCH LIBRARY","address":"5205 TELEGRAPH AVE.","geo_precision":"range","web_addr":"www.oaklandlibrary.org"},"type":"Feature","geometry":{"type":"Point","coordinates":[-122.262303,37.83859]}},{"properties":{"city":"OAKLAND","zip":"94607","geo_score":0.902,"phone":"(510) 238-7352","libsysname":"OAKLAND PUBLIC LIBRARY","id":"a8polrltrx1g","libname":"WEST OAKLAND BRANCH LIBRARY","address":"1801 ADELINE ST.","geo_precision":"range","web_addr":"www.oaklandlibrary.org"},"type":"Feature","geometry":{"type":"Point","coordinates":[-122.284859,37.813316]}},{"properties":{"city":"PLEASANTON","zip":"94566","geo_score":0.902,"phone":"(925) 931-3400","libsysname":"PLEASANTON PUBLIC LIBRARY","id":"a8polroa23co","libname":"PLEASANTON PUBLIC LIBRARY","address":"400 OLD BERNAL AVE.","geo_precision":"range","web_addr":"www.ci.pleasanton.ca.us/library.html"},"type":"Feature","geometry":{"type":"Point","coordinates":[-121.880527,37.658329]}},{"properties":{"city":"SAN LEANDRO","zip":"94579","geo_score":0.713,"phone":"(510) 577-7971","libsysname":"SAN LEANDRO PUBLIC LIBRARY","id":"a8polrhwyemv","libname":"MANOR BRANCH LIBRARY","address":"1241 MANOR BLVD.","geo_precision":"street","web_addr":"www.sanleandro.org/depts/library/"},"type":"Feature","geometry":{"type":"Point","coordinates":[-122.151809,37.691272]}},{"properties":{"city":"SAN LEANDRO","zip":"94577","geo_score":0.902,"phone":"(510) 577-7976","libsysname":"SAN LEANDRO PUBLIC LIBRARY","id":"a8polrm5nqe6","libname":"MULFORD-MARINA BRANCH LIBRARY","address":"13699 AURORA DR.","geo_precision":"range","web_addr":"www.sanleandro.org/depts/library/"},"type":"Feature","geometry":{"type":"Point","coordinates":[-122.18196,37.697739]}},{"properties":{"city":"SAN LEANDRO","zip":"94577","geo_score":0.902,"phone":"(510) 577-3971","libsysname":"SAN LEANDRO PUBLIC LIBRARY","id":"a8polrpen4hu","libname":"SAN LEANDRO PUBLIC MAIN LIBRARY","address":"300 ESTUDILLO AVE.","geo_precision":"range","web_addr":"www.sanleandro.org/depts/library/"},"type":"Feature","geometry":{"type":"Point","coordinates":[-122.152886,37.725848]}},{"properties":{"city":"SAN LEANDRO","zip":"94578","geo_score":0.476,"phone":"(510) 577-7980","libsysname":"SAN LEANDRO PUBLIC LIBRARY","id":"a8polrt5gy34","libname":"SOUTH BRANCH LIBRARY","address":"14799 E. 14TH ST.","geo_precision":"street","web_addr":"www.sanleandro.org/depts/library/"},"type":"Feature","geometry":{"type":"Point","coordinates":[-122.144105,37.71635]}},{"properties":{"city":"SAN LORENZO","zip":"94580","geo_score":0.902,"phone":"(510) 670-6283","libsysname":"ALAMEDA COUNTY LIBRARY","id":"a8polrrs9o97","libname":"SAN LORENZO LIBRARY","address":"395 PASEO GRANDE","geo_precision":"range","web_addr":"http://www.aclibrary.org/"},"type":"Feature","geometry":{"type":"Point","coordinates":[-122.124597,37.680926]}},{"properties":{"city":"UNION CITY","zip":"94587","geo_score":0.885,"phone":"(510) 745-1464","libsysname":"ALAMEDA COUNTY LIBRARY","id":"a8polrkhnf16","libname":"UNION CITY LIBRARY","address":"34007 ALVARADO-NILES RD.","geo_precision":"range","web_addr":"http://www.aclibrary.org/"},"type":"Feature","geometry":{"type":"Point","coordinates":[-122.024279,37.587869]}}],"is_temporal":false,"author":{"url":"","metadata":"","contact_name":"","contact_address":"","source":"First5 Alameda","contact_phone":""},"source":"","pagination":{"sort":null,"start":0,"total":48,"limit":1000000},"state":"complete","tags":"library,resource","published":"2012-09-19T16:00:00Z","id":275497}