{"type":"FeatureCollection","data_type":"Dataset","url_type":null,"permissions":[{"permissions":{"download":true,"view":true},"group_id":"everyone"}],"classification":null,"title":"Minox Sport Optic Dealer List","count":199,"stream_id":275867,"contributor":{"url":"http://geocommons.com/users/48792","name":"Minox USA"},"data_attributes":null,"calculation_params":null,"icon_link":null,"link":"http://geocommons.com/overlays/275867.json","extent":[-151.069,26.207,-70.1453,65.1122],"geometry_types":["point"],"unique_name":null,"name":"Minox Sport Optic Dealer List","feature_count":199,"description":"","next_feature":null,"is_raster":false,"short_classification":"Y","stats":{},"features":[{"properties":{"city":"Phoenix","zipcode":"85020","website":null,"acct name":"Outdoorsmans","telephone":"602-944-7121","id":"a8qolzj1ybbv","address":"10004 No Cave Creek Rd","state":"AZ"},"type":"Feature","geometry":{"type":"Point","coordinates":[-112.056439,33.576505]}},{"properties":{"city":"Phoenix","zipcode":"85043","website":null,"acct name":"Ross Outdoors","telephone":null,"id":"a8qolzjow22f","address":"5825 W Van Buren","state":"AZ"},"type":"Feature","geometry":{"type":"Point","coordinates":[-112.184701,33.451389]}},{"properties":{"city":"Chino","zipcode":"95973","website":null,"acct name":"B&amp;K Archery","telephone":"530-342-0110","id":"a8qolzs5eiye","address":"39 El Cerrito Dr","state":"CA"},"type":"Feature","geometry":{"type":"Point","coordinates":[-121.850747,39.763855]}},{"properties":{"city":"Pleasant Hill","zipcode":"94523","website":"http://www.bearbasin.com/minox-rifle-scopes.htm","acct name":"Bear Basin Outfitters","telephone":"925-825-9802","id":"a8qolzo3r1o3","address":null,"state":"CA"},"type":"Feature","geometry":{"type":"Point","coordinates":[-122.052741,37.941312]}},{"properties":{"city":"Pleasant Hill","zipcode":"94523","website":"http://www.bearbasin.com/minox-rifle-scopes.htm","acct name":"Bear Basin Outfitters","telephone":"925-825-9802","id":"a8qolzomivqz","address":"2491 Estand Way","state":"CA"},"type":"Feature","geometry":{"type":"Point","coordinates":[-122.053483,37.940608]}},{"properties":{"city":"Paradise","zipcode":"95969","website":null,"acct name":"C W Enterprises","telephone":"530-877-7907","id":"a8qolzd3lrco","address":"1370 Wagstaff Rd","state":"CA"},"type":"Feature","geometry":{"type":"Point","coordinates":[-121.596428,39.777629]}},{"properties":{"city":"Pacifica","zipcode":"94044","website":null,"acct name":"City Arms","telephone":"209-374-3225","id":"a8qolzhu0qt0","address":"90 Eureka Square, Ste D","state":"CA"},"type":"Feature","geometry":{"type":"Point","coordinates":[-122.489142,37.63256]}},{"properties":{"city":"Irvine","zipcode":"92618","website":null,"acct name":"Optics4Birding","telephone":"877-674-2473","id":"a8qolzrywipb","address":"19 Hammond, Ste 506","state":"CA"},"type":"Feature","geometry":{"type":"Point","coordinates":[-117.700889,33.659265]}},{"properties":{"city":"Mendocino","zipcode":"95460","website":null,"acct name":"Out of this World","telephone":"707-937-3335","id":"a8qolzca5fub","address":"PO BOX 1010","state":"CA"},"type":"Feature","geometry":{"type":"Point","coordinates":[-123.693907,38.966685]}},{"properties":{"city":"Susanville","zipcode":"96103","website":null,"acct name":"Tactical Reload","telephone":"530-249-0297","id":"a8qolzgiz2ox","address":"4095 Johnstonville Rd","state":"CA"},"type":"Feature","geometry":{"type":"Point","coordinates":[-120.629329,40.406476]}},{"properties":{"city":"Redding","zipcode":"96001","website":null,"acct name":"The Bow Rack","telephone":"916-243-5181","id":"a8qolzn0itv3","address":"2032 Wallden","state":"CA"},"type":"Feature","geometry":{"type":"Point","coordinates":[-122.390149,40.576247]}},{"properties":{"city":"Loveland","zipcode":"80538","website":null,"acct name":"Elk Hunters Sporting Goods","telephone":"877-720-2393","id":"a8qolzcu2adn","address":"408 Hawthorn Dr","state":"CO"},"type":"Feature","geometry":{"type":"Point","coordinates":[-105.06993,40.424844]}},{"properties":{"city":"Fort Collins","zipcode":"80524","website":null,"acct name":"Gannett Ridge","telephone":"970-493-4505","id":"a8qolzlctklt","address":"264 N College Ave","state":"CO"},"type":"Feature","geometry":{"type":"Point","coordinates":[-105.077002,40.590784]}},{"properties":{"city":"Boulder","zipcode":"80302","website":null,"acct name":"Gunsport Colorado","telephone":"303-938-1396","id":"a8qolznxr1hf","address":"1707 14th St","state":"CO"},"type":"Feature","geometry":{"type":"Point","coordinates":[-105.276373,40.015487]}},{"properties":{"city":"Cortez","zipcode":"81321","website":null,"acct name":"Outdoor Conection","telephone":"970-565-6800","id":"a8qolzcx7ygk","address":"101 N Broadway","state":"CO"},"type":"Feature","geometry":{"type":"Point","coordinates":[-108.591105,37.351806]}},{"properties":{"city":"Pueblo West","zipcode":"81007","website":null,"acct name":"Pueblo West Guns","telephone":"719-647-9483","id":"a8qolzk0di45","address":"387 E Enterprise #140","state":"CO"},"type":"Feature","geometry":{"type":"Point","coordinates":[-104.738414,38.334483]}},{"properties":{"city":"Parker","zipcode":"80134","website":null,"acct name":"Rocky Mountain Guns &amp; Ammo","telephone":"303-841-1933","id":"a8qolzj3d5lc","address":"10970 South Parker Rd","state":"CO"},"type":"Feature","geometry":{"type":"Point","coordinates":[-104.765589,39.521524]}},{"properties":{"city":"Fort Collins","zipcode":"80524","website":null,"acct name":"Rocky Mtn Shooters Supply","telephone":"970-221-5133","id":"a8qolzgy81m0","address":"3507 E Mulberry St, Ste A","state":"CO"},"type":"Feature","geometry":{"type":"Point","coordinates":[-105.07627,40.581472]}},{"properties":{"city":"Arvada","zipcode":"80002","website":null,"acct name":"Rocky Mtn Specialty Gear","telephone":"303-421-2259","id":"a8qolzisarpy","address":"5340 Sheridan BLVD","state":"CO"},"type":"Feature","geometry":{"type":"Point","coordinates":[-105.053099,39.793783]}},{"properties":{"city":"Gulf Breeze","zipcode":"32561","website":null,"acct name":"Gulf Breeze Firearms","telephone":"850-932-4867","id":"a8qolzpw9bqo","address":"5253 Gulf Breeze Pkwy","state":"FL"},"type":"Feature","geometry":{"type":"Point","coordinates":[-87.018801,30.396877]}},{"properties":{"city":"West Palm Beach","zipcode":"33409","website":null,"acct name":"Gator Gun &amp; Archery Center","telephone":"561-683-1411","id":"a8qolzo55ixv","address":"2154 Zip Code Place #7","state":"FL"},"type":"Feature","geometry":{"type":"Point","coordinates":[-80.09899,26.695045]}},{"properties":{"city":"Cumming","zipcode":"30040","website":null,"acct name":"Bulls Eye Marksman","telephone":"678-965-5504","id":"a8qolzdt9044","address":"6190 Parkway North Dr","state":"GA"},"type":"Feature","geometry":{"type":"Point","coordinates":[-83.909084,33.850514]}},{"properties":{"city":"Norcross","zipcode":"30071","website":null,"acct name":"David's Gun Room","telephone":"770-447-8357","id":"a8qolzq9t2fg","address":"5074 Buford Way","state":"GA"},"type":"Feature","geometry":{"type":"Point","coordinates":[-84.193272,33.953949]}},{"properties":{"city":"Bogart","zipcode":"30622","website":null,"acct name":"Franklin Gun Shop","telephone":"706-543-7803","id":"a8qolzrsrax5","address":"3941 Atlanta Hwy","state":"GA"},"type":"Feature","geometry":{"type":"Point","coordinates":[-83.474961,33.94042]}},{"properties":{"city":"Augusta","zipcode":"30901","website":null,"acct name":"Sidney's Dept Store","telephone":"706-722-3112","id":"a8qolzrd5fgn","address":"550-560 Broad St","state":"GA"},"type":"Feature","geometry":{"type":"Point","coordinates":[-81.959276,33.47312]}},{"properties":{"city":"Columbus","zipcode":"31909","website":null,"acct name":"Shooters of Columbus","telephone":"706-568-9313","id":"a8qolzpjieic","address":"4445 Milgen Rd","state":"GA"},"type":"Feature","geometry":{"type":"Point","coordinates":[-84.920536,32.513745]}},{"properties":{"city":"Boise","zipcode":"83714","website":null,"acct name":"Boise Gun Company","telephone":"208-376-4440","id":"a8qolzrxra4u","address":"4105 Adams St","state":"ID"},"type":"Feature","geometry":{"type":"Point","coordinates":[-116.246178,43.633727]}},{"properties":{"city":"Gooding","zipcode":"83330","website":null,"acct name":"Brockman's Custom Guns","telephone":"208-934-5050","id":"a8qolzjmnlcc","address":"2165 South 1800 East","state":"ID"},"type":"Feature","geometry":{"type":"Point","coordinates":[-114.732388,42.884302]}},{"properties":{"city":"Chubbuck","zipcode":"83202","website":null,"acct name":"White Tip Archery","telephone":"208-238-1630","id":"a8qolznsyvxt","address":"272 Tailwind Cir","state":"ID"},"type":"Feature","geometry":{"type":"Point","coordinates":[-112.466091,42.920748]}},{"properties":{"city":"Northbrook","zipcode":"60062","website":"http://www.opticsplanet.com/minox-brand.html","acct name":"Optics Planet","telephone":"847-513-6201","id":"a8qolzeuwyws","address":null,"state":"IL"},"type":"Feature","geometry":{"type":"Point","coordinates":[-87.838815,42.120176]}},{"properties":{"city":"Northbrook","zipcode":"60062","website":"http://www.opticsplanet.com/minox-brand.html","acct name":"Optics Planet","telephone":"847-513-6201","id":"a8qolzql32uf","address":"3150 Commercial Ave","state":"IL"},"type":"Feature","geometry":{"type":"Point","coordinates":[-87.858243,42.146566]}},{"properties":{"city":"Oberlin","zipcode":"67749","website":null,"acct name":"Dale's Fish N Fun","telephone":"785-475-2201","id":"a8qolzqx1p3n","address":"502 East Frontier Pkwy","state":"KS"},"type":"Feature","geometry":{"type":"Point","coordinates":[-100.524205,39.828076]}},{"properties":{"city":"Salina","zipcode":"67401","website":null,"acct name":"Gibson Products Co Of Salina","telephone":"785-721-1073","id":"a8qolzpi644g","address":"321 South Broadway","state":"KS"},"type":"Feature","geometry":{"type":"Point","coordinates":[-97.624851,38.835506]}},{"properties":{"city":"Seneca","zipcode":"66538","website":null,"acct name":"H&amp;E Body Shop","telephone":null,"id":"a8qolzrq559j","address":"101 Baltimore","state":"KS"},"type":"Feature","geometry":{"type":"Point","coordinates":[-96.058759,39.833254]}},{"properties":{"city":"Middleboro","zipcode":"40965","website":null,"acct name":"East End Pawn Shop","telephone":"606-248-7898","id":"a8qolzrw1gim","address":"1923 Cumberland Ave","state":"KY"},"type":"Feature","geometry":{"type":"Point","coordinates":[-83.712991,36.60727]}},{"properties":{"city":"Port Allen","zipcode":"70767","website":null,"acct name":"Anthony &amp; Sons Jewelers","telephone":"225-387-2512","id":"a8qolzry4egj","address":"732 Court St","state":"LA"},"type":"Feature","geometry":{"type":"Point","coordinates":[-91.208888,30.452423]}},{"properties":{"city":"Hammond","zipcode":"70403","website":null,"acct name":"Better Optics Company","telephone":"985-375-1186","id":"a8qolzs8uf4k","address":"1715 S Morrison","state":"LA"},"type":"Feature","geometry":{"type":"Point","coordinates":[-90.482634,30.483841]}},{"properties":{"city":"New Iberia","zipcode":"70560","website":null,"acct name":"Cajun Guns &amp; Tackle","telephone":"337-364-3218","id":"a8qolzigart5","address":"684 E Admiral Doyle Dr","state":"LA"},"type":"Feature","geometry":{"type":"Point","coordinates":[-91.823958,29.987091]}},{"properties":{"city":"Chalmette","zipcode":"70043","website":null,"acct name":"Chalmette Jewelers","telephone":"271-2538","id":"a8qolzdcenij","address":"507 W St Bernard Hwy","state":"LA"},"type":"Feature","geometry":{"type":"Point","coordinates":[-89.970525,29.93893]}},{"properties":{"city":"New Roads","zipcode":"70760","website":null,"acct name":"False River Firearms","telephone":"225-718-5167","id":"a8qolzqbzuiv","address":"PO Box 988, 260 Hospital Rd","state":"LA"},"type":"Feature","geometry":{"type":"Point","coordinates":[-91.465901,30.686771]}},{"properties":{"city":"Baton Rouge","zipcode":"70807","website":null,"acct name":"Jim's Firearms","telephone":"225-293-5467","id":"a8qolzdkadmo","address":"5760 Siegen Lane","state":"LA"},"type":"Feature","geometry":{"type":"Point","coordinates":[-91.057012,30.397348]}},{"properties":{"city":"St Francisville","zipcode":"70775","website":null,"acct name":"Pat's Home Center","telephone":"225-635-4523","id":"a8qolzokzyzn","address":"7666 Hwy 61","state":"LA"},"type":"Feature","geometry":{"type":"Point","coordinates":[-91.387344,30.81871]}},{"properties":{"city":"Mansura","zipcode":"71350","website":null,"acct name":"Pookies Archery &amp; Guns","telephone":"318-253-9001","id":"a8qolzofbr04","address":"7735 WHY 1","state":"LA"},"type":"Feature","geometry":{"type":"Point","coordinates":[-92.055243,31.083208]}},{"properties":{"city":"St Amant","zipcode":"70774","website":null,"acct name":"The Accuracy Shop","telephone":"225-202-4531","id":"a8qolzbzu9h3","address":"44314 Taylor Sheets Rd","state":"LA"},"type":"Feature","geometry":{"type":"Point","coordinates":[-90.859164,30.23689]}},{"properties":{"city":"Newburyport","zipcode":"1950","website":null,"acct name":"Bird Watcher's Supply &amp; Gift","telephone":"978-462-0775","id":"a8qolzgyp8f4","address":"Route 1 Traffic Circle","state":"MA"},"type":"Feature","geometry":{"type":"Point","coordinates":[-70.875642,42.799273]}},{"properties":{"city":"Westport","zipcode":"2790","website":null,"acct name":"Village Sports","telephone":"508-672-4284","id":"a8qolzombrh4","address":"737 State Rd","state":"MA"},"type":"Feature","geometry":{"type":"Point","coordinates":[-71.075679,41.655747]}},{"properties":{"city":"Winnipeg","zipcode":"R2C4S2","website":null,"acct name":"Cabela's Retail Canada","telephone":"204-788-4867","id":"a8qolzfct760","address":"766 Pandora Avenue East","state":"Manitoba, Canada"},"type":"Feature","geometry":null},{"properties":{"city":"Winnipeg","zipcode":"R3G3N1","website":"http://www.cabelas.com/catalog/search.cmd?form_state=searchForm&amp;N=0&amp;fsch=true&amp;Ntk=AllProducts&amp;Ntt=Minox&amp;x=0&amp;y=0&amp;WTz_l=Header%3BSearch-All+Products","acct name":"Cabela's Retail Canada","telephone":"(204) 786-8966","id":"a8qolzipf6w8","address":"1300 Ellice Avenue","state":"Manitoba, Canada"},"type":"Feature","geometry":null},{"properties":{"city":"Saskatoon","zipcode":"S7N4Y1","website":"http://www.cabelas.com/catalog/search.cmd?form_state=searchForm&amp;N=0&amp;fsch=true&amp;Ntk=AllProducts&amp;Ntt=Minox&amp;x=0&amp;y=0&amp;WTz_l=Header%3BSearch-All+Products","acct name":"Cabela's Retail Canada","telephone":"(306) 343-4868","id":"a8qolzd2gbwi","address":"1714 Preston Ave. N","state":"Saskatchewan, Canada"},"type":"Feature","geometry":null},{"properties":{"city":"Edmonton","zipcode":"T6W 0L8","website":"http://www.cabelas.com/catalog/search.cmd?form_state=searchForm&amp;N=0&amp;fsch=true&amp;Ntk=AllProducts&amp;Ntt=Minox&amp;x=0&amp;y=0&amp;WTz_l=Header%3BSearch-All+Products","acct name":"Cabela's Retail Canada","telephone":"(780) 628-9200","id":"a8qolzfw38gc","address":"6150 Currents Drive NW","state":"Alberta, Canada"},"type":"Feature","geometry":{"type":"Point","coordinates":[-81.114665,35.827477]}},{"properties":{"city":"Chevy Chase","zipcode":"20815","website":null,"acct name":"Audubon Sanctuary Shop","telephone":"301-652-3606","id":"a8qolzj3zst6","address":"8940 Jones Mill Rd","state":"MD"},"type":"Feature","geometry":{"type":"Point","coordinates":[-77.063472,39.004567]}},{"properties":{"city":"Damascus","zipcode":"20872","website":null,"acct name":"Hands on Optics","telephone":"301-482-0000","id":"a8qolzf3m7ic","address":"26437 Ridge Rd","state":"MD"},"type":"Feature","geometry":{"type":"Point","coordinates":[-77.204514,39.288363]}},{"properties":{"city":"Sudlersville","zipcode":"21668","website":null,"acct name":"Rainforest Gear","telephone":"410-708-4396","id":"a8qolzonx0ox","address":"PO Box 14","state":"MD"},"type":"Feature","geometry":{"type":"Point","coordinates":[-75.949096,38.609653]}},{"properties":{"city":"Rockville","zipcode":"20852","website":null,"acct name":"Wild Bird Center","telephone":"301-468-7333","id":"a8qolze4c5ev","address":"1776 E Jefferson St #1","state":"MD"},"type":"Feature","geometry":{"type":"Point","coordinates":[-77.146048,39.080463]}},{"properties":{"city":"Princess Anne","zipcode":"21853","website":null,"acct name":"Wink's Sporting Goods","telephone":"410-621-0400","id":"a8qolzn70smr","address":"12122A Carol Lane","state":"MD"},"type":"Feature","geometry":{"type":"Point","coordinates":[-75.701638,38.214628]}},{"properties":{"city":"Freeport","zipcode":"4032","website":null,"acct name":"Freeport Wild Bird Supply","telephone":"207-318-6099","id":"a8qolzbwl58l","address":"541 Route One, Ste 10","state":"ME"},"type":"Feature","geometry":{"type":"Point","coordinates":[-70.145349,43.817419]}},{"properties":{"city":"Falmouth","zipcode":"4105","website":null,"acct name":"Maine Audubon","telephone":"207-781-2300","id":"a8qolzlupi56","address":"20 Gilsland Farms Rd","state":"ME"},"type":"Feature","geometry":{"type":"Point","coordinates":[-70.336162,43.781468]}},{"properties":{"city":"Jackson","zipcode":"49201","website":null,"acct name":"Schupbachs","telephone":"517-782-8418","id":"a8qolzr6y4pt","address":"141 W Pearl St","state":"MI"},"type":"Feature","geometry":{"type":"Point","coordinates":[-84.407763,42.248356]}},{"properties":{"city":"Mankato","zipcode":"56001","website":null,"acct name":"A.H. Hermel Co","telephone":"507-387-5634","id":"a8qolzo24qjw","address":"23099 River Font Drive North","state":"MN"},"type":"Feature","geometry":{"type":"Point","coordinates":[-94.035234,44.151911]}},{"properties":{"city":"Rochester","zipcode":"55904","website":null,"acct name":"Archery Headquarters","telephone":"507-282-3507","id":"a8qolzd34fcf","address":"3440 Northern Valley Place NE","state":"MN"},"type":"Feature","geometry":{"type":"Point","coordinates":[-92.447075,44.057866]}},{"properties":{"city":"Robbinsdale","zipcode":"55422","website":null,"acct name":"Bill's Gun Shop &amp; Range","telephone":"763-533-9594","id":"a8qolzho656v","address":"4080 W Broadway, Ste 1","state":"MN"},"type":"Feature","geometry":{"type":"Point","coordinates":[-93.308746,45.004214]}},{"properties":{"city":"Victoria","zipcode":"55386","website":null,"acct name":"Cabin Fever","telephone":"612-443-2022","id":"a8qolzqnd5ur","address":"1550 Arboretum Rd","state":"MN"},"type":"Feature","geometry":{"type":"Point","coordinates":[-93.646946,44.866885]}},{"properties":{"city":"Albert Lea","zipcode":"56007","website":null,"acct name":"Hart Brothers Weapon's","telephone":"507-377-0201","id":"a8qolzqv2jcg","address":"18322 US HWY 69","state":"MN"},"type":"Feature","geometry":{"type":"Point","coordinates":[-93.400665,43.616113]}},{"properties":{"city":"Maple Lake","zipcode":"55358","website":null,"acct name":"H&amp;H Sport Shop","telephone":"320-963-3818","id":"a8qolzc0jeqr","address":"State Highway 55 NW","state":"MN"},"type":"Feature","geometry":{"type":"Point","coordinates":[-93.94997,45.217978]}},{"properties":{"city":"South St Paul","zipcode":"55075","website":null,"acct name":"The Sportsman's Guide","telephone":"651-451-8485","id":"a8qolzpgf6lh","address":"411 Farwell Ave","state":"MN"},"type":"Feature","geometry":{"type":"Point","coordinates":[-93.028083,44.884351]}},{"properties":{"city":"Liberty","zipcode":"64068","website":null,"acct name":"Great Guns","telephone":"816-781-2323","id":"a8qolzjj7981","address":"1780 State Hwy A","state":"MO"},"type":"Feature","geometry":{"type":"Point","coordinates":[-94.44176,39.2679]}},{"properties":{"city":"Kirksville","zipcode":"63501","website":null,"acct name":"Hunters Edge","telephone":"660-267-2277","id":"a8qolzowggrq","address":"111 North Main, Ste 106","state":"MO"},"type":"Feature","geometry":{"type":"Point","coordinates":[-92.58537,40.195564]}},{"properties":{"city":"Columbia","zipcode":"65203","website":"http://www.midwayusa.com/brand/minox","acct name":"Midway USA","telephone":"573-445-6363","id":"a8qolznwbxsi","address":"5875 W Van Horn Tavern Rd","state":"MO"},"type":"Feature","geometry":{"type":"Point","coordinates":[-92.418705,38.968831]}},{"properties":{"city":"Brandon","zipcode":"39042","website":null,"acct name":"Van's Deer Processing","telephone":"601-825-9087","id":"a8qolzc9rt6t","address":"777 Hwy 468","state":"MS"},"type":"Feature","geometry":{"type":"Point","coordinates":[-90.035989,32.225295]}},{"properties":{"city":"Billings","zipcode":"59102","website":null,"acct name":"Big Bear Sports","telephone":"406-652-5999","id":"a8qolzdqmxgw","address":"2618 King Ave W","state":"MT"},"type":"Feature","geometry":{"type":"Point","coordinates":[-108.564185,45.755198]}},{"properties":{"city":"Great Falls","zipcode":"59404","website":null,"acct name":"Big Bear Sports","telephone":"406-761-6400","id":"a8qolzopdkfz","address":"121 N.W. Bypas","state":"MT"},"type":"Feature","geometry":{"type":"Point","coordinates":[-111.708434,47.850141]}},{"properties":{"city":"Missoula","zipcode":"59801","website":"http://www.bobwards.com/","acct name":"Bob Ward's","telephone":"406-728-3220","id":"a8qolzgi34n8","address":"3015 Paxson St","state":"MT"},"type":"Feature","geometry":{"type":"Point","coordinates":[-113.909123,46.853606]}},{"properties":{"city":"Bozeman","zipcode":"59715","website":"http://www.bobwards.com/","acct name":"Bob Ward's","telephone":"406-586-4381","id":"a8qolzfbzhng","address":"3011 Max Avenue","state":"MT"},"type":"Feature","geometry":{"type":"Point","coordinates":[-111.168212,45.809998]}},{"properties":{"city":"Helena","zipcode":"59601","website":"http://www.bobwards.com/","acct name":"Bob Ward's","telephone":"406-443-2138","id":"a8qolzr5mmqg","address":"3323 Dredge Drive","state":"MT"},"type":"Feature","geometry":{"type":"Point","coordinates":[-112.02256,46.619345]}},{"properties":{"city":"Hamilton","zipcode":"59840","website":"http://www.bobwards.com/","acct name":"Bob Ward's","telephone":"406-363-6204","id":"a8qolzifg37m","address":"1120 North 1st Street","state":"MT"},"type":"Feature","geometry":{"type":"Point","coordinates":[-114.157103,46.257926]}},{"properties":{"city":"Butte","zipcode":"59701","website":"http://www.bobwards.com/","acct name":"Bob Ward's","telephone":"406-494-4452","id":"a8qolzmswzhj","address":"1925 Dewey Blvd.","state":"MT"},"type":"Feature","geometry":{"type":"Point","coordinates":[-112.511271,45.983561]}},{"properties":{"city":"Montana City","zipcode":"59634","website":null,"acct name":"Kauffman Knives &amp; Optics","telephone":null,"id":"a8qolzhrl9nd","address":"4 Clark Creek Loop","state":"MT"},"type":"Feature","geometry":{"type":"Point","coordinates":[-111.961153,46.533708]}},{"properties":{"city":"Glendive","zipcode":"59330","website":null,"acct name":"Guns &amp; Things","telephone":"406-377-3969","id":"a8qolzqr2s04","address":"305 North Merrill Ave","state":"MT"},"type":"Feature","geometry":{"type":"Point","coordinates":[-104.703434,47.11548]}},{"properties":{"city":"Raleigh","zipcode":"27604","website":null,"acct name":"Bear Creek Gun Shop","telephone":"919-761-3249","id":"a8qolzgmg12y","address":"2411 E Millbrook Rd, Ste 101","state":"NC"},"type":"Feature","geometry":{"type":"Point","coordinates":[-78.592042,35.847339]}},{"properties":{"city":"Rolesville","zipcode":"27571","website":null,"acct name":"Hunters Haven","telephone":"919-554-2581","id":"a8qolzdmyfuw","address":"212 Southtown Cir","state":"NC"},"type":"Feature","geometry":{"type":"Point","coordinates":[-78.45482,35.906468]}},{"properties":{"city":"Sanford","zipcode":"27332","website":null,"acct name":"Kendale Pawn &amp; Gun","telephone":"919-774-7195","id":"a8qolzckzzq2","address":"2715 Lee Ave","state":"NC"},"type":"Feature","geometry":{"type":"Point","coordinates":[-79.149884,35.453452]}},{"properties":{"city":"Elon","zipcode":"27244","website":null,"acct name":"Kenney's Shooting Supply","telephone":"336-813-8282","id":"a8qolznzpopp","address":"2818 Lowe Rd","state":"NC"},"type":"Feature","geometry":{"type":"Point","coordinates":[-79.522484,36.13653]}},{"properties":{"city":"Wendell","zipcode":"27691","website":null,"acct name":"Perry's Gun Shop","telephone":"919-365-4200","id":"a8qolzho5yk9","address":"PO BOX 10","state":"NC"},"type":"Feature","geometry":{"type":"Point","coordinates":[-78.670498,35.822769]}},{"properties":{"city":"Dickison","zipcode":"58601","website":null,"acct name":"Audrus Outdoors","telephone":"701-483-3474","id":"a8qolzo5iyxp","address":"4434 3rd Ave W","state":"ND"},"type":"Feature","geometry":{"type":"Point","coordinates":[-102.78923,46.925468]}},{"properties":{"city":"Williston","zipcode":"58801","website":null,"acct name":"Scenic Sports","telephone":"701-572-8696","id":"a8qolze0scgh","address":"1201 East Broadway","state":"ND"},"type":"Feature","geometry":{"type":"Point","coordinates":[-103.60584,48.147025]}},{"properties":{"city":"Minot","zipcode":"58702","website":null,"acct name":"Sportsmans Loft","telephone":"701-852-4000","id":"a8qolzjuupvq","address":"PO Box 367","state":"ND"},"type":"Feature","geometry":{"type":"Point","coordinates":[-101.451285,48.336898]}},{"properties":{"city":"Sidney","zipcode":"69162","website":"http://www.cabelas.com/catalog/search.cmd?form_state=searchForm&amp;N=0&amp;fsch=true&amp;Ntk=AllProducts&amp;Ntt=Minox&amp;x=0&amp;y=0&amp;WTz_l=Header%3BSearch-All+Products","acct name":"Cabela's","telephone":"308-254-5505","id":"a8qolzrpaz9s","address":null,"state":"NE"},"type":"Feature","geometry":{"type":"Point","coordinates":[-102.857143,41.153318]}},{"properties":{"city":"Sidney","zipcode":"69162","website":null,"acct name":"Cabela's","telephone":"308-254-5505","id":"a8qolzp1qp54","address":"PO Box 277","state":"NE"},"type":"Feature","geometry":{"type":"Point","coordinates":[-101.739534,41.1294]}},{"properties":{"city":"Omaha","zipcode":"68114","website":"http://search.hayneedle.com/search/index.cfm?Ntt=Minox&amp;Ntk=all&amp;x=38&amp;y=6","acct name":"Hayneedle","telephone":"800-246-6285","id":"a8qolzbz6cnc","address":null,"state":"NE"},"type":"Feature","geometry":{"type":"Point","coordinates":[-96.053634,41.263262]}},{"properties":{"city":"Omaha","zipcode":"68114","website":null,"acct name":"Hayneedle","telephone":"800-246-6285","id":"a8qolzpd1ozs","address":"9394 W Dodge Rd, Ste 300","state":"NE"},"type":"Feature","geometry":{"type":"Point","coordinates":[-96.027633,41.259662]}},{"properties":{"city":"McCook","zipcode":"69001","website":null,"acct name":"Safari Rifles USA","telephone":"308-340-4301","id":"a8qolzgrrmvy","address":"905-Norris Ave","state":"NE"},"type":"Feature","geometry":{"type":"Point","coordinates":[-100.625543,40.206682]}},{"properties":{"city":"Ely","zipcode":"89301","website":null,"acct name":"Bristlecone Outfitting","telephone":"775-296-2292","id":"a8qolzobj2vl","address":"2143 Aultman St","state":"NV"},"type":"Feature","geometry":{"type":"Point","coordinates":[-114.877495,39.252808]}},{"properties":{"city":"Yerington","zipcode":"89447","website":null,"acct name":"Deutsche Optik","telephone":"775-463-5131","id":"a8qolzl206gi","address":"321 So Main St","state":"NV"},"type":"Feature","geometry":{"type":"Point","coordinates":[-119.1633,38.982785]}},{"properties":{"city":"Henderson","zipcode":"89002","website":null,"acct name":"Jathan's Sports","telephone":"702-498-7108","id":"a8qolzc579z5","address":"1624 Silver Slipper Ave","state":"NV"},"type":"Feature","geometry":{"type":"Point","coordinates":[-115.127056,35.973635]}},{"properties":{"city":"Reno","zipcode":"89502","website":null,"acct name":"Mark Fore &amp; Strike","telephone":"775-322-9559","id":"a8qolzl9obny","address":"490 Kietzke Ln","state":"NV"},"type":"Feature","geometry":{"type":"Point","coordinates":[-119.789094,39.525681]}},{"properties":{"city":"Ely","zipcode":"89301","website":null,"acct name":"SportsWorld","telephone":"775-289-8886","id":"a8qolzj9bio1","address":"1500 Aultman St","state":"NV"},"type":"Feature","geometry":{"type":"Point","coordinates":[-114.882646,39.250235]}},{"properties":{"city":"New York","zipcode":"10118","website":null,"acct name":"Best Price Optics","telephone":"646-367-6050","id":"a8qolznyoiww","address":null,"state":"NY"},"type":"Feature","geometry":{"type":"Point","coordinates":[-73.986467,40.748998]}},{"properties":{"city":"New York","zipcode":"10118","website":null,"acct name":"Best Price Optics","telephone":"646-367-6050","id":"a8qolzkd70f6","address":"350 5th Ave, Suite 5110","state":"NY"},"type":"Feature","geometry":{"type":"Point","coordinates":[-73.973968,40.762966]}},{"properties":{"city":"New York","zipcode":"10022","website":null,"acct name":"Camera Land","telephone":"212-753-5128","id":"a8qolzddiugl","address":"575 Lexington Ave","state":"NY"},"type":"Feature","geometry":{"type":"Point","coordinates":[-73.967842,40.758775]}},{"properties":{"city":"Hancock","zipcode":"13783","website":null,"acct name":"Marino's Firearms","telephone":"607-637-3573","id":"a8qolzd9vzid","address":"95 East Front St","state":"NY"},"type":"Feature","geometry":{"type":"Point","coordinates":[-75.270895,41.954441]}},{"properties":{"city":"Brooklyn","zipcode":"11204","website":null,"acct name":"Night Galaxy","telephone":"877-542-5299","id":"a8qolznodcmw","address":"7012 20th Ave","state":"NY"},"type":"Feature","geometry":{"type":"Point","coordinates":[-73.989401,40.613238]}},{"properties":{"city":"Seaford","zipcode":"11783","website":null,"acct name":"T&amp;T Gunnery","telephone":"516-221-7380","id":"a8qolze88s6b","address":"3778 Merrick Rd","state":"NY"},"type":"Feature","geometry":{"type":"Point","coordinates":[-73.384549,40.670832]}},{"properties":{"city":"Rond Lake","zipcode":"12151","website":null,"acct name":"Zacks Sports","telephone":"518-899-2799","id":"a8qolzfo1clx","address":"2138 Rt 9","state":"NY"},"type":"Feature","geometry":{"type":"Point","coordinates":[-73.791981,42.927147]}},{"properties":{"city":"Shelby","zipcode":"44875","website":null,"acct name":"Sportsman's Den","telephone":"419-347-3007","id":"a8qolzpoxmcm","address":"201 North Gamble St","state":"OH"},"type":"Feature","geometry":{"type":"Point","coordinates":[-82.662177,40.887734]}},{"properties":{"city":"Klamath Falls","zipcode":"97603","website":null,"acct name":"AMA Archery","telephone":"541-273-5281","id":"a8qolzhdomtd","address":"7255 S 6th St","state":"OR"},"type":"Feature","geometry":{"type":"Point","coordinates":[-121.702416,42.198948]}},{"properties":{"city":"Hillsboro","zipcode":"97123","website":null,"acct name":"Janssens Adventure Outfitters","telephone":"503-629-5642","id":"a8qolzpkdbm1","address":"2038 NW Aloclek Dr, Ste 214","state":"OR"},"type":"Feature","geometry":{"type":"Point","coordinates":[-122.897703,45.572748]}},{"properties":{"city":"Portland","zipcode":"97206","website":null,"acct name":"The Gun Room","telephone":"503-777-3931","id":"a8qolzhxbaf2","address":"5537 SE Foster Rd","state":"OR"},"type":"Feature","geometry":{"type":"Point","coordinates":[-122.605762,45.494267]}},{"properties":{"city":"Roseburg","zipcode":"97470","website":null,"acct name":"Waldron Outdoor Sales","telephone":"541-672-8892","id":"a8qolzk3dawp","address":"330 NE Garden Valley Blvd","state":"OR"},"type":"Feature","geometry":{"type":"Point","coordinates":[-123.351699,43.226785]}},{"properties":{"city":"Klamath Falls","zipcode":"97603","website":null,"acct name":"Wilderness Pack Specialties","telephone":"541-892-0640","id":"a8qolzn1nyq7","address":"3304 Crosby Ave, Unit 9","state":"OR"},"type":"Feature","geometry":{"type":"Point","coordinates":[-121.705374,42.209763]}},{"properties":{"city":"Oregon City","zipcode":"97045","website":"http://fishermans-marine.com","acct name":"Fisherman's Marine &amp; Outdoor","telephone":"503-557-3313","id":"a8qolzi4o1kk","address":"1900 SE McLoughlin Blvd","state":"OR"},"type":"Feature","geometry":{"type":"Point","coordinates":[-122.492866,45.343455]}},{"properties":{"city":"Tigard","zipcode":"97223","website":"http://fishermans-marine.com","acct name":"Fisherman's Marine &amp; Outdoor","telephone":"(503) 549-5066","id":"a8qolzls1zoc","address":"10355 SW Cascade Ave","state":"OR"},"type":"Feature","geometry":{"type":"Point","coordinates":[-122.785628,45.449408]}},{"properties":{"city":"Portland","zipcode":"97217","website":"http://fishermans-marine.com","acct name":"Fisherman's Marine &amp; Outdoor","telephone":"(503) 283-0044","id":"a8qolzgl6441","address":"1120 N. Hayden Meadows Dr","state":"OR"},"type":"Feature","geometry":{"type":"Point","coordinates":[-122.696178,45.587053]}},{"properties":{"city":"Nanicoke","zipcode":"18634","website":null,"acct name":"D&amp;R Sports Center","telephone":"570-735-1752","id":"a8qolzluc1x7","address":"PO Box 139","state":"PA"},"type":"Feature","geometry":{"type":"Point","coordinates":[-76.015201,41.221749]}},{"properties":{"city":"Duncansville","zipcode":"16635","website":null,"acct name":"East Coast Gun Sales","telephone":"814-695-2104","id":"a8qolznfi41m","address":"139 Apple St","state":"PA"},"type":"Feature","geometry":{"type":"Point","coordinates":[-78.43533,40.430128]}},{"properties":{"city":"Montoursville","zipcode":"17754","website":null,"acct name":"Euro Optics","telephone":"570-220-3159","id":"a8qolzdyvnka","address":null,"state":"PA"},"type":"Feature","geometry":{"type":"Point","coordinates":[-76.879963,41.247858]}},{"properties":{"city":"Montoursville","zipcode":"17754","website":null,"acct name":"Euro Optics","telephone":"570-220-3159","id":"a8qolzg2imze","address":"570 Sandhill Rd","state":"PA"},"type":"Feature","geometry":{"type":"Point","coordinates":[-76.939159,41.259971]}},{"properties":{"city":"Rockwood","zipcode":"15557","website":null,"acct name":"Hoover's Outfitting","telephone":"814-926-3051","id":"a8qolzhhcsem","address":"2099 Garrett Rd","state":"PA"},"type":"Feature","geometry":{"type":"Point","coordinates":[-79.137208,39.919763]}},{"properties":{"city":"Washington","zipcode":"15301","website":null,"acct name":"Reeves Sport Shop","telephone":"724-206-0462","id":"a8qolzg0c9rp","address":"1943 West Chestnut St","state":"PA"},"type":"Feature","geometry":{"type":"Point","coordinates":[-80.280783,40.162269]}},{"properties":{"city":"Elizabethtown","zipcode":"17022","website":null,"acct name":"Trop Gun Shop","telephone":"717-367-5585","id":"a8qolzo21hae","address":"709 Cloverleaf Rd","state":"PA"},"type":"Feature","geometry":{"type":"Point","coordinates":[-76.560125,40.140121]}},{"properties":{"city":"Charleston","zipcode":"29407","website":null,"acct name":"Carolina Rod &amp; Gun","telephone":"843-571-7972","id":"a8qolzij9qb5","address":"1319 Savannah Hwy","state":"SC"},"type":"Feature","geometry":{"type":"Point","coordinates":[-80.001256,32.784652]}},{"properties":{"city":"Greenwood","zipcode":"29649","website":null,"acct name":"Hunter's Headquarters","telephone":"864-229-2236","id":"a8qolzh3u1th","address":"506 ByPass 72 West","state":"SC"},"type":"Feature","geometry":{"type":"Point","coordinates":[-82.175162,34.195952]}},{"properties":{"city":"Greensville","zipcode":"29601","website":null,"acct name":"Luthi's","telephone":"864-370-0478","id":"a8qolzczx1ns","address":"23 Bulter Ave","state":"SC"},"type":"Feature","geometry":{"type":"Point","coordinates":[-82.5473,34.804241]}},{"properties":{"city":"Myrtle Beach","zipcode":"29577","website":null,"acct name":"Myrtle Beach Indoor Shooting","telephone":null,"id":"a8qolzqm2k3s","address":"4857 Hwy 17 S By Pass","state":"SC"},"type":"Feature","geometry":{"type":"Point","coordinates":[-78.84684,33.72351]}},{"properties":{"city":"Rapin City","zipcode":"57701","website":null,"acct name":"First Stop Guns","telephone":"605-341-5211","id":"a8qolzn2rpoh","address":"701 Main St","state":"SD"},"type":"Feature","geometry":{"type":"Point","coordinates":[-103.230702,44.081665]}},{"properties":{"city":"Mitchell","zipcode":"57301","website":null,"acct name":"Leader Sporting Goods","telephone":"605-996-0316","id":"a8qolzk9pgfr","address":"424 East Havens St","state":"SD"},"type":"Feature","geometry":{"type":"Point","coordinates":[-98.00926,43.702162]}},{"properties":{"city":"Franklin","zipcode":"37067","website":null,"acct name":"Franklin Gun Shop","telephone":"615-599-5562","id":"a8qolzrhozmd","address":"1214 Lakeview Dr","state":"TN"},"type":"Feature","geometry":{"type":"Point","coordinates":[-86.826,35.919116]}},{"properties":{"city":"Memphis","zipcode":"38111","website":null,"acct name":"Tommy Bronson Sporting Goods","telephone":"901-458-5458","id":"a8qolzg03frh","address":"109 So Highland St","state":"TN"},"type":"Feature","geometry":{"type":"Point","coordinates":[-89.948119,35.10956]}},{"properties":{"city":"Taylor","zipcode":"76574","website":null,"acct name":"Dimensional Firearms","telephone":"512-694-3033","id":"a8qolze8h0gn","address":"211 Battleground Cir","state":"TX"},"type":"Feature","geometry":{"type":"Point","coordinates":[-97.422579,30.538275]}},{"properties":{"city":"Pharr","zipcode":"78577","website":null,"acct name":"Glick Twins","telephone":"956-787-4291","id":"a8qolzl7m247","address":"419 West Business 83","state":"TX"},"type":"Feature","geometry":{"type":"Point","coordinates":[-98.186877,26.206977]}},{"properties":{"city":"Conroe","zipcode":"77304","website":null,"acct name":"Gun Emporium","telephone":"936-441-4040","id":"a8qolze6cxmy","address":"11400 FM 2854","state":"TX"},"type":"Feature","geometry":{"type":"Point","coordinates":[-95.532163,30.316283]}},{"properties":{"city":"Eagle Lake","zipcode":"77434","website":null,"acct name":"Jahnny's Sport Shop","telephone":"979-234-3516","id":"a8qolzj69p8t","address":"101 Boothe Dr","state":"TX"},"type":"Feature","geometry":{"type":"Point","coordinates":[-96.33698,29.586757]}},{"properties":{"city":"Royse City","zipcode":"75189","website":"http://www.nativeoutdoors.com/search.html?cx=014508139142765968737%3Aegcudfnsxku&amp;cof=FORID%3A10%3BNB%3A1&amp;ie=UTF-8&amp;q=Minox&amp;sa=Search","acct name":"Native Outdoors","telephone":"877-650-7938","id":"a8qolzdshbjw","address":null,"state":"TX"},"type":"Feature","geometry":{"type":"Point","coordinates":[-96.35631,32.919754]}},{"properties":{"city":"Royse City","zipcode":"75189","website":null,"acct name":"Native Outdoors","telephone":"877-650-7938","id":"a8qolzfz573l","address":"7105 S FM 548","state":"TX"},"type":"Feature","geometry":{"type":"Point","coordinates":[-96.335507,32.89094]}},{"properties":{"city":"New Braunfels","zipcode":"78132","website":null,"acct name":"OLDAG Guns","telephone":"830-214-6986","id":"a8qolzn2xeh5","address":"1335 Wald Rd #106","state":"TX"},"type":"Feature","geometry":{"type":"Point","coordinates":[-98.160395,29.691567]}},{"properties":{"city":"Mansfield","zipcode":"76063","website":null,"acct name":"OpticsBestBuy","telephone":"817-453-0831","id":"a8qolzjsr13h","address":"1022 E Board St, Ste 1","state":"TX"},"type":"Feature","geometry":{"type":"Point","coordinates":[-97.058759,32.548966]}},{"properties":{"city":"Flint","zipcode":"75762","website":null,"acct name":"Porter's Sporting Goods","telephone":"903-825-3933","id":"a8qolzj8zeix","address":"21973 HWY 155 South","state":"TX"},"type":"Feature","geometry":{"type":"Point","coordinates":[-95.455418,32.161159]}},{"properties":{"city":"Dallas","zipcode":"75212","website":null,"acct name":"Ray's Hardware &amp; Sporting Goods","telephone":"214-747-7916","id":"a8qolzpax432","address":"730 Singleton Blvd","state":"TX"},"type":"Feature","geometry":{"type":"Point","coordinates":[-96.835754,32.778488]}},{"properties":{"city":"Texas City","zipcode":"77590","website":null,"acct name":"Shooter's Corner","telephone":"409-945-7430","id":"a8qolzmb5eao","address":"2835 Palmer Hwy","state":"TX"},"type":"Feature","geometry":{"type":"Point","coordinates":[-94.935186,29.395188]}},{"properties":{"city":"Red Oak","zipcode":"75154","website":"http://swfa.com/Search.aspx?k=Minox&amp;t=","acct name":"Southwestern Firearms","telephone":"972-617-1647","id":"a8qolzfn3kck","address":null,"state":"TX"},"type":"Feature","geometry":{"type":"Point","coordinates":[-96.88639,32.526526]}},{"properties":{"city":"Red Oak","zipcode":"75154","website":null,"acct name":"Southwestern Firearms","telephone":"972-617-1647","id":"a8qolzmmfn64","address":"420 Century Way, Ste 10","state":"TX"},"type":"Feature","geometry":{"type":"Point","coordinates":[-96.798242,32.504508]}},{"properties":{"city":"Corpus Christi","zipcode":"78411","website":null,"acct name":"Texas Gun Shop","telephone":"361-854-4424","id":"a8qolzgbacm8","address":"4518 South Padre Island Dr","state":"TX"},"type":"Feature","geometry":{"type":"Point","coordinates":[-97.386965,27.716406]}},{"properties":{"city":"Victoria","zipcode":"77901","website":null,"acct name":"Victoria's All Sports Center","telephone":"361-575-0655","id":"a8qolzomm5vf","address":"1902 Houston Hwy","state":"TX"},"type":"Feature","geometry":{"type":"Point","coordinates":[-96.985709,28.807202]}},{"properties":{"city":"Temple","zipcode":"76504","website":null,"acct name":"Weber &amp; Sons","telephone":"254-791-4867","id":"a8qolzhennge","address":"2701 Ira Young Dr","state":"TX"},"type":"Feature","geometry":{"type":"Point","coordinates":[-97.378554,31.08852]}},{"properties":{"city":"Ackerly","zipcode":"79713","website":null,"acct name":"West Texas Ordnance","telephone":"432-517-0592","id":"a8qolzh0wwyy","address":"8800 County Rd 50","state":"TX"},"type":"Feature","geometry":{"type":"Point","coordinates":[-102.9047,31.605584]}},{"properties":{"city":"Erda","zipcode":"84074","website":null,"acct name":"B &amp; B Custom Rifles","telephone":"801-403-3416","id":"a8qolzr7olpz","address":"5325 Oswego Rd","state":"UT"},"type":"Feature","geometry":{"type":"Point","coordinates":[-112.263002,40.680777]}},{"properties":{"city":"Draper","zipcode":"84020","website":null,"acct name":"Camofire","telephone":"435-602-2729","id":"a8qolziyjmvo","address":"146 E 13065 S, Ste A","state":"UT"},"type":"Feature","geometry":{"type":"Point","coordinates":[-111.859154,40.518753]}},{"properties":{"city":"Draper","zipcode":"84020","website":"http://www.camofire.com/","acct name":"Camofire","telephone":"435-602-2729","id":"a8qolze4hf0e","address":null,"state":"UT"},"type":"Feature","geometry":{"type":"Point","coordinates":[-111.869671,40.506148]}},{"properties":{"city":"Ogden","zipcode":"84401","website":null,"acct name":"Impact Guns","telephone":"801-967-8005","id":"a8qolzgwxrdn","address":"2710 South 1900 West","state":"UT"},"type":"Feature","geometry":{"type":"Point","coordinates":[-112.025636,41.216185]}},{"properties":{"city":"Richfield","zipcode":"84701","website":null,"acct name":"Jorgensen's","telephone":"435-896-6408","id":"a8qolzgbpoas","address":"980 Cove View Dr","state":"UT"},"type":"Feature","geometry":{"type":"Point","coordinates":[-112.088579,38.754294]}},{"properties":{"city":"Ephraim","zipcode":"84627","website":null,"acct name":"Mtn Man Outdoors","telephone":"435-283-4322","id":"a8qolzhmj24z","address":"487 South Main St","state":"UT"},"type":"Feature","geometry":{"type":"Point","coordinates":[-111.587221,39.351466]}},{"properties":{"city":"Richfield","zipcode":"84701","website":null,"acct name":"Outdoors Outfitters","telephone":"435-896-5950","id":"a8qolzol79vy","address":"348 W 300 S","state":"UT"},"type":"Feature","geometry":{"type":"Point","coordinates":[-112.091159,38.763977]}},{"properties":{"city":"Midvale","zipcode":"84047","website":"http://www.sportsmanswarehouse.com/search/searchResults.jsp?_dyncharset=ISO-8859-1&amp;_dynSessConf=-8198059309892448602&amp;searchBoxHeaderInput=Minox&amp;_D%3AsearchBoxHeaderInput=+&amp;_D%3AsearchBoxHeaderSelect=+&amp;searchBoxHeaderSelect=rootCategory&amp;invis=&amp;qfh_h_srchst=relevance&amp;_D%3Aqfh_h_srchst=+&amp;resultPageSize=12&amp;_D%3AresultPageSize=+&amp;qfh_h_srch.x=0&amp;qfh_h_srch.y=0&amp;qfh_h_srch=submit&amp;_D%3Aqfh_h_srch=+&amp;_DARGS=%2Fcommon%2Fheader.jsp.searchForm","acct name":"Sportsmans Warehouse","telephone":"801-304-4343","id":"a8qolzcdw82f","address":"7035 So High Tech Dr, Ste 2","state":"UT"},"type":"Feature","geometry":{"type":"Point","coordinates":[-111.90811,40.612635]}},{"properties":{"city":"Anchorage","zipcode":"99515","website":"http://www.sportsmanswarehouse.com/search/searchResults.jsp?_dyncharset=ISO-8859-1&amp;_dynSessConf=-8198059309892448602&amp;searchBoxHeaderInput=Minox&amp;_D%3AsearchBoxHeaderInput=+&amp;_D%3AsearchBoxHeaderSelect=+&amp;searchBoxHeaderSelect=rootCategory&amp;invis=&amp;qfh_h_srchst=relevance&amp;_D%3Aqfh_h_srchst=+&amp;resultPageSize=12&amp;_D%3AresultPageSize=+&amp;qfh_h_srch.x=0&amp;qfh_h_srch.y=0&amp;qfh_h_srch=submit&amp;_D%3Aqfh_h_srch=+&amp;_DARGS=%2Fcommon%2Fheader.jsp.searchForm","acct name":"Sportsmans Warehouse","telephone":"(907) 644-1400","id":"a8qolzrkyt0f","address":"8681 Old Seward Highway","state":"AK"},"type":"Feature","geometry":{"type":"Point","coordinates":[-149.863996,61.142036]}},{"properties":{"city":"Wasilla","zipcode":"99654","website":"http://www.sportsmanswarehouse.com/search/searchResults.jsp?_dyncharset=ISO-8859-1&amp;_dynSessConf=-8198059309892448602&amp;searchBoxHeaderInput=Minox&amp;_D%3AsearchBoxHeaderInput=+&amp;_D%3AsearchBoxHeaderSelect=+&amp;searchBoxHeaderSelect=rootCategory&amp;invis=&amp;qfh_h_srchst=relevance&amp;_D%3Aqfh_h_srchst=+&amp;resultPageSize=12&amp;_D%3AresultPageSize=+&amp;qfh_h_srch.x=0&amp;qfh_h_srch.y=0&amp;qfh_h_srch=submit&amp;_D%3Aqfh_h_srch=+&amp;_DARGS=%2Fcommon%2Fheader.jsp.searchForm","acct name":"Sportsmans Warehouse","telephone":"(907) 864-8000","id":"a8qolzmeyuef","address":"1917 East Parks Highway","state":"AK"},"type":"Feature","geometry":{"type":"Point","coordinates":[-149.403592,61.575322]}},{"properties":{"city":"Fairbanks","zipcode":"99701","website":"http://www.sportsmanswarehouse.com/search/searchResults.jsp?_dyncharset=ISO-8859-1&amp;_dynSessConf=-8198059309892448602&amp;searchBoxHeaderInput=Minox&amp;_D%3AsearchBoxHeaderInput=+&amp;_D%3AsearchBoxHeaderSelect=+&amp;searchBoxHeaderSelect=rootCategory&amp;invis=&amp;qfh_h_srchst=relevance&amp;_D%3Aqfh_h_srchst=+&amp;resultPageSize=12&amp;_D%3AresultPageSize=+&amp;qfh_h_srch.x=0&amp;qfh_h_srch.y=0&amp;qfh_h_srch=submit&amp;_D%3Aqfh_h_srch=+&amp;_DARGS=%2Fcommon%2Fheader.jsp.searchForm","acct name":"Sportsmans Warehouse","telephone":"(907) 374-8800","id":"a8qolzs5ppnu","address":"423 Merhar Avenue","state":"AK"},"type":"Feature","geometry":{"type":"Point","coordinates":[-147.477222,65.112222]}},{"properties":{"city":"Soldotna","zipcode":"99669","website":"http://www.sportsmanswarehouse.com/search/searchResults.jsp?_dyncharset=ISO-8859-1&amp;_dynSessConf=-8198059309892448602&amp;searchBoxHeaderInput=Minox&amp;_D%3AsearchBoxHeaderInput=+&amp;_D%3AsearchBoxHeaderSelect=+&amp;searchBoxHeaderSelect=rootCategory&amp;invis=&amp;qfh_h_srchst=relevance&amp;_D%3Aqfh_h_srchst=+&amp;resultPageSize=12&amp;_D%3AresultPageSize=+&amp;qfh_h_srch.x=0&amp;qfh_h_srch.y=0&amp;qfh_h_srch=submit&amp;_D%3Aqfh_h_srch=+&amp;_DARGS=%2Fcommon%2Fheader.jsp.searchForm","acct name":"Sportsmans Warehouse","telephone":"(907) 420-3000","id":"a8qolzcodnu7","address":"44402 Sterling Highway","state":"AK"},"type":"Feature","geometry":{"type":"Point","coordinates":[-151.069356,60.48313]}},{"properties":{"city":"Phoenix,","zipcode":"85027","website":"http://www.sportsmanswarehouse.com/search/searchResults.jsp?_dyncharset=ISO-8859-1&amp;_dynSessConf=-8198059309892448602&amp;searchBoxHeaderInput=Minox&amp;_D%3AsearchBoxHeaderInput=+&amp;_D%3AsearchBoxHeaderSelect=+&amp;searchBoxHeaderSelect=rootCategory&amp;invis=&amp;qfh_h_srchst=relevance&amp;_D%3Aqfh_h_srchst=+&amp;resultPageSize=12&amp;_D%3AresultPageSize=+&amp;qfh_h_srch.x=0&amp;qfh_h_srch.y=0&amp;qfh_h_srch=submit&amp;_D%3Aqfh_h_srch=+&amp;_DARGS=%2Fcommon%2Fheader.jsp.searchForm","acct name":"Sportsmans Warehouse","telephone":"(623) 516-1400","id":"a8qolzj0j5y5","address":"19205 North 27th Avenue","state":"AZ"},"type":"Feature","geometry":{"type":"Point","coordinates":[-112.117066,33.660492]}},{"properties":{"city":"Tucson","zipcode":"85741","website":"http://www.sportsmanswarehouse.com/search/searchResults.jsp?_dyncharset=ISO-8859-1&amp;_dynSessConf=-8198059309892448602&amp;searchBoxHeaderInput=Minox&amp;_D%3AsearchBoxHeaderInput=+&amp;_D%3AsearchBoxHeaderSelect=+&amp;searchBoxHeaderSelect=rootCategory&amp;invis=&amp;qfh_h_srchst=relevance&amp;_D%3Aqfh_h_srchst=+&amp;resultPageSize=12&amp;_D%3AresultPageSize=+&amp;qfh_h_srch.x=0&amp;qfh_h_srch.y=0&amp;qfh_h_srch=submit&amp;_D%3Aqfh_h_srch=+&amp;_DARGS=%2Fcommon%2Fheader.jsp.searchForm","acct name":"Sportsmans Warehouse","telephone":"(520) 877-4500","id":"a8qolznbt96y","address":"3945 West Costco Drive","state":"AZ"},"type":"Feature","geometry":{"type":"Point","coordinates":[-111.048376,32.327943]}},{"properties":{"city":"Mesa","zipcode":"85206","website":"http://www.sportsmanswarehouse.com/search/searchResults.jsp?_dyncharset=ISO-8859-1&amp;_dynSessConf=-8198059309892448602&amp;searchBoxHeaderInput=Minox&amp;_D%3AsearchBoxHeaderInput=+&amp;_D%3AsearchBoxHeaderSelect=+&amp;searchBoxHeaderSelect=rootCategory&amp;invis=&amp;qfh_h_srchst=relevance&amp;_D%3Aqfh_h_srchst=+&amp;resultPageSize=12&amp;_D%3AresultPageSize=+&amp;qfh_h_srch.x=0&amp;qfh_h_srch.y=0&amp;qfh_h_srch=submit&amp;_D%3Aqfh_h_srch=+&amp;_DARGS=%2Fcommon%2Fheader.jsp.searchForm","acct name":"Sportsmans Warehouse","telephone":"(480) 558-1111","id":"a8qolzdzile0","address":"1750 South Greenfield Road","state":"AZ"},"type":"Feature","geometry":{"type":"Point","coordinates":[-111.738506,33.383143]}},{"properties":{"city":"Rocklin","zipcode":"95765","website":"http://www.sportsmanswarehouse.com/search/searchResults.jsp?_dyncharset=ISO-8859-1&amp;_dynSessConf=-8198059309892448602&amp;searchBoxHeaderInput=Minox&amp;_D%3AsearchBoxHeaderInput=+&amp;_D%3AsearchBoxHeaderSelect=+&amp;searchBoxHeaderSelect=rootCategory&amp;invis=&amp;qfh_h_srchst=relevance&amp;_D%3Aqfh_h_srchst=+&amp;resultPageSize=12&amp;_D%3AresultPageSize=+&amp;qfh_h_srch.x=0&amp;qfh_h_srch.y=0&amp;qfh_h_srch=submit&amp;_D%3Aqfh_h_srch=+&amp;_DARGS=%2Fcommon%2Fheader.jsp.searchForm","acct name":"Sportsmans Warehouse","telephone":"(916) 782-9900","id":"a8qolzigg7u9","address":"6640 Lonetree Boulevard","state":"CA"},"type":"Feature","geometry":{"type":"Point","coordinates":[-121.448579,38.430096]}},{"properties":{"city":"Redding","zipcode":"96002","website":"http://www.sportsmanswarehouse.com/search/searchResults.jsp?_dyncharset=ISO-8859-1&amp;_dynSessConf=-8198059309892448602&amp;searchBoxHeaderInput=Minox&amp;_D%3AsearchBoxHeaderInput=+&amp;_D%3AsearchBoxHeaderSelect=+&amp;searchBoxHeaderSelect=rootCategory&amp;invis=&amp;qfh_h_srchst=relevance&amp;_D%3Aqfh_h_srchst=+&amp;resultPageSize=12&amp;_D%3AresultPageSize=+&amp;qfh_h_srch.x=0&amp;qfh_h_srch.y=0&amp;qfh_h_srch=submit&amp;_D%3Aqfh_h_srch=+&amp;_DARGS=%2Fcommon%2Fheader.jsp.searchForm","acct name":"Sportsmans Warehouse","telephone":"(530) 222-5500","id":"a8qolzkydmm2","address":"1659 Hilltop Drive","state":"CA"},"type":"Feature","geometry":{"type":"Point","coordinates":[-122.357631,40.582573]}},{"properties":{"city":"Colorado Springs","zipcode":"80909","website":"http://www.sportsmanswarehouse.com/search/searchResults.jsp?_dyncharset=ISO-8859-1&amp;_dynSessConf=-8198059309892448602&amp;searchBoxHeaderInput=Minox&amp;_D%3AsearchBoxHeaderInput=+&amp;_D%3AsearchBoxHeaderSelect=+&amp;searchBoxHeaderSelect=rootCategory&amp;invis=&amp;qfh_h_srchst=relevance&amp;_D%3Aqfh_h_srchst=+&amp;resultPageSize=12&amp;_D%3AresultPageSize=+&amp;qfh_h_srch.x=0&amp;qfh_h_srch.y=0&amp;qfh_h_srch=submit&amp;_D%3Aqfh_h_srch=+&amp;_DARGS=%2Fcommon%2Fheader.jsp.searchForm","acct name":"Sportsmans Warehouse","telephone":"(719) 597-9200","id":"a8qolzeikajw","address":"555 North Chelton Rd.","state":"CO"},"type":"Feature","geometry":{"type":"Point","coordinates":[-104.766561,38.840567]}},{"properties":{"city":"Loveland","zipcode":"80538","website":"http://www.sportsmanswarehouse.com/search/searchResults.jsp?_dyncharset=ISO-8859-1&amp;_dynSessConf=-8198059309892448602&amp;searchBoxHeaderInput=Minox&amp;_D%3AsearchBoxHeaderInput=+&amp;_D%3AsearchBoxHeaderSelect=+&amp;searchBoxHeaderSelect=rootCategory&amp;invis=&amp;qfh_h_srchst=relevance&amp;_D%3Aqfh_h_srchst=+&amp;resultPageSize=12&amp;_D%3AresultPageSize=+&amp;qfh_h_srch.x=0&amp;qfh_h_srch.y=0&amp;qfh_h_srch=submit&amp;_D%3Aqfh_h_srch=+&amp;_DARGS=%2Fcommon%2Fheader.jsp.searchForm","acct name":"Sportsmans Warehouse","telephone":"(970) 461-5000","id":"a8qolzpi9yig","address":"1675 Rocky Mountain Avenue","state":"CO"},"type":"Feature","geometry":{"type":"Point","coordinates":[-105.118308,40.413413]}},{"properties":{"city":"Grand Junction","zipcode":"81505","website":"http://www.sportsmanswarehouse.com/search/searchResults.jsp?_dyncharset=ISO-8859-1&amp;_dynSessConf=-8198059309892448602&amp;searchBoxHeaderInput=Minox&amp;_D%3AsearchBoxHeaderInput=+&amp;_D%3AsearchBoxHeaderSelect=+&amp;searchBoxHeaderSelect=rootCategory&amp;invis=&amp;qfh_h_srchst=relevance&amp;_D%3Aqfh_h_srchst=+&amp;resultPageSize=12&amp;_D%3AresultPageSize=+&amp;qfh_h_srch.x=0&amp;qfh_h_srch.y=0&amp;qfh_h_srch=submit&amp;_D%3Aqfh_h_srch=+&amp;_DARGS=%2Fcommon%2Fheader.jsp.searchForm","acct name":"Sportsmans Warehouse","telephone":"(970) 243-8100","id":"a8qolzkjy5ul","address":"2464 US Hwy 6 &amp; 50","state":"CO"},"type":"Feature","geometry":{"type":"Point","coordinates":[-108.662772,39.119288]}},{"properties":{"city":"Thornton","zipcode":"80260","website":"http://www.sportsmanswarehouse.com/search/searchResults.jsp?_dyncharset=ISO-8859-1&amp;_dynSessConf=-8198059309892448602&amp;searchBoxHeaderInput=Minox&amp;_D%3AsearchBoxHeaderInput=+&amp;_D%3AsearchBoxHeaderSelect=+&amp;searchBoxHeaderSelect=rootCategory&amp;invis=&amp;qfh_h_srchst=relevance&amp;_D%3Aqfh_h_srchst=+&amp;resultPageSize=12&amp;_D%3AresultPageSize=+&amp;qfh_h_srch.x=0&amp;qfh_h_srch.y=0&amp;qfh_h_srch=submit&amp;_D%3Aqfh_h_srch=+&amp;_DARGS=%2Fcommon%2Fheader.jsp.searchForm","acct name":"Sportsmans Warehouse","telephone":"(303)428-6500","id":"a8qolzp0tjfy","address":"11 W. 84th Avenue","state":"CO"},"type":"Feature","geometry":{"type":"Point","coordinates":[-104.998233,39.850947]}},{"properties":{"city":"Ankeny","zipcode":"50021","website":"http://www.sportsmanswarehouse.com/search/searchResults.jsp?_dyncharset=ISO-8859-1&amp;_dynSessConf=-8198059309892448602&amp;searchBoxHeaderInput=Minox&amp;_D%3AsearchBoxHeaderInput=+&amp;_D%3AsearchBoxHeaderSelect=+&amp;searchBoxHeaderSelect=rootCategory&amp;invis=&amp;qfh_h_srchst=relevance&amp;_D%3Aqfh_h_srchst=+&amp;resultPageSize=12&amp;_D%3AresultPageSize=+&amp;qfh_h_srch.x=0&amp;qfh_h_srch.y=0&amp;qfh_h_srch=submit&amp;_D%3Aqfh_h_srch=+&amp;_DARGS=%2Fcommon%2Fheader.jsp.searchForm","acct name":"Sportsmans Warehouse","telephone":"(515) 963-3500","id":"a8qolzeciag6","address":"921 SE Oralabor Road","state":"IA"},"type":"Feature","geometry":{"type":"Point","coordinates":[-93.586066,41.702881]}},{"properties":{"city":"Meridian","zipcode":"83642","website":"http://www.sportsmanswarehouse.com/search/searchResults.jsp?_dyncharset=ISO-8859-1&amp;_dynSessConf=-8198059309892448602&amp;searchBoxHeaderInput=Minox&amp;_D%3AsearchBoxHeaderInput=+&amp;_D%3AsearchBoxHeaderSelect=+&amp;searchBoxHeaderSelect=rootCategory&amp;invis=&amp;qfh_h_srchst=relevance&amp;_D%3Aqfh_h_srchst=+&amp;resultPageSize=12&amp;_D%3AresultPageSize=+&amp;qfh_h_srch.x=0&amp;qfh_h_srch.y=0&amp;qfh_h_srch=submit&amp;_D%3Aqfh_h_srch=+&amp;_DARGS=%2Fcommon%2Fheader.jsp.searchForm","acct name":"Sportsmans Warehouse","telephone":"(208)884-3000","id":"a8qolzlfgpx3","address":"3797 E. Fairview Avenue","state":"ID"},"type":"Feature","geometry":{"type":"Point","coordinates":[-116.390571,43.619166]}},{"properties":{"city":"Idaho Falls","zipcode":"83406","website":"http://www.sportsmanswarehouse.com/search/searchResults.jsp?_dyncharset=ISO-8859-1&amp;_dynSessConf=-8198059309892448602&amp;searchBoxHeaderInput=Minox&amp;_D%3AsearchBoxHeaderInput=+&amp;_D%3AsearchBoxHeaderSelect=+&amp;searchBoxHeaderSelect=rootCategory&amp;invis=&amp;qfh_h_srchst=relevance&amp;_D%3Aqfh_h_srchst=+&amp;resultPageSize=12&amp;_D%3AresultPageSize=+&amp;qfh_h_srch.x=0&amp;qfh_h_srch.y=0&amp;qfh_h_srch=submit&amp;_D%3Aqfh_h_srch=+&amp;_DARGS=%2Fcommon%2Fheader.jsp.searchForm","acct name":"Sportsmans Warehouse","telephone":"(208)542-1900","id":"a8qolzjx8jnb","address":"2909 S. 25th E.","state":"ID"},"type":"Feature","geometry":{"type":"Point","coordinates":[-111.983903,43.400718]}},{"properties":{"city":"Twin Falls","zipcode":"83301","website":"http://www.sportsmanswarehouse.com/search/searchResults.jsp?_dyncharset=ISO-8859-1&amp;_dynSessConf=-8198059309892448602&amp;searchBoxHeaderInput=Minox&amp;_D%3AsearchBoxHeaderInput=+&amp;_D%3AsearchBoxHeaderSelect=+&amp;searchBoxHeaderSelect=rootCategory&amp;invis=&amp;qfh_h_srchst=relevance&amp;_D%3Aqfh_h_srchst=+&amp;resultPageSize=12&amp;_D%3AresultPageSize=+&amp;qfh_h_srch.x=0&amp;qfh_h_srch.y=0&amp;qfh_h_srch=submit&amp;_D%3Aqfh_h_srch=+&amp;_DARGS=%2Fcommon%2Fheader.jsp.searchForm","acct name":"Sportsmans Warehouse","telephone":"(208)737-9900","id":"a8qolze9gx63","address":"1940 Bridgeview Boulevard","state":"ID"},"type":"Feature","geometry":{"type":"Point","coordinates":[-114.453734,42.596296]}},{"properties":{"city":"Nampa","zipcode":"83687","website":"http://www.sportsmanswarehouse.com/search/searchResults.jsp?_dyncharset=ISO-8859-1&amp;_dynSessConf=-8198059309892448602&amp;searchBoxHeaderInput=Minox&amp;_D%3AsearchBoxHeaderInput=+&amp;_D%3AsearchBoxHeaderSelect=+&amp;searchBoxHeaderSelect=rootCategory&amp;invis=&amp;qfh_h_srchst=relevance&amp;_D%3Aqfh_h_srchst=+&amp;resultPageSize=12&amp;_D%3AresultPageSize=+&amp;qfh_h_srch.x=0&amp;qfh_h_srch.y=0&amp;qfh_h_srch=submit&amp;_D%3Aqfh_h_srch=+&amp;_DARGS=%2Fcommon%2Fheader.jsp.searchForm","acct name":"Sportsmans Warehouse","telephone":"(208)468-7600","id":"a8qolzilbp18","address":"16865 N. Market Place Blvd.","state":"ID"},"type":"Feature","geometry":{"type":"Point","coordinates":[-116.531537,43.566694]}},{"properties":{"city":"Lexington","zipcode":"40509","website":"http://www.sportsmanswarehouse.com/search/searchResults.jsp?_dyncharset=ISO-8859-1&amp;_dynSessConf=-8198059309892448602&amp;searchBoxHeaderInput=Minox&amp;_D%3AsearchBoxHeaderInput=+&amp;_D%3AsearchBoxHeaderSelect=+&amp;searchBoxHeaderSelect=rootCategory&amp;invis=&amp;qfh_h_srchst=relevance&amp;_D%3Aqfh_h_srchst=+&amp;resultPageSize=12&amp;_D%3AresultPageSize=+&amp;qfh_h_srch.x=0&amp;qfh_h_srch.y=0&amp;qfh_h_srch=submit&amp;_D%3Aqfh_h_srch=+&amp;_DARGS=%2Fcommon%2Fheader.jsp.searchForm","acct name":"Sportsmans Warehouse","telephone":"(859)263-7000","id":"a8qolzhcyqnf","address":"2200 War Admiral Way","state":"KY"},"type":"Feature","geometry":{"type":"Point","coordinates":[-84.330641,38.080242]}},{"properties":{"city":"Southaven","zipcode":"38671","website":"http://www.sportsmanswarehouse.com/search/searchResults.jsp?_dyncharset=ISO-8859-1&amp;_dynSessConf=-8198059309892448602&amp;searchBoxHeaderInput=Minox&amp;_D%3AsearchBoxHeaderInput=+&amp;_D%3AsearchBoxHeaderSelect=+&amp;searchBoxHeaderSelect=rootCategory&amp;invis=&amp;qfh_h_srchst=relevance&amp;_D%3Aqfh_h_srchst=+&amp;resultPageSize=12&amp;_D%3AresultPageSize=+&amp;qfh_h_srch.x=0&amp;qfh_h_srch.y=0&amp;qfh_h_srch=submit&amp;_D%3Aqfh_h_srch=+&amp;_DARGS=%2Fcommon%2Fheader.jsp.searchForm","acct name":"Sportsmans Warehouse","telephone":"(662)349-5500","id":"a8qolzgauh1i","address":"130 Marathon Way","state":"MS"},"type":"Feature","geometry":{"type":"Point","coordinates":[-90.000723,34.979147]}},{"properties":{"city":"Albuquerque","zipcode":"87107","website":"http://www.sportsmanswarehouse.com/search/searchResults.jsp?_dyncharset=ISO-8859-1&amp;_dynSessConf=-8198059309892448602&amp;searchBoxHeaderInput=Minox&amp;_D%3AsearchBoxHeaderInput=+&amp;_D%3AsearchBoxHeaderSelect=+&amp;searchBoxHeaderSelect=rootCategory&amp;invis=&amp;qfh_h_srchst=relevance&amp;_D%3Aqfh_h_srchst=+&amp;resultPageSize=12&amp;_D%3AresultPageSize=+&amp;qfh_h_srch.x=0&amp;qfh_h_srch.y=0&amp;qfh_h_srch=submit&amp;_D%3Aqfh_h_srch=+&amp;_DARGS=%2Fcommon%2Fheader.jsp.searchForm","acct name":"Sportsmans Warehouse","telephone":"(505)761-9900","id":"a8qolznbuw9r","address":"1450 Renaissance Boulevard NE","state":"NM"},"type":"Feature","geometry":{"type":"Point","coordinates":[-106.613877,35.137395]}},{"properties":{"city":"Reno","zipcode":"89502","website":"http://www.sportsmanswarehouse.com/search/searchResults.jsp?_dyncharset=ISO-8859-1&amp;_dynSessConf=-8198059309892448602&amp;searchBoxHeaderInput=Minox&amp;_D%3AsearchBoxHeaderInput=+&amp;_D%3AsearchBoxHeaderSelect=+&amp;searchBoxHeaderSelect=rootCategory&amp;invis=&amp;qfh_h_srchst=relevance&amp;_D%3Aqfh_h_srchst=+&amp;resultPageSize=12&amp;_D%3AresultPageSize=+&amp;qfh_h_srch.x=0&amp;qfh_h_srch.y=0&amp;qfh_h_srch=submit&amp;_D%3Aqfh_h_srch=+&amp;_DARGS=%2Fcommon%2Fheader.jsp.searchForm","acct name":"Sportsmans Warehouse","telephone":"(775)828-1500","id":"a8qolzdnpe7y","address":"3306 Kietzke Lane","state":"NV"},"type":"Feature","geometry":{"type":"Point","coordinates":[-119.789202,39.487004]}},{"properties":{"city":"Las Vegas","zipcode":"89149","website":"http://www.sportsmanswarehouse.com/search/searchResults.jsp?_dyncharset=ISO-8859-1&amp;_dynSessConf=-8198059309892448602&amp;searchBoxHeaderInput=Minox&amp;_D%3AsearchBoxHeaderInput=+&amp;_D%3AsearchBoxHeaderSelect=+&amp;searchBoxHeaderSelect=rootCategory&amp;invis=&amp;qfh_h_srchst=relevance&amp;_D%3Aqfh_h_srchst=+&amp;resultPageSize=12&amp;_D%3AresultPageSize=+&amp;qfh_h_srch.x=0&amp;qfh_h_srch.y=0&amp;qfh_h_srch=submit&amp;_D%3Aqfh_h_srch=+&amp;_DARGS=%2Fcommon%2Fheader.jsp.searchForm","acct name":"Sportsmans Warehouse","telephone":"(702)474-1100","id":"a8qolzgw7k4f","address":"5647 Centennial Center Blvd","state":"NV"},"type":"Feature","geometry":{"type":"Point","coordinates":[-115.259348,36.265343]}},{"properties":{"city":"Medford","zipcode":"97504","website":"http://www.sportsmanswarehouse.com/search/searchResults.jsp?_dyncharset=ISO-8859-1&amp;_dynSessConf=-8198059309892448602&amp;searchBoxHeaderInput=Minox&amp;_D%3AsearchBoxHeaderInput=+&amp;_D%3AsearchBoxHeaderSelect=+&amp;searchBoxHeaderSelect=rootCategory&amp;invis=&amp;qfh_h_srchst=relevance&amp;_D%3Aqfh_h_srchst=+&amp;resultPageSize=12&amp;_D%3AresultPageSize=+&amp;qfh_h_srch.x=0&amp;qfh_h_srch.y=0&amp;qfh_h_srch=submit&amp;_D%3Aqfh_h_srch=+&amp;_DARGS=%2Fcommon%2Fheader.jsp.searchForm","acct name":"Sportsmans Warehouse","telephone":"(541)732-3700","id":"a8qolzlpsa5e","address":"1710 Delta Waters Rd.","state":"OR"},"type":"Feature","geometry":{"type":"Point","coordinates":[-122.860455,42.364779]}},{"properties":{"city":"Columbia","zipcode":"29210","website":"http://www.sportsmanswarehouse.com/search/searchResults.jsp?_dyncharset=ISO-8859-1&amp;_dynSessConf=-8198059309892448602&amp;searchBoxHeaderInput=Minox&amp;_D%3AsearchBoxHeaderInput=+&amp;_D%3AsearchBoxHeaderSelect=+&amp;searchBoxHeaderSelect=rootCategory&amp;invis=&amp;qfh_h_srchst=relevance&amp;_D%3Aqfh_h_srchst=+&amp;resultPageSize=12&amp;_D%3AresultPageSize=+&amp;qfh_h_srch.x=0&amp;qfh_h_srch.y=0&amp;qfh_h_srch=submit&amp;_D%3Aqfh_h_srch=+&amp;_DARGS=%2Fcommon%2Fheader.jsp.searchForm","acct name":"Sportsmans Warehouse","telephone":"(803)731-3000","id":"a8qolzcl53nv","address":"476 Piney Grove Road","state":"SC"},"type":"Feature","geometry":{"type":"Point","coordinates":[-81.155551,34.055158]}},{"properties":{"city":"Chattanooga","zipcode":"37421","website":"http://www.sportsmanswarehouse.com/search/searchResults.jsp?_dyncharset=ISO-8859-1&amp;_dynSessConf=-8198059309892448602&amp;searchBoxHeaderInput=Minox&amp;_D%3AsearchBoxHeaderInput=+&amp;_D%3AsearchBoxHeaderSelect=+&amp;searchBoxHeaderSelect=rootCategory&amp;invis=&amp;qfh_h_srchst=relevance&amp;_D%3Aqfh_h_srchst=+&amp;resultPageSize=12&amp;_D%3AresultPageSize=+&amp;qfh_h_srch.x=0&amp;qfh_h_srch.y=0&amp;qfh_h_srch=submit&amp;_D%3Aqfh_h_srch=+&amp;_DARGS=%2Fcommon%2Fheader.jsp.searchForm","acct name":"Sportsmans Warehouse","telephone":"(423)892-6300","id":"a8qolzd0qjhu","address":"6241 Perimeter Dr.","state":"TN"},"type":"Feature","geometry":{"type":"Point","coordinates":[-85.182039,35.028682]}},{"properties":{"city":"Provo","zipcode":"84601","website":"http://www.sportsmanswarehouse.com/search/searchResults.jsp?_dyncharset=ISO-8859-1&amp;_dynSessConf=-8198059309892448602&amp;searchBoxHeaderInput=Minox&amp;_D%3AsearchBoxHeaderInput=+&amp;_D%3AsearchBoxHeaderSelect=+&amp;searchBoxHeaderSelect=rootCategory&amp;invis=&amp;qfh_h_srchst=relevance&amp;_D%3Aqfh_h_srchst=+&amp;resultPageSize=12&amp;_D%3AresultPageSize=+&amp;qfh_h_srch.x=0&amp;qfh_h_srch.y=0&amp;qfh_h_srch=submit&amp;_D%3Aqfh_h_srch=+&amp;_DARGS=%2Fcommon%2Fheader.jsp.searchForm","acct name":"Sportsmans Warehouse","telephone":"(801)818-2000","id":"a8qolznhtp5s","address":"1075 S University Avenue","state":"UT"},"type":"Feature","geometry":{"type":"Point","coordinates":[-111.658838,40.221382]}},{"properties":{"city":"Riverdale","zipcode":"84405","website":"http://www.sportsmanswarehouse.com/search/searchResults.jsp?_dyncharset=ISO-8859-1&amp;_dynSessConf=-8198059309892448602&amp;searchBoxHeaderInput=Minox&amp;_D%3AsearchBoxHeaderInput=+&amp;_D%3AsearchBoxHeaderSelect=+&amp;searchBoxHeaderSelect=rootCategory&amp;invis=&amp;qfh_h_srchst=relevance&amp;_D%3Aqfh_h_srchst=+&amp;resultPageSize=12&amp;_D%3AresultPageSize=+&amp;qfh_h_srch.x=0&amp;qfh_h_srch.y=0&amp;qfh_h_srch=submit&amp;_D%3Aqfh_h_srch=+&amp;_DARGS=%2Fcommon%2Fheader.jsp.searchForm","acct name":"Sportsmans Warehouse","telephone":"(801)334-4000","id":"a8qolze25fe9","address":"1137 W. Riverdale Road","state":"UT"},"type":"Feature","geometry":{"type":"Point","coordinates":[-111.990564,41.182002]}},{"properties":{"city":"Midvale","zipcode":"84047","website":"http://www.sportsmanswarehouse.com/search/searchResults.jsp?_dyncharset=ISO-8859-1&amp;_dynSessConf=-8198059309892448602&amp;searchBoxHeaderInput=Minox&amp;_D%3AsearchBoxHeaderInput=+&amp;_D%3AsearchBoxHeaderSelect=+&amp;searchBoxHeaderSelect=rootCategory&amp;invis=&amp;qfh_h_srchst=relevance&amp;_D%3Aqfh_h_srchst=+&amp;resultPageSize=12&amp;_D%3AresultPageSize=+&amp;qfh_h_srch.x=0&amp;qfh_h_srch.y=0&amp;qfh_h_srch=submit&amp;_D%3Aqfh_h_srch=+&amp;_DARGS=%2Fcommon%2Fheader.jsp.searchForm","acct name":"Sportsmans Warehouse","telephone":"(801)567-1000","id":"a8qolzflizfv","address":"165 W. 7200 S.","state":"UT"},"type":"Feature","geometry":{"type":"Point","coordinates":[-111.910227,40.620881]}},{"properties":{"city":"St. George","zipcode":"84790","website":"http://www.sportsmanswarehouse.com/search/searchResults.jsp?_dyncharset=ISO-8859-1&amp;_dynSessConf=-8198059309892448602&amp;searchBoxHeaderInput=Minox&amp;_D%3AsearchBoxHeaderInput=+&amp;_D%3AsearchBoxHeaderSelect=+&amp;searchBoxHeaderSelect=rootCategory&amp;invis=&amp;qfh_h_srchst=relevance&amp;_D%3Aqfh_h_srchst=+&amp;resultPageSize=12&amp;_D%3AresultPageSize=+&amp;qfh_h_srch.x=0&amp;qfh_h_srch.y=0&amp;qfh_h_srch=submit&amp;_D%3Aqfh_h_srch=+&amp;_DARGS=%2Fcommon%2Fheader.jsp.searchForm","acct name":"Sportsmans Warehouse","telephone":"(435)634-7300","id":"a8qolzbrgfy1","address":"2957 East 850 North","state":"UT"},"type":"Feature","geometry":{"type":"Point","coordinates":[-113.565225,37.092366]}},{"properties":{"city":"Roanoke","zipcode":"24017","website":"http://www.sportsmanswarehouse.com/search/searchResults.jsp?_dyncharset=ISO-8859-1&amp;_dynSessConf=-8198059309892448602&amp;searchBoxHeaderInput=Minox&amp;_D%3AsearchBoxHeaderInput=+&amp;_D%3AsearchBoxHeaderSelect=+&amp;searchBoxHeaderSelect=rootCategory&amp;invis=&amp;qfh_h_srchst=relevance&amp;_D%3Aqfh_h_srchst=+&amp;resultPageSize=12&amp;_D%3AresultPageSize=+&amp;qfh_h_srch.x=0&amp;qfh_h_srch.y=0&amp;qfh_h_srch=submit&amp;_D%3Aqfh_h_srch=+&amp;_DARGS=%2Fcommon%2Fheader.jsp.searchForm","acct name":"Sportsmans Warehouse","telephone":"(540)366-9700","id":"a8qolzc7fybe","address":"3550 Ferncliff Ave NW","state":"VA"},"type":"Feature","geometry":{"type":"Point","coordinates":[-79.980611,37.305541]}},{"properties":{"city":"Puyallup","zipcode":"98374","website":"http://www.sportsmanswarehouse.com/search/searchResults.jsp?_dyncharset=ISO-8859-1&amp;_dynSessConf=-8198059309892448602&amp;searchBoxHeaderInput=Minox&amp;_D%3AsearchBoxHeaderInput=+&amp;_D%3AsearchBoxHeaderSelect=+&amp;searchBoxHeaderSelect=rootCategory&amp;invis=&amp;qfh_h_srchst=relevance&amp;_D%3Aqfh_h_srchst=+&amp;resultPageSize=12&amp;_D%3AresultPageSize=+&amp;qfh_h_srch.x=0&amp;qfh_h_srch.y=0&amp;qfh_h_srch=submit&amp;_D%3Aqfh_h_srch=+&amp;_DARGS=%2Fcommon%2Fheader.jsp.searchForm","acct name":"Sportsmans Warehouse","telephone":"(253)864-0800","id":"a8qolznjaugw","address":"120 31st Ave SE STE G","state":"WA"},"type":"Feature","geometry":{"type":"Point","coordinates":[-122.291596,47.162054]}},{"properties":{"city":"Casper","zipcode":"82609","website":"http://www.sportsmanswarehouse.com/search/searchResults.jsp?_dyncharset=ISO-8859-1&amp;_dynSessConf=-8198059309892448602&amp;searchBoxHeaderInput=Minox&amp;_D%3AsearchBoxHeaderInput=+&amp;_D%3AsearchBoxHeaderSelect=+&amp;searchBoxHeaderSelect=rootCategory&amp;invis=&amp;qfh_h_srchst=relevance&amp;_D%3Aqfh_h_srchst=+&amp;resultPageSize=12&amp;_D%3AresultPageSize=+&amp;qfh_h_srch.x=0&amp;qfh_h_srch.y=0&amp;qfh_h_srch=submit&amp;_D%3Aqfh_h_srch=+&amp;_DARGS=%2Fcommon%2Fheader.jsp.searchForm","acct name":"Sportsmans Warehouse","telephone":"(307)233-3700","id":"a8qolzfwigko","address":"4120 East 2nd St.","state":"WY"},"type":"Feature","geometry":{"type":"Point","coordinates":[-106.279719,42.848955]}},{"properties":{"city":"McLean","zipcode":"22101","website":null,"acct name":"For the Wild Birds","telephone":"703-761-9443","id":"a8qolzndai6b","address":"1365 Chain Bridge Rd","state":"VA"},"type":"Feature","geometry":{"type":"Point","coordinates":[-77.175721,38.936733]}},{"properties":{"city":"Alexandria","zipcode":"22302","website":null,"acct name":"One Good Tern","telephone":"703-820-8376","id":"a8qolzl38op7","address":"1710 Fern St","state":"VA"},"type":"Feature","geometry":{"type":"Point","coordinates":[-77.085557,38.82975]}},{"properties":{"city":"Roanoke","zipcode":"24012","website":"http://www.orvis.com/store/search_results.aspx?x=0&amp;y=0&amp;keyword=Minox","acct name":"The Orvis Company","telephone":"540-853-8497","id":"a8qolzbz83ar","address":null,"state":"VA"},"type":"Feature","geometry":{"type":"Point","coordinates":[-79.865871,37.32597]}},{"properties":{"city":"Roanoke","zipcode":"24012","website":null,"acct name":"The Orvis Company","telephone":"540-853-8497","id":"a8qolznvurnn","address":"1709 Blue Hills Dr","state":"VA"},"type":"Feature","geometry":{"type":"Point","coordinates":[-79.896924,37.310272]}},{"properties":{"city":"Manchester","zipcode":"5255","website":null,"acct name":"The Vermont Bird Palce","telephone":"802-362-2270","id":"a8qolzjtq2hp","address":"48 Center Hill Rd","state":"VT"},"type":"Feature","geometry":{"type":"Point","coordinates":[-73.049621,43.174206]}},{"properties":{"city":"Anacortes","zipcode":"98221","website":null,"acct name":"Anacortes Telescope &amp; Wild Bird","telephone":"360-588-9000","id":"a8qolzqa85g4","address":"9973 Padilla Heights Rd","state":"WA"},"type":"Feature","geometry":{"type":"Point","coordinates":[-122.528192,48.458076]}},{"properties":{"city":"Graham","zipcode":"98338","website":null,"acct name":"The Shooters Shop","telephone":"253-847-0120","id":"a8qolzpzwgsr","address":"2801 304th St East","state":"WA"},"type":"Feature","geometry":{"type":"Point","coordinates":[-122.399056,46.980361]}},{"properties":{"city":"Middleton","zipcode":"53562","website":null,"acct name":"Eagle Optics","telephone":"608-662-1075","id":"a8qolzebm26d","address":"2120 W Greenview Dr #4","state":"WI"},"type":"Feature","geometry":{"type":"Point","coordinates":[-89.542001,43.097099]}},{"properties":{"city":"Middleton","zipcode":"53562","website":"http://www.eagleoptics.com/binoculars/minox","acct name":"Eagle Optics","telephone":"608-662-1075","id":"a8qolzoul08z","address":null,"state":"WI"},"type":"Feature","geometry":{"type":"Point","coordinates":[-89.484009,43.104162]}},{"properties":{"city":"Worland","zipcode":"82401","website":null,"acct name":"Outdoorsman","telephone":"307-347-2891","id":"a8qolzofrips","address":"632 Big Horn","state":"WY"},"type":"Feature","geometry":{"type":"Point","coordinates":[-108.97374,44.50075]}},{"properties":{"city":"Cheyenne","zipcode":"82007","website":"http://www.sierratradingpost.com/s~minox/","acct name":"Sierra Trading Post","telephone":"307-775-8016","id":"a8qolziph5tw","address":null,"state":"WY"},"type":"Feature","geometry":{"type":"Point","coordinates":[-104.666476,41.209351]}},{"properties":{"city":"Cheyenne","zipcode":"82007","website":null,"acct name":"Sierra Trading Post","telephone":"307-775-8016","id":"a8qolzot2n2m","address":"5065 Campstool Rd","state":"WY"},"type":"Feature","geometry":{"type":"Point","coordinates":[-104.745563,41.127805]}},{"properties":{"city":"Evenston","zipcode":"82930","website":null,"acct name":"Sportsworld","telephone":"307-789-6788","id":"a8qolzh1avp5","address":"524 Front St","state":"WY"},"type":"Feature","geometry":{"type":"Point","coordinates":[-110.960433,41.265107]}},{"properties":{"city":"Flemington","zipcode":"8822","website":"www.blacklabimaging.com","acct name":"Black Lab Studio &amp; Imaging","telephone":"908-751-5131","id":"a8qolzfyur5e","address":"24A Main Street","state":"NJ"},"type":"Feature","geometry":{"type":"Point","coordinates":[-74.859018,40.511893]}}],"is_temporal":false,"author":{"url":"","metadata":"","contact_name":"","contact_address":"","source":"","contact_phone":""},"source":"","pagination":{"sort":null,"start":0,"total":199,"limit":1000000},"state":"complete","tags":"","published":"2014-08-14T22:47:57-04:00","id":275867}