{"type":"FeatureCollection","data_type":"Dataset","url_type":null,"permissions":[{"permissions":{"download":true,"edit":true,"view":true},"group_id":52305},{"permissions":{"download":true,"view":true},"group_id":"everyone"}],"classification":null,"title":"Healthy Kids Club Sites","count":20,"stream_id":276669,"contributor":{"url":"http://geocommons.com/users/50841","name":"nyhoffb"},"data_attributes":null,"calculation_params":null,"icon_link":null,"link":"http://geocommons.com/overlays/276669.json","extent":[-108.598,37.3413,-104.35,38.868],"geometry_types":["point"],"unique_name":null,"name":"Healthy Kids Club Sites","feature_count":20,"description":"","next_feature":null,"is_raster":false,"short_classification":"Y","stats":{},"features":[{"properties":{"city":"Colorado Springs","county":"El Paso","geo_score":0.604,"zip code":"80906","site":"Meadows Park (1109)","id":"a8u1rjerrob9","org/school":"Community Center","address":"1943 S. El Paso Ave","geo_precision":"street","state":"CO"},"type":"Feature","geometry":{"type":"Point","coordinates":[-104.813009,38.807881]}},{"properties":{"city":"Colorado Springs","county":"El Paso","geo_score":1.0,"zip code":"80909","site":"Yuma (143)","id":"a8u1rjbo8901","org/school":"Salvation Army","address":"908 Yuma Street","geo_precision":"range","state":"CO"},"type":"Feature","geometry":{"type":"Point","coordinates":[-104.77815,38.846129]}},{"properties":{"city":"Colorado Springs","county":"El Paso","geo_score":0.571,"zip code":"80910","site":"Monroe","id":"a8u1rj1oue9u","org/school":"Monroe Elementary School","address":"15. S. Chelton Road","geo_precision":"street","state":"CO"},"type":"Feature","geometry":{"type":"Point","coordinates":[-104.766322,38.831057]}},{"properties":{"city":"Colorado Springs","county":"El Paso","geo_score":0.607,"zip code":"80910","site":"Centennial KIM Program","id":"a8u1rjb8eb52","org/school":"Centennial Elementary School","address":"1860 S. Chelton Road","geo_precision":"street","state":"CO"},"type":"Feature","geometry":{"type":"Point","coordinates":[-104.766322,38.831057]}},{"properties":{"city":"Colorado Springs","county":"El Paso","geo_score":1.0,"zip code":"80910","site":"Monterey KIM Program","id":"a8u1rj57x2n9","org/school":"Monterey Elementary School","address":"2311 Monterey Rd","geo_precision":"range","state":"CO"},"type":"Feature","geometry":{"type":"Point","coordinates":[-104.768011,38.799047]}},{"properties":{"city":"Colorado Springs","county":"El Paso","geo_score":1.0,"zip code":"80910","site":"Pikes Peak KIM Program","id":"a8u1rj4atj0z","org/school":"Pikes Peak Elementary School","address":"1520 Verde Drive","geo_precision":"range","state":"CO"},"type":"Feature","geometry":{"type":"Point","coordinates":[-104.768257,38.810392]}},{"properties":{"city":"Colorado Springs","county":"El Paso","geo_score":0.565,"zip code":"80916","site":"Turman KIM Program","id":"a8u1rjg4h3f0","org/school":"Turman Elementary School","address":"3245 Springnite Dr","geo_precision":"street","state":"CO"},"type":"Feature","geometry":{"type":"Point","coordinates":[-104.671141,38.868007]}},{"properties":{"city":"Colorado Springs","county":"El Paso","geo_score":1.0,"zip code":"80916","site":"Sand Creek Elementary (District 2)","id":"a8u1rj8t8yfl","org/school":null,"address":"550 Sand Creek Dr","geo_precision":"range","state":"CO"},"type":"Feature","geometry":{"type":"Point","coordinates":[-104.739353,38.823457]}},{"properties":{"city":"Colorado Springs","county":"El Paso","geo_score":0.805,"zip code":"80915","site":"Deerfield Hills Community Center","id":"a8u1rjfcklri","org/school":null,"address":"4290 Deerfield Hills Road","geo_precision":"range","state":"CO"},"type":"Feature","geometry":{"type":"Point","coordinates":[-104.748276,38.781739]}},{"properties":{"city":"Fountain","county":"El Paso","geo_score":0.614,"zip code":"80817","site":"Fountain Valley YMCA Teen Center","id":"a8u1rj12hnd1","org/school":null,"address":"301 E. Iowa Ave","geo_precision":"street","state":"CO"},"type":"Feature","geometry":{"type":"Point","coordinates":[-104.699359,38.683907]}},{"properties":{"city":"Cripple Creek","county":"Teller","geo_score":0.819,"zip code":"80813","site":"Cripple Creek - Kids Rock University (KRU)","id":"a8u1rj9zvktw","org/school":"Cripple Creek Parks &amp; Recreation","address":"128 E Bennett Ave","geo_precision":"street","state":"CO"},"type":"Feature","geometry":{"type":"Point","coordinates":[-105.178324,38.746628]}},{"properties":{"city":"Pueblo","county":"Pueblo","geo_score":1.0,"zip code":"81004","site":"Sprague (387)","id":"a8u1rj4nkjmd","org/school":"Boys &amp; Girls Club/Girls Inc.","address":"2601 Sprague Ave","geo_precision":"range","state":"CO"},"type":"Feature","geometry":{"type":"Point","coordinates":[-104.640533,38.240504]}},{"properties":{"city":"Pueblo","county":"Pueblo","geo_score":0.316,"zip code":"81004","site":"Eastside","id":"a8u1rj5gtqvo","org/school":"Boys &amp; Girls Club/Girls Inc.","address":"625 N. Monument Ave","geo_precision":"street","state":"CO"},"type":"Feature","geometry":{"type":"Point","coordinates":[-104.586393,38.268415]}},{"properties":{"city":"Avondale","county":"Pueblo","geo_score":0.71,"zip code":"81022","site":"Avondale","id":"a8u1rj2gk5ee","org/school":"Boys &amp; Girls Club/Girls Inc.","address":"405 Second Street","geo_precision":"street","state":"CO"},"type":"Feature","geometry":{"type":"Point","coordinates":[-104.349525,38.239155]}},{"properties":{"city":"Cortez","county":"Montezuma","geo_score":1.0,"zip code":"81321","site":"Kemper Elementary","id":"a8u1rjdwepsl","org/school":"The Pinon Project","address":"620 E Montezuma Ave","geo_precision":"range","state":"CO"},"type":"Feature","geometry":{"type":"Point","coordinates":[-108.576384,37.351076]}},{"properties":{"city":"Cortez","county":"Montezuma","geo_score":0.927,"zip code":"81321","site":"Manaugh Elementary","id":"a8u1rjesebyr","org/school":"The Pinon Project","address":"300 E 4th Street","geo_precision":"range","state":"CO"},"type":"Feature","geometry":{"type":"Point","coordinates":[-108.581065,37.34445]}},{"properties":{"city":"Cortez","county":"Montezuma","geo_score":0.927,"zip code":"81321","site":"Cortez Middle School","id":"a8u1rj6o38qw","org/school":"The Pinon Project","address":"450 W 2nd st","geo_precision":"range","state":"CO"},"type":"Feature","geometry":{"type":"Point","coordinates":[-108.591219,37.346507]}},{"properties":{"city":"Cortez","county":"Montezuma","geo_score":0.927,"zip code":"81321","site":"Mesa Elementary","id":"a8u1rjdrykx0","org/school":"The Pinon Project","address":"703 W 7th St","geo_precision":"range","state":"CO"},"type":"Feature","geometry":{"type":"Point","coordinates":[-108.598395,37.341322]}},{"properties":{"city":"Salida","county":"Chaffee","geo_score":0.927,"zip code":"81201","site":"Boys and Girls Club of Chaffee County","id":"a8u1rjgsbobg","org/school":null,"address":"340 E 5th St","geo_precision":"range","state":"CO"},"type":"Feature","geometry":{"type":"Point","coordinates":[-105.992483,38.53138]}},{"properties":{"city":"Canon City","county":"Fremont","geo_score":0.927,"zip code":"81212","site":"Boys and Girls Club of Fremont County","id":"a8u1rj9g3onk","org/school":null,"address":"129 N 4th St","geo_precision":"range","state":"CO"},"type":"Feature","geometry":{"type":"Point","coordinates":[-105.242265,38.440076]}}],"is_temporal":false,"author":{"url":"","metadata":"","contact_name":"","contact_address":"","source":"","contact_phone":""},"source":"","pagination":{"sort":null,"start":0,"total":20,"limit":1000000},"state":"complete","tags":"","published":"2014-08-14T23:55:24-04:00","id":276669}