{"type":"FeatureCollection","data_type":"Dataset","url_type":null,"permissions":[{"permissions":{"download":true,"view":true},"group_id":"everyone"}],"classification":null,"title":"Maker Suppliers Handled by Protrans to Lakeland","count":28,"stream_id":279088,"contributor":{"url":"http://geocommons.com/users/6861","name":"pbiegen"},"data_attributes":null,"calculation_params":null,"icon_link":null,"link":"http://geocommons.com/overlays/279088.json","extent":[-112.166,26.1323,-72.8187,44.979],"geometry_types":["point"],"unique_name":null,"name":"Maker Suppliers Handled by Protrans to Lakeland","feature_count":28,"description":"","next_feature":null,"is_raster":false,"short_classification":"Y","stats":{"latitude":{"max":44.979035,"variance":32.337288928654,"mean":38.3319230357143,"stdev":5.68658851409648,"min":26.132302,"median":41.50438},"longitude":{"max":-72.818709,"variance":74.0138223600628,"mean":-85.6597241785714,"stdev":8.60312863788882,"min":-112.165689,"median":-83.987994}},"features":[{"properties":{"name":"HIGHLAND MANUFACTURING CO","city":"WATERBURY","latitude":41.554077,"weight":null,"longitude":-73.046179,"id":"a908j38l1rn5","state":"CT"},"type":"Feature","geometry":{"type":"Point","coordinates":[-73.046179,41.554077]}},{"properties":{"name":"SOMERS THIN STRIP","city":"WATERBURY","latitude":41.554077,"weight":null,"longitude":-73.046179,"id":"a908j3b28gld","state":"CT"},"type":"Feature","geometry":{"type":"Point","coordinates":[-73.046179,41.554077]}},{"properties":{"name":"STEVENS CO","city":"THOMASTON","latitude":41.67321,"weight":null,"longitude":-73.074419,"id":"a908j3cm3j1m","state":"CT"},"type":"Feature","geometry":{"type":"Point","coordinates":[-73.074419,41.67321]}},{"properties":{"name":"ULBRICH STAINLESS STEELS","city":"WALLINGFORD","latitude":41.453626,"weight":null,"longitude":-72.818709,"id":"a908j3fxb8q7","state":"CT"},"type":"Feature","geometry":{"type":"Point","coordinates":[-72.818709,41.453626]}},{"properties":{"name":"ASSOCIATED PACKAGING","city":"TAMPA","latitude":27.94653,"weight":null,"longitude":-82.459269,"id":"a908j3ix031k","state":"FL"},"type":"Feature","geometry":{"type":"Point","coordinates":[-82.459269,27.94653]}},{"properties":{"name":"BRADDOCK METALLURGICAL","city":"RIVERVIEW","latitude":27.87171,"weight":null,"longitude":-82.329219,"id":"a908j3bs5jn1","state":"FL"},"type":"Feature","geometry":{"type":"Point","coordinates":[-82.329219,27.87171]}},{"properties":{"name":"TAMPA PALLETS","city":"TAMPA","latitude":27.94653,"weight":null,"longitude":-82.459269,"id":"a908j3aikfle","state":"FL"},"type":"Feature","geometry":{"type":"Point","coordinates":[-82.459269,27.94653]}},{"properties":{"name":"CHEMICAL PRODUCTS","city":"CARTERSVILLE","latitude":34.16517,"weight":null,"longitude":-84.795699,"id":"a908j3bju4xy","state":"GA"},"type":"Feature","geometry":{"type":"Point","coordinates":[-84.795699,34.16517]}},{"properties":{"name":"MULTICELL PACKAGING","city":"LAWRENCEVILLE","latitude":33.952465,"weight":null,"longitude":-83.987994,"id":"a908j38cfyd0","state":"GA"},"type":"Feature","geometry":{"type":"Point","coordinates":[-83.987994,33.952465]}},{"properties":{"name":"COBRA METAL WORK","city":"ELGIN","latitude":42.039565,"weight":null,"longitude":-88.283244,"id":"a908j3hax2pr","state":"IL"},"type":"Feature","geometry":{"type":"Point","coordinates":[-88.283244,42.039565]}},{"properties":{"name":"PRINCIPAL","city":"BROADVIEW","latitude":41.86107,"weight":null,"longitude":-87.862714,"id":"a908j3c73kqs","state":"IL"},"type":"Feature","geometry":{"type":"Point","coordinates":[-87.862714,41.86107]}},{"properties":{"name":"SWD INC","city":"ADDISON","latitude":41.934005,"weight":null,"longitude":-87.993359,"id":"a908j3fwu3z4","state":"IL"},"type":"Feature","geometry":{"type":"Point","coordinates":[-87.993359,41.934005]}},{"properties":{"name":"GRINER ENGINEERING INC","city":"BLOOMINGTON","latitude":39.16659,"weight":null,"longitude":-86.534244,"id":"a908j38udywa","state":"IN"},"type":"Feature","geometry":{"type":"Point","coordinates":[-86.534244,39.16659]}},{"properties":{"name":"CHEMETALL","city":"JACKSON","latitude":42.244765,"weight":null,"longitude":-84.400524,"id":"a908j38420cy","state":"MI"},"type":"Feature","geometry":{"type":"Point","coordinates":[-84.400524,42.244765]}},{"properties":{"name":"DIRKSEN SCREW PRODUCTS CO","city":"SHELBY TOWNSHIP","latitude":42.68326,"weight":null,"longitude":-83.034394,"id":"a908j3bufuu3","state":"MI"},"type":"Feature","geometry":{"type":"Point","coordinates":[-83.034394,42.68326]}},{"properties":{"name":"METAL FLOW CORP","city":"HOLLAND","latitude":42.77309,"weight":null,"longitude":-86.101754,"id":"a908j3ajkylz","state":"MI"},"type":"Feature","geometry":{"type":"Point","coordinates":[-86.101754,42.77309]}},{"properties":{"name":"TCR ENGINEERING","city":"MINNEAPOLIS","latitude":44.979035,"weight":null,"longitude":-93.264929,"id":"a908j3h76l7x","state":"MN"},"type":"Feature","geometry":{"type":"Point","coordinates":[-93.264929,44.979035]}},{"properties":{"name":"TCR ENGINEERING","city":"MINNEAPOLIS","latitude":44.979035,"weight":null,"longitude":-93.264929,"id":"a908j3c5d7v1","state":"MN"},"type":"Feature","geometry":{"type":"Point","coordinates":[-93.264929,44.979035]}},{"properties":{"name":"AVERY DENNISON","city":"CLEVELAND","latitude":41.50438,"weight":null,"longitude":-81.690434,"id":"a908j3c6cryx","state":"OH"},"type":"Feature","geometry":{"type":"Point","coordinates":[-81.690434,41.50438]}},{"properties":{"name":"BARIUM CHEMICALS INC","city":"STEUBENVILLE","latitude":40.369599,"weight":null,"longitude":-80.637163,"id":"a908j3guj3wf","state":"OH"},"type":"Feature","geometry":{"type":"Point","coordinates":[-80.637163,40.369599]}},{"properties":{"name":"GENT MACHINE CO","city":"SOUTH EUCLID","latitude":41.5232,"weight":null,"longitude":-81.519449,"id":"a908j3d2iswx","state":"OH"},"type":"Feature","geometry":{"type":"Point","coordinates":[-81.519449,41.5232]}},{"properties":{"name":"HORIZON","city":"TIFFIN","latitude":41.115224,"weight":null,"longitude":-83.176669,"id":"a908j3ho97vs","state":"OH"},"type":"Feature","geometry":{"type":"Point","coordinates":[-83.176669,41.115224]}},{"properties":{"name":"PAX MACHINE WORKS","city":"CELINA","latitude":40.55338,"weight":null,"longitude":-84.570784,"id":"a908j3cz63fb","state":"OH"},"type":"Feature","geometry":{"type":"Point","coordinates":[-84.570784,40.55338]}},{"properties":{"name":"KNOXVILLE STAMPING ASSE","city":"MARYVILLE","latitude":35.753795,"weight":null,"longitude":-83.973404,"id":"a908j37vqezn","state":"TN"},"type":"Feature","geometry":{"type":"Point","coordinates":[-83.973404,35.753795]}},{"properties":{"name":"AGE INDUSTRIES","city":"SAN BENITO","latitude":26.132302,"weight":null,"longitude":-97.631425,"id":"a908j3gjtg8m","state":"TX"},"type":"Feature","geometry":{"type":"Point","coordinates":[-97.631425,26.132302]}},{"properties":{"name":"BAUMANN SPRINGS TEXAS LT","city":"GRAND PRAIRIE","latitude":32.7477,"weight":null,"longitude":-97.007199,"id":"a908j38j02nt","state":"TX"},"type":"Feature","geometry":{"type":"Point","coordinates":[-97.007199,32.7477]}},{"properties":{"name":"BEST RITE CHALKBOARD","city":"TEMPLE","latitude":31.097475,"weight":null,"longitude":-97.343034,"id":"a908j3hloloz","state":"TX"},"type":"Feature","geometry":{"type":"Point","coordinates":[-97.343034,31.097475]}},{"properties":{"name":"AUTOLIV ASP","city":"TREMONTON","latitude":41.71898,"weight":null,"longitude":-112.165689,"id":"a908j3fxh2qn","state":"UT"},"type":"Feature","geometry":{"type":"Point","coordinates":[-112.165689,41.71898]}}],"is_temporal":false,"author":{"url":"","metadata":"","contact_name":"","contact_address":"","source":"","contact_phone":""},"source":"","pagination":{"sort":null,"start":0,"total":28,"limit":1000000},"state":"complete","tags":"","published":"2014-08-15T02:59:40-04:00","id":279088}