{"type":"FeatureCollection","data_type":"Dataset","url_type":null,"permissions":[{"permissions":{"download":true,"view":true},"group_id":"everyone"}],"classification":null,"title":"Dec2010 gun","count":66,"stream_id":279254,"contributor":{"url":"http://geocommons.com/users/35326","name":"markt2704"},"data_attributes":null,"calculation_params":null,"icon_link":null,"link":"http://geocommons.com/overlays/279254.json","extent":[-78.9802,35.447,-78.8257,36.0676],"geometry_types":["point"],"unique_name":null,"name":"Dec2010 gun","feature_count":66,"description":"","next_feature":null,"is_raster":false,"short_classification":"Y","stats":{"date":{"max":"2010/12/31 00:00:00 -0500","variance":648760706685.314,"mean":"2010/12/16 00:21:49 -0500","stdev":805456.831050128,"min":"2010/12/01 00:00:00 -0500","median":"2010/12/16 00:00:00 -0500"}},"features":[{"properties":{"city":"Durham","category":"Robbery","date":{"end_time":"2010/12/02 00:00:00 -0500","original":"Dec 1 2010","granularity":"day","time":"2010/12/01 00:00:00 -0500"},"type":"Robbery","geo_score":0.902,"id_no":"10037873","id":"a90r3fkt8iy9","geo_precision":"range","location":"1815 FRONT ST","state":"NC"},"type":"Feature","geometry":{"type":"Point","coordinates":[-78.936348,36.030106]}},{"properties":{"city":"Durham","category":"Robbery","date":{"end_time":"2010/12/02 00:00:00 -0500","original":"Dec 1 2010","granularity":"day","time":"2010/12/01 00:00:00 -0500"},"type":"Robbery","geo_score":0.902,"id_no":"10037880","id":"a90r3fsjrs4i","geo_precision":"range","location":"2000 AVONDALE DR","state":"NC"},"type":"Feature","geometry":{"type":"Point","coordinates":[-78.888714,36.015859]}},{"properties":{"city":"Durham","category":"Robbery","date":{"end_time":"2010/12/02 00:00:00 -0500","original":"Dec 1 2010","granularity":"day","time":"2010/12/01 00:00:00 -0500"},"type":"Robbery","geo_score":0.902,"id_no":"10037876","id":"a90r3fgsw0kz","geo_precision":"range","location":"1299 ROSEWOOD ST","state":"NC"},"type":"Feature","geometry":{"type":"Point","coordinates":[-78.891508,35.976805]}},{"properties":{"city":"Durham","category":"Aggravated Assault","date":{"end_time":"2010/12/02 00:00:00 -0500","original":"Dec 1 2010","granularity":"day","time":"2010/12/01 00:00:00 -0500"},"type":"Assault Offenses","geo_score":0.902,"id_no":"10037902","id":"a90r3fqantx8","geo_precision":"range","location":"702 CARPENTER FLETCHER RD","state":"NC"},"type":"Feature","geometry":{"type":"Point","coordinates":[-78.909196,35.922611]}},{"properties":{"city":"Durham","category":"Robbery","date":{"end_time":"2010/12/02 00:00:00 -0500","original":"Dec 1 2010","granularity":"day","time":"2010/12/01 00:00:00 -0500"},"type":"Robbery","geo_score":0.902,"id_no":"10037901","id":"a90r3fiuh3f2","geo_precision":"range","location":"2920 CHAPEL HILL RD","state":"NC"},"type":"Feature","geometry":{"type":"Point","coordinates":[-78.938884,35.970324]}},{"properties":{"city":"Durham","category":"Aggravated Assault","date":{"end_time":"2010/12/03 00:00:00 -0500","original":"Dec 2 2010","granularity":"day","time":"2010/12/02 00:00:00 -0500"},"type":"Assault Offenses","geo_score":0.902,"id_no":"10038014","id":"a90r3fhgu37u","geo_precision":"range","location":"1803 MOREHEAD AVE","state":"NC"},"type":"Feature","geometry":{"type":"Point","coordinates":[-78.926408,35.992191]}},{"properties":{"city":"Durham","category":"Robbery","date":{"end_time":"2010/12/03 00:00:00 -0500","original":"Dec 2 2010","granularity":"day","time":"2010/12/02 00:00:00 -0500"},"type":"Robbery","geo_score":0.488,"id_no":"10038012","id":"a90r3ff4pj8v","geo_precision":"city","location":"3615 N ROXBORO RD","state":"NC"},"type":"Feature","geometry":{"type":"Point","coordinates":[-78.906933,35.981803]}},{"properties":{"city":"Durham","category":"Robbery","date":{"end_time":"2010/12/04 00:00:00 -0500","original":"Dec 3 2010","granularity":"day","time":"2010/12/03 00:00:00 -0500"},"type":"Robbery","geo_score":0.902,"id_no":"10038086","id":"a90r3fgim55z","geo_precision":"range","location":"1502 LAKELAND ST","state":"NC"},"type":"Feature","geometry":{"type":"Point","coordinates":[-78.891836,35.970927]}},{"properties":{"city":"Durham","category":"Robbery","date":{"end_time":"2010/12/06 00:00:00 -0500","original":"Dec 5 2010","granularity":"day","time":"2010/12/05 00:00:00 -0500"},"type":"Robbery","geo_score":0.902,"id_no":"10038314","id":"a90r3fmb4fi8","geo_precision":"range","location":"2816 ROSS RD","state":"NC"},"type":"Feature","geometry":{"type":"Point","coordinates":[-78.845681,35.992362]}},{"properties":{"city":"Durham","category":"Robbery","date":{"end_time":"2010/12/06 00:00:00 -0500","original":"Dec 5 2010","granularity":"day","time":"2010/12/05 00:00:00 -0500"},"type":"Robbery","geo_score":0.857,"id_no":"10038321","id":"a90r3fq9zqqb","geo_precision":"street","location":"599 N GREGSON ST/W TRINITY AVE","state":"NC"},"type":"Feature","geometry":{"type":"Point","coordinates":[-78.908534,36.000803]}},{"properties":{"city":"Durham","category":"Robbery","date":{"end_time":"2010/12/07 00:00:00 -0500","original":"Dec 6 2010","granularity":"day","time":"2010/12/06 00:00:00 -0500"},"type":"Robbery","geo_score":0.902,"id_no":"10038445","id":"a90r3fuii74x","geo_precision":"range","location":"301 W TRINITY AVE","state":"NC"},"type":"Feature","geometry":{"type":"Point","coordinates":[-78.898719,36.00548]}},{"properties":{"city":"Durham","category":"Robbery","date":{"end_time":"2010/12/07 00:00:00 -0500","original":"Dec 6 2010","granularity":"day","time":"2010/12/06 00:00:00 -0500"},"type":"Robbery","geo_score":0.902,"id_no":"10038446","id":"a90r3fuz6ual","geo_precision":"range","location":"600 HORTON RD","state":"NC"},"type":"Feature","geometry":{"type":"Point","coordinates":[-78.908031,36.051234]}},{"properties":{"city":"Durham","category":"Robbery","date":{"end_time":"2010/12/08 00:00:00 -0500","original":"Dec 7 2010","granularity":"day","time":"2010/12/07 00:00:00 -0500"},"type":"Robbery","geo_score":0.902,"id_no":"10038542","id":"a90r3frspsk4","geo_precision":"range","location":"401 E LAKEWOOD AVE","state":"NC"},"type":"Feature","geometry":{"type":"Point","coordinates":[-78.898519,35.986202]}},{"properties":{"city":"Durham","category":"Robbery","date":{"end_time":"2010/12/08 00:00:00 -0500","original":"Dec 7 2010","granularity":"day","time":"2010/12/07 00:00:00 -0500"},"type":"Robbery","geo_score":0.679,"id_no":"10038553","id":"a90r3fi1nl9a","geo_precision":"range","location":"115 HONEYSUCKLE LN","state":"NC"},"type":"Feature","geometry":{"type":"Point","coordinates":[-78.952052,35.447048]}},{"properties":{"city":"Durham","category":"Robbery","date":{"end_time":"2010/12/09 00:00:00 -0500","original":"Dec 8 2010","granularity":"day","time":"2010/12/08 00:00:00 -0500"},"type":"Robbery","geo_score":0.488,"id_no":"10038588","id":"a90r3frlveec","geo_precision":"city","location":"3500 N ROXBORO RD","state":"NC"},"type":"Feature","geometry":{"type":"Point","coordinates":[-78.906933,35.981803]}},{"properties":{"city":"Durham","category":"Robbery","date":{"end_time":"2010/12/10 00:00:00 -0500","original":"Dec 9 2010","granularity":"day","time":"2010/12/09 00:00:00 -0500"},"type":"Robbery","geo_score":0.707,"id_no":"10038676","id":"a90r3ffwe997","geo_precision":"range","location":"4435 NC 55 HWY","state":"NC"},"type":"Feature","geometry":{"type":"Point","coordinates":[-78.8938,35.90812]}},{"properties":{"city":"Durham","category":"Robbery","date":{"end_time":"2010/12/10 00:00:00 -0500","original":"Dec 9 2010","granularity":"day","time":"2010/12/09 00:00:00 -0500"},"type":"Robbery","geo_score":0.708,"id_no":"10038718","id":"a90r3fl17ise","geo_precision":"street","location":"608 HARDEE ST","state":"NC"},"type":"Feature","geometry":{"type":"Point","coordinates":[-78.865766,35.991333]}},{"properties":{"city":"Durham","category":"Robbery","date":{"end_time":"2010/12/10 00:00:00 -0500","original":"Dec 9 2010","granularity":"day","time":"2010/12/09 00:00:00 -0500"},"type":"Robbery","geo_score":0.902,"id_no":"10038795","id":"a90r3fudvpb8","geo_precision":"range","location":"2500 ERWIN RD","state":"NC"},"type":"Feature","geometry":{"type":"Point","coordinates":[-78.944094,36.008719]}},{"properties":{"city":"Durham","category":"Robbery","date":{"end_time":"2010/12/10 00:00:00 -0500","original":"Dec 9 2010","granularity":"day","time":"2010/12/09 00:00:00 -0500"},"type":"Robbery","geo_score":0.89,"id_no":"10038799","id":"a90r3fp0g6bn","geo_precision":"range","location":"2685 DURHAM CHAPEL HILL BLVD","state":"NC"},"type":"Feature","geometry":{"type":"Point","coordinates":[-78.929747,35.974222]}},{"properties":{"city":"Durham","category":"Robbery","date":{"end_time":"2010/12/10 00:00:00 -0500","original":"Dec 9 2010","granularity":"day","time":"2010/12/09 00:00:00 -0500"},"type":"Robbery","geo_score":0.857,"id_no":"10038800","id":"a90r3fk4kijp","geo_precision":"street","location":"1199 MONMOUTH AVE/N BUCHANAN BLVD","state":"NC"},"type":"Feature","geometry":{"type":"Point","coordinates":[-78.898712,36.006589]}},{"properties":{"city":"Durham","category":"Robbery","date":{"end_time":"2010/12/12 00:00:00 -0500","original":"Dec 11 2010","granularity":"day","time":"2010/12/11 00:00:00 -0500"},"type":"Robbery","geo_score":0.902,"id_no":"10038912","id":"a90r3fsfahw6","geo_precision":"range","location":"4835 HOPE VALLEY RD","state":"NC"},"type":"Feature","geometry":{"type":"Point","coordinates":[-78.959754,35.920085]}},{"properties":{"city":"Durham","category":"Robbery","date":{"end_time":"2010/12/12 00:00:00 -0500","original":"Dec 11 2010","granularity":"day","time":"2010/12/11 00:00:00 -0500"},"type":"Robbery","geo_score":0.902,"id_no":"10038915","id":"a90r3fla6bvv","geo_precision":"range","location":"2836 CHAPEL HILL RD","state":"NC"},"type":"Feature","geometry":{"type":"Point","coordinates":[-78.938277,35.971468]}},{"properties":{"city":"Durham","category":"Aggravated Assault","date":{"end_time":"2010/12/12 00:00:00 -0500","original":"Dec 11 2010","granularity":"day","time":"2010/12/11 00:00:00 -0500"},"type":"Assault Offenses","geo_score":0.543,"id_no":"10038943","id":"a90r3fn1ttz2","geo_precision":"street","location":"199 W ENTERPRISE ST/SOUTH ST","state":"NC"},"type":"Feature","geometry":{"type":"Point","coordinates":[-78.902904,35.9836]}},{"properties":{"city":"Durham","category":"Robbery","date":{"end_time":"2010/12/12 00:00:00 -0500","original":"Dec 11 2010","granularity":"day","time":"2010/12/11 00:00:00 -0500"},"type":"Robbery","geo_score":0.902,"id_no":"10039012","id":"a90r3frk6rue","geo_precision":"range","location":"3908 TOWNSEND ST","state":"NC"},"type":"Feature","geometry":{"type":"Point","coordinates":[-78.918292,36.053708]}},{"properties":{"city":"Durham","category":"Aggravated Assault","date":{"end_time":"2010/12/13 00:00:00 -0500","original":"Dec 12 2010","granularity":"day","time":"2010/12/12 00:00:00 -0500"},"type":"Assault Offenses","geo_score":0.902,"id_no":"10039021","id":"a90r3fjh2kqm","geo_precision":"range","location":"2627 HILLSBOROUGH RD","state":"NC"},"type":"Feature","geometry":{"type":"Point","coordinates":[-78.929864,36.011423]}},{"properties":{"city":"Durham","category":"Robbery","date":{"end_time":"2010/12/13 00:00:00 -0500","original":"Dec 12 2010","granularity":"day","time":"2010/12/12 00:00:00 -0500"},"type":"Robbery","geo_score":0.902,"id_no":"10039043","id":"a90r3fueaxal","geo_precision":"range","location":"1517 GLENN SCHOOL RD","state":"NC"},"type":"Feature","geometry":{"type":"Point","coordinates":[-78.840808,36.030797]}},{"properties":{"city":"Durham","category":"Theft From Motor Vehicle","date":{"end_time":"2010/12/14 00:00:00 -0500","original":"Dec 13 2010","granularity":"day","time":"2010/12/13 00:00:00 -0500"},"type":"Larceny/Theft Offenses","geo_score":0.902,"id_no":"10039159","id":"a90r3fn93uy8","geo_precision":"range","location":"1220 RED ASH CIR","state":"NC"},"type":"Feature","geometry":{"type":"Point","coordinates":[-78.920847,36.05796]}},{"properties":{"city":"Durham","category":"Robbery","date":{"end_time":"2010/12/14 00:00:00 -0500","original":"Dec 13 2010","granularity":"day","time":"2010/12/13 00:00:00 -0500"},"type":"Robbery","geo_score":0.902,"id_no":"10039194","id":"a90r3fr7musw","geo_precision":"range","location":"213 N BRIGGS AVE","state":"NC"},"type":"Feature","geometry":{"type":"Point","coordinates":[-78.874983,35.988621]}},{"properties":{"city":"Durham","category":"Robbery","date":{"end_time":"2010/12/14 00:00:00 -0500","original":"Dec 13 2010","granularity":"day","time":"2010/12/13 00:00:00 -0500"},"type":"Robbery","geo_score":0.902,"id_no":"10039202","id":"a90r3fuwhtf7","geo_precision":"range","location":"4001 MERIWETHER DR","state":"NC"},"type":"Feature","geometry":{"type":"Point","coordinates":[-78.890155,36.042201]}},{"properties":{"city":"Durham","category":"Robbery","date":{"end_time":"2010/12/16 00:00:00 -0500","original":"Dec 15 2010","granularity":"day","time":"2010/12/15 00:00:00 -0500"},"type":"Robbery","geo_score":0.902,"id_no":"10039335","id":"a90r3fpk5x4x","geo_precision":"range","location":"3600 N DUKE ST","state":"NC"},"type":"Feature","geometry":{"type":"Point","coordinates":[-78.905729,36.050094]}},{"properties":{"city":"Durham","category":"Robbery","date":{"end_time":"2010/12/16 00:00:00 -0500","original":"Dec 15 2010","granularity":"day","time":"2010/12/15 00:00:00 -0500"},"type":"Robbery","geo_score":0.902,"id_no":"10039366","id":"a90r3funyhd6","geo_precision":"range","location":"2115 AVONDALE DR","state":"NC"},"type":"Feature","geometry":{"type":"Point","coordinates":[-78.8894,36.016623]}},{"properties":{"city":"Durham","category":"Aggravated Assault","date":{"end_time":"2010/12/16 00:00:00 -0500","original":"Dec 15 2010","granularity":"day","time":"2010/12/15 00:00:00 -0500"},"type":"Assault Offenses","geo_score":0.902,"id_no":"10039401","id":"a90r3ffknafa","geo_precision":"range","location":"309 WAKE PL","state":"NC"},"type":"Feature","geometry":{"type":"Point","coordinates":[-78.890568,36.001081]}},{"properties":{"city":"Durham","category":"Aggravated Assault","date":{"end_time":"2010/12/17 00:00:00 -0500","original":"Dec 16 2010","granularity":"day","time":"2010/12/16 00:00:00 -0500"},"type":"Assault Offenses","geo_score":0.902,"id_no":"10039436","id":"a90r3fo71afy","geo_precision":"range","location":"614 MIDDLE ST","state":"NC"},"type":"Feature","geometry":{"type":"Point","coordinates":[-78.881275,35.977713]}},{"properties":{"city":"Durham","category":"Robbery","date":{"end_time":"2010/12/17 00:00:00 -0500","original":"Dec 16 2010","granularity":"day","time":"2010/12/16 00:00:00 -0500"},"type":"Robbery","geo_score":0.707,"id_no":"10039530","id":"a90r3flnx0ri","geo_precision":"range","location":"4706 NC 55 HWY","state":"NC"},"type":"Feature","geometry":{"type":"Point","coordinates":[-78.895895,35.901596]}},{"properties":{"city":"Durham","category":"Robbery","date":{"end_time":"2010/12/17 00:00:00 -0500","original":"Dec 16 2010","granularity":"day","time":"2010/12/16 00:00:00 -0500"},"type":"Robbery","geo_score":0.902,"id_no":"10039534","id":"a90r3fswz9pe","geo_precision":"range","location":"544 LIBERTY ST","state":"NC"},"type":"Feature","geometry":{"type":"Point","coordinates":[-78.894793,35.993218]}},{"properties":{"city":"Durham","category":"Robbery","date":{"end_time":"2010/12/18 00:00:00 -0500","original":"Dec 17 2010","granularity":"day","time":"2010/12/17 00:00:00 -0500"},"type":"Robbery","geo_score":0.902,"id_no":"10039649","id":"a90r3fsttbbl","geo_precision":"range","location":"2713 OMAH ST","state":"NC"},"type":"Feature","geometry":{"type":"Point","coordinates":[-78.931201,36.033137]}},{"properties":{"city":"Durham","category":"Robbery","date":{"end_time":"2010/12/19 00:00:00 -0500","original":"Dec 18 2010","granularity":"day","time":"2010/12/18 00:00:00 -0500"},"type":"Robbery","geo_score":0.902,"id_no":"10039703","id":"a90r3fu8z4ai","geo_precision":"range","location":"1002 W CHAPEL HILL ST","state":"NC"},"type":"Feature","geometry":{"type":"Point","coordinates":[-78.915714,35.996871]}},{"properties":{"city":"Durham","category":"Robbery","date":{"end_time":"2010/12/19 00:00:00 -0500","original":"Dec 18 2010","granularity":"day","time":"2010/12/18 00:00:00 -0500"},"type":"Robbery","geo_score":0.902,"id_no":"10039714","id":"a90r3ff0vmoj","geo_precision":"range","location":"4640 HILLSBOROUGH RD","state":"NC"},"type":"Feature","geometry":{"type":"Point","coordinates":[-78.980238,36.032968]}},{"properties":{"city":"Durham","category":"Robbery","date":{"end_time":"2010/12/19 00:00:00 -0500","original":"Dec 18 2010","granularity":"day","time":"2010/12/18 00:00:00 -0500"},"type":"Robbery","geo_score":0.902,"id_no":"10039717","id":"a90r3ffc0k0m","geo_precision":"range","location":"1816 HILLANDALE RD","state":"NC"},"type":"Feature","geometry":{"type":"Point","coordinates":[-78.935759,36.029045]}},{"properties":{"city":"Durham","category":"Aggravated Assault","date":{"end_time":"2010/12/20 00:00:00 -0500","original":"Dec 19 2010","granularity":"day","time":"2010/12/19 00:00:00 -0500"},"type":"Assault Offenses","geo_score":0.488,"id_no":"10039737","id":"a90r3fr0qbw3","geo_precision":"city","location":"1302 JACKSON ST","state":"NC"},"type":"Feature","geometry":{"type":"Point","coordinates":[-78.906933,35.981803]}},{"properties":{"city":"Durham","category":"Forcible Rape","date":{"end_time":"2010/12/20 00:00:00 -0500","original":"Dec 19 2010","granularity":"day","time":"2010/12/19 00:00:00 -0500"},"type":"Forcible Rape","geo_score":0.358,"id_no":"10039767","id":"a90r3fr7c7hu","geo_precision":"street","location":"0 TRAIL VIEW LN","state":"NC"},"type":"Feature","geometry":{"type":"Point","coordinates":[-78.825724,35.966377]}},{"properties":{"city":"Durham","category":"Robbery","date":{"end_time":"2010/12/20 00:00:00 -0500","original":"Dec 19 2010","granularity":"day","time":"2010/12/19 00:00:00 -0500"},"type":"Robbery","geo_score":0.902,"id_no":"10039780","id":"a90r3frn2bnb","geo_precision":"range","location":"511 MARTHA ST","state":"NC"},"type":"Feature","geometry":{"type":"Point","coordinates":[-78.897058,35.970395]}},{"properties":{"city":"Durham","category":"Robbery","date":{"end_time":"2010/12/21 00:00:00 -0500","original":"Dec 20 2010","granularity":"day","time":"2010/12/20 00:00:00 -0500"},"type":"Robbery","geo_score":0.902,"id_no":"10039900","id":"a90r3fux3zf4","geo_precision":"range","location":"1058 W CLUB BLVD","state":"NC"},"type":"Feature","geometry":{"type":"Point","coordinates":[-78.908835,36.016983]}},{"properties":{"city":"Durham","category":"Robbery","date":{"end_time":"2010/12/21 00:00:00 -0500","original":"Dec 20 2010","granularity":"day","time":"2010/12/20 00:00:00 -0500"},"type":"Robbery","geo_score":0.863,"id_no":"10039908","id":"a90r3fimnp27","geo_precision":"range","location":"3700 FAYETTEVILLE ST","state":"NC"},"type":"Feature","geometry":{"type":"Point","coordinates":[-78.906146,35.953977]}},{"properties":{"city":"Durham","category":"Robbery","date":{"end_time":"2010/12/22 00:00:00 -0500","original":"Dec 21 2010","granularity":"day","time":"2010/12/21 00:00:00 -0500"},"type":"Robbery","geo_score":0.902,"id_no":"10039913","id":"a90r3fuwgd7t","geo_precision":"range","location":"405 E PILOT ST","state":"NC"},"type":"Feature","geometry":{"type":"Point","coordinates":[-78.90876,35.96614]}},{"properties":{"city":"Durham","category":"Robbery","date":{"end_time":"2010/12/22 00:00:00 -0500","original":"Dec 21 2010","granularity":"day","time":"2010/12/21 00:00:00 -0500"},"type":"Robbery","geo_score":0.488,"id_no":"10039982","id":"a90r3fji39d2","geo_precision":"city","location":"3557 N ROXBORO ST","state":"NC"},"type":"Feature","geometry":{"type":"Point","coordinates":[-78.906933,35.981803]}},{"properties":{"city":"Durham","category":"Robbery","date":{"end_time":"2010/12/23 00:00:00 -0500","original":"Dec 22 2010","granularity":"day","time":"2010/12/22 00:00:00 -0500"},"type":"Robbery","geo_score":0.902,"id_no":"10040034","id":"a90r3fou9fnv","geo_precision":"range","location":"3446 HILLSBOROUGH RD","state":"NC"},"type":"Feature","geometry":{"type":"Point","coordinates":[-78.944825,36.018746]}},{"properties":{"city":"Durham","category":"Robbery","date":{"end_time":"2010/12/23 00:00:00 -0500","original":"Dec 22 2010","granularity":"day","time":"2010/12/22 00:00:00 -0500"},"type":"Robbery","geo_score":0.902,"id_no":"10040134","id":"a90r3ff8f2ln","geo_precision":"range","location":"1925 CHAPEL HILL RD","state":"NC"},"type":"Feature","geometry":{"type":"Point","coordinates":[-78.926419,35.987163]}},{"properties":{"city":"Durham","category":"Aggravated Assault","date":{"end_time":"2010/12/23 00:00:00 -0500","original":"Dec 22 2010","granularity":"day","time":"2010/12/22 00:00:00 -0500"},"type":"Assault Offenses","geo_score":0.708,"id_no":"10040136","id":"a90r3ffp5j25","geo_precision":"street","location":"418 HARDEE ST","state":"NC"},"type":"Feature","geometry":{"type":"Point","coordinates":[-78.865766,35.991333]}},{"properties":{"city":"Durham","category":"Robbery","date":{"end_time":"2010/12/24 00:00:00 -0500","original":"Dec 23 2010","granularity":"day","time":"2010/12/23 00:00:00 -0500"},"type":"Robbery","geo_score":0.902,"id_no":"10040230","id":"a90r3fm3vqo3","geo_precision":"range","location":"700 S LASALLE ST","state":"NC"},"type":"Feature","geometry":{"type":"Point","coordinates":[-78.94758,36.00843]}},{"properties":{"city":"Durham","category":"Aggravated Assault","date":{"end_time":"2010/12/25 00:00:00 -0500","original":"Dec 24 2010","granularity":"day","time":"2010/12/24 00:00:00 -0500"},"type":"Assault Offenses","geo_score":0.902,"id_no":"10040300","id":"a90r3fi7n8e0","geo_precision":"range","location":"5322 FAYETTEVILLE RD","state":"NC"},"type":"Feature","geometry":{"type":"Point","coordinates":[-78.922583,35.927146]}},{"properties":{"city":"Durham","category":"Aggravated Assault","date":{"end_time":"2010/12/26 00:00:00 -0500","original":"Dec 25 2010","granularity":"day","time":"2010/12/25 00:00:00 -0500"},"type":"Assault Offenses","geo_score":0.902,"id_no":"10040335","id":"a90r3fm36jp8","geo_precision":"range","location":"901 CHALK LEVEL RD","state":"NC"},"type":"Feature","geometry":{"type":"Point","coordinates":[-78.910859,36.051147]}},{"properties":{"city":"Durham","category":"Aggravated Assault","date":{"end_time":"2010/12/27 00:00:00 -0500","original":"Dec 26 2010","granularity":"day","time":"2010/12/26 00:00:00 -0500"},"type":"Assault Offenses","geo_score":0.902,"id_no":"10040395","id":"a90r3fpcj6x9","geo_precision":"range","location":"2836 CHAPEL HILL RD","state":"NC"},"type":"Feature","geometry":{"type":"Point","coordinates":[-78.938277,35.971468]}},{"properties":{"city":"Durham","category":"Robbery","date":{"end_time":"2010/12/27 00:00:00 -0500","original":"Dec 26 2010","granularity":"day","time":"2010/12/26 00:00:00 -0500"},"type":"Robbery","geo_score":0.902,"id_no":"10040462","id":"a90r3fv3iic0","geo_precision":"range","location":"2947 CHAPEL HILL RD","state":"NC"},"type":"Feature","geometry":{"type":"Point","coordinates":[-78.939201,35.969553]}},{"properties":{"city":"Durham","category":"Robbery","date":{"end_time":"2010/12/28 00:00:00 -0500","original":"Dec 27 2010","granularity":"day","time":"2010/12/27 00:00:00 -0500"},"type":"Robbery","geo_score":0.902,"id_no":"10040545","id":"a90r3fm7m6zk","geo_precision":"range","location":"1130 E GEER ST","state":"NC"},"type":"Feature","geometry":{"type":"Point","coordinates":[-78.873521,36.005496]}},{"properties":{"city":"Durham","category":"Robbery","date":{"end_time":"2010/12/29 00:00:00 -0500","original":"Dec 28 2010","granularity":"day","time":"2010/12/28 00:00:00 -0500"},"type":"Robbery","geo_score":0.902,"id_no":"10040646","id":"a90r3fkfq0go","geo_precision":"range","location":"2000 AVONDALE DR","state":"NC"},"type":"Feature","geometry":{"type":"Point","coordinates":[-78.888714,36.015859]}},{"properties":{"city":"Durham","category":"Robbery","date":{"end_time":"2010/12/29 00:00:00 -0500","original":"Dec 28 2010","granularity":"day","time":"2010/12/28 00:00:00 -0500"},"type":"Robbery","geo_score":0.902,"id_no":"10040645","id":"a90r3fm3q8ak","geo_precision":"range","location":"403 PRICE AVE","state":"NC"},"type":"Feature","geometry":{"type":"Point","coordinates":[-78.900891,35.979659]}},{"properties":{"city":"Durham","category":"Aggravated Assault","date":{"end_time":"2010/12/30 00:00:00 -0500","original":"Dec 29 2010","granularity":"day","time":"2010/12/29 00:00:00 -0500"},"type":"Assault Offenses","geo_score":0.902,"id_no":"10040729","id":"a90r3fna06f5","geo_precision":"range","location":"1505 GUNTER ST","state":"NC"},"type":"Feature","geometry":{"type":"Point","coordinates":[-78.92174,35.988364]}},{"properties":{"city":"Durham","category":"Robbery","date":{"end_time":"2010/12/30 00:00:00 -0500","original":"Dec 29 2010","granularity":"day","time":"2010/12/29 00:00:00 -0500"},"type":"Robbery","geo_score":0.55,"id_no":"10040730","id":"a90r3fp10dqd","geo_precision":"street","location":"225 OLD OXFORD RD","state":"NC"},"type":"Feature","geometry":{"type":"Point","coordinates":[-78.934343,36.067589]}},{"properties":{"city":"Durham","category":"Robbery","date":{"end_time":"2010/12/31 00:00:00 -0500","original":"Dec 30 2010","granularity":"day","time":"2010/12/30 00:00:00 -0500"},"type":"Robbery","geo_score":0.707,"id_no":"10040839","id":"a90r3frbgb9u","geo_precision":"range","location":"4904 NC 55 HWY","state":"NC"},"type":"Feature","geometry":{"type":"Point","coordinates":[-78.897027,35.895163]}},{"properties":{"city":"Durham","category":"Robbery","date":{"end_time":"2010/12/31 00:00:00 -0500","original":"Dec 30 2010","granularity":"day","time":"2010/12/30 00:00:00 -0500"},"type":"Robbery","geo_score":0.902,"id_no":"10040870","id":"a90r3fg8si9k","geo_precision":"range","location":"2920 CHAPEL HILL RD","state":"NC"},"type":"Feature","geometry":{"type":"Point","coordinates":[-78.938884,35.970324]}},{"properties":{"city":"Durham","category":"Robbery","date":{"end_time":"2011/01/01 00:00:00 -0500","original":"Dec 31 2010","granularity":"day","time":"2010/12/31 00:00:00 -0500"},"type":"Robbery","geo_score":0.532,"id_no":"10040874","id":"a90r3fncdbz8","geo_precision":"street","location":"614 E KNOX ST","state":"NC"},"type":"Feature","geometry":{"type":"Point","coordinates":[-78.979722,36.041737]}},{"properties":{"city":"Durham","category":"Robbery","date":{"end_time":"2011/01/01 00:00:00 -0500","original":"Dec 31 2010","granularity":"day","time":"2010/12/31 00:00:00 -0500"},"type":"Robbery","geo_score":0.902,"id_no":"10040876","id":"a90r3fn0dhy4","geo_precision":"range","location":"1917 FIDELITY DR","state":"NC"},"type":"Feature","geometry":{"type":"Point","coordinates":[-78.865866,35.993853]}},{"properties":{"city":"Durham","category":"Robbery","date":{"end_time":"2011/01/01 00:00:00 -0500","original":"Dec 31 2010","granularity":"day","time":"2010/12/31 00:00:00 -0500"},"type":"Robbery","geo_score":0.488,"id_no":"10040877","id":"a90r3fo1v9kz","geo_precision":"city","location":"4604 N ROXBORO ST","state":"NC"},"type":"Feature","geometry":{"type":"Point","coordinates":[-78.906933,35.981803]}},{"properties":{"city":"Durham","category":"Robbery","date":{"end_time":"2011/01/01 00:00:00 -0500","original":"Dec 31 2010","granularity":"day","time":"2010/12/31 00:00:00 -0500"},"type":"Robbery","geo_score":0.857,"id_no":"10040882","id":"a90r3fl30nky","geo_precision":"street","location":"1699 MOREHEAD AVE/CHAPEL HILL RD","state":"NC"},"type":"Feature","geometry":{"type":"Point","coordinates":[-78.90328,35.98964]}},{"properties":{"city":"Durham","category":"Aggravated Assault","date":{"end_time":"2011/01/01 00:00:00 -0500","original":"Dec 31 2010","granularity":"day","time":"2010/12/31 00:00:00 -0500"},"type":"Assault Offenses","geo_score":0.708,"id_no":"10040963","id":"a90r3fldlq8t","geo_precision":"street","location":"650 HARDEE ST","state":"NC"},"type":"Feature","geometry":{"type":"Point","coordinates":[-78.865766,35.991333]}}],"is_temporal":true,"author":{"url":"","metadata":"","contact_name":"","contact_address":"","source":"","contact_phone":""},"source":"","pagination":{"sort":null,"start":0,"total":66,"limit":1000000},"state":"complete","tags":"","published":"2012-10-02T16:00:00Z","id":279254}