{"type":"FeatureCollection","data_type":"Dataset","url_type":null,"permissions":[{"permissions":{"download":true,"view":true},"group_id":"everyone"}],"classification":null,"title":"AffordableHousing OAK","count":199,"stream_id":279700,"contributor":{"url":"http://geocommons.com/users/22124","name":"johnny_geo"},"data_attributes":null,"calculation_params":null,"icon_link":null,"link":"http://geocommons.com/overlays/279700.json","extent":[-122.286,37.7434,-112.116,39.9576],"geometry_types":["point"],"unique_name":null,"name":"AffordableHousing OAK","feature_count":199,"description":"","next_feature":null,"is_raster":false,"short_classification":"Y","stats":{"4morebedrooms":{"max":6,"variance":0.620323841429369,"mean":0.226130653266332,"stdev":0.787606400068822,"min":0,"median":0},"studios":{"max":27,"variance":3.66331658291457,"mean":0.135678391959799,"stdev":1.9139792535225,"min":0,"median":0},"2bedr0oms":{"max":31,"variance":9.38591949647218,"mean":0.738693467336683,"stdev":3.06364480585987,"min":0,"median":0},"1bedrooms":{"max":40,"variance":8.77676260088318,"mean":0.276381909547739,"stdev":2.96256014299848,"min":0,"median":0},"bmrunits":{"max":101,"variance":59.2744530734479,"mean":6.88442211055276,"stdev":7.69899039312609,"min":1,"median":5},"dis":{"max":0,"variance":0.0,"mean":0.0,"stdev":0.0,"min":0,"median":0},"eldr":{"max":0,"variance":0.0,"mean":0.0,"stdev":0.0,"min":0,"median":0},"totalunits":{"max":101,"variance":59.2744530734479,"mean":6.88442211055276,"stdev":7.69899039312609,"min":1,"median":5},"sro":{"max":0,"variance":0.0,"mean":0.0,"stdev":0.0,"min":0,"median":0},"fam":{"max":22,"variance":12.3828232069438,"mean":2.27638190954774,"stdev":3.51892358640307,"min":0,"median":0},"3bedrooms":{"max":24,"variance":13.6249428962997,"mean":5.49246231155779,"stdev":3.69119802994904,"min":0,"median":5}},"features":[{"properties":{"city":"Oakland","studios":0,"4morebedrooms":0,"zip":"94605","bmrunits":6,"1bedrooms":0,"2bedr0oms":0,"eldr":0,"dis":0,"totalunits":6,"geo_score":0.902,"sro":0,"ownertype":"LG","street":"10221 Stanley Ave","sitephone":"874-1520","fam":0,"income\nlevel":"50 Percent Md","projectname":"10221 Stanley Ave","ownerormangmtcompany":"Oakland HA","program":"Public Hsg","id":"a91royg8d99x","geo_precision":"range","3bedrooms":6},"type":"Feature","geometry":{"type":"Point","coordinates":[-122.150402,37.746012]}},{"properties":{"city":"Oakland","studios":0,"4morebedrooms":0,"zip":"94606","bmrunits":4,"1bedrooms":0,"2bedr0oms":0,"eldr":0,"dis":0,"totalunits":4,"geo_score":0.482,"sro":0,"ownertype":"LG","street":"1031 E24th St","sitephone":"874-1520","fam":0,"income\nlevel":"50 Percent Md","projectname":"1031 E24th St","ownerormangmtcompany":"Oakland HA","program":"Public Hsg","id":"a91royl7avbr","geo_precision":"street","3bedrooms":4},"type":"Feature","geometry":{"type":"Point","coordinates":[-122.251183,37.803661]}},{"properties":{"city":"Oakland","studios":0,"4morebedrooms":0,"zip":"94608","bmrunits":10,"1bedrooms":0,"2bedr0oms":0,"eldr":0,"dis":0,"totalunits":10,"geo_score":0.721,"sro":0,"ownertype":"LG","street":"1037  62nd St","sitephone":"874-1520","fam":0,"income\nlevel":"50 Percent Md","projectname":"1037- 62nd St","ownerormangmtcompany":"Oakland HA","program":"Public Hsg","id":"a91roysfe1ac","geo_precision":"range","3bedrooms":10},"type":"Feature","geometry":{"type":"Point","coordinates":[-122.281293,37.845408]}},{"properties":{"city":"Oakland","studios":0,"4morebedrooms":0,"zip":"94608","bmrunits":5,"1bedrooms":0,"2bedr0oms":0,"eldr":0,"dis":0,"totalunits":5,"geo_score":0.721,"sro":0,"ownertype":"LG","street":"1039  63rd St","sitephone":"874-1520","fam":0,"income\nlevel":"50 Percent Md","projectname":"1039- 63rd St","ownerormangmtcompany":"Oakland HA","program":"Public Hsg","id":"a91royqfaicd","geo_precision":"range","3bedrooms":5},"type":"Feature","geometry":{"type":"Point","coordinates":[-122.282558,37.846283]}},{"properties":{"city":"Oakland","studios":0,"4morebedrooms":0,"zip":"94603","bmrunits":5,"1bedrooms":0,"2bedr0oms":5,"eldr":0,"dis":0,"totalunits":5,"geo_score":0.902,"sro":0,"ownertype":"LG","street":"1061 Elmhurst Ave","sitephone":"874-1520","fam":0,"income\nlevel":"50 Percent Md","projectname":"1061 Elmhurst Ave","ownerormangmtcompany":"Oakland HA","program":"Public Hsg","id":"a91royjg1fsg","geo_precision":"range","3bedrooms":0},"type":"Feature","geometry":{"type":"Point","coordinates":[-122.17745,37.743442]}},{"properties":{"city":"Oakland","studios":0,"4morebedrooms":1,"zip":"94607","bmrunits":6,"1bedrooms":0,"2bedr0oms":3,"eldr":0,"dis":0,"totalunits":6,"geo_score":0.819,"sro":0,"ownertype":"LG","street":"1114  14th St","sitephone":"874-1520","fam":0,"income\nlevel":"50 Percent Md","projectname":"1114- 14th St","ownerormangmtcompany":"Oakland HA","program":"Public Hsg","id":"a91royjz7p0j","geo_precision":"range","3bedrooms":2},"type":"Feature","geometry":{"type":"Point","coordinates":[-122.285846,37.809596]}},{"properties":{"city":"Oakland","studios":0,"4morebedrooms":0,"zip":"94610","bmrunits":5,"1bedrooms":0,"2bedr0oms":0,"eldr":0,"dis":0,"totalunits":5,"geo_score":0.863,"sro":0,"ownertype":"LG","street":"1120 Bella Vista Ave","sitephone":"874-1520","fam":0,"income\nlevel":"50 Percent Md","projectname":"1120 Bella Vista Ave","ownerormangmtcompany":"Oakland HA","program":"Public Hsg","id":"a91royr8jfq5","geo_precision":"range","3bedrooms":5},"type":"Feature","geometry":{"type":"Point","coordinates":[-122.234873,37.800012]}},{"properties":{"city":"Oakland","studios":0,"4morebedrooms":0,"zip":"94608","bmrunits":16,"1bedrooms":0,"2bedr0oms":0,"eldr":0,"dis":0,"totalunits":16,"geo_score":0.721,"sro":0,"ownertype":"LG","street":"1126  62nd St","sitephone":"874-1520","fam":0,"income\nlevel":"50 Percent Md","projectname":"1126- 62nd St","ownerormangmtcompany":"Oakland HA","program":"Public Hsg","id":"a91roygc4epo","geo_precision":"range","3bedrooms":16},"type":"Feature","geometry":{"type":"Point","coordinates":[-122.285141,37.844607]}},{"properties":{"city":"Oakland","studios":0,"4morebedrooms":0,"zip":"94606","bmrunits":11,"1bedrooms":0,"2bedr0oms":0,"eldr":0,"dis":0,"totalunits":11,"geo_score":0.902,"sro":0,"ownertype":"LG","street":"1127 Foothill Blvd","sitephone":"874-1520","fam":0,"income\nlevel":"50 Percent Md","projectname":"1127 Foothill Blvd","ownerormangmtcompany":"Oakland HA","program":"Public Hsg","id":"a91royii5j15","geo_precision":"range","3bedrooms":11},"type":"Feature","geometry":{"type":"Point","coordinates":[-122.246484,37.792066]}},{"properties":{"city":"Oakland","studios":0,"4morebedrooms":1,"zip":"94606","bmrunits":7,"1bedrooms":0,"2bedr0oms":6,"eldr":0,"dis":0,"totalunits":7,"geo_score":0.837,"sro":0,"ownertype":"LG","street":"1128 E 15th St","sitephone":"874-1520","fam":0,"income\nlevel":"50 Percent Md","projectname":"1128 E 15th St","ownerormangmtcompany":"Oakland HA","program":"Public Hsg","id":"a91roytzbqka","geo_precision":"range","3bedrooms":0},"type":"Feature","geometry":{"type":"Point","coordinates":[-122.247295,37.791523]}},{"properties":{"city":"Oakland","studios":0,"4morebedrooms":0,"zip":"94606","bmrunits":9,"1bedrooms":0,"2bedr0oms":0,"eldr":0,"dis":0,"totalunits":9,"geo_score":0.837,"sro":0,"ownertype":"LG","street":"1227 E 17th St","sitephone":"874-1520","fam":0,"income\nlevel":"50 Percent Md","projectname":"1227 E 17th St","ownerormangmtcompany":"Oakland HA","program":"Public Hsg","id":"a91roykfo1wi","geo_precision":"range","3bedrooms":9},"type":"Feature","geometry":{"type":"Point","coordinates":[-122.244722,37.791994]}},{"properties":{"city":"Oakland","studios":0,"4morebedrooms":0,"zip":"94606","bmrunits":10,"1bedrooms":0,"2bedr0oms":0,"eldr":0,"dis":0,"totalunits":10,"geo_score":0.837,"sro":0,"ownertype":"LG","street":"1236 E 17th St","sitephone":"874-1520","fam":0,"income\nlevel":"50 Percent Md","projectname":"1236 E 17th St","ownerormangmtcompany":"Oakland HA","program":"Public Hsg","id":"a91roys7w8ye","geo_precision":"range","3bedrooms":10},"type":"Feature","geometry":{"type":"Point","coordinates":[-122.244675,37.792167]}},{"properties":{"city":"Oakland","studios":0,"4morebedrooms":0,"zip":"94610","bmrunits":10,"1bedrooms":0,"2bedr0oms":0,"eldr":0,"dis":0,"totalunits":10,"geo_score":0.837,"sro":0,"ownertype":"LG","street":"1248 E 34th St","sitephone":"874-1520","fam":0,"income\nlevel":"50 Percent Md","projectname":"1248 E 34th St","ownerormangmtcompany":"Oakland HA","program":"Public Hsg","id":"a91roypplyc4","geo_precision":"range","3bedrooms":10},"type":"Feature","geometry":{"type":"Point","coordinates":[-122.232651,37.801954]}},{"properties":{"city":"Oakland","studios":0,"4morebedrooms":0,"zip":"94606","bmrunits":4,"1bedrooms":0,"2bedr0oms":0,"eldr":0,"dis":0,"totalunits":4,"geo_score":0.837,"sro":0,"ownertype":"LG","street":"1305 E 25th St","sitephone":"874-1520","fam":0,"income\nlevel":"50 Percent Md","projectname":"1305 E 25th St","ownerormangmtcompany":"Oakland HA","program":"Public Hsg","id":"a91royupbmrn","geo_precision":"range","3bedrooms":4},"type":"Feature","geometry":{"type":"Point","coordinates":[-122.235786,37.795789]}},{"properties":{"city":"Oakland","studios":0,"4morebedrooms":0,"zip":"94602","bmrunits":7,"1bedrooms":0,"2bedr0oms":0,"eldr":0,"dis":0,"totalunits":7,"geo_score":0.902,"sro":0,"ownertype":"LG","street":"1323 MacArthur Blvd","sitephone":"874-1520","fam":0,"income\nlevel":"50 Percent Md","projectname":"1323 MacArthur Blvd","ownerormangmtcompany":"Oakland HA","program":"Public Hsg","id":"a91royhkd5h2","geo_precision":"range","3bedrooms":7},"type":"Feature","geometry":{"type":"Point","coordinates":[-122.230902,37.801579]}},{"properties":{"city":"Oakland","studios":0,"4morebedrooms":0,"zip":"94602","bmrunits":5,"1bedrooms":0,"2bedr0oms":0,"eldr":0,"dis":0,"totalunits":5,"geo_score":0.837,"sro":0,"ownertype":"LG","street":"1324 E 32nd St","sitephone":"874-1520","fam":0,"income\nlevel":"50 Percent Md","projectname":"1324 E 32nd St","ownerormangmtcompany":"Oakland HA","program":"Public Hsg","id":"a91royqwcqh7","geo_precision":"range","3bedrooms":5},"type":"Feature","geometry":{"type":"Point","coordinates":[-122.231782,37.8002]}},{"properties":{"city":"Oakland","studios":0,"4morebedrooms":0,"zip":"94601","bmrunits":7,"1bedrooms":0,"2bedr0oms":0,"eldr":0,"dis":0,"totalunits":7,"geo_score":0.829,"sro":0,"ownertype":"LG","street":"1422  47th Ave","sitephone":"874-1520","fam":0,"income\nlevel":"50 Percent Md","projectname":"1422- 47th Ave","ownerormangmtcompany":"Oakland HA","program":"Public Hsg","id":"a91royk1oclk","geo_precision":"range","3bedrooms":7},"type":"Feature","geometry":{"type":"Point","coordinates":[-122.209932,37.771468]}},{"properties":{"city":"Oakland","studios":0,"4morebedrooms":0,"zip":"94601","bmrunits":4,"1bedrooms":0,"2bedr0oms":0,"eldr":0,"dis":0,"totalunits":4,"geo_score":0.829,"sro":0,"ownertype":"LG","street":"1424  50th Ave","sitephone":"874-1520","fam":4,"income\nlevel":"50 Percent Md","projectname":"1424- 50th Ave","ownerormangmtcompany":"Oakland HA","program":"Public Hsg","id":"a91royfrzj8m","geo_precision":"range","3bedrooms":4},"type":"Feature","geometry":{"type":"Point","coordinates":[-122.20713,37.77153]}},{"properties":{"city":"Oakland","studios":0,"4morebedrooms":0,"zip":"94621","bmrunits":8,"1bedrooms":0,"2bedr0oms":0,"eldr":0,"dis":0,"totalunits":8,"geo_score":0.902,"sro":0,"ownertype":"LG","street":"1430 Seminary Ave","sitephone":"874-1520","fam":0,"income\nlevel":"50 Percent Md","projectname":"1430 Seminary Ave","ownerormangmtcompany":"Oakland HA","program":"Public Hsg","id":"a91royh6bl6w","geo_precision":"range","3bedrooms":8},"type":"Feature","geometry":{"type":"Point","coordinates":[-122.198259,37.765896]}},{"properties":{"city":"Oakland","studios":0,"4morebedrooms":0,"zip":"94601","bmrunits":6,"1bedrooms":0,"2bedr0oms":0,"eldr":0,"dis":0,"totalunits":6,"geo_score":0.829,"sro":0,"ownertype":"LG","street":"1445  50th Ave","sitephone":"874-1520","fam":6,"income\nlevel":"50 Percent Md","projectname":"1445- 50th Ave","ownerormangmtcompany":"Oakland HA","program":"Public Hsg","id":"a91royg8i4fd","geo_precision":"range","3bedrooms":6},"type":"Feature","geometry":{"type":"Point","coordinates":[-122.207347,37.771457]}},{"properties":{"city":"Oakland","studios":0,"4morebedrooms":0,"zip":"94621","bmrunits":3,"1bedrooms":0,"2bedr0oms":0,"eldr":0,"dis":0,"totalunits":3,"geo_score":0.829,"sro":0,"ownertype":"LG","street":"1449  73rd Ave","sitephone":"874-1520","fam":3,"income\nlevel":"50 Percent Md","projectname":"1449- 73rd Ave","ownerormangmtcompany":"Oakland HA","program":"Public Hsg","id":"a91royk8038d","geo_precision":"range","3bedrooms":3},"type":"Feature","geometry":{"type":"Point","coordinates":[-122.185046,37.760735]}},{"properties":{"city":"Oakland","studios":0,"4morebedrooms":0,"zip":"94601","bmrunits":4,"1bedrooms":0,"2bedr0oms":0,"eldr":0,"dis":0,"totalunits":4,"geo_score":0.829,"sro":0,"ownertype":"LG","street":"1458 52nd Ave","sitephone":"874-1520","fam":4,"income\nlevel":"50 Percent Md","projectname":"1458 52nd Ave","ownerormangmtcompany":"Oakland HA","program":"Public Hsg","id":"a91royi9fmwc","geo_precision":"range","3bedrooms":4},"type":"Feature","geometry":{"type":"Point","coordinates":[-122.205105,37.771002]}},{"properties":{"city":"Oakland","studios":0,"4morebedrooms":2,"zip":"94621","bmrunits":8,"1bedrooms":0,"2bedr0oms":0,"eldr":0,"dis":0,"totalunits":8,"geo_score":0.902,"sro":0,"ownertype":"LG","street":"1465 Seminary Ave","sitephone":"874-1520","fam":0,"income\nlevel":"50 Percent Md","projectname":"1465 Seminary Ave","ownerormangmtcompany":"Oakland HA","program":"Public Hsg","id":"a91royiaopj1","geo_precision":"range","3bedrooms":6},"type":"Feature","geometry":{"type":"Point","coordinates":[-122.198599,37.765846]}},{"properties":{"city":"Oakland","studios":0,"4morebedrooms":0,"zip":"94621","bmrunits":4,"1bedrooms":0,"2bedr0oms":0,"eldr":0,"dis":0,"totalunits":4,"geo_score":0.829,"sro":0,"ownertype":"LG","street":"1486  77th Ave","sitephone":"874-1520","fam":4,"income\nlevel":"50 Percent Md","projectname":"1486- 77th Ave","ownerormangmtcompany":"Oakland HA","program":"Public Hsg","id":"a91roysl8go8","geo_precision":"range","3bedrooms":4},"type":"Feature","geometry":{"type":"Point","coordinates":[-122.18223,37.759275]}},{"properties":{"city":"Oakland","studios":0,"4morebedrooms":0,"zip":"94601","bmrunits":4,"1bedrooms":0,"2bedr0oms":0,"eldr":0,"dis":0,"totalunits":4,"geo_score":0.829,"sro":0,"ownertype":"LG","street":"1500  38th Ave","sitephone":"874-1520","fam":4,"income\nlevel":"50 Percent Md","projectname":"1500- 38th Ave","ownerormangmtcompany":"Oakland HA","program":"Public Hsg","id":"a91roykcocqz","geo_precision":"range","3bedrooms":4},"type":"Feature","geometry":{"type":"Point","coordinates":[-122.218862,37.776031]}},{"properties":{"city":"Oakland","studios":0,"4morebedrooms":0,"zip":"94603","bmrunits":5,"1bedrooms":0,"2bedr0oms":0,"eldr":0,"dis":0,"totalunits":5,"geo_score":0.829,"sro":0,"ownertype":"LG","street":"1521  92nd Ave","sitephone":"874-1520","fam":5,"income\nlevel":"50 Percent Md","projectname":"1521- 92nd Ave","ownerormangmtcompany":"Oakland HA","program":"Public Hsg","id":"a91roylfaw54","geo_precision":"range","3bedrooms":5},"type":"Feature","geometry":{"type":"Point","coordinates":[-122.17181,37.749709]}},{"properties":{"city":"Oakland","studios":0,"4morebedrooms":0,"zip":"94601","bmrunits":4,"1bedrooms":0,"2bedr0oms":3,"eldr":0,"dis":0,"totalunits":4,"geo_score":0.829,"sro":0,"ownertype":"LG","street":"1599  54th Ave","sitephone":"874-1520","fam":4,"income\nlevel":"50 Percent Md","projectname":"1599- 54th Ave","ownerormangmtcompany":"Oakland HA","program":"Public Hsg","id":"a91roymzedop","geo_precision":"range","3bedrooms":1},"type":"Feature","geometry":{"type":"Point","coordinates":[-122.204764,37.768944]}},{"properties":{"city":"Oakland","studios":0,"4morebedrooms":2,"zip":"94606","bmrunits":20,"1bedrooms":0,"2bedr0oms":12,"eldr":0,"dis":0,"totalunits":20,"geo_score":0.829,"sro":0,"ownertype":"LG","street":"1608  11th Ave","sitephone":"874-1520","fam":0,"income\nlevel":"50 Percent Md","projectname":"1608- 11th Ave","ownerormangmtcompany":"Oakland HA","program":"Public Hsg","id":"a91royq9m1iw","geo_precision":"range","3bedrooms":6},"type":"Feature","geometry":{"type":"Point","coordinates":[-122.24612,37.79321]}},{"properties":{"city":"Oakland","studios":27,"4morebedrooms":0,"zip":"94612","bmrunits":101,"1bedrooms":40,"2bedr0oms":31,"eldr":0,"dis":0,"totalunits":101,"geo_score":0.902,"sro":0,"ownertype":"LG","street":"1621 Harrison Street","sitephone":"874-1520","fam":0,"income\nlevel":"50 Percent Md","projectname":"1621 Harrison Street","ownerormangmtcompany":"Oakland HA","program":"Public Hsg","id":"a91roypk5ojj","geo_precision":"range","3bedrooms":0},"type":"Feature","geometry":{"type":"Point","coordinates":[-122.266683,37.804462]}},{"properties":{"city":"Oakland","studios":0,"4morebedrooms":1,"zip":"94606","bmrunits":7,"1bedrooms":0,"2bedr0oms":0,"eldr":0,"dis":0,"totalunits":7,"geo_score":0.837,"sro":0,"ownertype":"LG","street":"1632 E 19th St","sitephone":"874-1520","fam":0,"income\nlevel":"50 Percent Md","projectname":"1632 E 19th St","ownerormangmtcompany":"Oakland HA","program":"Public Hsg","id":"a91royr0eaga","geo_precision":"range","3bedrooms":6},"type":"Feature","geometry":{"type":"Point","coordinates":[-122.240269,37.791309]}},{"properties":{"city":"Oakland","studios":0,"4morebedrooms":0,"zip":"94621","bmrunits":4,"1bedrooms":0,"2bedr0oms":0,"eldr":0,"dis":0,"totalunits":4,"geo_score":0.829,"sro":0,"ownertype":"LG","street":"1639  84th Ave","sitephone":"874-1520","fam":4,"income\nlevel":"50 Percent Md","projectname":"1639- 84th Ave","ownerormangmtcompany":"Oakland HA","program":"Public Hsg","id":"a91royj43fam","geo_precision":"range","3bedrooms":4},"type":"Feature","geometry":{"type":"Point","coordinates":[-122.17523,37.755722]}},{"properties":{"city":"Oakland","studios":0,"4morebedrooms":0,"zip":"94621","bmrunits":3,"1bedrooms":0,"2bedr0oms":0,"eldr":0,"dis":0,"totalunits":3,"geo_score":0.829,"sro":0,"ownertype":"LG","street":"1644  81st Ave","sitephone":"874-1520","fam":3,"income\nlevel":"50 Percent Md","projectname":"1644- 81st Ave","ownerormangmtcompany":"Oakland HA","program":"Public Hsg","id":"a91roypk0l64","geo_precision":"range","3bedrooms":3},"type":"Feature","geometry":{"type":"Point","coordinates":[-122.1773,37.757555]}},{"properties":{"city":"Oakland","studios":0,"4morebedrooms":0,"zip":"94621","bmrunits":3,"1bedrooms":0,"2bedr0oms":0,"eldr":0,"dis":0,"totalunits":3,"geo_score":0.829,"sro":0,"ownertype":"LG","street":"1711  88th Ave","sitephone":"874-1520","fam":3,"income\nlevel":"50 Percent Md","projectname":"1711- 88th Ave","ownerormangmtcompany":"Oakland HA","program":"Public Hsg","id":"a91roys0bc59","geo_precision":"range","3bedrooms":3},"type":"Feature","geometry":{"type":"Point","coordinates":[-122.170438,37.753399]}},{"properties":{"city":"Oakland","studios":0,"4morebedrooms":0,"zip":"94621","bmrunits":1,"1bedrooms":0,"2bedr0oms":0,"eldr":0,"dis":0,"totalunits":1,"geo_score":0.829,"sro":0,"ownertype":"LG","street":"1715  67th Ave","sitephone":"874-1520","fam":1,"income\nlevel":"50 Percent Md","projectname":"1715- 67th Ave","ownerormangmtcompany":"Oakland HA","program":"Public Hsg","id":"a91roypedmhl","geo_precision":"range","3bedrooms":1},"type":"Feature","geometry":{"type":"Point","coordinates":[-122.187174,37.765021]}},{"properties":{"city":"Oakland","studios":0,"4morebedrooms":0,"zip":"94606","bmrunits":4,"1bedrooms":0,"2bedr0oms":0,"eldr":0,"dis":0,"totalunits":4,"geo_score":0.837,"sro":0,"ownertype":"LG","street":"1716 E 20th St","sitephone":"874-1520","fam":0,"income\nlevel":"50 Percent Md","projectname":"1716 E 20th St","ownerormangmtcompany":"Oakland HA","program":"Public Hsg","id":"a91royhc66q8","geo_precision":"range","3bedrooms":4},"type":"Feature","geometry":{"type":"Point","coordinates":[-122.238249,37.791418]}},{"properties":{"city":"Oakland","studios":0,"4morebedrooms":0,"zip":"94621","bmrunits":4,"1bedrooms":0,"2bedr0oms":3,"eldr":0,"dis":0,"totalunits":4,"geo_score":0.829,"sro":0,"ownertype":"LG","street":"1723  62nd Ave","sitephone":"874-1520","fam":4,"income\nlevel":"50 Percent Md","projectname":"1723- 62nd Ave","ownerormangmtcompany":"Oakland HA","program":"Public Hsg","id":"a91roymj5bxa","geo_precision":"range","3bedrooms":1},"type":"Feature","geometry":{"type":"Point","coordinates":[-122.195046,37.765601]}},{"properties":{"city":"Oakland","studios":0,"4morebedrooms":0,"zip":"94601","bmrunits":6,"1bedrooms":0,"2bedr0oms":0,"eldr":0,"dis":0,"totalunits":6,"geo_score":0.829,"sro":0,"ownertype":"LG","street":"1726  38th Ave","sitephone":"874-1520","fam":6,"income\nlevel":"50 Percent Md","projectname":"1726- 38th Ave","ownerormangmtcompany":"Oakland HA","program":"Public Hsg","id":"a91royphcp39","geo_precision":"range","3bedrooms":6},"type":"Feature","geometry":{"type":"Point","coordinates":[-122.218041,37.777138]}},{"properties":{"city":"Oakland","studios":0,"4morebedrooms":0,"zip":"94621","bmrunits":6,"1bedrooms":0,"2bedr0oms":0,"eldr":0,"dis":0,"totalunits":6,"geo_score":0.829,"sro":0,"ownertype":"LG","street":"1730  85th Ave","sitephone":"874-1520","fam":6,"income\nlevel":"50 Percent Md","projectname":"1730- 85th Ave","ownerormangmtcompany":"Oakland HA","program":"Public Hsg","id":"a91royojcxiy","geo_precision":"range","3bedrooms":6},"type":"Feature","geometry":{"type":"Point","coordinates":[-122.172463,37.755821]}},{"properties":{"city":"Oakland","studios":0,"4morebedrooms":0,"zip":"94603","bmrunits":4,"1bedrooms":0,"2bedr0oms":0,"eldr":0,"dis":0,"totalunits":4,"geo_score":0.829,"sro":0,"ownertype":"LG","street":"1733  92nd Ave","sitephone":"874-1520","fam":4,"income\nlevel":"50 Percent Md","projectname":"1733- 92nd Ave","ownerormangmtcompany":"Oakland HA","program":"Public Hsg","id":"a91royssanh4","geo_precision":"range","3bedrooms":4},"type":"Feature","geometry":{"type":"Point","coordinates":[-122.169825,37.750622]}},{"properties":{"city":"Oakland","studios":0,"4morebedrooms":0,"zip":"94606","bmrunits":6,"1bedrooms":0,"2bedr0oms":0,"eldr":0,"dis":0,"totalunits":6,"geo_score":0.837,"sro":0,"ownertype":"LG","street":"1737 E 15th St","sitephone":"874-1520","fam":0,"income\nlevel":"50 Percent Md","projectname":"1737 E 15th St","ownerormangmtcompany":"Oakland HA","program":"Public Hsg","id":"a91roysgx4ct","geo_precision":"range","3bedrooms":6},"type":"Feature","geometry":{"type":"Point","coordinates":[-122.241715,37.788083]}},{"properties":{"city":"Oakland","studios":0,"4morebedrooms":2,"zip":"94621","bmrunits":6,"1bedrooms":0,"2bedr0oms":0,"eldr":0,"dis":0,"totalunits":6,"geo_score":0.829,"sro":0,"ownertype":"LG","street":"1739  89th Ave","sitephone":"874-1520","fam":6,"income\nlevel":"50 Percent Md","projectname":"1739- 89th Ave","ownerormangmtcompany":"Oakland HA","program":"Public Hsg","id":"a91royrrt8zc","geo_precision":"range","3bedrooms":4},"type":"Feature","geometry":{"type":"Point","coordinates":[-122.170138,37.75261]}},{"properties":{"city":"Oakland","studios":0,"4morebedrooms":2,"zip":"94606","bmrunits":5,"1bedrooms":0,"2bedr0oms":0,"eldr":0,"dis":0,"totalunits":5,"geo_score":0.837,"sro":0,"ownertype":"LG","street":"1750 E 21st St","sitephone":"874-1520","fam":0,"income\nlevel":"50 Percent Md","projectname":"1750 E 21st St","ownerormangmtcompany":"Oakland HA","program":"Public Hsg","id":"a91royten9h5","geo_precision":"range","3bedrooms":3},"type":"Feature","geometry":{"type":"Point","coordinates":[-122.237697,37.792515]}},{"properties":{"city":"Oakland","studios":0,"4morebedrooms":0,"zip":"94621","bmrunits":3,"1bedrooms":0,"2bedr0oms":0,"eldr":0,"dis":0,"totalunits":3,"geo_score":0.829,"sro":0,"ownertype":"LG","street":"1763  82nd Ave","sitephone":"874-1520","fam":3,"income\nlevel":"50 Percent Md","projectname":"1763- 82nd Ave","ownerormangmtcompany":"Oakland HA","program":"Public Hsg","id":"a91roygqxm1k","geo_precision":"range","3bedrooms":3},"type":"Feature","geometry":{"type":"Point","coordinates":[-122.174533,37.758123]}},{"properties":{"city":"Oakland","studios":0,"4morebedrooms":0,"zip":"94601","bmrunits":11,"1bedrooms":0,"2bedr0oms":0,"eldr":0,"dis":0,"totalunits":11,"geo_score":0.829,"sro":0,"ownertype":"LG","street":"1815  28th Ave","sitephone":"874-1520","fam":11,"income\nlevel":"50 Percent Md","projectname":"1815- 28th Ave","ownerormangmtcompany":"Oakland HA","program":"Public Hsg","id":"a91royggcmkj","geo_precision":"range","3bedrooms":11},"type":"Feature","geometry":{"type":"Point","coordinates":[-122.226319,37.783573]}},{"properties":{"city":"Oakland","studios":0,"4morebedrooms":0,"zip":"94621","bmrunits":3,"1bedrooms":0,"2bedr0oms":0,"eldr":0,"dis":0,"totalunits":3,"geo_score":0.829,"sro":0,"ownertype":"LG","street":"1815  88th Ave","sitephone":"874-1520","fam":3,"income\nlevel":"50 Percent Md","projectname":"1815- 88th Ave","ownerormangmtcompany":"Oakland HA","program":"Public Hsg","id":"a91royu4mw59","geo_precision":"range","3bedrooms":3},"type":"Feature","geometry":{"type":"Point","coordinates":[-122.17123,37.752982]}},{"properties":{"city":"Oakland","studios":0,"4morebedrooms":0,"zip":"94601","bmrunits":15,"1bedrooms":0,"2bedr0oms":0,"eldr":0,"dis":0,"totalunits":15,"geo_score":0.829,"sro":0,"ownertype":"LG","street":"1853  38th Ave","sitephone":"874-1520","fam":15,"income\nlevel":"50 Percent Md","projectname":"1853- 38th Ave","ownerormangmtcompany":"Oakland HA","program":"Public Hsg","id":"a91roygvsov7","geo_precision":"range","3bedrooms":15},"type":"Feature","geometry":{"type":"Point","coordinates":[-122.217075,37.778625]}},{"properties":{"city":"Oakland","studios":0,"4morebedrooms":1,"zip":"94606","bmrunits":5,"1bedrooms":0,"2bedr0oms":0,"eldr":0,"dis":0,"totalunits":5,"geo_score":0.902,"sro":0,"ownertype":"LG","street":"1900 Commerce Way","sitephone":"874-1520","fam":0,"income\nlevel":"50 Percent Md","projectname":"1900 Commerce Way","ownerormangmtcompany":"Oakland HA","program":"Public Hsg","id":"a91royiacmh9","geo_precision":"range","3bedrooms":4},"type":"Feature","geometry":{"type":"Point","coordinates":[-122.23724,37.788743]}},{"properties":{"city":"Oakland","studios":0,"4morebedrooms":0,"zip":"94606","bmrunits":4,"1bedrooms":0,"2bedr0oms":0,"eldr":0,"dis":0,"totalunits":4,"geo_score":0.482,"sro":0,"ownertype":"LG","street":"1900 E24th St","sitephone":"874-1520","fam":0,"income\nlevel":"50 Percent Md","projectname":"1900 E24th St","ownerormangmtcompany":"Oakland HA","program":"Public Hsg","id":"a91royv91ztf","geo_precision":"street","3bedrooms":4},"type":"Feature","geometry":{"type":"Point","coordinates":[-122.251183,37.803661]}},{"properties":{"city":"Oakland","studios":0,"4morebedrooms":0,"zip":"94621","bmrunits":18,"1bedrooms":0,"2bedr0oms":12,"eldr":0,"dis":0,"totalunits":18,"geo_score":0.902,"sro":0,"ownertype":"LG","street":"1915 Seminary Ave","sitephone":"874-1520","fam":0,"income\nlevel":"50 Percent Md","projectname":"1915 Seminary Ave","ownerormangmtcompany":"Oakland HA","program":"Public Hsg","id":"a91roykiqs9g","geo_precision":"range","3bedrooms":6},"type":"Feature","geometry":{"type":"Point","coordinates":[-122.195868,37.767779]}},{"properties":{"city":"Oakland","studios":0,"4morebedrooms":0,"zip":"94606","bmrunits":7,"1bedrooms":0,"2bedr0oms":0,"eldr":0,"dis":0,"totalunits":7,"geo_score":0.837,"sro":0,"ownertype":"LG","street":"1921 E 15th St","sitephone":"874-1520","fam":0,"income\nlevel":"50 Percent Md","projectname":"1921 E 15th St","ownerormangmtcompany":"Oakland HA","program":"Public Hsg","id":"a91royide5yr","geo_precision":"range","3bedrooms":7},"type":"Feature","geometry":{"type":"Point","coordinates":[-122.239469,37.786721]}},{"properties":{"city":"Oakland","studios":0,"4morebedrooms":0,"zip":"94603","bmrunits":4,"1bedrooms":0,"2bedr0oms":0,"eldr":0,"dis":0,"totalunits":4,"geo_score":0.829,"sro":0,"ownertype":"LG","street":"1928  96th Ave","sitephone":"874-1520","fam":4,"income\nlevel":"50 Percent Md","projectname":"1928- 96th Ave","ownerormangmtcompany":"Oakland HA","program":"Public Hsg","id":"a91roytigi66","geo_precision":"range","3bedrooms":4},"type":"Feature","geometry":{"type":"Point","coordinates":[-122.165304,37.748599]}},{"properties":{"city":"Oakland","studios":0,"4morebedrooms":0,"zip":"94606","bmrunits":9,"1bedrooms":0,"2bedr0oms":3,"eldr":0,"dis":0,"totalunits":9,"geo_score":0.829,"sro":0,"ownertype":"LG","street":"1944  16th Ave","sitephone":"874-1520","fam":0,"income\nlevel":"50 Percent Md","projectname":"1944- 16th Ave","ownerormangmtcompany":"Oakland HA","program":"Public Hsg","id":"a91royqxubmc","geo_precision":"range","3bedrooms":6},"type":"Feature","geometry":{"type":"Point","coordinates":[-122.240267,37.792368]}},{"properties":{"city":"Oakland","studios":0,"4morebedrooms":0,"zip":"94606","bmrunits":5,"1bedrooms":0,"2bedr0oms":0,"eldr":0,"dis":0,"totalunits":5,"geo_score":0.482,"sro":0,"ownertype":"LG","street":"1951 E24th St","sitephone":"874-1520","fam":0,"income\nlevel":"50 Percent Md","projectname":"1951 E24th St","ownerormangmtcompany":"Oakland HA","program":"Public Hsg","id":"a91royply2nt","geo_precision":"street","3bedrooms":5},"type":"Feature","geometry":{"type":"Point","coordinates":[-122.251183,37.803661]}},{"properties":{"city":"Oakland","studios":0,"4morebedrooms":0,"zip":"84606","bmrunits":4,"1bedrooms":0,"2bedr0oms":0,"eldr":0,"dis":0,"totalunits":4,"geo_score":0.393,"sro":0,"ownertype":"LG","street":"2000 E21st St","sitephone":"874-1520","fam":0,"income\nlevel":"50 Percent Md","projectname":"2000 E21st St","ownerormangmtcompany":"Oakland HA","program":"Public Hsg","id":"a91royi24vhu","geo_precision":"street","3bedrooms":4},"type":"Feature","geometry":{"type":"Point","coordinates":[-112.115704,39.957596]}},{"properties":{"city":"Oakland","studios":0,"4morebedrooms":0,"zip":"94606","bmrunits":4,"1bedrooms":0,"2bedr0oms":0,"eldr":0,"dis":0,"totalunits":4,"geo_score":0.482,"sro":0,"ownertype":"LG","street":"2003 E25th St","sitephone":"874-1520","fam":0,"income\nlevel":"50 Percent Md","projectname":"2003 E25th St","ownerormangmtcompany":"Oakland HA","program":"Public Hsg","id":"a91royswtq89","geo_precision":"street","3bedrooms":4},"type":"Feature","geometry":{"type":"Point","coordinates":[-122.251183,37.803661]}},{"properties":{"city":"Oakland","studios":0,"4morebedrooms":2,"zip":"94606","bmrunits":8,"1bedrooms":0,"2bedr0oms":0,"eldr":0,"dis":0,"totalunits":8,"geo_score":0.482,"sro":0,"ownertype":"LG","street":"2005 E21st St","sitephone":"874-1520","fam":0,"income\nlevel":"50 Percent Md","projectname":"2005 E21st St","ownerormangmtcompany":"Oakland HA","program":"Public Hsg","id":"a91royi1w6zy","geo_precision":"street","3bedrooms":6},"type":"Feature","geometry":{"type":"Point","coordinates":[-122.251183,37.803661]}},{"properties":{"city":"Oakland","studios":0,"4morebedrooms":0,"zip":"94606","bmrunits":6,"1bedrooms":0,"2bedr0oms":0,"eldr":0,"dis":0,"totalunits":6,"geo_score":0.819,"sro":0,"ownertype":"LG","street":"2011  7th Ave","sitephone":"874-1520","fam":0,"income\nlevel":"50 Percent Md","projectname":"2011- 7th Ave","ownerormangmtcompany":"Oakland HA","program":"Public Hsg","id":"a91roygdt73y","geo_precision":"range","3bedrooms":6},"type":"Feature","geometry":{"type":"Point","coordinates":[-122.245862,37.798875]}},{"properties":{"city":"Oakland","studios":0,"4morebedrooms":0,"zip":"94606","bmrunits":4,"1bedrooms":0,"2bedr0oms":0,"eldr":0,"dis":0,"totalunits":4,"geo_score":0.837,"sro":0,"ownertype":"LG","street":"2017 E 24th St","sitephone":"874-1520","fam":0,"income\nlevel":"50 Percent Md","projectname":"2017 E 24th St","ownerormangmtcompany":"Oakland HA","program":"Public Hsg","id":"a91roynxctur","geo_precision":"range","3bedrooms":4},"type":"Feature","geometry":{"type":"Point","coordinates":[-122.233086,37.79318]}},{"properties":{"city":"Oakland","studios":0,"4morebedrooms":0,"zip":"9466","bmrunits":4,"1bedrooms":0,"2bedr0oms":3,"eldr":0,"dis":0,"totalunits":4,"geo_score":0.0,"sro":0,"ownertype":"LG","street":"2021  11th Ave","sitephone":"874-1520","fam":0,"income\nlevel":"50 Percent Md","projectname":"2021- 11th Ave","ownerormangmtcompany":"Oakland HA","program":"Public Hsg","id":"a91royk20zgf","geo_precision":"unmatched","3bedrooms":1},"type":"Feature","geometry":null},{"properties":{"city":"Oakland","studios":0,"4morebedrooms":0,"zip":"94601","bmrunits":6,"1bedrooms":0,"2bedr0oms":0,"eldr":0,"dis":0,"totalunits":6,"geo_score":0.829,"sro":0,"ownertype":"LG","street":"2023  24th Ave","sitephone":"874-1520","fam":6,"income\nlevel":"50 Percent Md","projectname":"2023- 24th Ave","ownerormangmtcompany":"Oakland HA","program":"Public Hsg","id":"a91royfs2v3y","geo_precision":"range","3bedrooms":6},"type":"Feature","geometry":{"type":"Point","coordinates":[-122.229866,37.787288]}},{"properties":{"city":"Oakland","studios":0,"4morebedrooms":0,"zip":"94606","bmrunits":5,"1bedrooms":0,"2bedr0oms":0,"eldr":0,"dis":0,"totalunits":5,"geo_score":0.837,"sro":0,"ownertype":"LG","street":"2030 E 25th St","sitephone":"874-1520","fam":0,"income\nlevel":"50 Percent Md","projectname":"2030 E 25th St","ownerormangmtcompany":"Oakland HA","program":"Public Hsg","id":"a91royjltb7d","geo_precision":"range","3bedrooms":5},"type":"Feature","geometry":{"type":"Point","coordinates":[-122.232405,37.794126]}},{"properties":{"city":"Oakland","studios":0,"4morebedrooms":0,"zip":"94606","bmrunits":9,"1bedrooms":0,"2bedr0oms":0,"eldr":0,"dis":0,"totalunits":9,"geo_score":0.837,"sro":0,"ownertype":"LG","street":"2032 E 26th St","sitephone":"874-1520","fam":0,"income\nlevel":"50 Percent Md","projectname":"2032 E 26th St","ownerormangmtcompany":"Oakland HA","program":"Public Hsg","id":"a91royp0wggi","geo_precision":"range","3bedrooms":9},"type":"Feature","geometry":{"type":"Point","coordinates":[-122.23171,37.794891]}},{"properties":{"city":"Oakland","studios":0,"4morebedrooms":0,"zip":"94601","bmrunits":9,"1bedrooms":0,"2bedr0oms":0,"eldr":0,"dis":0,"totalunits":9,"geo_score":0.829,"sro":0,"ownertype":"LG","street":"2056  35th Ave","sitephone":"874-1520","fam":9,"income\nlevel":"50 Percent Md","projectname":"2056- 35th Ave","ownerormangmtcompany":"Oakland HA","program":"Public Hsg","id":"a91royqvq2dh","geo_precision":"range","3bedrooms":9},"type":"Feature","geometry":{"type":"Point","coordinates":[-122.217021,37.78398]}},{"properties":{"city":"Oakland","studios":0,"4morebedrooms":0,"zip":"94606","bmrunits":4,"1bedrooms":0,"2bedr0oms":0,"eldr":0,"dis":0,"totalunits":4,"geo_score":0.837,"sro":0,"ownertype":"LG","street":"2102 E 17th St","sitephone":"874-1520","fam":4,"income\nlevel":"50 Percent Md","projectname":"2102 E 17th St","ownerormangmtcompany":"Oakland HA","program":"Public Hsg","id":"a91royvvvgou","geo_precision":"range","3bedrooms":4},"type":"Feature","geometry":{"type":"Point","coordinates":[-122.235544,37.787164]}},{"properties":{"city":"Oakland","studios":0,"4morebedrooms":0,"zip":"94601","bmrunits":6,"1bedrooms":0,"2bedr0oms":0,"eldr":0,"dis":0,"totalunits":6,"geo_score":0.829,"sro":0,"ownertype":"LG","street":"2110  25th Ave","sitephone":"874-1520","fam":6,"income\nlevel":"50 Percent Md","projectname":"2110- 25th Ave","ownerormangmtcompany":"Oakland HA","program":"Public Hsg","id":"a91royncasly","geo_precision":"range","3bedrooms":6},"type":"Feature","geometry":{"type":"Point","coordinates":[-122.227462,37.787242]}},{"properties":{"city":"Oakland","studios":0,"4morebedrooms":0,"zip":"94601","bmrunits":4,"1bedrooms":0,"2bedr0oms":3,"eldr":0,"dis":0,"totalunits":4,"geo_score":0.829,"sro":0,"ownertype":"LG","street":"2115  38th Ave","sitephone":"874-1520","fam":4,"income\nlevel":"50 Percent Md","projectname":"2115- 38th Ave","ownerormangmtcompany":"Oakland HA","program":"Public Hsg","id":"a91roygzdi4p","geo_precision":"range","3bedrooms":1},"type":"Feature","geometry":{"type":"Point","coordinates":[-122.214769,37.780456]}},{"properties":{"city":"Oakland","studios":0,"4morebedrooms":0,"zip":"94601","bmrunits":9,"1bedrooms":0,"2bedr0oms":0,"eldr":0,"dis":0,"totalunits":9,"geo_score":0.382,"sro":0,"ownertype":"LG","street":"2126 High St","sitephone":"874-1520","fam":0,"income\nlevel":"50 Percent Md","projectname":"2126 High St","ownerormangmtcompany":"Oakland HA","program":"Public Hsg","id":"a91royk4flje","geo_precision":"street","3bedrooms":9},"type":"Feature","geometry":{"type":"Point","coordinates":[-122.136995,37.76601]}},{"properties":{"city":"Oakland","studios":0,"4morebedrooms":4,"zip":"94621","bmrunits":12,"1bedrooms":0,"2bedr0oms":0,"eldr":0,"dis":0,"totalunits":12,"geo_score":0.902,"sro":0,"ownertype":"LG","street":"2139 Seminary Ave","sitephone":"874-1520","fam":0,"income\nlevel":"50 Percent Md","projectname":"2139 Seminary Ave","ownerormangmtcompany":"Oakland HA","program":"Public Hsg","id":"a91royvropan","geo_precision":"range","3bedrooms":8},"type":"Feature","geometry":{"type":"Point","coordinates":[-122.194038,37.769074]}},{"properties":{"city":"Oakland","studios":0,"4morebedrooms":0,"zip":"94606","bmrunits":4,"1bedrooms":0,"2bedr0oms":0,"eldr":0,"dis":0,"totalunits":4,"geo_score":0.837,"sro":0,"ownertype":"LG","street":"2146 E 24th St","sitephone":"874-1520","fam":0,"income\nlevel":"50 Percent Md","projectname":"2146 E 24th St","ownerormangmtcompany":"Oakland HA","program":"Public Hsg","id":"a91royfnso85","geo_precision":"range","3bedrooms":4},"type":"Feature","geometry":{"type":"Point","coordinates":[-122.230848,37.791961]}},{"properties":{"city":"Oakland","studios":0,"4morebedrooms":0,"zip":"94606","bmrunits":5,"1bedrooms":0,"2bedr0oms":0,"eldr":0,"dis":0,"totalunits":5,"geo_score":0.837,"sro":0,"ownertype":"LG","street":"2155 E 28th St","sitephone":"874-1520","fam":0,"income\nlevel":"50 Percent Md","projectname":"2155 E 28th St","ownerormangmtcompany":"Oakland HA","program":"Public Hsg","id":"a91royrh0ev4","geo_precision":"range","3bedrooms":5},"type":"Feature","geometry":{"type":"Point","coordinates":[-122.228403,37.794977]}},{"properties":{"city":"Oakland","studios":0,"4morebedrooms":0,"zip":"94601","bmrunits":1,"1bedrooms":0,"2bedr0oms":0,"eldr":0,"dis":0,"totalunits":1,"geo_score":0.829,"sro":0,"ownertype":"LG","street":"2157 38th Ave","sitephone":"874-1520","fam":0,"income\nlevel":"50 Percent Md","projectname":"2157-38th Ave","ownerormangmtcompany":"Oakland HA","program":"Public Hsg","id":"a91royorj6l9","geo_precision":"range","3bedrooms":1},"type":"Feature","geometry":{"type":"Point","coordinates":[-122.210925,37.783118]}},{"properties":{"city":"Oakland","studios":0,"4morebedrooms":0,"zip":"94606","bmrunits":11,"1bedrooms":0,"2bedr0oms":0,"eldr":0,"dis":0,"totalunits":11,"geo_score":0.837,"sro":0,"ownertype":"LG","street":"2170 E 28th St","sitephone":"874-1520","fam":0,"income\nlevel":"50 Percent Md","projectname":"2170 E 28th St","ownerormangmtcompany":"Oakland HA","program":"Public Hsg","id":"a91roypq6d9b","geo_precision":"range","3bedrooms":11},"type":"Feature","geometry":{"type":"Point","coordinates":[-122.228507,37.795248]}},{"properties":{"city":"Oakland","studios":0,"4morebedrooms":0,"zip":"94601","bmrunits":4,"1bedrooms":0,"2bedr0oms":2,"eldr":0,"dis":0,"totalunits":4,"geo_score":0.829,"sro":0,"ownertype":"LG","street":"2181  48th Ave","sitephone":"874-1520","fam":4,"income\nlevel":"50 Percent Md","projectname":"2181- 48th Ave","ownerormangmtcompany":"Oakland HA","program":"Public Hsg","id":"a91roys028f4","geo_precision":"range","3bedrooms":2},"type":"Feature","geometry":{"type":"Point","coordinates":[-122.204902,37.776421]}},{"properties":{"city":"Oakland","studios":0,"4morebedrooms":0,"zip":"94601","bmrunits":7,"1bedrooms":0,"2bedr0oms":0,"eldr":0,"dis":0,"totalunits":7,"geo_score":0.902,"sro":0,"ownertype":"LG","street":"2202 Mitchell St","sitephone":"874-1520","fam":0,"income\nlevel":"50 Percent Md","projectname":"2202 Mitchell St","ownerormangmtcompany":"Oakland HA","program":"Public Hsg","id":"a91roym4d2qt","geo_precision":"range","3bedrooms":7},"type":"Feature","geometry":{"type":"Point","coordinates":[-122.22473,37.786579]}},{"properties":{"city":"Oakland","studios":0,"4morebedrooms":0,"zip":"94606","bmrunits":4,"1bedrooms":0,"2bedr0oms":0,"eldr":0,"dis":0,"totalunits":4,"geo_score":0.837,"sro":0,"ownertype":"LG","street":"2216 E 21st St","sitephone":"874-1520","fam":4,"income\nlevel":"50 Percent Md","projectname":"2216 E 21st St","ownerormangmtcompany":"Oakland HA","program":"Public Hsg","id":"a91royrp19wb","geo_precision":"range","3bedrooms":4},"type":"Feature","geometry":{"type":"Point","coordinates":[-122.231861,37.788977]}},{"properties":{"city":"Oakland","studios":0,"4morebedrooms":0,"zip":"94601","bmrunits":3,"1bedrooms":0,"2bedr0oms":0,"eldr":0,"dis":0,"totalunits":3,"geo_score":0.829,"sro":0,"ownertype":"LG","street":"2218  24th Ave","sitephone":"874-1520","fam":3,"income\nlevel":"50 Percent Md","projectname":"2218- 24th Ave","ownerormangmtcompany":"Oakland HA","program":"Public Hsg","id":"a91roygpe3a7","geo_precision":"range","3bedrooms":3},"type":"Feature","geometry":{"type":"Point","coordinates":[-122.228295,37.788907]}},{"properties":{"city":"Oakland","studios":0,"4morebedrooms":0,"zip":"94606","bmrunits":4,"1bedrooms":0,"2bedr0oms":0,"eldr":0,"dis":0,"totalunits":4,"geo_score":0.482,"sro":0,"ownertype":"LG","street":"2219 E22nd St","sitephone":"874-1520","fam":4,"income\nlevel":"50 Percent Md","projectname":"2219 E22nd St","ownerormangmtcompany":"Oakland HA","program":"Public Hsg","id":"a91royidk3nt","geo_precision":"street","3bedrooms":4},"type":"Feature","geometry":{"type":"Point","coordinates":[-122.251183,37.803661]}},{"properties":{"city":"Oakland","studios":0,"4morebedrooms":0,"zip":"94601","bmrunits":5,"1bedrooms":0,"2bedr0oms":0,"eldr":0,"dis":0,"totalunits":5,"geo_score":0.829,"sro":0,"ownertype":"LG","street":"2228 48th Ave","sitephone":"874-1520","fam":5,"income\nlevel":"50 Percent Md","projectname":"2228-48th Ave","ownerormangmtcompany":"Oakland HA","program":"Public Hsg","id":"a91roygp72zs","geo_precision":"range","3bedrooms":5},"type":"Feature","geometry":{"type":"Point","coordinates":[-122.20521,37.77561]}},{"properties":{"city":"Oakland","studios":0,"4morebedrooms":0,"zip":"94606","bmrunits":3,"1bedrooms":0,"2bedr0oms":0,"eldr":0,"dis":0,"totalunits":3,"geo_score":0.482,"sro":0,"ownertype":"LG","street":"2229 E24th St","sitephone":"874-1520","fam":0,"income\nlevel":"50 Percent Md","projectname":"2229 E24th St","ownerormangmtcompany":"Oakland HA","program":"Public Hsg","id":"a91royswliyl","geo_precision":"street","3bedrooms":3},"type":"Feature","geometry":{"type":"Point","coordinates":[-122.251183,37.803661]}},{"properties":{"city":"Oakland","studios":0,"4morebedrooms":0,"zip":"94603","bmrunits":6,"1bedrooms":0,"2bedr0oms":0,"eldr":0,"dis":0,"totalunits":6,"geo_score":0.829,"sro":0,"ownertype":"LG","street":"2230  94th Ave","sitephone":"874-1520","fam":6,"income\nlevel":"50 Percent Md","projectname":"2230- 94th Ave","ownerormangmtcompany":"Oakland HA","program":"Public Hsg","id":"a91royul0sho","geo_precision":"range","3bedrooms":6},"type":"Feature","geometry":{"type":"Point","coordinates":[-122.163012,37.751599]}},{"properties":{"city":"Oakland","studios":0,"4morebedrooms":0,"zip":"94603","bmrunits":6,"1bedrooms":0,"2bedr0oms":0,"eldr":0,"dis":0,"totalunits":6,"geo_score":0.829,"sro":0,"ownertype":"LG","street":"2238  90th Ave","sitephone":"874-1520","fam":6,"income\nlevel":"50 Percent Md","projectname":"2238- 90th Ave","ownerormangmtcompany":"Oakland HA","program":"Public Hsg","id":"a91royquup4p","geo_precision":"range","3bedrooms":6},"type":"Feature","geometry":{"type":"Point","coordinates":[-122.164635,37.754049]}},{"properties":{"city":"Oakland","studios":0,"4morebedrooms":0,"zip":"94606","bmrunits":7,"1bedrooms":0,"2bedr0oms":0,"eldr":0,"dis":0,"totalunits":7,"geo_score":0.837,"sro":0,"ownertype":"LG","street":"2246 E 19th St","sitephone":"874-1520","fam":7,"income\nlevel":"50 Percent Md","projectname":"2246 E 19th St","ownerormangmtcompany":"Oakland HA","program":"Public Hsg","id":"a91royvf7grb","geo_precision":"range","3bedrooms":7},"type":"Feature","geometry":{"type":"Point","coordinates":[-122.233438,37.787285]}},{"properties":{"city":"Oakland","studios":0,"4morebedrooms":0,"zip":"94606","bmrunits":5,"1bedrooms":0,"2bedr0oms":0,"eldr":0,"dis":0,"totalunits":5,"geo_score":0.837,"sro":0,"ownertype":"LG","street":"2247 E 19th St","sitephone":"874-1520","fam":5,"income\nlevel":"50 Percent Md","projectname":"2247 E 19th St","ownerormangmtcompany":"Oakland HA","program":"Public Hsg","id":"a91royn8f0pl","geo_precision":"range","3bedrooms":5},"type":"Feature","geometry":{"type":"Point","coordinates":[-122.233529,37.787165]}},{"properties":{"city":"Oakland","studios":0,"4morebedrooms":0,"zip":"94605","bmrunits":12,"1bedrooms":0,"2bedr0oms":0,"eldr":0,"dis":0,"totalunits":12,"geo_score":0.829,"sro":0,"ownertype":"LG","street":"2261  84th Ave","sitephone":"874-1520","fam":12,"income\nlevel":"50 Percent Md","projectname":"2261- 84th Ave","ownerormangmtcompany":"Oakland HA","program":"Public Hsg","id":"a91royo2t1zd","geo_precision":"range","3bedrooms":12},"type":"Feature","geometry":{"type":"Point","coordinates":[-122.168382,37.75889]}},{"properties":{"city":"Oakland","studios":0,"4morebedrooms":1,"zip":"94606","bmrunits":4,"1bedrooms":0,"2bedr0oms":0,"eldr":0,"dis":0,"totalunits":4,"geo_score":0.482,"sro":0,"ownertype":"LG","street":"2272 E19th St","sitephone":"874-1520","fam":4,"income\nlevel":"50 Percent Md","projectname":"2272 E19th St","ownerormangmtcompany":"Oakland HA","program":"Public Hsg","id":"a91roygaujrn","geo_precision":"street","3bedrooms":3},"type":"Feature","geometry":{"type":"Point","coordinates":[-122.251183,37.803661]}},{"properties":{"city":"Oakland","studios":0,"4morebedrooms":0,"zip":"94605","bmrunits":1,"1bedrooms":0,"2bedr0oms":0,"eldr":0,"dis":0,"totalunits":1,"geo_score":0.829,"sro":0,"ownertype":"LG","street":"2282 83rd Ave","sitephone":"874-1520","fam":0,"income\nlevel":"50 Percent Md","projectname":"2282-83rd Ave","ownerormangmtcompany":"Oakland HA","program":"Public Hsg","id":"a91roysm4i1y","geo_precision":"range","3bedrooms":1},"type":"Feature","geometry":{"type":"Point","coordinates":[-122.169209,37.759333]}},{"properties":{"city":"Oakland","studios":0,"4morebedrooms":0,"zip":"94606","bmrunits":4,"1bedrooms":0,"2bedr0oms":0,"eldr":0,"dis":0,"totalunits":4,"geo_score":0.837,"sro":0,"ownertype":"LG","street":"2284 E 17th St","sitephone":"874-1520","fam":4,"income\nlevel":"50 Percent Md","projectname":"2284 E 17th St","ownerormangmtcompany":"Oakland HA","program":"Public Hsg","id":"a91royqaneka","geo_precision":"range","3bedrooms":4},"type":"Feature","geometry":{"type":"Point","coordinates":[-122.235183,37.786971]}},{"properties":{"city":"Oakland","studios":0,"4morebedrooms":0,"zip":"94603","bmrunits":7,"1bedrooms":0,"2bedr0oms":0,"eldr":0,"dis":0,"totalunits":7,"geo_score":0.829,"sro":0,"ownertype":"LG","street":"2308  96th Ave","sitephone":"874-1520","fam":7,"income\nlevel":"50 Percent Md","projectname":"2308- 96th Ave","ownerormangmtcompany":"Oakland HA","program":"Public Hsg","id":"a91roynawa7v","geo_precision":"range","3bedrooms":7},"type":"Feature","geometry":{"type":"Point","coordinates":[-122.160881,37.75067]}},{"properties":{"city":"Oakland","studios":0,"4morebedrooms":0,"zip":"94603","bmrunits":8,"1bedrooms":0,"2bedr0oms":0,"eldr":0,"dis":0,"totalunits":8,"geo_score":0.829,"sro":0,"ownertype":"LG","street":"2311  98th Ave","sitephone":"874-1520","fam":8,"income\nlevel":"50 Percent Md","projectname":"2311- 98th Ave","ownerormangmtcompany":"Oakland HA","program":"Public Hsg","id":"a91roymnkagl","geo_precision":"range","3bedrooms":8},"type":"Feature","geometry":{"type":"Point","coordinates":[-122.16005,37.749396]}},{"properties":{"city":"Oakland","studios":0,"4morebedrooms":0,"zip":"94603","bmrunits":8,"1bedrooms":0,"2bedr0oms":0,"eldr":0,"dis":0,"totalunits":8,"geo_score":0.829,"sro":0,"ownertype":"LG","street":"2315  98th Ave","sitephone":"874-1520","fam":8,"income\nlevel":"50 Percent Md","projectname":"2315- 98th Ave","ownerormangmtcompany":"Oakland HA","program":"Public Hsg","id":"a91royr7v2lc","geo_precision":"range","3bedrooms":8},"type":"Feature","geometry":{"type":"Point","coordinates":[-122.160119,37.749442]}},{"properties":{"city":"Oakland","studios":0,"4morebedrooms":0,"zip":"94601","bmrunits":6,"1bedrooms":0,"2bedr0oms":0,"eldr":0,"dis":0,"totalunits":6,"geo_score":0.837,"sro":0,"ownertype":"LG","street":"2323 E 22nd St","sitephone":"874-1520","fam":6,"income\nlevel":"50 Percent Md","projectname":"2323 E 22nd St","ownerormangmtcompany":"Oakland HA","program":"Public Hsg","id":"a91roypu17vy","geo_precision":"range","3bedrooms":6},"type":"Feature","geometry":{"type":"Point","coordinates":[-122.230165,37.788966]}},{"properties":{"city":"Oakland","studios":0,"4morebedrooms":0,"zip":"94605","bmrunits":5,"1bedrooms":0,"2bedr0oms":0,"eldr":0,"dis":0,"totalunits":5,"geo_score":0.829,"sro":0,"ownertype":"LG","street":"2325  86th Ave","sitephone":"874-1520","fam":5,"income\nlevel":"50 Percent Md","projectname":"2325- 86th Ave","ownerormangmtcompany":"Oakland HA","program":"Public Hsg","id":"a91roynd4zxt","geo_precision":"range","3bedrooms":5},"type":"Feature","geometry":{"type":"Point","coordinates":[-122.165873,37.758043]}},{"properties":{"city":"Oakland","studios":0,"4morebedrooms":0,"zip":"94605","bmrunits":4,"1bedrooms":0,"2bedr0oms":0,"eldr":0,"dis":0,"totalunits":4,"geo_score":0.829,"sro":0,"ownertype":"LG","street":"2329  85th Ave","sitephone":"874-1520","fam":4,"income\nlevel":"50 Percent Md","projectname":"2329- 85th Ave","ownerormangmtcompany":"Oakland HA","program":"Public Hsg","id":"a91royit9q1l","geo_precision":"range","3bedrooms":4},"type":"Feature","geometry":{"type":"Point","coordinates":[-122.166321,37.758875]}},{"properties":{"city":"Oakland","studios":0,"4morebedrooms":0,"zip":"94605","bmrunits":6,"1bedrooms":0,"2bedr0oms":0,"eldr":0,"dis":0,"totalunits":6,"geo_score":0.829,"sro":0,"ownertype":"LG","street":"2349  83rd Ave","sitephone":"874-1520","fam":6,"income\nlevel":"50 Percent Md","projectname":"2349- 83rd Ave","ownerormangmtcompany":"Oakland HA","program":"Public Hsg","id":"a91royvtxf5b","geo_precision":"range","3bedrooms":6},"type":"Feature","geometry":{"type":"Point","coordinates":[-122.167815,37.760247]}},{"properties":{"city":"Oakland","studios":0,"4morebedrooms":0,"zip":"94601","bmrunits":3,"1bedrooms":0,"2bedr0oms":0,"eldr":0,"dis":0,"totalunits":3,"geo_score":0.837,"sro":0,"ownertype":"LG","street":"2353 E 24th St","sitephone":"874-1520","fam":0,"income\nlevel":"50 Percent Md","projectname":"2353 E 24th St","ownerormangmtcompany":"Oakland HA","program":"Public Hsg","id":"a91royn14skj","geo_precision":"range","3bedrooms":3},"type":"Feature","geometry":{"type":"Point","coordinates":[-122.228432,37.790151]}},{"properties":{"city":"Oakland","studios":0,"4morebedrooms":0,"zip":"94601","bmrunits":4,"1bedrooms":0,"2bedr0oms":0,"eldr":0,"dis":0,"totalunits":4,"geo_score":0.837,"sro":0,"ownertype":"LG","street":"2381 E 21st St","sitephone":"874-1520","fam":4,"income\nlevel":"50 Percent Md","projectname":"2381 E 21st St","ownerormangmtcompany":"Oakland HA","program":"Public Hsg","id":"a91royfy3riw","geo_precision":"range","3bedrooms":4},"type":"Feature","geometry":{"type":"Point","coordinates":[-122.231346,37.788363]}},{"properties":{"city":"Oakland","studios":0,"4morebedrooms":0,"zip":"94601","bmrunits":8,"1bedrooms":0,"2bedr0oms":0,"eldr":0,"dis":0,"totalunits":8,"geo_score":0.837,"sro":0,"ownertype":"LG","street":"2402 E 27th St","sitephone":"874-1520","fam":0,"income\nlevel":"50 Percent Md","projectname":"2402 E 27th St","ownerormangmtcompany":"Oakland HA","program":"Public Hsg","id":"a91royrpzueh","geo_precision":"range","3bedrooms":8},"type":"Feature","geometry":{"type":"Point","coordinates":[-122.224317,37.792521]}},{"properties":{"city":"Oakland","studios":0,"4morebedrooms":0,"zip":"94605","bmrunits":6,"1bedrooms":0,"2bedr0oms":0,"eldr":0,"dis":0,"totalunits":6,"geo_score":0.829,"sro":0,"ownertype":"LG","street":"2416 88th Ave","sitephone":"874-1520","fam":6,"income\nlevel":"50 Percent Md","projectname":"2416-88th Ave","ownerormangmtcompany":"Oakland HA","program":"Public Hsg","id":"a91roypbjnde","geo_precision":"range","3bedrooms":6},"type":"Feature","geometry":{"type":"Point","coordinates":[-122.162218,37.757038]}},{"properties":{"city":"Oakland","studios":0,"4morebedrooms":0,"zip":"94603","bmrunits":6,"1bedrooms":0,"2bedr0oms":0,"eldr":0,"dis":0,"totalunits":6,"geo_score":0.829,"sro":0,"ownertype":"LG","street":"2425 94th Ave","sitephone":"874-1520","fam":6,"income\nlevel":"50 Percent Md","projectname":"2425-94th Ave","ownerormangmtcompany":"Oakland HA","program":"Public Hsg","id":"a91royfsxwqk","geo_precision":"range","3bedrooms":6},"type":"Feature","geometry":{"type":"Point","coordinates":[-122.160791,37.752793]}},{"properties":{"city":"Oakland","studios":0,"4morebedrooms":0,"zip":"94601","bmrunits":5,"1bedrooms":0,"2bedr0oms":0,"eldr":0,"dis":0,"totalunits":5,"geo_score":0.837,"sro":0,"ownertype":"LG","street":"2430 E 22nd St","sitephone":"874-1520","fam":5,"income\nlevel":"50 Percent Md","projectname":"2430 E 22nd St","ownerormangmtcompany":"Oakland HA","program":"Public Hsg","id":"a91roypz4v48","geo_precision":"range","3bedrooms":5},"type":"Feature","geometry":{"type":"Point","coordinates":[-122.227825,37.787687]}},{"properties":{"city":"Oakland","studios":0,"4morebedrooms":0,"zip":"94601","bmrunits":6,"1bedrooms":0,"2bedr0oms":0,"eldr":0,"dis":0,"totalunits":6,"geo_score":0.829,"sro":0,"ownertype":"LG","street":"2435 26th Ave","sitephone":"874-1520","fam":6,"income\nlevel":"50 Percent Md","projectname":"2435-26th Ave","ownerormangmtcompany":"Oakland HA","program":"Public Hsg","id":"a91roysmtlcc","geo_precision":"range","3bedrooms":6},"type":"Feature","geometry":{"type":"Point","coordinates":[-122.225033,37.788923]}},{"properties":{"city":"Oakland","studios":0,"4morebedrooms":0,"zip":"94601","bmrunits":3,"1bedrooms":0,"2bedr0oms":0,"eldr":0,"dis":0,"totalunits":3,"geo_score":0.837,"sro":0,"ownertype":"LG","street":"2439 E 21st St","sitephone":"874-1520","fam":3,"income\nlevel":"50 Percent Md","projectname":"2439 E 21st St","ownerormangmtcompany":"Oakland HA","program":"Public Hsg","id":"a91royoyfo7t","geo_precision":"range","3bedrooms":3},"type":"Feature","geometry":{"type":"Point","coordinates":[-122.228758,37.786846]}},{"properties":{"city":"Oakland","studios":0,"4morebedrooms":0,"zip":"94601","bmrunits":8,"1bedrooms":0,"2bedr0oms":0,"eldr":0,"dis":0,"totalunits":8,"geo_score":0.837,"sro":0,"ownertype":"LG","street":"2440 E 21st St","sitephone":"874-1520","fam":8,"income\nlevel":"50 Percent Md","projectname":"2440 E 21st St","ownerormangmtcompany":"Oakland HA","program":"Public Hsg","id":"a91roymbwfmu","geo_precision":"range","3bedrooms":8},"type":"Feature","geometry":{"type":"Point","coordinates":[-122.228691,37.786983]}},{"properties":{"city":"Oakland","studios":0,"4morebedrooms":1,"zip":"94601","bmrunits":4,"1bedrooms":0,"2bedr0oms":0,"eldr":0,"dis":0,"totalunits":4,"geo_score":0.488,"sro":0,"ownertype":"LG","street":"2451 Renwick St","sitephone":"874-1520","fam":0,"income\nlevel":"50 Percent Md","projectname":"2451 Renwick St","ownerormangmtcompany":"Oakland HA","program":"Public Hsg","id":"a91roynxp459","geo_precision":"zip","3bedrooms":3},"type":"Feature","geometry":{"type":"Point","coordinates":[-122.223779,37.786027]}},{"properties":{"city":"Oakland","studios":0,"4morebedrooms":0,"zip":"94601","bmrunits":5,"1bedrooms":0,"2bedr0oms":0,"eldr":0,"dis":0,"totalunits":5,"geo_score":0.902,"sro":0,"ownertype":"LG","street":"2468 Coolidge Ave","sitephone":"874-1520","fam":5,"income\nlevel":"50 Percent Md","projectname":"2468 Coolidge Ave","ownerormangmtcompany":"Oakland HA","program":"Public Hsg","id":"a91royo9eamm","geo_precision":"range","3bedrooms":5},"type":"Feature","geometry":{"type":"Point","coordinates":[-122.218233,37.787125]}},{"properties":{"city":"Oakland","studios":0,"4morebedrooms":0,"zip":"94601","bmrunits":7,"1bedrooms":0,"2bedr0oms":0,"eldr":0,"dis":0,"totalunits":7,"geo_score":0.829,"sro":0,"ownertype":"LG","street":"2474 26th Ave","sitephone":"874-1520","fam":7,"income\nlevel":"50 Percent Md","projectname":"2474-26th Ave","ownerormangmtcompany":"Oakland HA","program":"Public Hsg","id":"a91roykmhnmn","geo_precision":"range","3bedrooms":7},"type":"Feature","geometry":{"type":"Point","coordinates":[-122.225117,37.788539]}},{"properties":{"city":"Oakland","studios":0,"4morebedrooms":0,"zip":"94605","bmrunits":22,"1bedrooms":0,"2bedr0oms":0,"eldr":0,"dis":0,"totalunits":22,"geo_score":0.829,"sro":0,"ownertype":"LG","street":"2509 77th Ave","sitephone":"874-1520","fam":22,"income\nlevel":"50 Percent Md","projectname":"2509-77th Ave","ownerormangmtcompany":"Oakland HA","program":"Public Hsg","id":"a91roysz72u3","geo_precision":"range","3bedrooms":22},"type":"Feature","geometry":{"type":"Point","coordinates":[-122.174508,37.764017]}},{"properties":{"city":"Oakland","studios":0,"4morebedrooms":2,"zip":"94606","bmrunits":4,"1bedrooms":0,"2bedr0oms":0,"eldr":0,"dis":0,"totalunits":4,"geo_score":0.829,"sro":0,"ownertype":"LG","street":"2511 11th Ave","sitephone":"874-1520","fam":0,"income\nlevel":"50 Percent Md","projectname":"2511-11th Ave","ownerormangmtcompany":"Oakland HA","program":"Public Hsg","id":"a91royowgykn","geo_precision":"range","3bedrooms":2},"type":"Feature","geometry":{"type":"Point","coordinates":[-122.237526,37.799482]}},{"properties":{"city":"Oakland","studios":0,"4morebedrooms":0,"zip":"94606","bmrunits":4,"1bedrooms":0,"2bedr0oms":0,"eldr":0,"dis":0,"totalunits":4,"geo_score":0.829,"sro":0,"ownertype":"LG","street":"2527 21st Ave","sitephone":"874-1520","fam":0,"income\nlevel":"50 Percent Md","projectname":"2527-21st Ave","ownerormangmtcompany":"Oakland HA","program":"Public Hsg","id":"a91royp4yjib","geo_precision":"range","3bedrooms":4},"type":"Feature","geometry":{"type":"Point","coordinates":[-122.230744,37.793797]}},{"properties":{"city":"Oakland","studios":0,"4morebedrooms":1,"zip":"94506","bmrunits":4,"1bedrooms":0,"2bedr0oms":0,"eldr":0,"dis":0,"totalunits":4,"geo_score":0.366,"sro":0,"ownertype":"LG","street":"2529 9th Ave","sitephone":"874-1520","fam":0,"income\nlevel":"50 Percent Md","projectname":"2529-9th Ave","ownerormangmtcompany":"Oakland HA","program":"Public Hsg","id":"a91royqz8om1","geo_precision":"street","3bedrooms":3},"type":"Feature","geometry":{"type":"Point","coordinates":[-122.270432,37.777119]}},{"properties":{"city":"Oakland","studios":0,"4morebedrooms":0,"zip":"94606","bmrunits":15,"1bedrooms":0,"2bedr0oms":0,"eldr":0,"dis":0,"totalunits":15,"geo_score":0.819,"sro":0,"ownertype":"LG","street":"2530 9th Ave","sitephone":"874-1520","fam":0,"income\nlevel":"50 Percent Md","projectname":"2530-9th Ave","ownerormangmtcompany":"Oakland HA","program":"Public Hsg","id":"a91royjjlm8z","geo_precision":"range","3bedrooms":15},"type":"Feature","geometry":{"type":"Point","coordinates":[-122.239248,37.800758]}},{"properties":{"city":"Oakland","studios":0,"4morebedrooms":0,"zip":"94601","bmrunits":12,"1bedrooms":0,"2bedr0oms":0,"eldr":0,"dis":0,"totalunits":12,"geo_score":0.829,"sro":0,"ownertype":"LG","street":"2558 35th Ave","sitephone":"874-1520","fam":12,"income\nlevel":"50 Percent Md","projectname":"2558-35th Ave","ownerormangmtcompany":"Oakland HA","program":"Public Hsg","id":"a91royovtv3k","geo_precision":"range","3bedrooms":12},"type":"Feature","geometry":{"type":"Point","coordinates":[-122.210606,37.787739]}},{"properties":{"city":"Oakland","studios":0,"4morebedrooms":0,"zip":"94606","bmrunits":4,"1bedrooms":0,"2bedr0oms":0,"eldr":0,"dis":0,"totalunits":4,"geo_score":0.829,"sro":0,"ownertype":"LG","street":"2607 12th Ave","sitephone":"874-1520","fam":0,"income\nlevel":"50 Percent Md","projectname":"2607-12th Ave","ownerormangmtcompany":"Oakland HA","program":"Public Hsg","id":"a91royvrflry","geo_precision":"range","3bedrooms":4},"type":"Feature","geometry":{"type":"Point","coordinates":[-122.237339,37.798285]}},{"properties":{"city":"Oakland","studios":0,"4morebedrooms":0,"zip":"94601","bmrunits":4,"1bedrooms":0,"2bedr0oms":0,"eldr":0,"dis":0,"totalunits":4,"geo_score":0.837,"sro":0,"ownertype":"LG","street":"2626 E 21st St","sitephone":"874-1520","fam":4,"income\nlevel":"50 Percent Md","projectname":"2626 E 21st St","ownerormangmtcompany":"Oakland HA","program":"Public Hsg","id":"a91royu67x27","geo_precision":"range","3bedrooms":4},"type":"Feature","geometry":{"type":"Point","coordinates":[-122.226906,37.785913]}},{"properties":{"city":"Oakland","studios":0,"4morebedrooms":0,"zip":"94601","bmrunits":3,"1bedrooms":0,"2bedr0oms":0,"eldr":0,"dis":0,"totalunits":3,"geo_score":0.837,"sro":0,"ownertype":"LG","street":"2630 E 25th St","sitephone":"874-1520","fam":0,"income\nlevel":"50 Percent Md","projectname":"2630 E 25th St","ownerormangmtcompany":"Oakland HA","program":"Public Hsg","id":"a91roymahi3e","geo_precision":"range","3bedrooms":3},"type":"Feature","geometry":{"type":"Point","coordinates":[-122.223414,37.789689]}},{"properties":{"city":"Oakland","studios":0,"4morebedrooms":0,"zip":"94601","bmrunits":4,"1bedrooms":0,"2bedr0oms":0,"eldr":0,"dis":0,"totalunits":4,"geo_score":0.829,"sro":0,"ownertype":"LG","street":"2711 26th Ave","sitephone":"874-1520","fam":4,"income\nlevel":"50 Percent Md","projectname":"2711-26th Ave","ownerormangmtcompany":"Oakland HA","program":"Public Hsg","id":"a91royh59uzz","geo_precision":"range","3bedrooms":4},"type":"Feature","geometry":{"type":"Point","coordinates":[-122.221326,37.793571]}},{"properties":{"city":"Oakland","studios":0,"4morebedrooms":0,"zip":"94619","bmrunits":14,"1bedrooms":0,"2bedr0oms":0,"eldr":0,"dis":0,"totalunits":14,"geo_score":0.829,"sro":0,"ownertype":"LG","street":"2820 35th Ave","sitephone":"874-1520","fam":14,"income\nlevel":"50 Percent Md","projectname":"2820-35th Ave","ownerormangmtcompany":"Oakland HA","program":"Public Hsg","id":"a91royg9owhj","geo_precision":"range","3bedrooms":14},"type":"Feature","geometry":{"type":"Point","coordinates":[-122.207733,37.789439]}},{"properties":{"city":"Oakland","studios":0,"4morebedrooms":0,"zip":"94601","bmrunits":12,"1bedrooms":0,"2bedr0oms":0,"eldr":0,"dis":0,"totalunits":12,"geo_score":0.837,"sro":0,"ownertype":"LG","street":"2919 E 16th St","sitephone":"874-1520","fam":12,"income\nlevel":"50 Percent Md","projectname":"2919 E 16th St","ownerormangmtcompany":"Oakland HA","program":"Public Hsg","id":"a91royg520u2","geo_precision":"range","3bedrooms":12},"type":"Feature","geometry":{"type":"Point","coordinates":[-122.224906,37.779764]}},{"properties":{"city":"Oakland","studios":0,"4morebedrooms":0,"zip":"94608","bmrunits":3,"1bedrooms":0,"2bedr0oms":0,"eldr":0,"dis":0,"totalunits":3,"geo_score":0.679,"sro":0,"ownertype":"LG","street":"2922 West St","sitephone":"874-1520","fam":0,"income\nlevel":"50 Percent Md","projectname":"2922 West St","ownerormangmtcompany":"Oakland HA","program":"Public Hsg","id":"a91royrixl1d","geo_precision":"range","3bedrooms":3},"type":"Feature","geometry":{"type":"Point","coordinates":[-122.273605,37.819859]}},{"properties":{"city":"Oakland","studios":0,"4morebedrooms":0,"zip":"94601","bmrunits":4,"1bedrooms":0,"2bedr0oms":0,"eldr":0,"dis":0,"totalunits":4,"geo_score":0.837,"sro":0,"ownertype":"LG","street":"2925 E 22nd St","sitephone":"874-1520","fam":0,"income\nlevel":"50 Percent Md","projectname":"2925 E 22nd St","ownerormangmtcompany":"Oakland HA","program":"Public Hsg","id":"a91roymsloma","geo_precision":"range","3bedrooms":4},"type":"Feature","geometry":{"type":"Point","coordinates":[-122.22343,37.785254]}},{"properties":{"city":"Oakland","studios":0,"4morebedrooms":0,"zip":"94609","bmrunits":12,"1bedrooms":0,"2bedr0oms":12,"eldr":0,"dis":0,"totalunits":12,"geo_score":0.856,"sro":0,"ownertype":"LG","street":"2933 Martin Luther King Jr","sitephone":"874-1520","fam":0,"income\nlevel":"50 Percent Md","projectname":"2933 MLK Jr Way","ownerormangmtcompany":"Oakland HA","program":"Public Hsg","id":"a91royqpws05","geo_precision":"range","3bedrooms":0},"type":"Feature","geometry":{"type":"Point","coordinates":[-122.271456,37.819701]}},{"properties":{"city":"Oakland","studios":0,"4morebedrooms":0,"zip":"94602","bmrunits":6,"1bedrooms":0,"2bedr0oms":0,"eldr":0,"dis":0,"totalunits":6,"geo_score":0.902,"sro":0,"ownertype":"LG","street":"2943 Nicol Ave","sitephone":"874-1520","fam":0,"income\nlevel":"50 Percent Md","projectname":"2943 Nicol Ave","ownerormangmtcompany":"Oakland HA","program":"Public Hsg","id":"a91royuu7xzf","geo_precision":"range","3bedrooms":6},"type":"Feature","geometry":{"type":"Point","coordinates":[-122.21572,37.793332]}},{"properties":{"city":"Oakland","studios":0,"4morebedrooms":4,"zip":"94602","bmrunits":4,"1bedrooms":0,"2bedr0oms":0,"eldr":0,"dis":0,"totalunits":4,"geo_score":0.902,"sro":0,"ownertype":"LG","street":"2961 Georgia St","sitephone":"874-1520","fam":0,"income\nlevel":"50 Percent Md","projectname":"2961 Georgia St","ownerormangmtcompany":"Oakland HA","program":"Public Hsg","id":"a91royjq0h5g","geo_precision":"range","3bedrooms":0},"type":"Feature","geometry":{"type":"Point","coordinates":[-122.20844,37.797784]}},{"properties":{"city":"Oakland","studios":0,"4morebedrooms":0,"zip":"94602","bmrunits":5,"1bedrooms":0,"2bedr0oms":0,"eldr":0,"dis":0,"totalunits":5,"geo_score":0.488,"sro":0,"ownertype":"LG","street":"2995 School St","sitephone":"874-1520","fam":0,"income\nlevel":"50 Percent Md","projectname":"2995 School St","ownerormangmtcompany":"Oakland HA","program":"Public Hsg","id":"a91royojg4xg","geo_precision":"zip","3bedrooms":5},"type":"Feature","geometry":{"type":"Point","coordinates":[-122.204578,37.802777]}},{"properties":{"city":"Oakland","studios":0,"4morebedrooms":0,"zip":"94601","bmrunits":7,"1bedrooms":0,"2bedr0oms":0,"eldr":0,"dis":0,"totalunits":7,"geo_score":0.837,"sro":0,"ownertype":"LG","street":"3000 E 18th St","sitephone":"874-1520","fam":7,"income\nlevel":"50 Percent Md","projectname":"3000 E 18th St","ownerormangmtcompany":"Oakland HA","program":"Public Hsg","id":"a91royvfmun4","geo_precision":"range","3bedrooms":7},"type":"Feature","geometry":{"type":"Point","coordinates":[-122.224206,37.782281]}},{"properties":{"city":"Oakland","studios":0,"4morebedrooms":0,"zip":"94601","bmrunits":5,"1bedrooms":0,"2bedr0oms":0,"eldr":0,"dis":0,"totalunits":5,"geo_score":0.837,"sro":0,"ownertype":"LG","street":"3012 E 16th St","sitephone":"874-1520","fam":5,"income\nlevel":"50 Percent Md","projectname":"3012 E 16th St","ownerormangmtcompany":"Oakland HA","program":"Public Hsg","id":"a91roynrtwaa","geo_precision":"range","3bedrooms":5},"type":"Feature","geometry":{"type":"Point","coordinates":[-122.225413,37.78011]}},{"properties":{"city":"Oakland","studios":0,"4morebedrooms":0,"zip":"94608","bmrunits":8,"1bedrooms":0,"2bedr0oms":0,"eldr":0,"dis":0,"totalunits":8,"geo_score":0.679,"sro":0,"ownertype":"LG","street":"3017 West St","sitephone":"874-1520","fam":0,"income\nlevel":"50 Percent Md","projectname":"3017 West St","ownerormangmtcompany":"Oakland HA","program":"Public Hsg","id":"a91royqndqbx","geo_precision":"range","3bedrooms":8},"type":"Feature","geometry":{"type":"Point","coordinates":[-122.273504,37.820879]}},{"properties":{"city":"Oakland","studios":0,"4morebedrooms":0,"zip":"94609","bmrunits":7,"1bedrooms":0,"2bedr0oms":0,"eldr":0,"dis":0,"totalunits":7,"geo_score":0.856,"sro":0,"ownertype":"LG","street":"3025 Martin Luther King Jr","sitephone":"874-1520","fam":0,"income\nlevel":"50 Percent Md","projectname":"3025 MLK Jr Way","ownerormangmtcompany":"Oakland HA","program":"Public Hsg","id":"a91royt7qfn3","geo_precision":"range","3bedrooms":7},"type":"Feature","geometry":{"type":"Point","coordinates":[-122.270937,37.820459]}},{"properties":{"city":"Oakland","studios":0,"4morebedrooms":0,"zip":"94602","bmrunits":4,"1bedrooms":0,"2bedr0oms":0,"eldr":0,"dis":0,"totalunits":4,"geo_score":0.902,"sro":0,"ownertype":"LG","street":"3102 Pleitner Ave","sitephone":"874-1520","fam":0,"income\nlevel":"50 Percent Md","projectname":"3102 Pleitner Ave","ownerormangmtcompany":"Oakland HA","program":"Public Hsg","id":"a91royh8g78d","geo_precision":"range","3bedrooms":4},"type":"Feature","geometry":{"type":"Point","coordinates":[-122.211685,37.793444]}},{"properties":{"city":"Oakland","studios":0,"4morebedrooms":0,"zip":"94606","bmrunits":4,"1bedrooms":0,"2bedr0oms":0,"eldr":0,"dis":0,"totalunits":4,"geo_score":0.902,"sro":0,"ownertype":"LG","street":"320 Haddon Rd","sitephone":"874-1520","fam":0,"income\nlevel":"50 Percent Md","projectname":"320 Haddon Rd","ownerormangmtcompany":"Oakland HA","program":"Public Hsg","id":"a91royjj9dku","geo_precision":"range","3bedrooms":4},"type":"Feature","geometry":{"type":"Point","coordinates":[-122.247397,37.802153]}},{"properties":{"city":"Oakland","studios":0,"4morebedrooms":0,"zip":"94608","bmrunits":6,"1bedrooms":0,"2bedr0oms":0,"eldr":0,"dis":0,"totalunits":6,"geo_score":0.679,"sro":0,"ownertype":"LG","street":"3217 West St","sitephone":"874-1520","fam":0,"income\nlevel":"50 Percent Md","projectname":"3217 West St","ownerormangmtcompany":"Oakland HA","program":"Public Hsg","id":"a91royk9rne0","geo_precision":"range","3bedrooms":6},"type":"Feature","geometry":{"type":"Point","coordinates":[-122.27311,37.8224]}},{"properties":{"city":"Oakland","studios":0,"4morebedrooms":0,"zip":"94601","bmrunits":4,"1bedrooms":0,"2bedr0oms":0,"eldr":0,"dis":0,"totalunits":4,"geo_score":0.902,"sro":0,"ownertype":"LG","street":"3228 Logan St","sitephone":"874-1520","fam":0,"income\nlevel":"50 Percent Md","projectname":"3228 Logan St","ownerormangmtcompany":"Oakland HA","program":"Public Hsg","id":"a91royufpdzj","geo_precision":"range","3bedrooms":4},"type":"Feature","geometry":{"type":"Point","coordinates":[-122.219306,37.787039]}},{"properties":{"city":"Oakland","studios":0,"4morebedrooms":0,"zip":"94601","bmrunits":3,"1bedrooms":0,"2bedr0oms":0,"eldr":0,"dis":0,"totalunits":3,"geo_score":0.902,"sro":0,"ownertype":"LG","street":"3244 Galindo St","sitephone":"874-1520","fam":0,"income\nlevel":"50 Percent Md","projectname":"3244 Galindo St","ownerormangmtcompany":"Oakland HA","program":"Public Hsg","id":"a91royqhkvv3","geo_precision":"range","3bedrooms":3},"type":"Feature","geometry":{"type":"Point","coordinates":[-122.22134,37.786878]}},{"properties":{"city":"Oakland","studios":0,"4morebedrooms":0,"zip":"94601","bmrunits":4,"1bedrooms":0,"2bedr0oms":0,"eldr":0,"dis":0,"totalunits":4,"geo_score":0.902,"sro":0,"ownertype":"LG","street":"3265 Prentiss St","sitephone":"874-1520","fam":0,"income\nlevel":"50 Percent Md","projectname":"3265 Prentiss St","ownerormangmtcompany":"Oakland HA","program":"Public Hsg","id":"a91roytmyaso","geo_precision":"range","3bedrooms":4},"type":"Feature","geometry":{"type":"Point","coordinates":[-122.218943,37.788482]}},{"properties":{"city":"Oakland","studios":0,"4morebedrooms":0,"zip":"94601","bmrunits":8,"1bedrooms":0,"2bedr0oms":0,"eldr":0,"dis":0,"totalunits":8,"geo_score":0.902,"sro":0,"ownertype":"LG","street":"3291 Lynde St","sitephone":"874-1520","fam":0,"income\nlevel":"50 Percent Md","projectname":"3291 Lynde St","ownerormangmtcompany":"Oakland HA","program":"Public Hsg","id":"a91roza4hlde","geo_precision":"range","3bedrooms":8},"type":"Feature","geometry":{"type":"Point","coordinates":[-122.216033,37.789806]}},{"properties":{"city":"Oakland","studios":0,"4morebedrooms":0,"zip":"94602","bmrunits":6,"1bedrooms":0,"2bedr0oms":0,"eldr":0,"dis":0,"totalunits":6,"geo_score":0.902,"sro":0,"ownertype":"LG","street":"3302 Brookdale Ave","sitephone":"874-1520","fam":6,"income\nlevel":"50 Percent Md","projectname":"3302 Brookdale Ave","ownerormangmtcompany":"Oakland HA","program":"Public Hsg","id":"a91rozcczqsk","geo_precision":"range","3bedrooms":6},"type":"Feature","geometry":{"type":"Point","coordinates":[-122.214266,37.791596]}},{"properties":{"city":"Oakland","studios":0,"4morebedrooms":0,"zip":"94619","bmrunits":1,"1bedrooms":0,"2bedr0oms":0,"eldr":0,"dis":0,"totalunits":1,"geo_score":0.902,"sro":0,"ownertype":"LG","street":"3311 Viola Street","sitephone":"874-1520","fam":0,"income\nlevel":"50 Percent Md","projectname":"3311 Viola Street","ownerormangmtcompany":"Oakland HA","program":"Public Hsg","id":"a91royweyt6a","geo_precision":"range","3bedrooms":1},"type":"Feature","geometry":{"type":"Point","coordinates":[-122.201523,37.789704]}},{"properties":{"city":"Oakland","studios":0,"4morebedrooms":0,"zip":"94601","bmrunits":4,"1bedrooms":0,"2bedr0oms":0,"eldr":0,"dis":0,"totalunits":4,"geo_score":0.837,"sro":0,"ownertype":"LG","street":"3314 E 17th St","sitephone":"874-1520","fam":4,"income\nlevel":"50 Percent Md","projectname":"3314 E 17th St","ownerormangmtcompany":"Oakland HA","program":"Public Hsg","id":"a91royx72sl0","geo_precision":"range","3bedrooms":4},"type":"Feature","geometry":{"type":"Point","coordinates":[-122.221904,37.780885]}},{"properties":{"city":"Oakland","studios":0,"4morebedrooms":0,"zip":"94605","bmrunits":8,"1bedrooms":0,"2bedr0oms":0,"eldr":0,"dis":0,"totalunits":8,"geo_score":0.829,"sro":0,"ownertype":"LG","street":"3330 72nd Ave","sitephone":"874-1520","fam":8,"income\nlevel":"50 Percent Md","projectname":"3330-72nd Ave","ownerormangmtcompany":"Oakland HA","program":"Public Hsg","id":"a91royys63gs","geo_precision":"range","3bedrooms":8},"type":"Feature","geometry":{"type":"Point","coordinates":[-122.172118,37.770243]}},{"properties":{"city":"Oakland","studios":0,"4morebedrooms":0,"zip":"94606","bmrunits":6,"1bedrooms":0,"2bedr0oms":0,"eldr":0,"dis":0,"totalunits":6,"geo_score":0.732,"sro":0,"ownertype":"LG","street":"3350 72nd Ave","sitephone":"874-1520","fam":6,"income\nlevel":"50 Percent Md","projectname":"3350-72nd Ave","ownerormangmtcompany":"Oakland HA","program":"Public Hsg","id":"a91roz76iguk","geo_precision":"range","3bedrooms":6},"type":"Feature","geometry":{"type":"Point","coordinates":[-122.172251,37.770167]}},{"properties":{"city":"Oakland","studios":0,"4morebedrooms":2,"zip":"94602","bmrunits":14,"1bedrooms":12,"2bedr0oms":0,"eldr":0,"dis":0,"totalunits":14,"geo_score":0.902,"sro":0,"ownertype":"LG","street":"3352 Arkansas St","sitephone":"874-1520","fam":14,"income\nlevel":"50 Percent Md","projectname":"3352 Arkansas St","ownerormangmtcompany":"Oakland HA","program":"Public Hsg","id":"a91roz7d1nj9","geo_precision":"range","3bedrooms":0},"type":"Feature","geometry":{"type":"Point","coordinates":[-122.205758,37.793339]}},{"properties":{"city":"Oakland","studios":0,"4morebedrooms":0,"zip":"94605","bmrunits":6,"1bedrooms":0,"2bedr0oms":0,"eldr":0,"dis":0,"totalunits":6,"geo_score":0.829,"sro":0,"ownertype":"LG","street":"3366 62nd Ave","sitephone":"874-1520","fam":6,"income\nlevel":"50 Percent Md","projectname":"3366-62nd Ave","ownerormangmtcompany":"Oakland HA","program":"Public Hsg","id":"a91roz4gtnth","geo_precision":"range","3bedrooms":6},"type":"Feature","geometry":{"type":"Point","coordinates":[-122.179771,37.775411]}},{"properties":{"city":"Oakland","studios":0,"4morebedrooms":0,"zip":"94602","bmrunits":8,"1bedrooms":0,"2bedr0oms":6,"eldr":0,"dis":0,"totalunits":8,"geo_score":0.902,"sro":0,"ownertype":"LG","street":"3500 Bruce St","sitephone":"874-1520","fam":0,"income\nlevel":"50 Percent Md","projectname":"3500 Bruce St","ownerormangmtcompany":"Oakland HA","program":"Public Hsg","id":"a91roza1n8ol","geo_precision":"range","3bedrooms":2},"type":"Feature","geometry":{"type":"Point","coordinates":[-122.228982,37.802265]}},{"properties":{"city":"Oakland","studios":0,"4morebedrooms":1,"zip":"94619","bmrunits":5,"1bedrooms":0,"2bedr0oms":0,"eldr":0,"dis":0,"totalunits":5,"geo_score":0.902,"sro":0,"ownertype":"LG","street":"3532 Pierson St","sitephone":"874-1520","fam":0,"income\nlevel":"50 Percent Md","projectname":"3532 Pierson St","ownerormangmtcompany":"Oakland HA","program":"Public Hsg","id":"a91roz9raph6","geo_precision":"range","3bedrooms":4},"type":"Feature","geometry":{"type":"Point","coordinates":[-122.188848,37.783207]}},{"properties":{"city":"Oakland","studios":0,"4morebedrooms":0,"zip":"94602","bmrunits":4,"1bedrooms":0,"2bedr0oms":0,"eldr":0,"dis":0,"totalunits":4,"geo_score":0.902,"sro":0,"ownertype":"LG","street":"3590 Lincoln Ave","sitephone":"874-1520","fam":0,"income\nlevel":"50 Percent Md","projectname":"3590 Lincoln Ave","ownerormangmtcompany":"Oakland HA","program":"Public Hsg","id":"a91royzcrn9y","geo_precision":"range","3bedrooms":4},"type":"Feature","geometry":{"type":"Point","coordinates":[-122.213857,37.799942]}},{"properties":{"city":"Oakland","studios":0,"4morebedrooms":6,"zip":"94601","bmrunits":16,"1bedrooms":0,"2bedr0oms":0,"eldr":0,"dis":0,"totalunits":16,"geo_score":0.902,"sro":0,"ownertype":"LG","street":"3638 Foothill Blvd","sitephone":"874-1520","fam":0,"income\nlevel":"50 Percent Md","projectname":"3638 Foothill Blvd","ownerormangmtcompany":"Oakland HA","program":"Public Hsg","id":"a91rozbz3dmj","geo_precision":"range","3bedrooms":10},"type":"Feature","geometry":{"type":"Point","coordinates":[-122.218393,37.780748]}},{"properties":{"city":"Oakland","studios":0,"4morebedrooms":0,"zip":"94609","bmrunits":24,"1bedrooms":0,"2bedr0oms":0,"eldr":0,"dis":0,"totalunits":24,"geo_score":0.819,"sro":0,"ownertype":"LG","street":"365 49th St","sitephone":"874-1520","fam":0,"income\nlevel":"50 Percent Md","projectname":"365-49th St","ownerormangmtcompany":"Oakland HA","program":"Public Hsg","id":"a91rozbz0xfa","geo_precision":"range","3bedrooms":24},"type":"Feature","geometry":{"type":"Point","coordinates":[-122.256289,37.834714]}},{"properties":{"city":"Oakland","studios":0,"4morebedrooms":0,"zip":"94618","bmrunits":5,"1bedrooms":0,"2bedr0oms":0,"eldr":0,"dis":0,"totalunits":5,"geo_score":0.819,"sro":0,"ownertype":"LG","street":"368 62nd St","sitephone":"874-1520","fam":0,"income\nlevel":"50 Percent Md","projectname":"368-62nd St","ownerormangmtcompany":"Oakland HA","program":"Public Hsg","id":"a91rozaqkm08","geo_precision":"range","3bedrooms":5},"type":"Feature","geometry":{"type":"Point","coordinates":[-122.256017,37.84895]}},{"properties":{"city":"Oakland","studios":0,"4morebedrooms":0,"zip":"94619","bmrunits":3,"1bedrooms":0,"2bedr0oms":0,"eldr":0,"dis":0,"totalunits":3,"geo_score":0.902,"sro":0,"ownertype":"LG","street":"3716 Allendale Ave","sitephone":"874-1520","fam":3,"income\nlevel":"50 Percent Md","projectname":"3716 Allendale Ave","ownerormangmtcompany":"Oakland HA","program":"Public Hsg","id":"a91roz3fpg2a","geo_precision":"range","3bedrooms":3},"type":"Feature","geometry":{"type":"Point","coordinates":[-122.206438,37.787025]}},{"properties":{"city":"Oakland","studios":0,"4morebedrooms":0,"zip":"94609","bmrunits":5,"1bedrooms":0,"2bedr0oms":5,"eldr":0,"dis":0,"totalunits":5,"geo_score":0.902,"sro":0,"ownertype":"LG","street":"3839 Clarke St","sitephone":"874-1520","fam":0,"income\nlevel":"50 Percent Md","projectname":"3839 Clarke St","ownerormangmtcompany":"Oakland HA","program":"Public Hsg","id":"a91roz0cig1r","geo_precision":"range","3bedrooms":0},"type":"Feature","geometry":{"type":"Point","coordinates":[-122.263427,37.828506]}},{"properties":{"city":"Oakland","studios":0,"4morebedrooms":0,"zip":"94609","bmrunits":4,"1bedrooms":0,"2bedr0oms":0,"eldr":0,"dis":0,"totalunits":4,"geo_score":0.902,"sro":0,"ownertype":"LG","street":"3855 Shafter Ave","sitephone":"874-1520","fam":0,"income\nlevel":"50 Percent Md","projectname":"3855 Shafter Ave","ownerormangmtcompany":"Oakland HA","program":"Public Hsg","id":"a91roz87srtk","geo_precision":"range","3bedrooms":4},"type":"Feature","geometry":{"type":"Point","coordinates":[-122.260019,37.827855]}},{"properties":{"city":"Oakland","studios":0,"4morebedrooms":0,"zip":"94609","bmrunits":14,"1bedrooms":0,"2bedr0oms":14,"eldr":0,"dis":0,"totalunits":14,"geo_score":0.902,"sro":0,"ownertype":"LG","street":"3901 Webster St","sitephone":"874-1520","fam":0,"income\nlevel":"50 Percent Md","projectname":"3901 Webster St","ownerormangmtcompany":"Oakland HA","program":"Public Hsg","id":"a91royxuczhf","geo_precision":"range","3bedrooms":0},"type":"Feature","geometry":{"type":"Point","coordinates":[-122.261208,37.827551]}},{"properties":{"city":"Oakland","studios":0,"4morebedrooms":2,"zip":"94601","bmrunits":6,"1bedrooms":0,"2bedr0oms":0,"eldr":0,"dis":0,"totalunits":6,"geo_score":0.902,"sro":0,"ownertype":"LG","street":"4005 Lyon Ave","sitephone":"874-1520","fam":0,"income\nlevel":"50 Percent Md","projectname":"4005 Lyon Ave","ownerormangmtcompany":"Oakland HA","program":"Public Hsg","id":"a91royyixcoe","geo_precision":"range","3bedrooms":4},"type":"Feature","geometry":{"type":"Point","coordinates":[-122.206875,37.782472]}},{"properties":{"city":"Oakland","studios":0,"4morebedrooms":0,"zip":"94619","bmrunits":5,"1bedrooms":0,"2bedr0oms":0,"eldr":0,"dis":0,"totalunits":5,"geo_score":0.902,"sro":0,"ownertype":"LG","street":"4068 Allendale Ave","sitephone":"874-1520","fam":5,"income\nlevel":"50 Percent Md","projectname":"4068 Allendale Ave","ownerormangmtcompany":"Oakland HA","program":"Public Hsg","id":"a91roz7al4xz","geo_precision":"range","3bedrooms":5},"type":"Feature","geometry":{"type":"Point","coordinates":[-122.202576,37.7835]}},{"properties":{"city":"Oakland","studios":0,"4morebedrooms":0,"zip":"94619","bmrunits":3,"1bedrooms":0,"2bedr0oms":0,"eldr":0,"dis":0,"totalunits":3,"geo_score":0.902,"sro":0,"ownertype":"LG","street":"4100 Allendale Ave","sitephone":"874-1520","fam":3,"income\nlevel":"50 Percent Md","projectname":"4100 Allendale Ave","ownerormangmtcompany":"Oakland HA","program":"Public Hsg","id":"a91roz47vnfh","geo_precision":"range","3bedrooms":3},"type":"Feature","geometry":{"type":"Point","coordinates":[-122.20286,37.783778]}},{"properties":{"city":"Oakland","studios":0,"4morebedrooms":4,"zip":"94601","bmrunits":8,"1bedrooms":0,"2bedr0oms":0,"eldr":0,"dis":0,"totalunits":8,"geo_score":0.902,"sro":0,"ownertype":"LG","street":"4118 Lyon Ave","sitephone":"874-1520","fam":0,"income\nlevel":"50 Percent Md","projectname":"4118 Lyon Ave","ownerormangmtcompany":"Oakland HA","program":"Public Hsg","id":"a91roz7aoilg","geo_precision":"range","3bedrooms":4},"type":"Feature","geometry":{"type":"Point","coordinates":[-122.208316,37.783842]}},{"properties":{"city":"Oakland","studios":0,"4morebedrooms":0,"zip":"94611","bmrunits":4,"1bedrooms":0,"2bedr0oms":0,"eldr":0,"dis":0,"totalunits":4,"geo_score":0.785,"sro":0,"ownertype":"LG","street":"4203 Terrace St","sitephone":"874-1520","fam":0,"income\nlevel":"50 Percent Md","projectname":"4203 Terrace St","ownerormangmtcompany":"Oakland HA","program":"Public Hsg","id":"a91roza680b0","geo_precision":"range","3bedrooms":4},"type":"Feature","geometry":{"type":"Point","coordinates":[-122.252716,37.831816]}},{"properties":{"city":"Oakland","studios":0,"4morebedrooms":0,"zip":"94611","bmrunits":8,"1bedrooms":0,"2bedr0oms":0,"eldr":0,"dis":0,"totalunits":8,"geo_score":0.902,"sro":0,"ownertype":"LG","street":"421 Oakland Ave","sitephone":"874-1520","fam":0,"income\nlevel":"50 Percent Md","projectname":"421 Oakland Ave","ownerormangmtcompany":"Oakland HA","program":"Public Hsg","id":"a91royxgt56h","geo_precision":"range","3bedrooms":8},"type":"Feature","geometry":{"type":"Point","coordinates":[-122.254645,37.818351]}},{"properties":{"city":"Oakland","studios":0,"4morebedrooms":0,"zip":"94601","bmrunits":4,"1bedrooms":0,"2bedr0oms":0,"eldr":0,"dis":0,"totalunits":4,"geo_score":0.488,"sro":0,"ownertype":"LG","street":"4516 Fairfax Ave","sitephone":"874-1520","fam":0,"income\nlevel":"50 Percent Md","projectname":"4516 Fairfax Ave","ownerormangmtcompany":"Oakland HA","program":"Public Hsg","id":"a91roz9hb1yk","geo_precision":"zip","3bedrooms":4},"type":"Feature","geometry":{"type":"Point","coordinates":[-122.223779,37.786027]}},{"properties":{"city":"Oakland","studios":0,"4morebedrooms":0,"zip":"94611","bmrunits":4,"1bedrooms":0,"2bedr0oms":0,"eldr":0,"dis":0,"totalunits":4,"geo_score":0.902,"sro":0,"ownertype":"LG","street":"4520 Montgomery St","sitephone":"874-1520","fam":0,"income\nlevel":"50 Percent Md","projectname":"4520 Montgomery St","ownerormangmtcompany":"Oakland HA","program":"Public Hsg","id":"a91roz4f1qva","geo_precision":"range","3bedrooms":4},"type":"Feature","geometry":{"type":"Point","coordinates":[-122.248799,37.831539]}},{"properties":{"city":"Oakland","studios":0,"4morebedrooms":0,"zip":"94601","bmrunits":6,"1bedrooms":0,"2bedr0oms":0,"eldr":0,"dis":0,"totalunits":6,"geo_score":0.902,"sro":0,"ownertype":"LG","street":"4531 Bond St","sitephone":"874-1520","fam":6,"income\nlevel":"50 Percent Md","projectname":"4531 Bond St","ownerormangmtcompany":"Oakland HA","program":"Public Hsg","id":"a91roz9en43r","geo_precision":"range","3bedrooms":6},"type":"Feature","geometry":{"type":"Point","coordinates":[-122.210537,37.77302]}},{"properties":{"city":"Oakland","studios":0,"4morebedrooms":0,"zip":"94609","bmrunits":4,"1bedrooms":0,"2bedr0oms":0,"eldr":0,"dis":0,"totalunits":4,"geo_score":0.819,"sro":0,"ownertype":"LG","street":"454 36th St","sitephone":"874-1520","fam":0,"income\nlevel":"50 Percent Md","projectname":"454-36th St","ownerormangmtcompany":"Oakland HA","program":"Public Hsg","id":"a91royyrags1","geo_precision":"range","3bedrooms":4},"type":"Feature","geometry":{"type":"Point","coordinates":[-122.26388,37.824171]}},{"properties":{"city":"Oakland","studios":0,"4morebedrooms":0,"zip":"94601","bmrunits":6,"1bedrooms":0,"2bedr0oms":0,"eldr":0,"dis":0,"totalunits":6,"geo_score":0.488,"sro":0,"ownertype":"LG","street":"4737 Ygnacio Ave","sitephone":"874-1520","fam":0,"income\nlevel":"50 Percent Md","projectname":"4737 Ygnacio Ave","ownerormangmtcompany":"Oakland HA","program":"Public Hsg","id":"a91rozba9irg","geo_precision":"zip","3bedrooms":6},"type":"Feature","geometry":{"type":"Point","coordinates":[-122.223779,37.786027]}},{"properties":{"city":"Oakland","studios":0,"4morebedrooms":0,"zip":"94609","bmrunits":8,"1bedrooms":0,"2bedr0oms":6,"eldr":0,"dis":0,"totalunits":8,"geo_score":0.902,"sro":0,"ownertype":"LG","street":"4825 Webster St","sitephone":"874-1520","fam":0,"income\nlevel":"50 Percent Md","projectname":"4825 Webster St","ownerormangmtcompany":"Oakland HA","program":"Public Hsg","id":"a91rozaswhpw","geo_precision":"range","3bedrooms":2},"type":"Feature","geometry":{"type":"Point","coordinates":[-122.260018,37.835218]}},{"properties":{"city":"Oakland","studios":0,"4morebedrooms":0,"zip":"94601","bmrunits":3,"1bedrooms":0,"2bedr0oms":0,"eldr":0,"dis":0,"totalunits":3,"geo_score":0.902,"sro":0,"ownertype":"LG","street":"4903 Congress Ave","sitephone":"874-1520","fam":3,"income\nlevel":"50 Percent Md","projectname":"4903 Congress Ave","ownerormangmtcompany":"Oakland HA","program":"Public Hsg","id":"a91roz9zckog","geo_precision":"range","3bedrooms":3},"type":"Feature","geometry":{"type":"Point","coordinates":[-122.203526,37.777663]}},{"properties":{"city":"Oakland","studios":0,"4morebedrooms":0,"zip":"94601","bmrunits":4,"1bedrooms":3,"2bedr0oms":0,"eldr":0,"dis":0,"totalunits":4,"geo_score":0.902,"sro":0,"ownertype":"LG","street":"4908 Congress Ave","sitephone":"874-1520","fam":4,"income\nlevel":"50 Percent Md","projectname":"4908 Congress Ave","ownerormangmtcompany":"Oakland HA","program":"Public Hsg","id":"a91roz6u0zyf","geo_precision":"range","3bedrooms":1},"type":"Feature","geometry":{"type":"Point","coordinates":[-122.203278,37.777609]}},{"properties":{"city":"Oakland","studios":0,"4morebedrooms":0,"zip":"94601","bmrunits":3,"1bedrooms":0,"2bedr0oms":0,"eldr":0,"dis":0,"totalunits":3,"geo_score":0.902,"sro":0,"ownertype":"LG","street":"5009 Congress Ave","sitephone":"874-1520","fam":3,"income\nlevel":"50 Percent Md","projectname":"5009 Congress Ave","ownerormangmtcompany":"Oakland HA","program":"Public Hsg","id":"a91rozc092um","geo_precision":"range","3bedrooms":3},"type":"Feature","geometry":{"type":"Point","coordinates":[-122.201982,37.773632]}},{"properties":{"city":"Oakland","studios":0,"4morebedrooms":0,"zip":"94601","bmrunits":4,"1bedrooms":0,"2bedr0oms":3,"eldr":0,"dis":0,"totalunits":4,"geo_score":0.902,"sro":0,"ownertype":"LG","street":"5018 Melrose Ave","sitephone":"874-1520","fam":0,"income\nlevel":"50 Percent Md","projectname":"5018 Melrose Ave","ownerormangmtcompany":"Oakland HA","program":"Public Hsg","id":"a91royysvf7y","geo_precision":"range","3bedrooms":1},"type":"Feature","geometry":{"type":"Point","coordinates":[-122.204441,37.773801]}},{"properties":{"city":"Oakland","studios":0,"4morebedrooms":0,"zip":"94618","bmrunits":7,"1bedrooms":0,"2bedr0oms":0,"eldr":0,"dis":0,"totalunits":7,"geo_score":0.902,"sro":0,"ownertype":"LG","street":"5120 Shafter Ave","sitephone":"874-1520","fam":0,"income\nlevel":"50 Percent Md","projectname":"5120 Shafter Ave","ownerormangmtcompany":"Oakland HA","program":"Public Hsg","id":"a91rozadjloz","geo_precision":"range","3bedrooms":7},"type":"Feature","geometry":{"type":"Point","coordinates":[-122.257984,37.836963]}},{"properties":{"city":"Oakland","studios":0,"4morebedrooms":0,"zip":"94609","bmrunits":8,"1bedrooms":0,"2bedr0oms":0,"eldr":0,"dis":0,"totalunits":8,"geo_score":0.856,"sro":0,"ownertype":"LG","street":"5125 Martin Luther King Jr","sitephone":"874-1520","fam":0,"income\nlevel":"50 Percent Md","projectname":"5125 MLK Jr Way","ownerormangmtcompany":"Oakland HA","program":"Public Hsg","id":"a91roz9w1zjt","geo_precision":"range","3bedrooms":8},"type":"Feature","geometry":{"type":"Point","coordinates":[-122.26857,37.836936]}},{"properties":{"city":"Oakland","studios":0,"4morebedrooms":0,"zip":"94609","bmrunits":4,"1bedrooms":0,"2bedr0oms":0,"eldr":0,"dis":0,"totalunits":4,"geo_score":0.819,"sro":0,"ownertype":"LG","street":"522 32nd St","sitephone":"874-1520","fam":0,"income\nlevel":"50 Percent Md","projectname":"522-32nd St","ownerormangmtcompany":"Oakland HA","program":"Public Hsg","id":"a91roz341k6l","geo_precision":"range","3bedrooms":4},"type":"Feature","geometry":{"type":"Point","coordinates":[-122.268546,37.821328]}},{"properties":{"city":"Oakland","studios":0,"4morebedrooms":0,"zip":"94601","bmrunits":4,"1bedrooms":0,"2bedr0oms":3,"eldr":0,"dis":0,"totalunits":4,"geo_score":0.488,"sro":0,"ownertype":"LG","street":"5250 Ygnacio Ave","sitephone":"874-1520","fam":0,"income\nlevel":"50 Percent Md","projectname":"5250 Ygnacio Ave","ownerormangmtcompany":"Oakland HA","program":"Public Hsg","id":"a91roza03wbd","geo_precision":"zip","3bedrooms":1},"type":"Feature","geometry":{"type":"Point","coordinates":[-122.223779,37.786027]}},{"properties":{"city":"Oakland","studios":0,"4morebedrooms":0,"zip":"94609","bmrunits":9,"1bedrooms":0,"2bedr0oms":0,"eldr":0,"dis":0,"totalunits":9,"geo_score":0.819,"sro":0,"ownertype":"LG","street":"533 59th St","sitephone":"874-1520","fam":0,"income\nlevel":"50 Percent Md","projectname":"533-59th St","ownerormangmtcompany":"Oakland HA","program":"Public Hsg","id":"a91roz0fwzhh","geo_precision":"range","3bedrooms":9},"type":"Feature","geometry":{"type":"Point","coordinates":[-122.264869,37.844496]}},{"properties":{"city":"Oakland","studios":0,"4morebedrooms":0,"zip":"94609","bmrunits":12,"1bedrooms":0,"2bedr0oms":12,"eldr":0,"dis":0,"totalunits":12,"geo_score":0.819,"sro":0,"ownertype":"LG","street":"537 32nd St","sitephone":"874-1520","fam":0,"income\nlevel":"50 Percent Md","projectname":"537-32nd St","ownerormangmtcompany":"Oakland HA","program":"Public Hsg","id":"a91rozb3d2zc","geo_precision":"range","3bedrooms":0},"type":"Feature","geometry":{"type":"Point","coordinates":[-122.268265,37.821094]}},{"properties":{"city":"Oakland","studios":0,"4morebedrooms":0,"zip":"94619","bmrunits":1,"1bedrooms":0,"2bedr0oms":0,"eldr":0,"dis":0,"totalunits":1,"geo_score":0.902,"sro":0,"ownertype":"LG","street":"5378 Walnut St","sitephone":"874-1520","fam":0,"income\nlevel":"50 Percent Md","projectname":"5378 Walnut St","ownerormangmtcompany":"Oakland HA","program":"Public Hsg","id":"a91roz9wn2qo","geo_precision":"range","3bedrooms":1},"type":"Feature","geometry":{"type":"Point","coordinates":[-122.194964,37.776063]}},{"properties":{"city":"Oakland","studios":0,"4morebedrooms":0,"zip":"94609","bmrunits":5,"1bedrooms":0,"2bedr0oms":0,"eldr":0,"dis":0,"totalunits":5,"geo_score":0.599,"sro":0,"ownertype":"LG","street":"541 29th St","sitephone":"874-1520","fam":0,"income\nlevel":"50 Percent Md","projectname":"541-29th St","ownerormangmtcompany":"Oakland HA","program":"Public Hsg","id":"a91roz1tim55","geo_precision":"range","3bedrooms":5},"type":"Feature","geometry":{"type":"Point","coordinates":[-122.26926,37.818712]}},{"properties":{"city":"Oakland","studios":0,"4morebedrooms":3,"zip":"94609","bmrunits":9,"1bedrooms":0,"2bedr0oms":0,"eldr":0,"dis":0,"totalunits":9,"geo_score":0.819,"sro":0,"ownertype":"LG","street":"554 37th St","sitephone":"874-1520","fam":0,"income\nlevel":"50 Percent Md","projectname":"554-37th St","ownerormangmtcompany":"Oakland HA","program":"Public Hsg","id":"a91royzt0i3a","geo_precision":"range","3bedrooms":6},"type":"Feature","geometry":{"type":"Point","coordinates":[-122.265633,37.825757]}},{"properties":{"city":"Oakland","studios":0,"4morebedrooms":0,"zip":"94609","bmrunits":6,"1bedrooms":0,"2bedr0oms":0,"eldr":0,"dis":0,"totalunits":6,"geo_score":0.819,"sro":0,"ownertype":"LG","street":"557 46th St","sitephone":"874-1520","fam":0,"income\nlevel":"50 Percent Md","projectname":"557-46th St","ownerormangmtcompany":"Oakland HA","program":"Public Hsg","id":"a91roz9xyfs0","geo_precision":"range","3bedrooms":6},"type":"Feature","geometry":{"type":"Point","coordinates":[-122.265179,37.833882]}},{"properties":{"city":"Oakland","studios":0,"4morebedrooms":0,"zip":"94609","bmrunits":7,"1bedrooms":0,"2bedr0oms":0,"eldr":0,"dis":0,"totalunits":7,"geo_score":0.819,"sro":0,"ownertype":"LG","street":"565 29th St","sitephone":"874-1520","fam":0,"income\nlevel":"50 Percent Md","projectname":"565-29th St","ownerormangmtcompany":"Oakland HA","program":"Public Hsg","id":"a91royxeblae","geo_precision":"range","3bedrooms":7},"type":"Feature","geometry":{"type":"Point","coordinates":[-122.267868,37.818288]}},{"properties":{"city":"Oakland","studios":0,"4morebedrooms":0,"zip":"94609","bmrunits":6,"1bedrooms":0,"2bedr0oms":0,"eldr":0,"dis":0,"totalunits":6,"geo_score":0.819,"sro":0,"ownertype":"LG","street":"565 45th St","sitephone":"874-1520","fam":0,"income\nlevel":"50 Percent Md","projectname":"565-45th St","ownerormangmtcompany":"Oakland HA","program":"Public Hsg","id":"a91roz1k0nnr","geo_precision":"range","3bedrooms":6},"type":"Feature","geometry":{"type":"Point","coordinates":[-122.264348,37.832957]}},{"properties":{"city":"Oakland","studios":0,"4morebedrooms":0,"zip":"94609","bmrunits":4,"1bedrooms":0,"2bedr0oms":0,"eldr":0,"dis":0,"totalunits":4,"geo_score":0.856,"sro":0,"ownertype":"LG","street":"5661 Martin Luther King Jr","sitephone":"874-1520","fam":0,"income\nlevel":"50 Percent Md","projectname":"5661 MLK Jr Way","ownerormangmtcompany":"Oakland HA","program":"Public Hsg","id":"a91roz8rci6i","geo_precision":"range","3bedrooms":4},"type":"Feature","geometry":{"type":"Point","coordinates":[-122.270372,37.841882]}},{"properties":{"city":"Oakland","studios":0,"4morebedrooms":0,"zip":"94621","bmrunits":20,"1bedrooms":0,"2bedr0oms":0,"eldr":0,"dis":0,"totalunits":20,"geo_score":0.902,"sro":0,"ownertype":"LG","street":"5730 Elizabeth St","sitephone":"874-1520","fam":0,"income\nlevel":"50 Percent Md","projectname":"5730 Elizabeth St","ownerormangmtcompany":"Oakland HA","program":"Public Hsg","id":"a91roz3o0b5t","geo_precision":"range","3bedrooms":20},"type":"Feature","geometry":{"type":"Point","coordinates":[-122.194079,37.769313]}},{"properties":{"city":"Oakland","studios":0,"4morebedrooms":0,"zip":"94609","bmrunits":4,"1bedrooms":0,"2bedr0oms":0,"eldr":0,"dis":0,"totalunits":4,"geo_score":0.902,"sro":0,"ownertype":"LG","street":"5805 Canning St","sitephone":"874-1520","fam":0,"income\nlevel":"50 Percent Md","projectname":"5805 Canning St","ownerormangmtcompany":"Oakland HA","program":"Public Hsg","id":"a91roz8svmsc","geo_precision":"range","3bedrooms":4},"type":"Feature","geometry":{"type":"Point","coordinates":[-122.259366,37.845243]}},{"properties":{"city":"Oakland","studios":0,"4morebedrooms":0,"zip":"94609","bmrunits":10,"1bedrooms":0,"2bedr0oms":0,"eldr":0,"dis":0,"totalunits":10,"geo_score":0.819,"sro":0,"ownertype":"LG","street":"582 48th St","sitephone":"874-1520","fam":0,"income\nlevel":"50 Percent Md","projectname":"582-48th St","ownerormangmtcompany":"Oakland HA","program":"Public Hsg","id":"a91rozcb1zlo","geo_precision":"range","3bedrooms":10},"type":"Feature","geometry":{"type":"Point","coordinates":[-122.26427,37.835308]}},{"properties":{"city":"Oakland","studios":0,"4morebedrooms":0,"zip":"94609","bmrunits":14,"1bedrooms":0,"2bedr0oms":0,"eldr":0,"dis":0,"totalunits":14,"geo_score":0.902,"sro":0,"ownertype":"LG","street":"5825 Canning St","sitephone":"874-1520","fam":0,"income\nlevel":"50 Percent Md","projectname":"5825 Canning St","ownerormangmtcompany":"Oakland HA","program":"Public Hsg","id":"a91roz9fn6cs","geo_precision":"range","3bedrooms":14},"type":"Feature","geometry":{"type":"Point","coordinates":[-122.259337,37.845101]}},{"properties":{"city":"Oakland","studios":0,"4morebedrooms":0,"zip":"94609","bmrunits":12,"1bedrooms":0,"2bedr0oms":0,"eldr":0,"dis":0,"totalunits":12,"geo_score":0.819,"sro":0,"ownertype":"LG","street":"584 58th St","sitephone":"874-1520","fam":0,"income\nlevel":"50 Percent Md","projectname":"584-58th St","ownerormangmtcompany":"Oakland HA","program":"Public Hsg","id":"a91roz7sn10j","geo_precision":"range","3bedrooms":12},"type":"Feature","geometry":{"type":"Point","coordinates":[-122.262894,37.843848]}},{"properties":{"city":"Oakland","studios":0,"4morebedrooms":0,"zip":"94611","bmrunits":12,"1bedrooms":0,"2bedr0oms":0,"eldr":0,"dis":0,"totalunits":12,"geo_score":0.902,"sro":0,"ownertype":"LG","street":"59 Pearl St","sitephone":"874-1520","fam":0,"income\nlevel":"50 Percent Md","projectname":"59 Pearl St","ownerormangmtcompany":"Oakland HA","program":"Public Hsg","id":"a91roz2560i0","geo_precision":"range","3bedrooms":12},"type":"Feature","geometry":{"type":"Point","coordinates":[-122.256299,37.818607]}},{"properties":{"city":"Oakland","studios":0,"4morebedrooms":0,"zip":"94618","bmrunits":6,"1bedrooms":0,"2bedr0oms":0,"eldr":0,"dis":0,"totalunits":6,"geo_score":0.902,"sro":0,"ownertype":"LG","street":"5914 Colby St","sitephone":"874-1520","fam":0,"income\nlevel":"50 Percent Md","projectname":"5914 Colby St","ownerormangmtcompany":"Oakland HA","program":"Public Hsg","id":"a91roz7k2zhz","geo_precision":"range","3bedrooms":6},"type":"Feature","geometry":{"type":"Point","coordinates":[-122.256358,37.846735]}},{"properties":{"city":"Oakland","studios":0,"4morebedrooms":0,"zip":"94621","bmrunits":4,"1bedrooms":0,"2bedr0oms":0,"eldr":0,"dis":0,"totalunits":4,"geo_score":0.902,"sro":0,"ownertype":"LG","street":"5944 Bromley Ave","sitephone":"874-1520","fam":4,"income\nlevel":"50 Percent Md","projectname":"5944 Bromley Ave","ownerormangmtcompany":"Oakland HA","program":"Public Hsg","id":"a91roz3plc0a","geo_precision":"range","3bedrooms":4},"type":"Feature","geometry":{"type":"Point","coordinates":[-122.194942,37.765972]}},{"properties":{"city":"Oakland","studios":0,"4morebedrooms":0,"zip":"94621","bmrunits":4,"1bedrooms":0,"2bedr0oms":0,"eldr":0,"dis":0,"totalunits":4,"geo_score":0.902,"sro":0,"ownertype":"LG","street":"5945 Bromley Ave","sitephone":"874-1520","fam":4,"income\nlevel":"50 Percent Md","projectname":"5945 Bromley Ave","ownerormangmtcompany":"Oakland HA","program":"Public Hsg","id":"a91royxne8tf","geo_precision":"range","3bedrooms":4},"type":"Feature","geometry":{"type":"Point","coordinates":[-122.195054,37.765873]}},{"properties":{"city":"Oakland","studios":0,"4morebedrooms":0,"zip":"94609","bmrunits":4,"1bedrooms":0,"2bedr0oms":0,"eldr":0,"dis":0,"totalunits":4,"geo_score":0.819,"sro":0,"ownertype":"LG","street":"594 63rd St","sitephone":"874-1520","fam":0,"income\nlevel":"50 Percent Md","projectname":"594-63rd St","ownerormangmtcompany":"Oakland HA","program":"Public Hsg","id":"a91royxoyfij","geo_precision":"range","3bedrooms":4},"type":"Feature","geometry":{"type":"Point","coordinates":[-122.263038,37.849017]}},{"properties":{"city":"Oakland","studios":0,"4morebedrooms":0,"zip":"94606","bmrunits":12,"1bedrooms":0,"2bedr0oms":0,"eldr":0,"dis":0,"totalunits":12,"geo_score":0.837,"sro":0,"ownertype":"LG","street":"610 E 18th St","sitephone":"874-1520","fam":0,"income\nlevel":"50 Percent Md","projectname":"610 E 18th St","ownerormangmtcompany":"Oakland HA","program":"Public Hsg","id":"a91roz1y0td8","geo_precision":"range","3bedrooms":12},"type":"Feature","geometry":{"type":"Point","coordinates":[-122.248491,37.797062]}},{"properties":{"city":"Oakland","studios":0,"4morebedrooms":0,"zip":"94621","bmrunits":3,"1bedrooms":0,"2bedr0oms":0,"eldr":0,"dis":0,"totalunits":3,"geo_score":0.902,"sro":0,"ownertype":"LG","street":"6121 Harmon Ave","sitephone":"874-1520","fam":0,"income\nlevel":"50 Percent Md","projectname":"6121 Harmon Ave","ownerormangmtcompany":"Oakland HA","program":"Public Hsg","id":"a91royyd4t4w","geo_precision":"range","3bedrooms":3},"type":"Feature","geometry":{"type":"Point","coordinates":[-122.194577,37.767678]}},{"properties":{"city":"Oakland","studios":0,"4morebedrooms":0,"zip":"94605","bmrunits":8,"1bedrooms":0,"2bedr0oms":0,"eldr":0,"dis":0,"totalunits":8,"geo_score":0.902,"sro":0,"ownertype":"LG","street":"6130 Hilton St","sitephone":"874-1520","fam":0,"income\nlevel":"50 Percent Md","projectname":"6130 Hilton St","ownerormangmtcompany":"Oakland HA","program":"Public Hsg","id":"a91royyso894","geo_precision":"range","3bedrooms":8},"type":"Feature","geometry":{"type":"Point","coordinates":[-122.192585,37.769232]}},{"properties":{"city":"Oakland","studios":0,"4morebedrooms":0,"zip":"94621","bmrunits":6,"1bedrooms":0,"2bedr0oms":0,"eldr":0,"dis":0,"totalunits":6,"geo_score":0.902,"sro":0,"ownertype":"LG","street":"6229 Hayes St","sitephone":"874-1520","fam":0,"income\nlevel":"50 Percent Md","projectname":"6229 Hayes St","ownerormangmtcompany":"Oakland HA","program":"Public Hsg","id":"a91rozawopj0","geo_precision":"range","3bedrooms":6},"type":"Feature","geometry":{"type":"Point","coordinates":[-122.191088,37.766384]}},{"properties":{"city":"Oakland","studios":0,"4morebedrooms":0,"zip":"94605","bmrunits":4,"1bedrooms":0,"2bedr0oms":0,"eldr":0,"dis":0,"totalunits":4,"geo_score":0.805,"sro":0,"ownertype":"LG","street":"6238 Seminary Ave","sitephone":"874-1520","fam":0,"income\nlevel":"50 Percent Md","projectname":"6238 Seminary Ave","ownerormangmtcompany":"Oakland HA","program":"Public Hsg","id":"a91royzf1qmx","geo_precision":"street","3bedrooms":4},"type":"Feature","geometry":{"type":"Point","coordinates":[-122.175055,37.78021]}},{"properties":{"city":"Oakland","studios":0,"4morebedrooms":0,"zip":"94605","bmrunits":5,"1bedrooms":0,"2bedr0oms":0,"eldr":0,"dis":0,"totalunits":5,"geo_score":0.805,"sro":0,"ownertype":"LG","street":"624 Apgar St","sitephone":"874-1520","fam":0,"income\nlevel":"50 Percent Md","projectname":"624 Apgar St","ownerormangmtcompany":"Oakland HA","program":"Public Hsg","id":"a91roz51n6y0","geo_precision":"range","3bedrooms":5},"type":"Feature","geometry":{"type":"Point","coordinates":[-122.268451,37.82821]}},{"properties":{"city":"Oakland","studios":0,"4morebedrooms":0,"zip":"94605","bmrunits":6,"1bedrooms":0,"2bedr0oms":0,"eldr":0,"dis":0,"totalunits":6,"geo_score":0.805,"sro":0,"ownertype":"LG","street":"6309 Baker St","sitephone":"874-1520","fam":0,"income\nlevel":"50 Percent Md","projectname":"6309 Baker St","ownerormangmtcompany":"Oakland HA","program":"Public Hsg","id":"a91roz2k20di","geo_precision":"range","3bedrooms":6},"type":"Feature","geometry":{"type":"Point","coordinates":[-122.279635,37.847437]}},{"properties":{"city":"Oakland","studios":0,"4morebedrooms":0,"zip":"94621","bmrunits":5,"1bedrooms":0,"2bedr0oms":0,"eldr":0,"dis":0,"totalunits":5,"geo_score":0.525,"sro":0,"ownertype":"LG","street":"648  57th St","sitephone":"874-1520","fam":0,"income\nlevel":"50 Percent Md","projectname":"648- 57th St","ownerormangmtcompany":"Oakland HA","program":"Public Hsg","id":"a91roz52eo79","geo_precision":"street","3bedrooms":5},"type":"Feature","geometry":{"type":"Point","coordinates":[-122.201765,37.766099]}}],"is_temporal":false,"author":{"url":"","metadata":"","contact_name":"","contact_address":"","source":"","contact_phone":""},"source":"","pagination":{"sort":null,"start":0,"total":199,"limit":1000000},"state":"complete","tags":"","published":"2014-08-15T03:29:09-04:00","id":279700}