{"type":"FeatureCollection","data_type":"Dataset","url_type":null,"permissions":[{"permissions":{"download":true,"view":true},"group_id":"everyone"}],"classification":null,"title":"draft poll targets 10-1 - Milw-Wauk","count":247,"stream_id":283168,"contributor":{"url":"http://geocommons.com/users/53352","name":"mdpresiado91"},"data_attributes":null,"calculation_params":null,"icon_link":null,"link":"http://geocommons.com/overlays/283168.json","extent":[-88.2705,42.9363,-87.8757,43.9208],"geometry_types":["point"],"unique_name":null,"name":"draft poll targets 10-1 - Milw-Wauk","feature_count":247,"description":"","next_feature":null,"is_raster":false,"short_classification":"Y","stats":{},"features":[{"properties":{"city":"MILWAUKEE","zip":"53233","geo_score":0.902,"polling location":"190-04-2012 MARQUETTE ALUMNI MEMORIAL UNION","id":"a97ornay5x8c","address":"1442 W WISCONSIN AVE","geo_precision":"range"},"type":"Feature","geometry":{"type":"Point","coordinates":[-87.931181,43.038734]}},{"properties":{"city":"MILWAUKEE","zip":"53210","geo_score":0.805,"polling location":"102-07-2012 BOYS &amp; GIRLS CLUB-MARY RYAN","id":"a97ornfc67og","address":"3000 N SHERMAN BLVD","geo_precision":"range"},"type":"Feature","geometry":{"type":"Point","coordinates":[-87.967366,43.075192]}},{"properties":{"city":"MILWAUKEE","zip":"53206","geo_score":0.837,"polling location":"113-06-2012 DOUGLAS COMPLEX SCHOOL","id":"a97ornmt61oh","address":"3620 N 18TH ST","geo_precision":"range"},"type":"Feature","geometry":{"type":"Point","coordinates":[-87.93328,43.08462]}},{"properties":{"city":"MILWAUKEE","zip":"53206","geo_score":0.902,"polling location":"147-15-2012 GWEN T JACKSON SCHOOL","id":"a97ornklyxlb","address":"2121 W HADLEY ST","geo_precision":"range"},"type":"Feature","geometry":{"type":"Point","coordinates":[-87.939698,43.069574]}},{"properties":{"city":"MILWAUKEE","zip":"53210","geo_score":0.902,"polling location":"160-07-2012 WASHINGTON HIGH SCHOOL","id":"a97ornc4rbjp","address":"2525 N SHERMAN BLVD","geo_precision":"range"},"type":"Feature","geometry":{"type":"Point","coordinates":[-87.967577,43.065622]}},{"properties":{"city":"MILWAUKEE","zip":"53216","geo_score":0.837,"polling location":"104-07-2012 KEENAN HEALTH CENTER","id":"a97ornasetwx","address":"3200 N 36TH ST","geo_precision":"range"},"type":"Feature","geometry":{"type":"Point","coordinates":[-87.958455,43.079131]}},{"properties":{"city":"MILWAUKEE","zip":"53206","geo_score":0.902,"polling location":"107-07-2012 BEN FRANKLIN SCHOOL","id":"a97ornipvtr8","address":"2308 W NASH ST","geo_precision":"range"},"type":"Feature","geometry":{"type":"Point","coordinates":[-87.942085,43.08472]}},{"properties":{"city":"MILWAUKEE","zip":"53205","geo_score":0.837,"polling location":"149-15-2012 FRANCES STARMS DISC LEARNING CTR","id":"a97orn8dvrh2","address":"2035 N 25TH ST","geo_precision":"range"},"type":"Feature","geometry":{"type":"Point","coordinates":[-87.945153,43.057279]}},{"properties":{"city":"MILWAUKEE","zip":"53208","geo_score":0.902,"polling location":"198-04-2012 OUR SAVIOR LUTHERAN CHURCH","id":"a97ornaad4kl","address":"3022 W WISCONSIN AVE","geo_precision":"range"},"type":"Feature","geometry":{"type":"Point","coordinates":[-87.953051,43.038811]}},{"properties":{"city":"MILWAUKEE","zip":"53208","geo_score":0.902,"polling location":"155-15-2012 WASHINGTON PARK LIBRARY","id":"a97ornhtvdjp","address":"2121 N SHERMAN BLVD","geo_precision":"range"},"type":"Feature","geometry":{"type":"Point","coordinates":[-87.967655,43.057466]}},{"properties":{"city":"MILWAUKEE","zip":"53212","geo_score":0.457,"polling location":"121-06-2012 ROSE PARK SENIOR CENTER","id":"a97ornlidwo3","address":"3045 N MARTIN L KING JR DR","geo_precision":"street"},"type":"Feature","geometry":{"type":"Point","coordinates":[-87.968131,43.044823]}},{"properties":{"city":"MILWAUKEE","zip":"53209","geo_score":0.902,"polling location":"064-07-2012 THIRTY-FIFTH STREET SCHOOL","id":"a97orna5uwoz","address":"3517 W COURTLAND AVE","geo_precision":"range"},"type":"Feature","geometry":{"type":"Point","coordinates":[-87.957836,43.10249]}},{"properties":{"city":"MILWAUKEE","zip":"53206","geo_score":0.488,"polling location":"110-07-2012 CHILDREN'S OUTING ASSOCIATION","id":"a97ornlh8mpc","address":"2320 W BURLEIGH ST","geo_precision":"zip"},"type":"Feature","geometry":{"type":"Point","coordinates":[-87.933135,43.074311]}},{"properties":{"city":"MILWAUKEE","zip":"53212","geo_score":0.902,"polling location":"139-06-2012 OLIVER WENDELL HOLMES SCHOOL","id":"a97ornmd9u9y","address":"2463 N BUFFUM ST","geo_precision":"range"},"type":"Feature","geometry":{"type":"Point","coordinates":[-87.906661,43.06272]}},{"properties":{"city":"MILWAUKEE","zip":"53225","geo_score":0.902,"polling location":"037-02-2012 VOGEL PARK PAVILION","id":"a97orn8eqd80","address":"8601 W LANCASTER AVE","geo_precision":"range"},"type":"Feature","geometry":{"type":"Point","coordinates":[-88.022311,43.110097]}},{"properties":{"city":"MILWAUKEE","zip":"53212","geo_score":0.902,"polling location":"138-03-2012 FRANKLIN PIERCE SCHOOL","id":"a97ornhzaybv","address":"2765 N FRATNEY ST","geo_precision":"range"},"type":"Feature","geometry":{"type":"Point","coordinates":[-87.901633,43.068107]}},{"properties":{"city":"MILWAUKEE","zip":"53209","geo_score":0.902,"polling location":"061-01-2012 NEW HOPE MISSIONARY BAPTIST CHURCH","id":"a97ornjsml23","address":"2433 W ROOSEVELT DR","geo_precision":"range"},"type":"Feature","geometry":{"type":"Point","coordinates":[-87.943936,43.095103]}},{"properties":{"city":"MILWAUKEE","zip":"53209","geo_score":0.902,"polling location":"058-01-2012 RUFUS KING HIGH SCHOOL","id":"a97ornaq8zkj","address":"1801 W OLIVE ST","geo_precision":"range"},"type":"Feature","geometry":{"type":"Point","coordinates":[-87.934289,43.094098]}},{"properties":{"city":"MILWAUKEE","zip":"53205","geo_score":0.796,"polling location":"144-15-2012 NORTHSIDE YMCA","id":"a97ornkkzrbb","address":"1350 W NORTH AVE","geo_precision":"range"},"type":"Feature","geometry":{"type":"Point","coordinates":[-87.928139,43.06047]}},{"properties":{"city":"MILWAUKEE","zip":"53212","geo_score":0.829,"polling location":"119-06-2012 MARTIN LUTHER KING JR SCHOOL","id":"a97ornbyuvtw","address":"3275 N 3RD ST","geo_precision":"range"},"type":"Feature","geometry":{"type":"Point","coordinates":[-87.913955,43.078291]}},{"properties":{"city":"MILWAUKEE","zip":"53209","geo_score":0.902,"polling location":"050-01-2012 CUSTER HIGH SCHOOL","id":"a97orngo677z","address":"5075 N SHERMAN BLVD","geo_precision":"range"},"type":"Feature","geometry":{"type":"Point","coordinates":[-87.966534,43.108687]}},{"properties":{"city":"MILWAUKEE","zip":"53212","geo_score":0.829,"polling location":"141-06-2012 NORTHCOTT NEIGHBORHOOD HOUSE","id":"a97orni46vv1","address":"2460 N 6TH ST","geo_precision":"range"},"type":"Feature","geometry":{"type":"Point","coordinates":[-87.918395,43.062817]}},{"properties":{"city":"MILWAUKEE","zip":"53208","geo_score":0.837,"polling location":"196-04-2012 MERRILL PARK APARTMENTS","id":"a97orndrof4h","address":"222 N 33RD ST","geo_precision":"range"},"type":"Feature","geometry":{"type":"Point","coordinates":[-87.955206,43.033441]}},{"properties":{"city":"MILWAUKEE","zip":"53209","geo_score":0.902,"polling location":"VILLARD AVENUE LIBRARY BUILDING","id":"a97ornbreuk1","address":"3310 W VILLARD AVE","geo_precision":"range"},"type":"Feature","geometry":{"type":"Point","coordinates":[-87.955114,43.111979]}},{"properties":{"city":"MILWAUKEE","zip":"53206","geo_score":0.488,"polling location":"112-06-2012 METROPOLITAN BAPTIST CHURCH","id":"a97ornjyupl0","address":"1345 W BURLEIGH ST","geo_precision":"zip"},"type":"Feature","geometry":{"type":"Point","coordinates":[-87.933135,43.074311]}},{"properties":{"city":"MILWAUKEE","zip":"53208","geo_score":0.837,"polling location":"193-04-2012 JAMES E GROPPI","id":"a97ornirv0o2","address":"1312 N 27TH ST","geo_precision":"range"},"type":"Feature","geometry":{"type":"Point","coordinates":[-87.947688,43.047971]}},{"properties":{"city":"MILWAUKEE","zip":"53209","geo_score":0.74,"polling location":"021-01-2012 AGAPE COMMUNITY CENTER","id":"a97orn7otzr4","address":"6100 N 42ND ST","geo_precision":"street"},"type":"Feature","geometry":{"type":"Point","coordinates":[-87.964672,43.12862]}},{"properties":{"city":"MILWAUKEE","zip":"53216","geo_score":0.837,"polling location":"070-02-2012 MORSE MARSHALL COMPLEX","id":"a97orn8fz8ql","address":"4141 N 64TH ST","geo_precision":"range"},"type":"Feature","geometry":{"type":"Point","coordinates":[-87.992072,43.092897]}},{"properties":{"city":"MILWAUKEE","zip":"53224","geo_score":0.902,"polling location":"002-09-2012 CUDAHY YMCA","id":"a97ornagp39l","address":"9050 N SWAN RD","geo_precision":"range"},"type":"Feature","geometry":{"type":"Point","coordinates":[-88.023696,43.191058]}},{"properties":{"city":"MILWAUKEE","zip":"53210","geo_score":0.902,"polling location":"095-10-2012 SHERMAN SCHOOL","id":"a97ornfwym2q","address":"5110 W LOCUST ST","geo_precision":"range"},"type":"Feature","geometry":{"type":"Point","coordinates":[-87.978515,43.071708]}},{"properties":{"city":"MILWAUKEE","zip":"53208","geo_score":0.902,"polling location":"157-15-2012 HI-MOUNT BLVD SCHOOL","id":"a97orn86sa9c","address":"4921 W GARFIELD AVE","geo_precision":"range"},"type":"Feature","geometry":{"type":"Point","coordinates":[-87.975841,43.059199]}},{"properties":{"city":"MILWAUKEE","zip":"53202","geo_score":0.902,"polling location":"181-04-2012 CHARLES ALLIS ART MUSEUM","id":"a97orn744wr2","address":"1801 N PROSPECT AVE","geo_precision":"range"},"type":"Feature","geometry":{"type":"Point","coordinates":[-87.889024,43.054594]}},{"properties":{"city":"MILWAUKEE","zip":"53216","geo_score":0.837,"polling location":"066-07-2012 PARKLAWN YMCA","id":"a97orn8x6h87","address":"4340 N 46TH ST","geo_precision":"range"},"type":"Feature","geometry":{"type":"Point","coordinates":[-87.970157,43.096785]}},{"properties":{"city":"MILWAUKEE","zip":"53218","geo_score":0.837,"polling location":"044-02-2012 LANCASTER SCHOOL","id":"a97ornl1na9i","address":"4931 N 68TH ST","geo_precision":"range"},"type":"Feature","geometry":{"type":"Point","coordinates":[-87.996338,43.105934]}},{"properties":{"city":"MILWAUKEE","zip":"53211","geo_score":0.902,"polling location":"128-03-2012 RIVERSIDE HIGH SCHOOL","id":"a97orn94q1rv","address":"1615 E LOCUST ST","geo_precision":"range"},"type":"Feature","geometry":{"type":"Point","coordinates":[-87.891055,43.070995]}},{"properties":{"city":"MILWAUKEE","zip":"53209","geo_score":0.902,"polling location":"060-01-2012 ATKINSON LIBRARY","id":"a97orn7t7msa","address":"1960 W ATKINSON AVE","geo_precision":"range"},"type":"Feature","geometry":{"type":"Point","coordinates":[-87.936667,43.090188]}},{"properties":{"city":"MILWAUKEE","zip":"53216","geo_score":0.837,"polling location":"097-07-2012 FIFTY-THIRD STREET SCHOOL","id":"a97ornjv1hf8","address":"3618 N 53RD ST","geo_precision":"range"},"type":"Feature","geometry":{"type":"Point","coordinates":[-87.979608,43.083328]}},{"properties":{"city":"MILWAUKEE","zip":"53206","geo_score":0.837,"polling location":"148-15-2012 PHILLIS WHEATLEY SCHOOL","id":"a97ornfp4i2h","address":"2442 N 20TH ST","geo_precision":"range"},"type":"Feature","geometry":{"type":"Point","coordinates":[-87.937478,43.063365]}},{"properties":{"city":"MILWAUKEE","zip":"53206","geo_score":0.829,"polling location":"117-06-2012 LAFOLLETTE SCHOOL","id":"a97orni7nbte","address":"3239 N 9TH ST","geo_precision":"range"},"type":"Feature","geometry":{"type":"Point","coordinates":[-87.922608,43.075064]}},{"properties":{"city":"MILWAUKEE","zip":"53211","geo_score":0.902,"polling location":"133-03-2012 MARYLAND AVE SCHOOL","id":"a97orngl5qss","address":"2418 N MARYLAND AVE","geo_precision":"range"},"type":"Feature","geometry":{"type":"Point","coordinates":[-87.883019,43.061256]}},{"properties":{"city":"MILWAUKEE","zip":"53212","geo_score":0.902,"polling location":"123-06-2012 FRATNEY STREET SCHOOL","id":"a97ornmojrt1","address":"3255 N FRATNEY ST","geo_precision":"range"},"type":"Feature","geometry":{"type":"Point","coordinates":[-87.901485,43.077373]}},{"properties":{"city":"MILWAUKEE","zip":"53210","geo_score":0.902,"polling location":"159-15-2012 HOUSING AUTHORITY","id":"a97orncr2rrx","address":"5003 W LISBON AVE","geo_precision":"range"},"type":"Feature","geometry":{"type":"Point","coordinates":[-87.976708,43.062397]}},{"properties":{"city":"MILWAUKEE","zip":"53206","geo_score":0.902,"polling location":"143-15-2012 NORTH DIVISION CAMPUS SCHOOL","id":"a97ornaazpg2","address":"1011 W CENTER ST","geo_precision":"range"},"type":"Feature","geometry":{"type":"Point","coordinates":[-87.925332,43.067567]}},{"properties":{"city":"MILWAUKEE","zip":"53223","geo_score":0.837,"polling location":"004-09-2012 SPIRIT LIFE CHURCH","id":"a97orn77ye2i","address":"9445 N 76TH ST","geo_precision":"range"},"type":"Feature","geometry":{"type":"Point","coordinates":[-88.003937,43.191834]}},{"properties":{"city":"MILWAUKEE","zip":"53225","geo_score":0.902,"polling location":"078-05-2012 EMERSON SCHOOL","id":"a97ornff852m","address":"9025 W LAWRENCE AVE","geo_precision":"range"},"type":"Feature","geometry":{"type":"Point","coordinates":[-88.024967,43.09785]}},{"properties":{"city":"MILWAUKEE","zip":"53208","geo_score":0.837,"polling location":"150-15-2012 WEST SIDE ACADEMY I SCHOOL","id":"a97ornjbr7y5","address":"1945 N 31ST ST","geo_precision":"range"},"type":"Feature","geometry":{"type":"Point","coordinates":[-87.952675,43.055817]}},{"properties":{"city":"MILWAUKEE","zip":"53223","geo_score":0.837,"polling location":"016-09-2012 WEBSTER MIDDLE SCHOOL","id":"a97orne1nwe8","address":"6850 N 53RD ST","geo_precision":"range"},"type":"Feature","geometry":{"type":"Point","coordinates":[-87.97798,43.143016]}},{"properties":{"city":"MILWAUKEE","zip":"53216","geo_score":0.902,"polling location":"065-07-2012 SAMUEL CLEMENS SCHOOL","id":"a97ornjiscpj","address":"3600 W HOPE AVE","geo_precision":"range"},"type":"Feature","geometry":{"type":"Point","coordinates":[-87.960214,43.093475]}},{"properties":{"city":"MILWAUKEE","zip":"53202","geo_score":0.902,"polling location":"179-03-2012 RIVERVIEW HOUSING","id":"a97orngpawlm","address":"1300 E KANE PL","geo_precision":"range"},"type":"Feature","geometry":{"type":"Point","coordinates":[-87.893675,43.05608]}},{"properties":{"city":"MILWAUKEE","zip":"53225","geo_score":0.902,"polling location":"030-02-2012 BRYANT SCHOOL","id":"a97orn7ewlr7","address":"8718 W THURSTON AVE","geo_precision":"range"},"type":"Feature","geometry":{"type":"Point","coordinates":[-88.023128,43.120588]}},{"properties":{"city":"MILWAUKEE","zip":"53218","geo_score":0.837,"polling location":"047-01-2012 HAMPTON SCHOOL","id":"a97orncz24hj","address":"5000 N 53RD ST","geo_precision":"range"},"type":"Feature","geometry":{"type":"Point","coordinates":[-87.978799,43.112002]}},{"properties":{"city":"MILWAUKEE","zip":"53202","geo_score":0.902,"polling location":"183-03-2012 CASS STREET SCHOOL","id":"a97ornivnuzl","address":"1647 N CASS ST","geo_precision":"range"},"type":"Feature","geometry":{"type":"Point","coordinates":[-87.902249,43.050599]}},{"properties":{"city":"MILWAUKEE","zip":"53218","geo_score":0.837,"polling location":"023-09-2012 SILVER SPRING NEIGHBORHOOD CENTER","id":"a97ornkwtemk","address":"5460 N 64TH ST","geo_precision":"range"},"type":"Feature","geometry":{"type":"Point","coordinates":[-87.990983,43.118044]}},{"properties":{"city":"MILWAUKEE","zip":"53209","geo_score":0.902,"polling location":"055-01-2012 SILVER SPRING SCHOOL","id":"a97ornhjaaif","address":"5131 N GREEN BAY AVE","geo_precision":"range"},"type":"Feature","geometry":{"type":"Point","coordinates":[-87.932674,43.109783]}},{"properties":{"city":"MILWAUKEE","zip":"53209","geo_score":0.902,"polling location":"018-01-2012 MILWAUKEE POLICE SAFETY ACADEMY","id":"a97ornghlmq9","address":"6680 N TEUTONIA AVE","geo_precision":"range"},"type":"Feature","geometry":{"type":"Point","coordinates":[-87.953879,43.138099]}},{"properties":{"city":"MILWAUKEE","zip":"53224","geo_score":0.902,"polling location":"032-02-2012 MAPLE TREE SCHOOL","id":"a97ornc9kvkm","address":"6644 N 107TH ST","geo_precision":"range"},"type":"Feature","geometry":{"type":"Point","coordinates":[-88.045133,43.13845]}},{"properties":{"city":"MILWAUKEE","zip":"53209","geo_score":0.837,"polling location":"057-01-2012 RUFUS KING INT'L SCHOOL MIDDLE YEARS","id":"a97ornjdpli3","address":"4950 N 24TH ST","geo_precision":"range"},"type":"Feature","geometry":{"type":"Point","coordinates":[-87.941536,43.107428]}},{"properties":{"city":"MILWAUKEE","zip":"53218","geo_score":0.902,"polling location":"046-07-2012 CONGRESS SCHOOL","id":"a97ornf34ra4","address":"5225 W LINCOLN CREEK DR","geo_precision":"range"},"type":"Feature","geometry":{"type":"Point","coordinates":[-87.979089,43.099454]}},{"properties":{"city":"MILWAUKEE","zip":"53208","geo_score":0.902,"polling location":"169-15-2012 WASHINGTON PARK SENIOR CENTER","id":"a97orna6ripg","address":"4420 W VLIET ST","geo_precision":"range"},"type":"Feature","geometry":{"type":"Point","coordinates":[-87.969772,43.048877]}},{"properties":{"city":"MILWAUKEE","zip":"53233","geo_score":0.902,"polling location":"MILWAUKEE ACADEMY OF CHINESE LANGUAGE","id":"a97orniqcp4e","address":"2430 W WISCONSIN AVE","geo_precision":"range"},"type":"Feature","geometry":{"type":"Point","coordinates":[-87.944379,43.038766]}},{"properties":{"city":"MILWAUKEE","zip":"53218","geo_score":0.837,"polling location":"041-02-2012 BYRON KILBOURN SCHOOL","id":"a97ornhhl4q2","address":"5354 N 68TH ST","geo_precision":"range"},"type":"Feature","geometry":{"type":"Point","coordinates":[-87.995995,43.112975]}},{"properties":{"city":"MILWAUKEE","zip":"53218","geo_score":0.837,"polling location":"025-02-2012 KLUGE SCHOOL","id":"a97orn84x6t6","address":"5760 N 67TH ST","geo_precision":"range"},"type":"Feature","geometry":{"type":"Point","coordinates":[-87.994647,43.122004]}},{"properties":{"city":"MILWAUKEE","zip":"53211","geo_score":0.902,"polling location":"127-03-2012 UWM SANDBURG HALL","id":"a97orni9bm41","address":"3400 N MARYLAND AVE","geo_precision":"range"},"type":"Feature","geometry":{"type":"Point","coordinates":[-87.882754,43.07772]}},{"properties":{"city":"MILWAUKEE","zip":"53202","geo_score":0.835,"polling location":"185-04-2012 MUNICIPAL BUILDING","id":"a97orn9hd9ng","address":"841 N BROADWAY","geo_precision":"range"},"type":"Feature","geometry":{"type":"Point","coordinates":[-87.908246,43.041846]}},{"properties":{"city":"MILWAUKEE","zip":"53205","geo_score":0.829,"polling location":"176-06-2012 HILLSIDE FAMILY RESOURCE CENTER","id":"a97ornmkpb86","address":"1452 N 7TH ST","geo_precision":"range"},"type":"Feature","geometry":{"type":"Point","coordinates":[-87.920089,43.049597]}},{"properties":{"city":"MILWAUKEE","zip":"53216","geo_score":0.837,"polling location":"101-07-2012 DPW FIELD HEADQUARTERS","id":"a97ornlu6w4t","address":"3850 N 35TH ST","geo_precision":"range"},"type":"Feature","geometry":{"type":"Point","coordinates":[-87.957067,43.086254]}},{"properties":{"city":"MILWAUKEE","zip":"53216","geo_score":0.902,"polling location":"069-07-2012 ALBRIGHT UNITED METHODIST CHURCH","id":"a97ornj2964y","address":"5555 W CAPITOL DR","geo_precision":"range"},"type":"Feature","geometry":{"type":"Point","coordinates":[-87.98244,43.089852]}},{"properties":{"city":"MILWAUKEE","zip":"53216","geo_score":0.902,"polling location":"091-10-2012 DINEEN PARK PAVILION","id":"a97ornldsfy4","address":"6901 W VIENNA AVE","geo_precision":"range"},"type":"Feature","geometry":{"type":"Point","coordinates":[-87.999177,43.085708]}},{"properties":{"city":"MILWAUKEE","zip":"53215","geo_score":0.837,"polling location":"252-14-2012 PULASKI INDOOR SWIMMING POOL","id":"a97ornlp7mfx","address":"2701 S 16TH ST","geo_precision":"range"},"type":"Feature","geometry":{"type":"Point","coordinates":[-87.933717,42.993683]}},{"properties":{"city":"MILWAUKEE","zip":"53206","geo_score":0.829,"polling location":"118-06-2012 GREEN BAY AVE PLAYGROUND FIELDHOUSE","id":"a97ornlx00t8","address":"3818 N 8TH ST","geo_precision":"range"},"type":"Feature","geometry":{"type":"Point","coordinates":[-87.920932,43.087945]}},{"properties":{"city":"MILWAUKEE","zip":"53210","geo_score":0.708,"polling location":"CENTER STREET FIELDHOUSE","id":"a97ornfnzw62","address":"6420 W CLARKE ST","geo_precision":"street"},"type":"Feature","geometry":{"type":"Point","coordinates":[-87.986357,43.066175]}},{"properties":{"city":"MILWAUKEE","zip":"53210","geo_score":0.902,"polling location":"151-15-2012 CENTER STREET LIBRARY","id":"a97ornfgttcn","address":"2727 W FOND DU LAC AVE","geo_precision":"range"},"type":"Feature","geometry":{"type":"Point","coordinates":[-87.94755,43.067408]}},{"properties":{"city":"MILWAUKEE","zip":"53224","geo_score":0.902,"polling location":"001-09-2012 FIREHOUSE ENGINE 38","id":"a97ornk76bnx","address":"8463 N GRANVILLE RD","geo_precision":"range"},"type":"Feature","geometry":{"type":"Point","coordinates":[-88.039471,43.172157]}},{"properties":{"city":"MILWAUKEE","zip":"53206","geo_score":0.902,"polling location":"114-06-2012 ST MARK'S QUALITY OF LIFE CENTER II","id":"a97ornievoe5","address":"1530 W ATKINSON AVE","geo_precision":"range"},"type":"Feature","geometry":{"type":"Point","coordinates":[-87.930469,43.087058]}},{"properties":{"city":"MILWAUKEE","zip":"53216","geo_score":0.902,"polling location":"100-07-2012 PARKLAWN ASSEMBLY OF GOD","id":"a97ornhsjcck","address":"3725 N SHERMAN BLVD","geo_precision":"range"},"type":"Feature","geometry":{"type":"Point","coordinates":[-87.967259,43.085288]}},{"properties":{"city":"MILWAUKEE","zip":"53224","geo_score":0.902,"polling location":"006-09-2012 GOODRICH SCHOOL","id":"a97orngh45tw","address":"8251 N CELINA ST","geo_precision":"range"},"type":"Feature","geometry":{"type":"Point","coordinates":[-88.037323,43.167156]}},{"properties":{"city":"MILWAUKEE","zip":"53223","geo_score":0.837,"polling location":"014-09-2012 THOREAU SCHOOL","id":"a97ornfnj39l","address":"7878 N 60TH ST","geo_precision":"range"},"type":"Feature","geometry":{"type":"Point","coordinates":[-87.984844,43.160866]}},{"properties":{"city":"MILWAUKEE","zip":"53209","geo_score":0.902,"polling location":"020-01-2012 CHRIST MEMORIAL LUTHERAN CHURCH","id":"a97orn6kbe4n","address":"3105 W THURSTON AVE","geo_precision":"range"},"type":"Feature","geometry":{"type":"Point","coordinates":[-87.951848,43.12089]}},{"properties":{"city":"MILWAUKEE","zip":"53212","geo_score":0.829,"polling location":"177-06-2012 CARVER ACADEMY OF MATH &amp; SCIENCE","id":"a97orngz96wc","address":"1900 N 1ST ST","geo_precision":"range"},"type":"Feature","geometry":{"type":"Point","coordinates":[-87.911223,43.056461]}},{"properties":{"city":"MILWAUKEE","zip":"53208","geo_score":0.488,"polling location":"199-04-2012 COLLEGE COURT APARTMENTS","id":"a97ornc87x63","address":"3334 W HIGHLAND BLVD","geo_precision":"zip"},"type":"Feature","geometry":{"type":"Point","coordinates":[-87.963536,43.045962]}},{"properties":{"city":"MILWAUKEE","zip":"53206","geo_score":0.902,"polling location":"106-07-2012 AUER AVE PLAYGROUND FIELDHOUSE","id":"a97ornht096m","address":"2221 W AUER AVE","geo_precision":"range"},"type":"Feature","geometry":{"type":"Point","coordinates":[-87.939207,43.07681]}},{"properties":{"city":"MILWAUKEE","zip":"53206","geo_score":0.837,"polling location":"145-15-2012 BOYS &amp; GIRLS CLUB-LAVARNWAY","id":"a97ornjv3gto","address":"2739 N 15TH ST","geo_precision":"range"},"type":"Feature","geometry":{"type":"Point","coordinates":[-87.93136,43.068837]}},{"properties":{"city":"MILWAUKEE","zip":"53225","geo_score":0.902,"polling location":"034-05-2012 PARKVIEW SCHOOL","id":"a97ornk30285","address":"10825 W VILLARD AVE","geo_precision":"range"},"type":"Feature","geometry":{"type":"Point","coordinates":[-88.048375,43.112036]}},{"properties":{"city":"MILWAUKEE","zip":"53218","geo_score":0.902,"polling location":"027-02-2012 MADISON HIGH SCHOOL","id":"a97orn9yrl7l","address":"8135 W FLORIST AVE","geo_precision":"range"},"type":"Feature","geometry":{"type":"Point","coordinates":[-88.013147,43.126774]}},{"properties":{"city":"MILWAUKEE","zip":"53210","geo_score":0.837,"polling location":"166-10-2012 MILWAUKEE FRENCH IMMERSION SCHOOL","id":"a97orn7mxnpy","address":"2360 N 52ND ST","geo_precision":"range"},"type":"Feature","geometry":{"type":"Point","coordinates":[-87.978667,43.061366]}},{"properties":{"city":"MILWAUKEE","zip":"53218","geo_score":0.837,"polling location":"039-02-2012 GRANTOSA DRIVE SCHOOL","id":"a97ornid0nni","address":"4850 N 82ND ST","geo_precision":"range"},"type":"Feature","geometry":{"type":"Point","coordinates":[-88.013498,43.106729]}},{"properties":{"city":"MILWAUKEE","zip":"53215","geo_score":0.902,"polling location":"215-08-2012 DOERFLER SCHOOL","id":"a97ornh9ymio","address":"3014 W SCOTT ST","geo_precision":"range"},"type":"Feature","geometry":{"type":"Point","coordinates":[-87.952468,43.019129]}},{"properties":{"city":"MILWAUKEE","zip":"53218","geo_score":0.902,"polling location":"073-02-2012 COLUMBUS PARK PAVILION","id":"a97orne1s5s3","address":"7301 W COURTLAND AVE","geo_precision":"range"},"type":"Feature","geometry":{"type":"Point","coordinates":[-88.004599,43.103004]}},{"properties":{"city":"MILWAUKEE","zip":"53212","geo_score":0.902,"polling location":"125-03-2012 GORDON PARK PAVILION","id":"a97ornhwkjy0","address":"1321 E LOCUST ST","geo_precision":"range"},"type":"Feature","geometry":{"type":"Point","coordinates":[-87.894937,43.071048]}},{"properties":{"city":"MILWAUKEE","zip":"53218","geo_score":0.902,"polling location":"048-01-2012 MCGOVERN PARK SENIOR CENTER","id":"a97ornifvu4c","address":"4500 W CUSTER AVE","geo_precision":"range"},"type":"Feature","geometry":{"type":"Point","coordinates":[-87.970114,43.115643]}},{"properties":{"city":"MILWAUKEE","zip":"53224","geo_score":0.837,"polling location":"009-09-2012 STUART SCHOOL","id":"a97orn89excc","address":"7001 N 86TH ST","geo_precision":"range"},"type":"Feature","geometry":{"type":"Point","coordinates":[-88.018034,43.144637]}},{"properties":{"city":"MILWAUKEE","zip":"53208","geo_score":0.902,"polling location":"202-10-2012 MPS-ADMINISTRATION BUILDING","id":"a97orn6ikqse","address":"5225 W VLIET ST","geo_precision":"range"},"type":"Feature","geometry":{"type":"Point","coordinates":[-87.979335,43.049057]}},{"properties":{"city":"MILWAUKEE","zip":"53207","geo_score":0.902,"polling location":"243-14-2012 SOUTH SHORE PARK PAVILION","id":"a97ornevxc3c","address":"2900 S SHORE DR","geo_precision":"range"},"type":"Feature","geometry":{"type":"Point","coordinates":[-87.88109,42.993752]}},{"properties":{"city":"MILWAUKEE","zip":"53224","geo_score":0.902,"polling location":"008-05-2012 VINCENT HIGH SCHOOL","id":"a97ornet86y9","address":"7501 N GRANVILLE RD","geo_precision":"range"},"type":"Feature","geometry":{"type":"Point","coordinates":[-88.029012,43.15527]}},{"properties":{"city":"MILWAUKEE","zip":"53223","geo_score":0.902,"polling location":"011-09-2012 MILWAUKEE SCHOOL OF SIGN LANGUAGE","id":"a97ornctarc1","address":"7900 W ACACIA ST","geo_precision":"range"},"type":"Feature","geometry":{"type":"Point","coordinates":[-88.009511,43.137878]}},{"properties":{"city":"MILWAUKEE","zip":"53207","geo_score":0.488,"polling location":"241-14-2012 BAY VIEW LIBRARY","id":"a97ornlb78wt","address":"2566 S KINNICKINNIC AVE","geo_precision":"zip"},"type":"Feature","geometry":{"type":"Point","coordinates":[-87.894682,42.975115]}},{"properties":{"city":"MILWAUKEE","zip":"53207","geo_score":0.902,"polling location":"246-14-2012 HUMBOLDT PARK PAVILION","id":"a97orna7qpoe","address":"3000 S HOWELL AVE","geo_precision":"range"},"type":"Feature","geometry":{"type":"Point","coordinates":[-87.904299,42.989496]}},{"properties":{"city":"MILWAUKEE","zip":"53222","geo_score":0.837,"polling location":"075-05-2012 MILWAUKEE GERMAN IMMERSION SCHOOL","id":"a97orn79oefn","address":"3778 N 82ND ST","geo_precision":"range"},"type":"Feature","geometry":{"type":"Point","coordinates":[-88.014958,43.08473]}},{"properties":{"city":"SHOREWOOD","zip":"53211","geo_score":0.902,"polling location":"SHOREWOOD LIBRARY","id":"a97ornjhpkfp","address":"3920 N MURRAY AVE","geo_precision":"range"},"type":"Feature","geometry":{"type":"Point","coordinates":[-87.88493,43.088817]}},{"properties":{"city":"SHOREWOOD","zip":"53211","geo_score":0.902,"polling location":"LAKE BLUFF ELEMENTARY SCHOOL","id":"a97ornkzwx7d","address":"1600 E LAKE BLUFF BLVD","geo_precision":"range"},"type":"Feature","geometry":{"type":"Point","coordinates":[-87.888898,43.095819]}},{"properties":{"city":"SHOREWOOD","zip":"53211","geo_score":0.902,"polling location":"SHOREWOOD HIGH SCHOOL","id":"a97ornkl0jsx","address":"1701 E CAPITOL DR","geo_precision":"range"},"type":"Feature","geometry":{"type":"Point","coordinates":[-87.887475,43.089183]}},{"properties":{"city":"MILWAUKEE","zip":"53202","geo_score":0.902,"polling location":"184-04-2012 COVENANT HILL APARTMENTS","id":"a97orndvrv0l","address":"455 E OGDEN AVE","geo_precision":"range"},"type":"Feature","geometry":{"type":"Point","coordinates":[-87.906564,43.048091]}},{"properties":{"city":"MILWAUKEE","zip":"53204","geo_score":0.902,"polling location":"221-08-2012 O.A.S.I.S. SENIOR CENTER","id":"a97ornln0rsm","address":"2414 W MITCHELL ST","geo_precision":"range"},"type":"Feature","geometry":{"type":"Point","coordinates":[-87.944906,43.012526]}},{"properties":{"city":"MILWAUKEE","zip":"53210","geo_score":0.837,"polling location":"TBD","id":"a97ornbynhox","address":"2623 N 38TH ST","geo_precision":"range"},"type":"Feature","geometry":{"type":"Point","coordinates":[-87.961077,43.067492]}},{"properties":{"city":"MILWAUKEE","zip":"53204","geo_score":0.812,"polling location":"229-12-2012 SOUTH DIVISION HIGH SCHOOL","id":"a97ornkxpbz6","address":"1515 W LAPHAM BLVD","geo_precision":"range"},"type":"Feature","geometry":{"type":"Point","coordinates":[-87.931639,43.01417]}},{"properties":{"city":"MILWAUKEE","zip":"53204","geo_score":0.902,"polling location":"238-12-2012 KOSCIUSZKO SCHOOL","id":"a97ornmtuu5x","address":"971 W WINDLAKE AVE","geo_precision":"range"},"type":"Feature","geometry":{"type":"Point","coordinates":[-87.923243,43.008992]}},{"properties":{"city":"MILWAUKEE","zip":"53202","geo_score":0.902,"polling location":"178-03-2012 ARLINGTON COURT APARTMENTS","id":"a97orni7x948","address":"1633 N ARLINGTON PL","geo_precision":"range"},"type":"Feature","geometry":{"type":"Point","coordinates":[-87.895522,43.052414]}},{"properties":{"city":"MILWAUKEE","zip":"53211","geo_score":0.902,"polling location":"135-03-2012 UWM CAMBRIDGE COMMONS","id":"a97ornbq6z77","address":"2323 N CAMBRIDGE AVE","geo_precision":"range"},"type":"Feature","geometry":{"type":"Point","coordinates":[-87.891691,43.061084]}},{"properties":{"city":"MILWAUKEE","zip":"53205","geo_score":0.837,"polling location":"171-15-2012 CHERRY COURT APARTMENTS","id":"a97orn7qdpq8","address":"1525 N 24TH ST","geo_precision":"range"},"type":"Feature","geometry":{"type":"Point","coordinates":[-87.942852,43.05106]}},{"properties":{"city":"MILWAUKEE","zip":"53204","geo_score":0.837,"polling location":"223-08-2012 BOYS &amp; GIRLS CLUB-DON &amp; SALLIE DAVIS","id":"a97ornde42lm","address":"1975 S 24TH ST","geo_precision":"range"},"type":"Feature","geometry":{"type":"Point","coordinates":[-87.943835,43.008897]}},{"properties":{"city":"MILWAUKEE","zip":"53204","geo_score":0.837,"polling location":"228-12-2012 LONGFELLOW SCHOOL","id":"a97orn9up4bn","address":"1021 S 21ST ST","geo_precision":"range"},"type":"Feature","geometry":{"type":"Point","coordinates":[-87.939555,43.019306]}},{"properties":{"city":"MILWAUKEE","zip":"53223","geo_score":0.902,"polling location":"012-09-2012 CLOVERNOOK PLAYGROUND FIELDHOUSE","id":"a97orn9rdfva","address":"6594 N LANDERS ST","geo_precision":"range"},"type":"Feature","geometry":{"type":"Point","coordinates":[-87.999515,43.13755]}},{"properties":{"city":"MILWAUKEE","zip":"53212","geo_score":0.902,"polling location":"140-06-2012 HOLTON TERRACE APARTMENTS","id":"a97orng7iu7k","address":"2825 N HOLTON ST","geo_precision":"range"},"type":"Feature","geometry":{"type":"Point","coordinates":[-87.905343,43.070696]}},{"properties":{"city":"MILWAUKEE","zip":"53211","geo_score":0.902,"polling location":"136-03-2012 URBAN ECOLOGY CENTER","id":"a97ornbk2tda","address":"1500 E PARK PL","geo_precision":"range"},"type":"Feature","geometry":{"type":"Point","coordinates":[-87.89039,43.06741]}},{"properties":{"city":"MILWAUKEE","zip":"53218","geo_score":0.837,"polling location":"040-02-2012 GREATER HOLY TEMPLE CHRISTIAN ACADEMY","id":"a97orn8o43rd","address":"5575 N 76TH ST","geo_precision":"range"},"type":"Feature","geometry":{"type":"Point","coordinates":[-88.006075,43.118725]}},{"properties":{"city":"MILWAUKEE","zip":"53204","geo_score":0.829,"polling location":"235-12-2012 BRADLEY TECH HIGH SCHOOL","id":"a97ornhtcmia","address":"700 S 4TH ST","geo_precision":"range"},"type":"Feature","geometry":{"type":"Point","coordinates":[-87.915433,43.023216]}},{"properties":{"city":"MILWAUKEE","zip":"53210","geo_score":0.837,"polling location":"092-10-2012 ENDERIS PLAYGROUND FIELDHOUSE","id":"a97orn8vww9o","address":"2938 N 72ND ST","geo_precision":"range"},"type":"Feature","geometry":{"type":"Point","coordinates":[-88.001725,43.070978]}},{"properties":{"city":"MILWAUKEE","zip":"53215","geo_score":0.829,"polling location":"250-12-2012 KOSCIUSZKO COMMUNITY CENTER","id":"a97ornhkh7px","address":"2201 S 7TH ST","geo_precision":"range"},"type":"Feature","geometry":{"type":"Point","coordinates":[-87.920105,43.002826]}},{"properties":{"city":"MILWAUKEE","zip":"53225","geo_score":0.902,"polling location":"033-05-2012 RIVER TRAIL SCHOOL","id":"a97orncejgg0","address":"12021 W FLORIST AVE","geo_precision":"range"},"type":"Feature","geometry":{"type":"Point","coordinates":[-88.061922,43.126309]}},{"properties":{"city":"MILWAUKEE","zip":"53216","geo_score":0.902,"polling location":"074-02-2012 SIXTY-FIFTH STREET SCHOOL","id":"a97ornj4h8gp","address":"6600 W MELVINA ST","geo_precision":"range"},"type":"Feature","geometry":{"type":"Point","coordinates":[-87.995871,43.088089]}},{"properties":{"city":"MILWAUKEE","zip":"53218","geo_score":0.902,"polling location":"076-05-2012 CRAIG SCHOOL","id":"a97ornd1nvyv","address":"7667 W CONGRESS ST","geo_precision":"range"},"type":"Feature","geometry":{"type":"Point","coordinates":[-88.00769,43.097127]}},{"properties":{"city":"MILWAUKEE","zip":"53225","geo_score":0.837,"polling location":"077-05-2012 HMONG AMERICAN PEACE ACADEMY","id":"a97orndstixb","address":"4601 N 84TH ST","geo_precision":"range"},"type":"Feature","geometry":{"type":"Point","coordinates":[-88.017277,43.101921]}},{"properties":{"city":"MILWAUKEE","zip":"53215","geo_score":0.902,"polling location":"284-13-2012 FIREHOUSE-ENGINE 23","id":"a97orn9pc2ei","address":"2130 W OKLAHOMA AVE","geo_precision":"range"},"type":"Feature","geometry":{"type":"Point","coordinates":[-87.942282,42.988539]}},{"properties":{"city":"MILWAUKEE","zip":"53204","geo_score":0.812,"polling location":"236-12-2012 ALLEN FIELD ELEMENTARY SCHOOL","id":"a97ornif2hpd","address":"730 W LAPHAM BLVD","geo_precision":"range"},"type":"Feature","geometry":{"type":"Point","coordinates":[-87.920828,43.014215]}},{"properties":{"city":"MILWAUKEE","zip":"53204","geo_score":0.902,"polling location":"225-08-2012 CLARKE SQUARE PARK PAVILION","id":"a97orncdui9u","address":"2330 W VIEAU PL","geo_precision":"range"},"type":"Feature","geometry":{"type":"Point","coordinates":[-87.943248,43.020183]}},{"properties":{"city":"MILWAUKEE","zip":"53215","geo_score":0.811,"polling location":"230-12-2012 BECHER TERRACE","id":"a97ornk13fxu","address":"1800 W BECHER ST LOWR","geo_precision":"range"},"type":"Feature","geometry":{"type":"Point","coordinates":[-87.936785,43.006606]}},{"properties":{"city":"MILWAUKEE","zip":"53233","geo_score":0.902,"polling location":"189-04-2012 HIGHLAND GARDENS APARTMENTS","id":"a97ornkl9upy","address":"1818 W JUNEAU AVE","geo_precision":"range"},"type":"Feature","geometry":{"type":"Point","coordinates":[-87.936412,43.045904]}},{"properties":{"city":"MILWAUKEE","zip":"53225","geo_score":0.837,"polling location":"036-05-2012 ENGELBURG SCHOOL","id":"a97orn6pqdc0","address":"5100 N 91ST ST","geo_precision":"range"},"type":"Feature","geometry":{"type":"Point","coordinates":[-88.025866,43.110565]}},{"properties":{"city":"MILWAUKEE","zip":"53204","geo_score":0.805,"polling location":"227-08-2012 MITCHELL COURT APARTMENTS","id":"a97ornb356z3","address":"2600 W NATIONAL AVE","geo_precision":"street"},"type":"Feature","geometry":{"type":"Point","coordinates":[-87.945009,43.022353]}},{"properties":{"city":"MILWAUKEE","zip":"53202","geo_score":0.796,"polling location":"180-03-2012 EAST LIBRARY","id":"a97orn7bfroa","address":"1910 E NORTH AVE","geo_precision":"range"},"type":"Feature","geometry":{"type":"Point","coordinates":[-87.885726,43.060189]}},{"properties":{"city":"MILWAUKEE","zip":"53214","geo_score":0.902,"polling location":"212-10-2012 LUTHER BURBANK SCHOOL","id":"a97ornhfg1q8","address":"6035 W ADLER ST","geo_precision":"range"},"type":"Feature","geometry":{"type":"Point","coordinates":[-87.988355,43.027718]}},{"properties":{"city":"MILWAUKEE","zip":"53212","geo_score":0.829,"polling location":"175-06-2012 LAPHAM PARK HOUSING","id":"a97ornixh83j","address":"1901 N 6TH ST","geo_precision":"range"},"type":"Feature","geometry":{"type":"Point","coordinates":[-87.918535,43.055752]}},{"properties":{"city":"MILWAUKEE","zip":"53207","geo_score":0.902,"polling location":"249-14-2012 UMOS","id":"a97ornj82yzc","address":"2701 S CHASE AVE","geo_precision":"range"},"type":"Feature","geometry":{"type":"Point","coordinates":[-87.911292,42.994414]}},{"properties":{"city":"MILWAUKEE","zip":"53207","geo_score":0.902,"polling location":"248-14-2012 LINCOLN COURT APARTMENTS","id":"a97ornmk8l76","address":"2325 S HOWELL AVE","geo_precision":"range"},"type":"Feature","geometry":{"type":"Point","coordinates":[-87.904845,43.001541]}},{"properties":{"city":"MILWAUKEE","zip":"53222","geo_score":0.837,"polling location":"080-05-2012 NINETY-FIFTH STREET SCHOOL","id":"a97ornfhuepg","address":"3707 N 94TH ST","geo_precision":"range"},"type":"Feature","geometry":{"type":"Point","coordinates":[-88.030015,43.082608]}},{"properties":{"city":"MILWAUKEE","zip":"53208","geo_score":0.902,"polling location":"201-15-2012 STORY SCHOOL","id":"a97orn8r2dw0","address":"3815 W KILBOURN AVE","geo_precision":"range"},"type":"Feature","geometry":{"type":"Point","coordinates":[-87.962247,43.041603]}},{"properties":{"city":"MILWAUKEE","zip":"53215","geo_score":0.837,"polling location":"217-08-2012 BURNHAM PLAYGROUND FIELDHOUSE","id":"a97ornddppca","address":"1755 S 32ND ST","geo_precision":"range"},"type":"Feature","geometry":{"type":"Point","coordinates":[-87.954123,43.010916]}},{"properties":{"city":"MILWAUKEE","zip":"53215","geo_score":0.902,"polling location":"258-08-2012 GETHSEMANE EV LUTHERAN CHURCH","id":"a97orndkb00r","address":"2827 W HARRISON AVE","geo_precision":"range"},"type":"Feature","geometry":{"type":"Point","coordinates":[-87.950301,42.997622]}},{"properties":{"city":"MILWAUKEE","zip":"53215","geo_score":0.837,"polling location":"280-11-2012 AUDUBON SCHOOL","id":"a97orn9k4v51","address":"3300 S 39TH ST","geo_precision":"range"},"type":"Feature","geometry":{"type":"Point","coordinates":[-87.963085,42.983039]}},{"properties":{"city":"MILWAUKEE","zip":"53211","geo_score":0.488,"polling location":"132-03-2012 ST MARK'S EPISCOPAL CHURCH","id":"a97orn7bq7f8","address":"2618 N HACKETT AVE","geo_precision":"zip"},"type":"Feature","geometry":{"type":"Point","coordinates":[-87.889534,43.082018]}},{"properties":{"city":"MILWAUKEE","zip":"53221","geo_score":0.837,"polling location":"307-13-2012 LOWELL SCHOOL","id":"a97ornmi72ym","address":"4360 S 20TH ST","geo_precision":"range"},"type":"Feature","geometry":{"type":"Point","coordinates":[-87.938899,42.963428]}},{"properties":{"city":"MILWAUKEE","zip":"53212","geo_score":0.902,"polling location":"126-03-2012 LOCUST COURT APARTMENTS","id":"a97ornhbw1ab","address":"1350 E LOCUST ST","geo_precision":"range"},"type":"Feature","geometry":{"type":"Point","coordinates":[-87.894706,43.071193]}},{"properties":{"city":"MILWAUKEE","zip":"53233","geo_score":0.829,"polling location":"187-04-2012 CENTRAL LIBRARY-CENTENNIAL HALL","id":"a97ornjvxc31","address":"733 N 8TH ST","geo_precision":"range"},"type":"Feature","geometry":{"type":"Point","coordinates":[-87.92175,43.039754]}},{"properties":{"city":"MILWAUKEE","zip":"53215","geo_score":0.902,"polling location":"253-12-2012 MODRZEJEWSKI PLAYGROUND FIELDHOUSE","id":"a97ornmgnuz6","address":"1020 W CLEVELAND AVE","geo_precision":"range"},"type":"Feature","geometry":{"type":"Point","coordinates":[-87.925944,42.995624]}},{"properties":{"city":"MILWAUKEE","zip":"53207","geo_score":0.902,"polling location":"296-14-2012 CLEMENT AVENUE SCHOOL","id":"a97orn6pt5ks","address":"3666 S CLEMENT AVE","geo_precision":"range"},"type":"Feature","geometry":{"type":"Point","coordinates":[-87.894395,42.976884]}},{"properties":{"city":"MILWAUKEE","zip":"53211","geo_score":0.844,"polling location":"131-03-2012 PLYMOUTH CHURCH","id":"a97orndq1lux","address":"2717 E HAMPSHIRE AVE","geo_precision":"range"},"type":"Feature","geometry":{"type":"Point","coordinates":[-87.875737,43.075573]}},{"properties":{"city":"MILWAUKEE","zip":"53221","geo_score":0.837,"polling location":"283-13-2012 MORGANDALE SCHOOL","id":"a97ornlckdjx","address":"3635 S 17TH ST","geo_precision":"range"},"type":"Feature","geometry":{"type":"Point","coordinates":[-87.93518,42.979933]}},{"properties":{"city":"BAYSIDE","zip":"53217","geo_score":0.902,"polling location":"BAYSIDE MIDDLE SCHOOL","id":"a97orn88f7su","address":"601 E ELLSWORTH LN","geo_precision":"range"},"type":"Feature","geometry":{"type":"Point","coordinates":[-87.90029,43.181884]}},{"properties":{"city":"WAUWATOSA","zip":"53213","geo_score":0.837,"polling location":"ROOSEVELT SCHOOL - WARD 14","id":"a97orn6in8o9","address":"2535 N 73RD ST","geo_precision":"range"},"type":"Feature","geometry":{"type":"Point","coordinates":[-88.004068,43.065577]}},{"properties":{"city":"MILWAUKEE","zip":"53208","geo_score":0.902,"polling location":"204-10-2012 NEESKARA SCHOOL","id":"a97ornix7kyq","address":"1601 N HAWLEY RD","geo_precision":"range"},"type":"Feature","geometry":{"type":"Point","coordinates":[-87.982385,43.05197]}},{"properties":{"city":"MILWAUKEE","zip":"53223","geo_score":0.902,"polling location":"013-09-2012 CLARA BARTON SCHOOL","id":"a97orned7njk","address":"5700 W GREEN TREE RD","geo_precision":"range"},"type":"Feature","geometry":{"type":"Point","coordinates":[-87.983328,43.141333]}},{"properties":{"city":"MILWAUKEE","zip":"53215","geo_score":0.902,"polling location":"289-14-2012 OHIO PLAYGROUND FIELDHOUSE","id":"a97orn8m51oy","address":"974 W HOLT AVE","geo_precision":"range"},"type":"Feature","geometry":{"type":"Point","coordinates":[-87.924764,42.982968]}},{"properties":{"city":"WAUWATOSA","zip":"53213","geo_score":0.837,"polling location":"WASHINGTON SCHOOL - WARD 2","id":"a97ornczfha5","address":"2177 N 67TH ST","geo_precision":"range"},"type":"Feature","geometry":{"type":"Point","coordinates":[-87.996352,43.057343]}},{"properties":{"city":"MILWAUKEE","zip":"53207","geo_score":0.902,"polling location":"247-14-2012 FRITSCHE SCHOOL","id":"a97ornjps0sg","address":"2969 S HOWELL AVE","geo_precision":"range"},"type":"Feature","geometry":{"type":"Point","coordinates":[-87.904426,42.990972]}},{"properties":{"city":"MILWAUKEE","zip":"53208","geo_score":0.902,"polling location":"206-10-2012 WISCONSIN HUMANE SOCIETY","id":"a97orn8fenpr","address":"4500 W WISCONSIN AVE","geo_precision":"range"},"type":"Feature","geometry":{"type":"Point","coordinates":[-87.970342,43.038754]}},{"properties":{"city":"MILWAUKEE","zip":"53204","geo_score":0.829,"polling location":"234-12-2012 UNITED COMMUNITY CENTER","id":"a97ornmokum7","address":"1028 S 9TH ST","geo_precision":"range"},"type":"Feature","geometry":{"type":"Point","coordinates":[-87.922459,43.020418]}},{"properties":{"city":"MILWAUKEE","zip":"53221","geo_score":0.829,"polling location":"304-13-2012 WATER TOWER","id":"a97ornhltjps","address":"4001 S 6TH ST","geo_precision":"range"},"type":"Feature","geometry":{"type":"Point","coordinates":[-87.919355,42.970183]}},{"properties":{"city":"MILWAUKEE","zip":"53222","geo_score":0.837,"polling location":"087-05-2012 EIGHTY-FIRST STREET SCHOOL","id":"a97orn9etqqx","address":"2964 N 81ST ST","geo_precision":"range"},"type":"Feature","geometry":{"type":"Point","coordinates":[-88.013593,43.072233]}},{"properties":{"city":"MILWAUKEE","zip":"53215","geo_score":0.902,"polling location":"286-13-2012 HOLT PLAYGROUND FIELDHOUSE","id":"a97ornljngv2","address":"1716 W HOLT AVE","geo_precision":"range"},"type":"Feature","geometry":{"type":"Point","coordinates":[-87.93607,42.983011]}},{"properties":{"city":"WHITEFISH BAY","zip":"53217","geo_score":0.902,"polling location":"LYDELL RECREATION CENTER 2012","id":"a97orn8eztj3","address":"5205 N LYDELL AVE","geo_precision":"range"},"type":"Feature","geometry":{"type":"Point","coordinates":[-87.911919,43.112646]}},{"properties":{"city":"WHITEFISH BAY","zip":"53217","geo_score":0.902,"polling location":"CAHILL SQUARE 2012","id":"a97ornmi61wx","address":"1001 E FAIRMOUNT AVE","geo_precision":"range"},"type":"Feature","geometry":{"type":"Point","coordinates":[-87.89717,43.107549]}},{"properties":{"city":"MILWAUKEE","zip":"53220","geo_score":0.902,"polling location":"275-11-2012 REDEEMER EVANGELICAL FREE CHURCH","id":"a97ornbdnrs6","address":"7735 W HOWARD AVE","geo_precision":"range"},"type":"Feature","geometry":{"type":"Point","coordinates":[-88.009091,42.973679]}},{"properties":{"city":"WEST ALLIS","zip":"53227","geo_score":0.815,"polling location":"W22-NATHAN HALE HIGH SCHOOL","id":"a97ornlqpy1b","address":"11601 W LINCOLN AVE","geo_precision":"range"},"type":"Feature","geometry":{"type":"Point","coordinates":[-88.058023,43.0027]}},{"properties":{"city":"MILWAUKEE","zip":"53220","geo_score":0.902,"polling location":"268-11-2012 WEDGEWOOD PARK INT'L SCHOOL","id":"a97ornf6nnes","address":"6506 W WARNIMONT AVE","geo_precision":"range"},"type":"Feature","geometry":{"type":"Point","coordinates":[-87.994932,42.978884]}},{"properties":{"city":"MILWAUKEE","zip":"53228","geo_score":0.837,"polling location":"271-11-2012 SOUTH EIGHTY-EIGHTH ST SCHOOL","id":"a97ornm8snv2","address":"3575 S 88TH ST","geo_precision":"range"},"type":"Feature","geometry":{"type":"Point","coordinates":[-88.02274,42.980533]}},{"properties":{"city":"MILWAUKEE","zip":"53221","geo_score":0.902,"polling location":"313-13-2012 WI CONSERVATORY OF LIFELONG LEARNING","id":"a97orng8vgws","address":"3120 W GREEN AVE","geo_precision":"range"},"type":"Feature","geometry":{"type":"Point","coordinates":[-87.95252,42.938467]}},{"properties":{"city":"WEST ALLIS","zip":"53219","geo_score":0.75,"polling location":"W3-LONGFELLOW SCHOOL","id":"a97ornis6bjn","address":"2211 S 60TH ST","geo_precision":"range"},"type":"Feature","geometry":{"type":"Point","coordinates":[-87.987531,43.003122]}},{"properties":{"city":"WEST ALLIS","zip":"53214","geo_score":0.902,"polling location":"POLICE SATELLITE STATION","id":"a97orncu0ond","address":"6900 W NATIONAL AVE","geo_precision":"range"},"type":"Feature","geometry":{"type":"Point","coordinates":[-88.00022,43.013024]}},{"properties":{"city":"WEST ALLIS","zip":"53219","geo_score":0.75,"polling location":"W10-RECREATION CENTER","id":"a97ornlsx2e4","address":"2450 S 68TH ST","geo_precision":"range"},"type":"Feature","geometry":{"type":"Point","coordinates":[-87.997405,43.000166]}},{"properties":{"city":"MILWAUKEE","zip":"53219","geo_score":0.837,"polling location":"263-11-2012 MILWAUKEE SPANISH IMMERSION SCHOOL","id":"a97orni5kdct","address":"2765 S 55TH ST","geo_precision":"range"},"type":"Feature","geometry":{"type":"Point","coordinates":[-87.98279,42.993763]}},{"properties":{"city":"MILWAUKEE","zip":"53215","geo_score":0.902,"polling location":"260-11-2012 ZABLOCKI LIBRARY","id":"a97ornarz5q0","address":"3501 W OKLAHOMA AVE","geo_precision":"range"},"type":"Feature","geometry":{"type":"Point","coordinates":[-87.959305,42.988444]}},{"properties":{"city":"GREENFIELD","zip":"53220","geo_score":0.837,"polling location":"GLENWOOD SCHOOL - 2012","id":"a97orng5pzuy","address":"3550 S 51ST ST","geo_precision":"range"},"type":"Feature","geometry":{"type":"Point","coordinates":[-87.97796,42.978057]}},{"properties":{"city":"WAUKESHA","zip":"53186","geo_score":0.902,"polling location":"DIST 8 - ST MARYS CHURCH 2012","id":"a97ornalmj72","address":"225 S HARTWELL AVE","geo_precision":"range"},"type":"Feature","geometry":{"type":"Point","coordinates":[-88.221762,43.00198]}},{"properties":{"city":"MILWAUKEE","zip":"53213","geo_score":0.476,"polling location":"FAIRVIEW EVANGELICAL LUTHERAN CHURCH","id":"a97orne7y2t9","address":"137 N. 66TH ST","geo_precision":"street"},"type":"Feature","geometry":{"type":"Point","coordinates":[-87.994487,43.031411]}},{"properties":{"city":"WEST ALLIS","zip":"53227","geo_score":0.815,"polling location":"W16-FRANK LLOYD WRIGHT SCHOOL","id":"a97ornjr7rl9","address":"9501 W CLEVELAND AVE","geo_precision":"range"},"type":"Feature","geometry":{"type":"Point","coordinates":[-88.031293,42.995347]}},{"properties":{"city":"MILWAUKEE","zip":"53215","geo_score":0.902,"polling location":"291-14-2012 ST ANDREW EV LUTHERAN CHURCH","id":"a97ornjjwf6r","address":"1132 W OKLAHOMA AVE","geo_precision":"range"},"type":"Feature","geometry":{"type":"Point","coordinates":[-87.927226,42.98834]}},{"properties":{"city":"WEST ALLIS","zip":"53219","geo_score":0.75,"polling location":"MCCARTY PARK PAVILION","id":"a97ornjrm9iz","address":"2567 S 78TH ST","geo_precision":"range"},"type":"Feature","geometry":{"type":"Point","coordinates":[-88.010241,42.997035]}},{"properties":{"city":"MILWAUKEE","zip":"53221","geo_score":0.837,"polling location":"309-13-2012 SHOLES COMPLEX SCHOOL","id":"a97ornboovxm","address":"4965 S 20TH ST","geo_precision":"range"},"type":"Feature","geometry":{"type":"Point","coordinates":[-87.939119,42.954115]}},{"properties":{"city":"MILWAUKEE","zip":"53226","geo_score":0.837,"polling location":"210-10-2012 CANNON PARK PAVILION","id":"a97orn8s0rbq","address":"303 N 95TH ST","geo_precision":"range"},"type":"Feature","geometry":{"type":"Point","coordinates":[-88.031294,43.034149]}},{"properties":{"city":"WEST ALLIS","zip":"53227","geo_score":0.815,"polling location":"IRVING SCHOOL FIELD HOUSE","id":"a97ornls2qdn","address":"10230 W GRANT ST","geo_precision":"range"},"type":"Feature","geometry":{"type":"Point","coordinates":[-88.042131,43.003612]}},{"properties":{"city":"WEST ALLIS","zip":"53214","geo_score":0.902,"polling location":"HERITAGE WEST ALLIS","id":"a97ornhidlw3","address":"7901 W NATIONAL AVE","geo_precision":"range"},"type":"Feature","geometry":{"type":"Point","coordinates":[-88.011256,43.010975]}},{"properties":{"city":"GREENFIELD","zip":"53220","geo_score":0.884,"polling location":"GREENFIELD COMMUNITY CENTER - 2012","id":"a97orn7mhy7h","address":"7215 W COLD SPRING RD","geo_precision":"range"},"type":"Feature","geometry":{"type":"Point","coordinates":[-88.004239,42.966455]}},{"properties":{"city":"WAUKESHA","zip":null,"geo_score":0.0,"polling location":"DIST 11 - E &amp; R UCC CHURCH 2012","id":"a97orn9pp9xt","address":"413 WISCONSIN AVE","geo_precision":"unmatched"},"type":"Feature","geometry":null},{"properties":{"city":"MILWAUKEE","zip":"53207","geo_score":0.902,"polling location":"303-13-2012 BURDICK SCHOOL","id":"a97ornkvhsan","address":"4348 S GRIFFIN AVE","geo_precision":"range"},"type":"Feature","geometry":{"type":"Point","coordinates":[-87.904652,42.96417]}},{"properties":{"city":"MILWAUKEE","zip":"53219","geo_score":0.837,"polling location":"269-11-2012 ZION UNITED CHURCH OF CHRIST","id":"a97ornbxu56a","address":"3301 S 76TH ST","geo_precision":"range"},"type":"Feature","geometry":{"type":"Point","coordinates":[-88.007809,42.981016]}},{"properties":{"city":"MILWAUKEE","zip":"53215","geo_score":0.902,"polling location":"261-11-2012 MANITOBA SCHOOL","id":"a97orn8tmw69","address":"4040 W FOREST HOME AVE","geo_precision":"range"},"type":"Feature","geometry":{"type":"Point","coordinates":[-87.96536,42.990768]}},{"properties":{"city":"WEST ALLIS","zip":"53214","geo_score":0.902,"polling location":"LIBERTY HEIGHTS PARK FIELD HOUSE","id":"a97orn9gkqrg","address":"6101 W ORCHARD ST","geo_precision":"range"},"type":"Feature","geometry":{"type":"Point","coordinates":[-87.989924,43.015748]}},{"properties":{"city":"WEST ALLIS","zip":"53214","geo_score":0.902,"polling location":"WEST ALLIS CITY HALL","id":"a97orngv4c94","address":"7525 W GREENFIELD AVE","geo_precision":"range"},"type":"Feature","geometry":{"type":"Point","coordinates":[-88.00692,43.016553]}},{"properties":{"city":"MILWAUKEE","zip":"53222","geo_score":0.902,"polling location":"085-05-2012 COOPER PARK PAVILION","id":"a97orng6a023","address":"8701 W CHAMBERS ST","geo_precision":"range"},"type":"Feature","geometry":{"type":"Point","coordinates":[-88.022517,43.073308]}},{"properties":{"city":"WEST ALLIS","zip":"53227","geo_score":0.75,"polling location":"FRANKLIN FIELD HOUSE","id":"a97ornhzpt2j","address":"1964 S 86TH ST","geo_precision":"range"},"type":"Feature","geometry":{"type":"Point","coordinates":[-88.019767,43.007159]}},{"properties":{"city":"MILWAUKEE","zip":"53219","geo_score":0.673,"polling location":"265-11-2012 FAIRVIEW SCHOOL","id":"a97ornhsr3ir","address":"6500 W KINNICKINNIC RIVER PKWY","geo_precision":"range"},"type":"Feature","geometry":{"type":"Point","coordinates":[-87.99327,43.007463]}},{"properties":{"city":"WAUKESHA","zip":null,"geo_score":0.0,"polling location":"DIST 6 - E.B. SHURTS BUILDING 2012","id":"a97orn770biv","address":"810 W COLLEGE AVE","geo_precision":"unmatched"},"type":"Feature","geometry":null},{"properties":{"city":"WAUKESHA","zip":"53045","geo_score":0.543,"polling location":"DIST 15 - BLAIR SCHOOL 2012","id":"a97ornbhrztx","address":"301 HYDE PARK AVE","geo_precision":"street"},"type":"Feature","geometry":{"type":"Point","coordinates":[-88.022469,43.920756]}},{"properties":{"city":"WEST ALLIS","zip":"53227","geo_score":0.815,"polling location":"CENTRAL HIGH SCHOOL","id":"a97orndtu7y9","address":"8516 W LINCOLN AVE","geo_precision":"range"},"type":"Feature","geometry":{"type":"Point","coordinates":[-88.019777,43.002803]}},{"properties":{"city":"WEST ALLIS","zip":"53219","geo_score":0.75,"polling location":"FIRE STATION NO. 2","id":"a97ornjlyruu","address":"2040 S 67TH PL","geo_precision":"range"},"type":"Feature","geometry":{"type":"Point","coordinates":[-87.996713,43.007313]}},{"properties":{"city":"GREENFIELD","zip":"53228","geo_score":0.815,"polling location":"WHITNALL HIGH SCHOOL - 2012","id":"a97ornkavpqp","address":"5000 S 116TH ST","geo_precision":"range"},"type":"Feature","geometry":{"type":"Point","coordinates":[-88.057943,42.95181]}},{"properties":{"city":"WEST ALLIS","zip":"53214","geo_score":0.902,"polling location":"WEST ALLIS PUBLIC LIBRARY","id":"a97ornmqdd04","address":"7421 W NATIONAL AVE","geo_precision":"range"},"type":"Feature","geometry":{"type":"Point","coordinates":[-88.00553,43.012009]}},{"properties":{"city":"WAUWATOSA","zip":"53213","geo_score":0.861,"polling location":"WILSON SCHOOL - WARD 6","id":"a97ornebe8qi","address":"1060 GLENVIEW AVE","geo_precision":"range"},"type":"Feature","geometry":{"type":"Point","coordinates":[-88.013219,43.043773]}},{"properties":{"city":"WAUKESHA","zip":null,"geo_score":0.0,"polling location":"DIST 2 - WAUKESHA CITY HALL 2012","id":"a97ornf52ncd","address":"201 DELAFIELD ST","geo_precision":"unmatched"},"type":"Feature","geometry":null},{"properties":{"city":"WAUWATOSA","zip":"53213","geo_score":0.902,"polling location":"JEFFERSON SCHOOL - WARD 11","id":"a97ornganloh","address":"6927 MAPLE TER","geo_precision":"range"},"type":"Feature","geometry":{"type":"Point","coordinates":[-87.998619,43.042261]}},{"properties":{"city":"GREENFIELD","zip":"53221","geo_score":0.815,"polling location":"ELMDALE SCHOOL - 2012","id":"a97ornjlc1mc","address":"5300 S HONEY CREEK DR","geo_precision":"range"},"type":"Feature","geometry":{"type":"Point","coordinates":[-87.963688,42.945785]}},{"properties":{"city":"WEST ALLIS","zip":"53214","geo_score":0.902,"polling location":"WOODROW WILSON SCHOOL FIELD HOUSE","id":"a97ornb8dhr1","address":"8710 W ORCHARD ST","geo_precision":"range"},"type":"Feature","geometry":{"type":"Point","coordinates":[-88.021907,43.014132]}},{"properties":{"city":"MILWAUKEE","zip":"53213","geo_score":0.902,"polling location":"205-10-2012 HAWLEY SCHOOL","id":"a97ornfz35ra","address":"5610 W WISCONSIN AVE","geo_precision":"range"},"type":"Feature","geometry":{"type":"Point","coordinates":[-87.981963,43.038795]}},{"properties":{"city":"WEST ALLIS","zip":"53214","geo_score":0.902,"polling location":"LAFOLLETTE PARK PAVILION","id":"a97orn74fu1z","address":"9418 W WASHINGTON ST","geo_precision":"range"},"type":"Feature","geometry":{"type":"Point","coordinates":[-88.02945,43.019665]}},{"properties":{"city":"WAUKESHA","zip":"53186","geo_score":0.805,"polling location":"DIST 7 - PRAIRIE SCHOOL 2012","id":"a97ornjv9n3d","address":"1801 CENTER RD","geo_precision":"range"},"type":"Feature","geometry":{"type":"Point","coordinates":[-88.247306,42.982762]}},{"properties":{"city":"WAUWATOSA","zip":"53226","geo_score":0.827,"polling location":"UNDERWOOD SCHOOL - WARD 21","id":"a97orn6xvxkk","address":"11132 W POTTER RD","geo_precision":"range"},"type":"Feature","geometry":{"type":"Point","coordinates":[-88.051335,43.040969]}},{"properties":{"city":"MILWAUKEE","zip":"53219","geo_score":0.837,"polling location":"279-11-2012 LYONS PARK PAVILION","id":"a97ornbc8s37","address":"3301 S 55TH ST","geo_precision":"range"},"type":"Feature","geometry":{"type":"Point","coordinates":[-87.982969,42.984342]}},{"properties":{"city":"WAUWATOSA","zip":"53213","geo_score":0.796,"polling location":"CITY HALL - WARD 4","id":"a97ornajhc1d","address":"7701 W NORTH AVE","geo_precision":"range"},"type":"Feature","geometry":{"type":"Point","coordinates":[-88.011284,43.060616]}},{"properties":{"city":"WAUKESHA","zip":"53186","geo_score":0.805,"polling location":"DIST 1 - ELKS LODGE 2012","id":"a97ornjzr6ou","address":"2301 SPRINGDALE RD","geo_precision":"range"},"type":"Feature","geometry":{"type":"Point","coordinates":[-88.18587,43.063006]}},{"properties":{"city":"WAUWATOSA","zip":"53213","geo_score":0.663,"polling location":"HART PARK RECREATION BUILDING - WARD 10","id":"a97ornjrv4e2","address":"7300 CHESTNUT ST","geo_precision":"street"},"type":"Feature","geometry":{"type":"Point","coordinates":[-88.015096,43.046002]}},{"properties":{"city":"WEST ALLIS","zip":"53214","geo_score":0.902,"polling location":"MARIAN UNIVERSITY","id":"a97ornmpeqft","address":"1227 S 116TH ST","geo_precision":"range"},"type":"Feature","geometry":{"type":"Point","coordinates":[-88.057173,43.019766]}},{"properties":{"city":"WEST ALLIS","zip":"53227","geo_score":0.815,"polling location":"GENERAL MITCHELL SCHOOL FIELD HOUSE","id":"a97orng9p2hz","address":"10125 W MONTANA AVE","geo_precision":"range"},"type":"Feature","geometry":{"type":"Point","coordinates":[-88.040723,42.994355]}},{"properties":{"city":"WAUKESHA","zip":null,"geo_score":0.0,"polling location":"DIST 3 - ROTARY BUILDING 2012","id":"a97ornf6rn8e","address":"1150 BAXTER ST","geo_precision":"unmatched"},"type":"Feature","geometry":null},{"properties":{"city":"WEST ALLIS","zip":"53227","geo_score":0.75,"polling location":"VILLAGE AT MANOR PARK","id":"a97ornioen17","address":"3023 S 84TH ST","geo_precision":"range"},"type":"Feature","geometry":{"type":"Point","coordinates":[-88.01758,42.991706]}},{"properties":{"city":"GREENFIELD","zip":"53220","geo_score":0.902,"polling location":"MAPLE GROVE SCHOOL - 2012","id":"a97orni1ze3g","address":"6921 W COLDSPRING RD","geo_precision":"range"},"type":"Feature","geometry":{"type":"Point","coordinates":[-87.999399,42.966495]}},{"properties":{"city":"MILWAUKEE","zip":"53221","geo_score":0.902,"polling location":"315-13-2012 VICTORY SCHOOL","id":"a97orn6k63ar","address":"2222 W HENRY AVE","geo_precision":"range"},"type":"Feature","geometry":{"type":"Point","coordinates":[-87.944013,42.936343]}},{"properties":{"city":"MILWAUKEE","zip":"53221","geo_score":0.902,"polling location":"306-13-2012 WILSON PARK PAVILION","id":"a97ornltncx9","address":"1601 W HOWARD AVE","geo_precision":"range"},"type":"Feature","geometry":{"type":"Point","coordinates":[-87.933536,42.973734]}},{"properties":{"city":"WAUWATOSA","zip":"53226","geo_score":0.805,"polling location":"WEST SENIOR HIGH SCHOOL - WARD 18","id":"a97orngaipzb","address":"11400 W CENTER ST","geo_precision":"range"},"type":"Feature","geometry":{"type":"Point","coordinates":[-88.056038,43.067412]}},{"properties":{"city":"WAUKESHA","zip":null,"geo_score":0.0,"polling location":"DIST 5 - MEADOWBROOK SCHOOL 2012","id":"a97orndlo376","address":"3130 ROLLING RIDGE DR","geo_precision":"unmatched"},"type":"Feature","geometry":null},{"properties":{"city":"WHITEFISH BAY","zip":"53217","geo_score":0.902,"polling location":"LIBRARY","id":"a97ornbg6got","address":"5420 N MARLBOROUGH DR","geo_precision":"range"},"type":"Feature","geometry":{"type":"Point","coordinates":[-87.900627,43.114262]}},{"properties":{"city":"MILWAUKEE","zip":"53222","geo_score":0.488,"polling location":"082-05-2012 MILWAUKEE SCHOOL OF LANGUAGES","id":"a97orn9wpg34","address":"8400 W BURLEIGH ST","geo_precision":"zip"},"type":"Feature","geometry":{"type":"Point","coordinates":[-88.036938,43.082161]}},{"properties":{"city":"MILWAUKEE","zip":"53221","geo_score":0.902,"polling location":"311-13-2012 GARLAND SCHOOL","id":"a97ornbsku9g","address":"1420 W GOLDCREST AVE","geo_precision":"range"},"type":"Feature","geometry":{"type":"Point","coordinates":[-87.933664,42.93943]}},{"properties":{"city":"MILWAUKEE","zip":"53222","geo_score":0.902,"polling location":"083-05-2012 FIREHOUSE-ENGINE 22","id":"a97ornfyt2qj","address":"8814 W LISBON AVE","geo_precision":"range"},"type":"Feature","geometry":{"type":"Point","coordinates":[-88.023124,43.08327]}},{"properties":{"city":"WAUWATOSA","zip":"53225","geo_score":0.827,"polling location":"MADISON SCHOOL - WARD 23","id":"a97ornb68klx","address":"9925 W GLENDALE AVE","geo_precision":"range"},"type":"Feature","geometry":{"type":"Point","coordinates":[-88.036087,43.101198]}},{"properties":{"city":"WAUKESHA","zip":"53186","geo_score":0.902,"polling location":"DIST 9 - HEYER SCHOOL 2012","id":"a97ornk0w3pg","address":"1209 HEYER DR","geo_precision":"range"},"type":"Feature","geometry":{"type":"Point","coordinates":[-88.210946,42.991415]}},{"properties":{"city":"MILWAUKEE","zip":"53228","geo_score":0.837,"polling location":"272-11-2012 ALCOTT ELEMENTARY SCHOOL","id":"a97orn6tq0g2","address":"3563 S 97TH ST","geo_precision":"range"},"type":"Feature","geometry":{"type":"Point","coordinates":[-88.033863,42.98015]}},{"properties":{"city":"WAUKESHA","zip":null,"geo_score":0.0,"polling location":"DIST 10 - SOUTH HIGH SCHOOL 2012","id":"a97ornmty69d","address":"401 E ROBERTA AVE","geo_precision":"unmatched"},"type":"Feature","geometry":null},{"properties":{"city":"GREENFIELD","zip":"53220","geo_score":0.902,"polling location":"GREENFIELD PUBLIC LIBRARY - 2012","id":"a97ornh5y8e0","address":"5310 W LAYTON AVE","geo_precision":"range"},"type":"Feature","geometry":{"type":"Point","coordinates":[-87.983111,42.95947]}},{"properties":{"city":"MILWAUKEE","zip":"53215","geo_score":0.837,"polling location":"282-13-2012 CURTIN SCHOOL","id":"a97orn6ix735","address":"3450 S 32ND ST","geo_precision":"range"},"type":"Feature","geometry":{"type":"Point","coordinates":[-87.954488,42.981224]}},{"properties":{"city":"WAUKESHA","zip":null,"geo_score":0.0,"polling location":"DIST 4 - HAWTHORNE SCHOOL 2012","id":"a97orn70qxho","address":"1111 MAITLAND DR","geo_precision":"unmatched"},"type":"Feature","geometry":null},{"properties":{"city":"WAUKESHA","zip":"53188","geo_score":0.863,"polling location":"DIST 13 - BETHESDA SCHOOL 2012","id":"a97orn7rt35x","address":"730 UNIVERSITY DR","geo_precision":"range"},"type":"Feature","geometry":{"type":"Point","coordinates":[-88.269141,43.024409]}},{"properties":{"city":"WAUWATOSA","zip":"53226","geo_score":0.762,"polling location":"MC KINLEY SCHOOL - WARD 16","id":"a97orndv5i7m","address":"2435 N 89TH ST","geo_precision":"range"},"type":"Feature","geometry":{"type":"Point","coordinates":[-88.02381,43.063514]}},{"properties":{"city":"WHITEFISH BAY","zip":"53217","geo_score":0.902,"polling location":"VILLAGE HALL","id":"a97orncvaup8","address":"5300 N MARLBOROUGH DR","geo_precision":"range"},"type":"Feature","geometry":{"type":"Point","coordinates":[-87.900598,43.114081]}},{"properties":{"city":"WEST ALLIS","zip":"53214","geo_score":0.902,"polling location":"MADISON SCHOOL","id":"a97ornc489lk","address":"1117 S 104TH ST","geo_precision":"range"},"type":"Feature","geometry":{"type":"Point","coordinates":[-88.042207,43.018457]}},{"properties":{"city":"WAUKESHA","zip":null,"geo_score":0.0,"polling location":"DIST 12 - WEST HIGH SCHOOL 2012","id":"a97ornl7j6f9","address":"3301 SAYLESVILLE RD","geo_precision":"unmatched"},"type":"Feature","geometry":null},{"properties":{"city":"WAUKESHA","zip":"53188","geo_score":0.902,"polling location":"DIST 14 - CHRIST THE LIFE LUTHERAN CHURCH 2012","id":"a97ornk5nblw","address":"3031 SUMMIT AVE","geo_precision":"range"},"type":"Feature","geometry":{"type":"Point","coordinates":[-88.270543,43.02117]}},{"properties":{"city":"MILWAUKEE","zip":"53207","geo_score":0.829,"polling location":"293-13-2012 SAVELAND PARK PAVILION","id":"a97orndn53e4","address":"3700 S 2ND ST","geo_precision":"range"},"type":"Feature","geometry":{"type":"Point","coordinates":[-87.913075,42.977382]}},{"properties":{"city":"MILWAUKEE","zip":"53220","geo_score":0.837,"polling location":"278-11-2012 WHITMAN SCHOOL","id":"a97orn97ljo6","address":"4200 S 54TH ST","geo_precision":"range"},"type":"Feature","geometry":{"type":"Point","coordinates":[-87.982599,42.96846]}},{"properties":{"city":"WAUWATOSA","zip":"53213","geo_score":0.902,"polling location":"FIRE STATION #1 - WARD 1","id":"a97ornktzy0o","address":"1601 UNDERWOOD AVE","geo_precision":"range"},"type":"Feature","geometry":{"type":"Point","coordinates":[-88.008688,43.051488]}},{"properties":{"city":"MILWAUKEE","zip":"53213","geo_score":0.837,"polling location":"209-10-2012 DYER PLAYGROUND FIELDHOUSE","id":"a97ornm7ofvp","address":"151 N 80TH ST","geo_precision":"range"},"type":"Feature","geometry":{"type":"Point","coordinates":[-88.012364,43.031836]}},{"properties":{"city":"MILWAUKEE","zip":"53207","geo_score":0.902,"polling location":"294-14-2012 TIPPECANOE LIBRARY","id":"a97ornc0b9xk","address":"3912 S HOWELL AVE","geo_precision":"range"},"type":"Feature","geometry":{"type":"Point","coordinates":[-87.909459,42.973124]}},{"properties":{"city":"MILWAUKEE","zip":"53221","geo_score":0.829,"polling location":"316-13-2012 HOLLER PARK PAVILION","id":"a97ornkmxmj6","address":"5151 S 6TH ST","geo_precision":"range"},"type":"Feature","geometry":{"type":"Point","coordinates":[-87.919619,42.950872]}},{"properties":{"city":"WAUWATOSA","zip":"53226","geo_score":0.632,"polling location":"PUBLIC WORKS BUILDING - WARD 20","id":"a97ornj733j0","address":"11100 W WALNUT RD","geo_precision":"street"},"type":"Feature","geometry":{"type":"Point","coordinates":[-88.058741,43.052745]}},{"properties":{"city":"WAUWATOSA","zip":"53213","geo_score":0.796,"polling location":"LONGFELLOW MIDDLE SCHOOL - WARD 13","id":"a97ornjoq9c3","address":"7600 W NORTH AVE","geo_precision":"range"},"type":"Feature","geometry":{"type":"Point","coordinates":[-88.012475,43.060672]}},{"properties":{"city":"WAUWATOSA","zip":"53226","geo_score":0.534,"polling location":"CURRIE PARK CLUB HOUSE - WARD 22","id":"a97orn6iww4n","address":"3535 N MAYFAIR ROAD","geo_precision":"street"},"type":"Feature","geometry":{"type":"Point","coordinates":[-88.047807,43.06745]}},{"properties":{"city":"MILWAUKEE","zip":"53215","geo_score":0.883,"polling location":"Modrzejewski Playground Fieldhouse","id":"a97orn8qyb1a","address":"1020 W Cleveland Av","geo_precision":"range"},"type":"Feature","geometry":{"type":"Point","coordinates":[-87.925944,42.995624]}},{"properties":{"city":"MILWAUKEE","zip":"53207","geo_score":0.876,"polling location":"UMOS","id":"a97orn6ibtra","address":"2701 S Chase Av","geo_precision":"range"},"type":"Feature","geometry":{"type":"Point","coordinates":[-87.911292,42.994414]}}],"is_temporal":false,"author":{"url":"","metadata":"","contact_name":"","contact_address":"","source":"","contact_phone":""},"source":"","pagination":{"sort":null,"start":0,"total":247,"limit":1000000},"state":"complete","tags":"","published":"2014-08-14T18:35:37-04:00","id":283168}