{"type":"FeatureCollection","data_type":"Dataset","url_type":null,"permissions":[{"permissions":{"download":true,"view":true},"group_id":"everyone"}],"classification":null,"title":"INMIOHatttowersMAP","count":510,"stream_id":283619,"contributor":{"url":"http://geocommons.com/users/12008","name":"pantheon"},"data_attributes":null,"calculation_params":null,"icon_link":null,"link":"http://geocommons.com/overlays/283619.json","extent":[-86.5033,38.4452,-80.5284,42.1848],"geometry_types":["point"],"unique_name":null,"name":"INMIOHatttowersMAP","feature_count":510,"description":"","next_feature":null,"is_raster":false,"short_classification":"Y","stats":{"latitude":{"max":42.18481064,"variance":0.561364325802232,"mean":40.7616864371176,"stdev":0.749242501332,"min":38.44517899,"median":40.86943817},"fa":{"max":11583428,"variance":8036374757.6543,"mean":10096540.8176471,"stdev":89645.8295608574,"min":10011632,"median":10096738},"lata":{"max":937,"variance":62078.3011864867,"mean":459.813725490196,"stdev":249.155174914122,"min":320,"median":326},"longitude":{"max":-80.52835846,"variance":2.05847273333838,"mean":-83.0616962208431,"stdev":1.43473786223769,"min":-86.50332642,"median":-82.95870972}},"features":[{"properties":{"city":"BERNE","zip":"46711","latitude":40.66360855,"county":"ADAMS","fa":10144265,"lata":334,"longitude":-84.94777679,"id":"a996l88f1btc","address":"802 WELTY STREET","swc":"BERNINXA","state":"IN"},"type":"Feature","geometry":{"type":"Point","coordinates":[-84.94777679,40.66360855]}},{"properties":{"city":"DECATUR","zip":"46733","latitude":40.83166885,"county":"ADAMS","fa":10144840,"lata":334,"longitude":-84.92527771,"id":"a996l8fv9nql","address":"216 NORTH 3RD STREET","swc":"DCTRINXA","state":"IN"},"type":"Feature","geometry":{"type":"Point","coordinates":[-84.92527771,40.83166885]}},{"properties":{"city":"AUBURN","zip":"46706","latitude":41.26560974,"county":"ALLEN","fa":10095615,"lata":334,"longitude":-85.07636261,"id":"a996l8d7io8r","address":"5606 NORTH COUNTY LINE ROAD EAST","swc":"LEO INXA","state":"IN"},"type":"Feature","geometry":{"type":"Point","coordinates":[-85.07636261,41.26560974]}},{"properties":{"city":"GRABILL","zip":"46741","latitude":41.22029877,"county":"ALLEN","fa":10146196,"lata":334,"longitude":-84.96099854,"id":"a996l8h42v2k","address":"14002-E ROTH ROAD","swc":"LEO INXA","state":"IN"},"type":"Feature","geometry":{"type":"Point","coordinates":[-84.96099854,41.22029877]}},{"properties":{"city":"HARLAN","zip":"46743","latitude":41.20557022,"county":"ALLEN","fa":10102523,"lata":334,"longitude":-84.90583801,"id":"a996l8imxuv8","address":"18629 STATE ROAD 37","swc":"HRLNINXA","state":"IN"},"type":"Feature","geometry":{"type":"Point","coordinates":[-84.90583801,41.20557022]}},{"properties":{"city":"GEORGETOWN","zip":"46743","latitude":41.22526169,"county":"ALLEN","fa":10102594,"lata":334,"longitude":-84.87303162,"id":"a996l8hw0wxz","address":"21234 SPRINGFIELD CENTER ROAD","swc":"HRLNINXA","state":"IN"},"type":"Feature","geometry":{"type":"Point","coordinates":[-84.87303162,41.22526169]}},{"properties":{"city":"HOAGLAND","zip":"46745","latitude":40.94380951,"county":"ALLEN","fa":10095593,"lata":334,"longitude":-85.06036377,"id":"a996l8femmoz","address":"SOMERS ROAD AND HIGHWAY 27","swc":"POE INXA","state":"IN"},"type":"Feature","geometry":{"type":"Point","coordinates":[-85.06036377,40.94380951]}},{"properties":{"city":"HOAGLAND","zip":"46745","latitude":40.94472122,"county":"ALLEN","fa":10144667,"lata":334,"longitude":-84.97083282,"id":"a996l88q740k","address":"12805-B ADAIR ROAD","swc":"POE INXA","state":"IN"},"type":"Feature","geometry":{"type":"Point","coordinates":[-84.97083282,40.94472122]}},{"properties":{"city":"HUNTERTOWN","zip":"46748","latitude":41.23820877,"county":"ALLEN","fa":10102446,"lata":334,"longitude":-85.09423828,"id":"a996l86hnd4x","address":"16407 NORTH AUBURN ROAD","swc":"HNTWINXA","state":"IN"},"type":"Feature","geometry":{"type":"Point","coordinates":[-85.09423828,41.23820877]}},{"properties":{"city":"HUNTERTOWN","zip":"46748","latitude":41.2388916,"county":"ALLEN","fa":10102588,"lata":334,"longitude":-85.17681122,"id":"a996l8a65lyk","address":"2403 WEST SHOAF ROAD","swc":"HNTWINXA","state":"IN"},"type":"Feature","geometry":{"type":"Point","coordinates":[-85.17681122,41.2388916]}},{"properties":{"city":"LEO","zip":"46765","latitude":41.21699905,"county":"ALLEN","fa":10096761,"lata":334,"longitude":-85.01766968,"id":"a996l8jnupve","address":"14133 STATE ROAD 1","swc":"LEO INXA","state":"IN"},"type":"Feature","geometry":{"type":"Point","coordinates":[-85.01766968,41.21699905]}},{"properties":{"city":"MONROEVILLE","zip":"46773","latitude":41.0194397,"county":"ALLEN","fa":10144526,"lata":334,"longitude":-84.86277771,"id":"a996l889dcv4","address":"7803-B SOUTH STATE ROAD 101","swc":"MOVLINXA","state":"IN"},"type":"Feature","geometry":{"type":"Point","coordinates":[-84.86277771,41.0194397]}},{"properties":{"city":"NEW HAVEN","zip":"46774","latitude":41.11347961,"county":"ALLEN","fa":10102452,"lata":334,"longitude":-84.94346619,"id":"a996l8k2tcdx","address":"15029 EAST US HIGH WAY 24","swc":"NWHNINXA","state":"IN"},"type":"Feature","geometry":{"type":"Point","coordinates":[-84.94346619,41.11347961]}},{"properties":{"city":"NEW HAVEN","zip":"46774","latitude":41.04481888,"county":"ALLEN","fa":10102601,"lata":334,"longitude":-84.93177795,"id":"a996l88vs9j0","address":"16134 LINCOLN HIGHWAY","swc":"NWHNINXA","state":"IN"},"type":"Feature","geometry":{"type":"Point","coordinates":[-84.93177795,41.04481888]}},{"properties":{"city":"ROANOKE","zip":"46783","latitude":40.97917175,"county":"ALLEN","fa":10096737,"lata":334,"longitude":-85.31582642,"id":"a996l8l0tn1a","address":"14017 KRESS ROAD","swc":"RONKINXA","state":"IN"},"type":"Feature","geometry":{"type":"Point","coordinates":[-85.31582642,40.97917175]}},{"properties":{"city":"ROANOKE","zip":"46783","latitude":40.93378067,"county":"ALLEN","fa":10096738,"lata":334,"longitude":-85.30303192,"id":"a996l84zdowu","address":"HAMILTON ROAD","swc":"ZNVLINXA","state":"IN"},"type":"Feature","geometry":{"type":"Point","coordinates":[-85.30303192,40.93378067]}},{"properties":{"city":"WOODBURN","zip":"46797","latitude":41.12472153,"county":"ALLEN","fa":10146132,"lata":334,"longitude":-84.89193726,"id":"a996l8ktjx52","address":"19321-B WOODBURN ROAD","swc":"WDBNINXA","state":"IN"},"type":"Feature","geometry":{"type":"Point","coordinates":[-84.89193726,41.12472153]}},{"properties":{"city":"FORT WAYNE","zip":"46804","latitude":41.07444,"county":"ALLEN","fa":10146108,"lata":332,"longitude":-85.30000305,"id":"a996l8comn5b","address":"12202-A ILLINOIS ROAD","swc":"ARCLINXA","state":"IN"},"type":"Feature","geometry":{"type":"Point","coordinates":[-85.30000305,41.07444]}},{"properties":{"city":"FORT WAYNE","zip":"46808","latitude":41.07389069,"county":"ALLEN","fa":10144786,"lata":334,"longitude":-85.19082642,"id":"a996l8kss1qd","address":"3811 ILLINOIS ROAD","swc":"FTWYINXL","state":"IN"},"type":"Feature","geometry":{"type":"Point","coordinates":[-85.19082642,41.07389069]}},{"properties":{"city":"FORT WAYNE","zip":"46814","latitude":41.0513916,"county":"ALLEN","fa":10144794,"lata":332,"longitude":-85.3272171,"id":"a996l8d2kfl1","address":"HERON PRESERVE TRAIL","swc":"ARCLINXA","state":"IN"},"type":"Feature","geometry":{"type":"Point","coordinates":[-85.3272171,41.0513916]}},{"properties":{"city":"FORT WAYNE","zip":"46818","latitude":41.20780945,"county":"ALLEN","fa":10096734,"lata":334,"longitude":-85.3053894,"id":"a996l8kezz5r","address":"12628 US HIGHWAY 33","swc":"CHRBINXA","state":"IN"},"type":"Feature","geometry":{"type":"Point","coordinates":[-85.3053894,41.20780945]}},{"properties":{"city":"FORT WAYNE","zip":"46818","latitude":41.12968826,"county":"ALLEN","fa":10096736,"lata":332,"longitude":-85.27610779,"id":"a996l862plq2","address":"11119 WASHINGTON CENTER ROAD","swc":"ARCLINXA","state":"IN"},"type":"Feature","geometry":{"type":"Point","coordinates":[-85.27610779,41.12968826]}},{"properties":{"city":"FORT WAYNE","zip":"46818","latitude":41.17110825,"county":"ALLEN","fa":10102487,"lata":334,"longitude":-85.26249695,"id":"a996l870eygz","address":"9222 GOSHEN ROAD","swc":"CHRBINXA","state":"IN"},"type":"Feature","geometry":{"type":"Point","coordinates":[-85.26249695,41.17110825]}},{"properties":{"city":"FORT WAYNE","zip":"46845","latitude":41.20038986,"county":"ALLEN","fa":10102524,"lata":334,"longitude":-85.04131317,"id":"a996l85kpses","address":"7618 UNION CHAPEL ROAD","swc":"LEO INXA","state":"IN"},"type":"Feature","geometry":{"type":"Point","coordinates":[-85.04131317,41.20038986]}},{"properties":{"city":"FORT WAYNE","zip":"46805","latitude":41.1176796,"county":"ALLEN","fa":10553497,"lata":334,"longitude":-85.13642883,"id":"a996l8a34x4y","address":"4201 COLDWATER RD","swc":"FTWYINXF","state":"IN"},"type":"Feature","geometry":{"type":"Point","coordinates":[-85.13642883,41.1176796]}},{"properties":{"city":"AUBURN","zip":"46706","latitude":41.35411835,"county":"DEKALB","fa":10144757,"lata":334,"longitude":-85.1166687,"id":"a996l8cmpgsa","address":"414 NORTH TAYLOR ROAD","swc":"GRRTINXA","state":"IN"},"type":"Feature","geometry":{"type":"Point","coordinates":[-85.1166687,41.35411835]}},{"properties":{"city":"ALBION","zip":"46721","latitude":41.36722183,"county":"DEKALB","fa":10144232,"lata":334,"longitude":-85.4227829,"id":"a996l8ganep9","address":"1626 WEST 100 NORTH ALBION","swc":"BTLRINXA","state":"IN"},"type":"Feature","geometry":{"type":"Point","coordinates":[-85.4227829,41.36722183]}},{"properties":{"city":"CORUNNA","zip":"46730","latitude":41.44055939,"county":"DEKALB","fa":10146218,"lata":334,"longitude":-85.14556122,"id":"a996l8b8k8ol","address":"2427-B COUNTY ROAD 9","swc":"CRNNINXA","state":"IN"},"type":"Feature","geometry":{"type":"Point","coordinates":[-85.14556122,41.44055939]}},{"properties":{"city":"GARRETT","zip":"46738","latitude":41.32389069,"county":"DEKALB","fa":10102605,"lata":334,"longitude":-85.11250305,"id":"a996l86ybf61","address":"1727 COUNTY ROAD 56","swc":"GRRTINXA","state":"IN"},"type":"Feature","geometry":{"type":"Point","coordinates":[-85.11250305,41.32389069]}},{"properties":{"city":"WATERLOO","zip":"46793","latitude":41.43630981,"county":"DEKALB","fa":10096764,"lata":334,"longitude":-85.04438782,"id":"a996l85dia96","address":"200 EXECUTIVE DRIVE","swc":"WTRLINXA","state":"IN"},"type":"Feature","geometry":{"type":"Point","coordinates":[-85.04438782,41.43630981]}},{"properties":{"city":"WATERLOO","zip":"46793","latitude":41.49158096,"county":"DEKALB","fa":10102606,"lata":334,"longitude":-85.05084991,"id":"a996l8ekxqh9","address":"2991 COUNTY ROAD 10","swc":"ASHYINXA","state":"IN"},"type":"Feature","geometry":{"type":"Point","coordinates":[-85.05084991,41.49158096]}},{"properties":{"city":"FAIRMOUNT","zip":"46928","latitude":40.41989136,"county":"GRANT","fa":10102509,"lata":336,"longitude":-85.78031158,"id":"a996l8jt7fot","address":"5731 COUNTY ROAD 900 WEST","swc":"SWYZINXA","state":"IN"},"type":"Feature","geometry":{"type":"Point","coordinates":[-85.78031158,40.41989136]}},{"properties":{"city":"FAIRMOUNT","zip":"46928","latitude":40.42610931,"county":"GRANT","fa":10144819,"lata":336,"longitude":-85.67166901,"id":"a996l85ctiqv","address":"8719 SOUTH (EOOW) STATE ROUTE 9","swc":"FAMTINXA","state":"IN"},"type":"Feature","geometry":{"type":"Point","coordinates":[-85.67166901,40.42610931]}},{"properties":{"city":"SWAYZEE","zip":"46986","latitude":40.47888947,"county":"GRANT","fa":10144353,"lata":336,"longitude":-85.82055664,"id":"a996l8jrm5kv","address":"7777 WEST 500 SOUTH","swc":"SWYZINXA","state":"IN"},"type":"Feature","geometry":{"type":"Point","coordinates":[-85.82055664,40.47888947]}},{"properties":{"city":"SWEETSER","zip":"46987","latitude":40.57221985,"county":"GRANT","fa":10144354,"lata":336,"longitude":-85.7694397,"id":"a996l8cmy209","address":"104 WEST DELPHI PIKE","swc":"SWTSINXA","state":"IN"},"type":"Feature","geometry":{"type":"Point","coordinates":[-85.7694397,40.57221985]}},{"properties":{"city":"VAN BUREN","zip":"46991","latitude":40.61639023,"county":"GRANT","fa":10023765,"lata":336,"longitude":-85.52999878,"id":"a996l862cnfo","address":"7900 EA 450 NORTH","swc":"VNBRINXA","state":"IN"},"type":"Feature","geometry":{"type":"Point","coordinates":[-85.52999878,40.61639023]}},{"properties":{"city":"HUNTINGTON","zip":"46750","latitude":40.81081009,"county":"HUNTINGTON","fa":10095611,"lata":334,"longitude":-85.39472198,"id":"a996l8hcwjp5","address":"1236 SOUTH 300 EAST","swc":"RSVRINXA","state":"IN"},"type":"Feature","geometry":{"type":"Point","coordinates":[-85.39472198,40.81081009]}},{"properties":{"city":"HUNTINGTON","zip":"46750","latitude":40.88938904,"county":"HUNTINGTON","fa":10096768,"lata":334,"longitude":-85.34488678,"id":"a996l8bn47d0","address":"1001 COUNTY ROAD 400 NORTH","swc":"TBD","state":"IN"},"type":"Feature","geometry":{"type":"Point","coordinates":[-85.34488678,40.88938904]}},{"properties":{"city":"HUNTINGTON","zip":"46750","latitude":40.89461136,"county":"HUNTINGTON","fa":10102464,"lata":334,"longitude":-85.44677734,"id":"a996l8jbdpm9","address":"4675 EAST HIGHWAY 24","swc":"HNTNIN01","state":"IN"},"type":"Feature","geometry":{"type":"Point","coordinates":[-85.44677734,40.89461136]}},{"properties":{"city":"HUNTINGTON","zip":"46750","latitude":41.00194168,"county":"HUNTINGTON","fa":10144632,"lata":334,"longitude":-85.47083282,"id":"a996l8jubu9k","address":"11805-B NORTH 100 WEST","swc":"BPPSINXA","state":"IN"},"type":"Feature","geometry":{"type":"Point","coordinates":[-85.47083282,41.00194168]}},{"properties":{"city":"ROANOKE","zip":"46783","latitude":40.94369888,"county":"HUNTINGTON","fa":10144411,"lata":334,"longitude":-85.34400177,"id":"a996l8khmtzi","address":"5883 EAST STATION ROAD","swc":"RONKINXA","state":"IN"},"type":"Feature","geometry":{"type":"Point","coordinates":[-85.34400177,40.94369888]}},{"properties":{"city":"ROANOKE","zip":"46783","latitude":40.95999908,"county":"HUNTINGTON","fa":10144412,"lata":334,"longitude":-85.38166809,"id":"a996l87zdn4i","address":"489-A WEST VINE STREET","swc":"RONKINXA","state":"IN"},"type":"Feature","geometry":{"type":"Point","coordinates":[-85.38166809,40.95999908]}},{"properties":{"city":"WARREN","zip":"46792","latitude":40.72668839,"county":"HUNTINGTON","fa":10096741,"lata":334,"longitude":-85.43025208,"id":"a996l8cfdi7k","address":"COUNTY ROAD 700 SOUTH","swc":"WRRNINXA","state":"IN"},"type":"Feature","geometry":{"type":"Point","coordinates":[-85.43025208,40.72668839]}},{"properties":{"city":"WARREN","zip":"46792","latitude":40.66471863,"county":"HUNTINGTON","fa":10096742,"lata":334,"longitude":-85.51083374,"id":"a996l89n5t5d","address":"11190 SOUTH 300 WEST","swc":"WRRNINXA","state":"IN"},"type":"Feature","geometry":{"type":"Point","coordinates":[-85.51083374,40.66471863]}},{"properties":{"city":"ALBION","zip":"46792","latitude":41.40666962,"county":"HUNTINGTON","fa":10144339,"lata":334,"longitude":-85.41667175,"id":"a996l8gdi0mr","address":"728 EAST 400 NORTH","swc":"WRRNINXA","state":"IN"},"type":"Feature","geometry":{"type":"Point","coordinates":[-85.41667175,41.40666962]}},{"properties":{"city":"WAWAKA","zip":"46792","latitude":41.44499969,"county":"HUNTINGTON","fa":10144687,"lata":334,"longitude":-85.52278137,"id":"a996l8asru7n","address":"6492 NORTH 525 WEST","swc":"RSVRINXA","state":"IN"},"type":"Feature","geometry":{"type":"Point","coordinates":[-85.52278137,41.44499969]}},{"properties":{"city":"FARMLAND","zip":"47371","latitude":40.17778015,"county":"JAY","fa":10144450,"lata":334,"longitude":-85.13056183,"id":"a996l89m2afj","address":"116 HUNTINGTON AVENUE","swc":"PTLDINXA","state":"IN"},"type":"Feature","geometry":{"type":"Point","coordinates":[-85.13056183,40.17778015]}},{"properties":{"city":"LIBERTY","zip":"47371","latitude":39.64389038,"county":"JAY","fa":10144451,"lata":334,"longitude":-84.92694092,"id":"a996l854adie","address":"1764 NORTH MARKET STREET","swc":"PNVLINXA","state":"IN"},"type":"Feature","geometry":{"type":"Point","coordinates":[-84.92694092,39.64389038]}},{"properties":{"city":"CONNERSVILLE","zip":"47373","latitude":39.64139175,"county":"JAY","fa":10144458,"lata":937,"longitude":-85.14666748,"id":"a996l8f5p6mz","address":"406 OAK STREET","swc":"RDKYINXA","state":"IN"},"type":"Feature","geometry":{"type":"Point","coordinates":[-85.14666748,39.64139175]}},{"properties":{"city":"BROOKVILLE","zip":"47340","latitude":39.38750076,"county":"RANDOLPH","fa":10144821,"lata":937,"longitude":-85.0083313,"id":"a996l8kmj75o","address":"6055 LOOKOUT ROAD","swc":"FMLDINXA","state":"IN"},"type":"Feature","geometry":{"type":"Point","coordinates":[-85.0083313,39.38750076]}},{"properties":{"city":"PERSHING","zip":"47355","latitude":39.43806076,"county":"RANDOLPH","fa":10144554,"lata":937,"longitude":-85.03083038,"id":"a996l8bp3tit","address":"12085 US 52","swc":"LYNNINXA","state":"IN"},"type":"Feature","geometry":{"type":"Point","coordinates":[-85.03083038,39.43806076]}},{"properties":{"city":"PARKER CITY","zip":"47368","latitude":40.19472122,"county":"RANDOLPH","fa":10095482,"lata":937,"longitude":-85.18728638,"id":"a996l889zq6o","address":"11080 WEST STATE ROAD 32","swc":"FMLDINXA","state":"IN"},"type":"Feature","geometry":{"type":"Point","coordinates":[-85.18728638,40.19472122]}},{"properties":{"city":"BROOKVILLE","zip":"47394","latitude":39.49694061,"county":"RANDOLPH","fa":10144303,"lata":937,"longitude":-85.05610657,"id":"a996l8jyu7n4","address":"14050 BENTLEY RD","swc":"WNCHINXA","state":"IN"},"type":"Feature","geometry":{"type":"Point","coordinates":[-85.05610657,39.49694061]}},{"properties":{"city":"MARKLE","zip":"46770","latitude":40.84032822,"county":"WELLS","fa":10102511,"lata":334,"longitude":-85.33522797,"id":"a996l8bafr7m","address":"6631 NORTH 600 WEST","swc":"MRKLINXA","state":"IN"},"type":"Feature","geometry":{"type":"Point","coordinates":[-85.33522797,40.84032822]}},{"properties":{"city":"OSSIAN","zip":"46777","latitude":40.86943817,"county":"WELLS","fa":10144483,"lata":334,"longitude":-85.17221832,"id":"a996l864le72","address":"1201 BAKER DRIVE EXTENDED","swc":"OSSIINXA","state":"IN"},"type":"Feature","geometry":{"type":"Point","coordinates":[-85.17221832,40.86943817]}},{"properties":{"city":"NEW PARIS","zip":"46723","latitude":41.46389008,"county":"WHITLEY","fa":10108594,"lata":334,"longitude":-85.82277679,"id":"a996l8e4u253","address":"71225-2 COUNTY ROAD 123","swc":"CHRBINXA","state":"IN"},"type":"Feature","geometry":{"type":"Point","coordinates":[-85.82277679,41.46389008]}},{"properties":{"city":"COLUMBIA CITY","zip":"46725","latitude":41.16761017,"county":"WHITLEY","fa":10096728,"lata":332,"longitude":-85.59346771,"id":"a996l8czvfnu","address":"5382 WEST OLD TRAIL ROAD","swc":"CBCYINXA","state":"IN"},"type":"Feature","geometry":{"type":"Point","coordinates":[-85.59346771,41.16761017]}},{"properties":{"city":"COLUMBIA CITY","zip":"46725","latitude":41.12628174,"county":"WHITLEY","fa":10096733,"lata":332,"longitude":-85.36891937,"id":"a996l8fohyhf","address":"7390 EAST US 30","swc":"CBCYINXA","state":"IN"},"type":"Feature","geometry":{"type":"Point","coordinates":[-85.36891937,41.12628174]}},{"properties":{"city":"COLUMBIA CITY","zip":"46725","latitude":41.19458008,"county":"WHITLEY","fa":10102461,"lata":332,"longitude":-85.38337708,"id":"a996l89v4r02","address":"2050 NORTH 550 EAST","swc":"CBCYINXA","state":"IN"},"type":"Feature","geometry":{"type":"Point","coordinates":[-85.38337708,41.19458008]}},{"properties":{"city":"COLUMBIA CITY","zip":"46725","latitude":41.15193939,"county":"WHITLEY","fa":10144715,"lata":332,"longitude":-85.49500275,"id":"a996l8d4pm8l","address":"412 WEST DIAMOND STREET","swc":"CBCYINXA","state":"IN"},"type":"Feature","geometry":{"type":"Point","coordinates":[-85.49500275,41.15193939]}},{"properties":{"city":"CHURUBUSCO","zip":"46725","latitude":41.24861145,"county":"WHITLEY","fa":10144716,"lata":332,"longitude":-85.32250214,"id":"a996l8jzll80","address":"500 WESTON AVENUE","swc":"TRILINXA","state":"IN"},"type":"Feature","geometry":{"type":"Point","coordinates":[-85.32250214,41.24861145]}},{"properties":{"city":"COLUMBIA CITY","zip":"46725","latitude":41.16860962,"county":"WHITLEY","fa":10144827,"lata":332,"longitude":-85.49610901,"id":"a996l895ikya","address":"733 NORTH OAK STREET","swc":"CBCYINXA","state":"IN"},"type":"Feature","geometry":{"type":"Point","coordinates":[-85.49610901,41.16860962]}},{"properties":{"city":"LARWILL","zip":"46764","latitude":41.17972183,"county":"WHITLEY","fa":10144593,"lata":332,"longitude":-85.63249969,"id":"a996l8ewn3b2","address":"7362 WEST OLD TRAIL ROAD","swc":"LRWLINXA","state":"IN"},"type":"Feature","geometry":{"type":"Point","coordinates":[-85.63249969,41.17972183]}},{"properties":{"city":"SOUTH WHITLEY","zip":"46787","latitude":41.07444,"county":"WHITLEY","fa":10144393,"lata":332,"longitude":-85.61250305,"id":"a996l8ax1ys2","address":"6329 WEST STATE ROAD 14","swc":"SWHTINXA","state":"IN"},"type":"Feature","geometry":{"type":"Point","coordinates":[-85.61250305,41.07444]}},{"properties":{"city":"JEROME","zip":"49232","latitude":42.05278015,"county":"HILLSDALE","fa":10146366,"lata":346,"longitude":-84.46221924,"id":"a996l88yzf6o","address":"9960 WEST CHICAGO ROAD","swc":"CMDNMIXI","state":"MI"},"type":"Feature","geometry":{"type":"Point","coordinates":[-84.46221924,42.05278015]}},{"properties":{"city":"JONESVILLE","zip":"49249","latitude":41.94749832,"county":"HILLSDALE","fa":10144645,"lata":346,"longitude":-84.8208313,"id":"a996l88vzddj","address":"10711 1/2 WEST CHICAGO ROAD","swc":"BNHLMIXI","state":"MI"},"type":"Feature","geometry":{"type":"Point","coordinates":[-84.8208313,41.94749832]}},{"properties":{"city":"SCOTTS","zip":"49250","latitude":42.18481064,"county":"HILLSDALE","fa":10144277,"lata":346,"longitude":-85.42056274,"id":"a996l8b14ek2","address":"EAST R AVENUE","swc":"ALLNMIXI","state":"MI"},"type":"Feature","geometry":{"type":"Point","coordinates":[-85.42056274,42.18481064]}},{"properties":{"city":"MANITOU BEACH","zip":"49252","latitude":41.93690109,"county":"HILLSDALE","fa":10144602,"lata":346,"longitude":-84.2460022,"id":"a996l8e4frtl","address":"3760 SKINNER HIGHWAY","swc":"LTFDMIXJ","state":"MI"},"type":"Feature","geometry":{"type":"Point","coordinates":[-84.2460022,41.93690109]}},{"properties":{"city":"CEMENT CITY","zip":"49274","latitude":42.07328033,"county":"HILLSDALE","fa":10144457,"lata":346,"longitude":-84.36016846,"id":"a996l888o165","address":"18801 VICARY ROAD","swc":"RDNGMIXG","state":"MI"},"type":"Feature","geometry":{"type":"Point","coordinates":[-84.36016846,42.07328033]}},{"properties":{"city":"JEROME","zip":"49282","latitude":42.04027939,"county":"HILLSDALE","fa":10107805,"lata":346,"longitude":-84.55610657,"id":"a996l87y012t","address":"9782 1/2 BROWN ROAD","swc":"BNHLMIXI","state":"MI"},"type":"Feature","geometry":{"type":"Point","coordinates":[-84.55610657,42.04027939]}},{"properties":{"city":"HUDSON","zip":"49220","latitude":41.8533287,"county":"LENAWEE","fa":10107804,"lata":346,"longitude":-84.36528015,"id":"a996l8cdb9z0","address":"5154 1/2 SOUTH MERIDIAN ROAD","swc":"ADSNMIXI","state":"MI"},"type":"Feature","geometry":{"type":"Point","coordinates":[-84.36528015,41.8533287]}},{"properties":{"city":"GALIEN","zip":"49233","latitude":41.8013916,"county":"LENAWEE","fa":10107772,"lata":346,"longitude":-86.50332642,"id":"a996l8jx6oyq","address":"207 WEST SOUTHEASTERN","swc":"BRKLMIXI","state":"MI"},"type":"Feature","geometry":{"type":"Point","coordinates":[-86.50332642,41.8013916]}},{"properties":{"city":"DOWAGIAC","zip":"49256","latitude":41.98611069,"county":"LENAWEE","fa":10144531,"lata":326,"longitude":-86.04499817,"id":"a996l8dxki4f","address":"24811 DUTCH SETTLEMENT ROAD","swc":"CHFDOHXA","state":"MI"},"type":"Feature","geometry":{"type":"Point","coordinates":[-86.04499817,41.98611069]}},{"properties":{"city":"ONSTED","zip":"49265","latitude":42.02524185,"county":"LENAWEE","fa":10107801,"lata":340,"longitude":-84.17411804,"id":"a996l89g3eg9","address":"9000 SPRINGVILLE","swc":"ONSTMIXI","state":"MI"},"type":"Feature","geometry":{"type":"Point","coordinates":[-84.17411804,42.02524185]}},{"properties":{"city":"ONSTED","zip":"49265","latitude":42.06077957,"county":"LENAWEE","fa":10107886,"lata":340,"longitude":-84.15036011,"id":"a996l8g14rx1","address":"7909 INDIAN TRAIL ROAD","swc":"ONSTMIXI","state":"MI"},"type":"Feature","geometry":{"type":"Point","coordinates":[-84.15036011,42.06077957]}},{"properties":{"city":"TIPTON","zip":"49287","latitude":42.01388931,"county":"LENAWEE","fa":10107800,"lata":340,"longitude":-84.10388947,"id":"a996l8azzuxj","address":"9028 ELTON HIGHWAY","swc":"TPTNMIXG","state":"MI"},"type":"Feature","geometry":{"type":"Point","coordinates":[-84.10388947,42.01388931]}},{"properties":{"city":"TEMPERANCE","zip":"48182","latitude":41.80440903,"county":"MONROE","fa":10147144,"lata":340,"longitude":-83.63185883,"id":"a996l8kzppk2","address":"10483 SECOR ROAD","swc":"LMVLMIXI","state":"MI"},"type":"Feature","geometry":{"type":"Point","coordinates":[-83.63185883,41.80440903]}},{"properties":{"city":"PETERSBURG","zip":"49270","latitude":41.92139053,"county":"MONROE","fa":10076084,"lata":340,"longitude":-83.66340637,"id":"a996l8dsv909","address":"15583 DUNBAR","swc":"PTBGMIXJ","state":"MI"},"type":"Feature","geometry":{"type":"Point","coordinates":[-83.66340637,41.92139053]}},{"properties":{"city":"PETERSBURG","zip":"49270","latitude":41.90200043,"county":"MONROE","fa":10141228,"lata":340,"longitude":-83.71253204,"id":"a996l8aqbt2h","address":"87 RAILROAD ST","swc":"PTBGMIXJ","state":"MI"},"type":"Feature","geometry":{"type":"Point","coordinates":[-83.71253204,41.90200043]}},{"properties":{"city":"PEEBLES","zip":"45660","latitude":38.97980118,"county":"ADAMS","fa":10066408,"lata":328,"longitude":-83.39201355,"id":"a996l856fxou","address":"2107 CEMETERY ROAD","swc":"PBLSOHXA","state":"OH"},"type":"Feature","geometry":{"type":"Point","coordinates":[-83.39201355,38.97980118]}},{"properties":{"city":"WEST UNION","zip":"45693","latitude":38.78686142,"county":"ADAMS","fa":10029036,"lata":328,"longitude":-83.55020905,"id":"a996l8jqk56y","address":"4999 PUMPKIN RIDGE ROAD","swc":"WUNNOHXA","state":"OH"},"type":"Feature","geometry":{"type":"Point","coordinates":[-83.55020905,38.78686142]}},{"properties":{"city":"WINCHESTER","zip":"45697","latitude":38.93555832,"county":"ADAMS","fa":10011845,"lata":328,"longitude":-83.61377716,"id":"a996l8ho91cc","address":"639 REED ROAD","swc":"SEMNOHXA","state":"OH"},"type":"Feature","geometry":{"type":"Point","coordinates":[-83.61377716,38.93555832]}},{"properties":{"city":"LIMA","zip":"45801","latitude":40.7885704,"county":"ALLEN","fa":10083283,"lata":923,"longitude":-84.0406189,"id":"a996l8gdy3kj","address":"3550 EAST BLUELICK ROAD","swc":"LIMAOHXA","state":"OH"},"type":"Feature","geometry":{"type":"Point","coordinates":[-84.0406189,40.7885704]}},{"properties":{"city":"LIMA","zip":"45801","latitude":40.7836113,"county":"ALLEN","fa":10107692,"lata":923,"longitude":-84.12361145,"id":"a996l8eto38l","address":"3226 COLE STREET","swc":"LIMAOHXA","state":"OH"},"type":"Feature","geometry":{"type":"Point","coordinates":[-84.12361145,40.7836113]}},{"properties":{"city":"LIMA","zip":"45801","latitude":40.7388916,"county":"ALLEN","fa":10107870,"lata":923,"longitude":-84.10739136,"id":"a996l8bxcbpg","address":"122 SOUTH ELIZABETH STREET","swc":"LIMAOHXA","state":"OH"},"type":"Feature","geometry":{"type":"Point","coordinates":[-84.10739136,40.7388916]}},{"properties":{"city":"LIMA","zip":"45804","latitude":40.70145035,"county":"ALLEN","fa":10083281,"lata":923,"longitude":-84.10669708,"id":"a996l8ghqlpx","address":"205 WEST HANTON ROAD","swc":"LIMAOHXA","state":"OH"},"type":"Feature","geometry":{"type":"Point","coordinates":[-84.10669708,40.70145035]}},{"properties":{"city":"LIMA","zip":"45804","latitude":40.7163887,"county":"ALLEN","fa":10144601,"lata":923,"longitude":-84.07694244,"id":"a996l8jxcz4q","address":"1812 EAST 4TH STREET","swc":"LIMAOHXA","state":"OH"},"type":"Feature","geometry":{"type":"Point","coordinates":[-84.07694244,40.7163887]}},{"properties":{"city":"LIMA","zip":"45805","latitude":40.75638962,"county":"ALLEN","fa":10108269,"lata":923,"longitude":-84.1297226,"id":"a996l8j0b82z","address":"1460 ROSEDALE AVENUE","swc":"LIMAOHXA","state":"OH"},"type":"Feature","geometry":{"type":"Point","coordinates":[-84.1297226,40.75638962]}},{"properties":{"city":"LIMA","zip":"45806","latitude":40.7009697,"county":"ALLEN","fa":10106762,"lata":923,"longitude":-84.14971924,"id":"a996l8fz6ptx","address":"2800 BLUE JACKET COURT","swc":"LIMAOHXB","state":"OH"},"type":"Feature","geometry":{"type":"Point","coordinates":[-84.14971924,40.7009697]}},{"properties":{"city":"LIMA","zip":"45806","latitude":40.70389175,"county":"ALLEN","fa":10108254,"lata":923,"longitude":-84.23722076,"id":"a996l8f57bp8","address":"2479 COON ROAD","swc":"LIMAOHXB","state":"OH"},"type":"Feature","geometry":{"type":"Point","coordinates":[-84.23722076,40.70389175]}},{"properties":{"city":"LIMA","zip":"45807","latitude":40.84944153,"county":"ALLEN","fa":10108267,"lata":923,"longitude":-84.0819397,"id":"a996l87kylhm","address":"7580 OTTAWA ROAD","swc":"CARAOHXA","state":"OH"},"type":"Feature","geometry":{"type":"Point","coordinates":[-84.0819397,40.84944153]}},{"properties":{"city":"LIMA","zip":"45807","latitude":40.77111053,"county":"ALLEN","fa":10108268,"lata":923,"longitude":-84.20777893,"id":"a996l8gao1q6","address":"5591 NESBITT ROAD","swc":"ELIDOHXA","state":"OH"},"type":"Feature","geometry":{"type":"Point","coordinates":[-84.20777893,40.77111053]}},{"properties":{"city":"BLUFFTON","zip":"45817","latitude":40.89778137,"county":"ALLEN","fa":10083279,"lata":923,"longitude":-83.88188934,"id":"a996l8hjc2ey","address":"210 LAKE STREET","swc":"BFTNOHXA","state":"OH"},"type":"Feature","geometry":{"type":"Point","coordinates":[-83.88188934,40.89778137]}},{"properties":{"city":"BLUFFTON","zip":"45817","latitude":40.8370018,"county":"ALLEN","fa":10083280,"lata":923,"longitude":-83.96948242,"id":"a996l8c8nyb2","address":"6805 NORTH DIXIE HIGHWAY","swc":"BVRDOHXA","state":"OH"},"type":"Feature","geometry":{"type":"Point","coordinates":[-83.96948242,40.8370018]}},{"properties":{"city":"DELPHOS","zip":"45833","latitude":40.83779144,"county":"ALLEN","fa":10144848,"lata":923,"longitude":-84.36119843,"id":"a996l8hmube4","address":"23913 STATE ROUTE 697","swc":"DLPHOHXA","state":"OH"},"type":"Feature","geometry":{"type":"Point","coordinates":[-84.36119843,40.83779144]}},{"properties":{"city":"DELPHOS","zip":"45833","latitude":40.85889053,"county":"ALLEN","fa":10144849,"lata":923,"longitude":-84.32250214,"id":"a996l8fbmeiv","address":"1701 GRESSEL DRIVE","swc":"DLPHOHXA","state":"OH"},"type":"Feature","geometry":{"type":"Point","coordinates":[-84.32250214,40.85889053]}},{"properties":{"city":"HARROD","zip":"45850","latitude":40.77138901,"county":"ALLEN","fa":10107693,"lata":923,"longitude":-83.96389008,"id":"a996l8eiyvyh","address":"2370 NORTH NAPOLEON ROAD","swc":"LFYTOHXA","state":"OH"},"type":"Feature","geometry":{"type":"Point","coordinates":[-83.96389008,40.77138901]}},{"properties":{"city":"HARROD","zip":"45850","latitude":40.72555923,"county":"ALLEN","fa":10108265,"lata":923,"longitude":-83.93000031,"id":"a996l8bqhf1j","address":"1075 NAPOLEON ROAD","swc":"WMNSOHXA","state":"OH"},"type":"Feature","geometry":{"type":"Point","coordinates":[-83.93000031,40.72555923]}},{"properties":{"city":"SPENCERVILLE","zip":"45887","latitude":40.73688126,"county":"ALLEN","fa":10146808,"lata":923,"longitude":-84.33805084,"id":"a996l870lh7x","address":"9394 STATE ROUTE 81","swc":"SNVLOHXA","state":"OH"},"type":"Feature","geometry":{"type":"Point","coordinates":[-84.33805084,40.73688126]}},{"properties":{"city":"WEST SALEM","zip":"44287","latitude":40.93542099,"county":"ASHLAND","fa":10012296,"lata":326,"longitude":-82.15286255,"id":"a996l890bcnp","address":"852 TOWNSHIP ROAD 133","swc":"RDHWOHXB","state":"OH"},"type":"Feature","geometry":{"type":"Point","coordinates":[-82.15286255,40.93542099]}},{"properties":{"city":"WEST SALEM","zip":"44287","latitude":40.9119606,"county":"ASHLAND","fa":10077518,"lata":326,"longitude":-82.14260864,"id":"a996l89p5ww1","address":"69 STATE ROAD 604","swc":"RDHWOHXB","state":"OH"},"type":"Feature","geometry":{"type":"Point","coordinates":[-82.14260864,40.9119606]}},{"properties":{"city":"ASHLAND","zip":"44805","latitude":40.78668976,"county":"ASHLAND","fa":10077509,"lata":326,"longitude":-82.33622742,"id":"a996l8h8tc9h","address":"1879 COUNTY ROAD 1095","swc":"HYVLOHXA","state":"OH"},"type":"Feature","geometry":{"type":"Point","coordinates":[-82.33622742,40.78668976]}},{"properties":{"city":"ASHLAND","zip":"44805","latitude":40.81668854,"county":"ASHLAND","fa":10077510,"lata":326,"longitude":-82.34983826,"id":"a996l8bxhd0a","address":"1688 TOWNSHIP ROAD 1153","swc":"ASLDOHXB","state":"OH"},"type":"Feature","geometry":{"type":"Point","coordinates":[-82.34983826,40.81668854]}},{"properties":{"city":"ASHLAND","zip":"44805","latitude":40.85393906,"county":"ASHLAND","fa":10012958,"lata":326,"longitude":-82.27855682,"id":"a996l8i9w8a9","address":"1432 TWP ROAD 805","swc":"ASLDOHXB","state":"OH"},"type":"Feature","geometry":{"type":"Point","coordinates":[-82.27855682,40.85393906]}},{"properties":{"city":"ASHLAND","zip":"44805","latitude":40.78501892,"county":"ASHLAND","fa":10077508,"lata":326,"longitude":-82.28762054,"id":"a996l8dpms7e","address":"874 TOWNSHIP ROAD 1894","swc":"HYVLOHXA","state":"OH"},"type":"Feature","geometry":{"type":"Point","coordinates":[-82.28762054,40.78501892]}},{"properties":{"city":"ASHLAND","zip":"44805","latitude":40.87084961,"county":"ASHLAND","fa":10077519,"lata":326,"longitude":-82.22177887,"id":"a996l85cy8h4","address":"498 COUNTY ROAD 1302","swc":"ASLDOHXB","state":"OH"},"type":"Feature","geometry":{"type":"Point","coordinates":[-82.22177887,40.87084961]}},{"properties":{"city":"ASHLAND","zip":"44805","latitude":40.83473969,"county":"ASHLAND","fa":10077520,"lata":326,"longitude":-82.29566956,"id":"a996l8gc23jm","address":"1565 STATE ROUTE 511 R-7","swc":"ASLDOHXB","state":"OH"},"type":"Feature","geometry":{"type":"Point","coordinates":[-82.29566956,40.83473969]}},{"properties":{"city":"ASHLAND","zip":"44805","latitude":40.88653183,"county":"ASHLAND","fa":10077652,"lata":326,"longitude":-82.32791901,"id":"a996l862uxju","address":"853 FAULTLESS DRIVE","swc":"ASLDOHXB","state":"OH"},"type":"Feature","geometry":{"type":"Point","coordinates":[-82.32791901,40.88653183]}},{"properties":{"city":"ASHLAND","zip":"44805","latitude":40.86412048,"county":"ASHLAND","fa":10115792,"lata":326,"longitude":-82.35385132,"id":"a996l88re5u8","address":"1156 COUNTY ROAD 1356","swc":"ASLDOHXB","state":"OH"},"type":"Feature","geometry":{"type":"Point","coordinates":[-82.35385132,40.86412048]}},{"properties":{"city":"ASHLAND","zip":"44805","latitude":40.82225418,"county":"ASHLAND","fa":10146809,"lata":326,"longitude":-82.39325714,"id":"a996l8kbw2pm","address":"TBD","swc":"ASLDOHXB","state":"OH"},"type":"Feature","geometry":{"type":"Point","coordinates":[-82.39325714,40.82225418]}},{"properties":{"city":"JEROMESVILLE","zip":"44840","latitude":40.78390884,"county":"ASHLAND","fa":10077662,"lata":326,"longitude":-82.13594818,"id":"a996l88260zg","address":"36 COUNTRY ROAD 1975","swc":"HYVLOHXA","state":"OH"},"type":"Feature","geometry":{"type":"Point","coordinates":[-82.13594818,40.78390884]}},{"properties":{"city":"JEROMESVILLE","zip":"44840","latitude":40.7844696,"county":"ASHLAND","fa":10077663,"lata":326,"longitude":-82.23150635,"id":"a996l85zahre","address":"588 COUNTY ROAD 30A","swc":"HYVLOHXA","state":"OH"},"type":"Feature","geometry":{"type":"Point","coordinates":[-82.23150635,40.7844696]}},{"properties":{"city":"ASHTABULA","zip":"44004","latitude":41.83280182,"county":"ASHTABULA","fa":10015095,"lata":320,"longitude":-80.75330353,"id":"a996l88gu17c","address":"13885 TELEGRAPH","swc":"ASHTOHXA","state":"OH"},"type":"Feature","geometry":{"type":"Point","coordinates":[-80.75330353,41.83280182]}},{"properties":{"city":"SAYBROOK","zip":"44004","latitude":41.79389954,"county":"ASHTABULA","fa":10015097,"lata":320,"longitude":-80.85199738,"id":"a996l8gkmy3e","address":"7247 CENTER ROAD","swc":"ASBGOHXA","state":"OH"},"type":"Feature","geometry":{"type":"Point","coordinates":[-80.85199738,41.79389954]}},{"properties":{"city":"ASHTABULA","zip":"44004","latitude":41.87496185,"county":"ASHTABULA","fa":10037494,"lata":320,"longitude":-80.79602814,"id":"a996l8h30oai","address":"740 WEST 30TH STREET","swc":"ASHTOHXA","state":"OH"},"type":"Feature","geometry":{"type":"Point","coordinates":[-80.79602814,41.87496185]}},{"properties":{"city":"ASHTABULA","zip":"44004","latitude":41.88053131,"county":"ASHTABULA","fa":10037495,"lata":320,"longitude":-80.85643005,"id":"a996l89aq1c6","address":"5038 CARPENTER ROAD","swc":"ASHTOHXC","state":"OH"},"type":"Feature","geometry":{"type":"Point","coordinates":[-80.85643005,41.88053131]}},{"properties":{"city":"ASHTABULA","zip":"44004","latitude":41.82860947,"county":"ASHTABULA","fa":10106792,"lata":320,"longitude":-80.85494232,"id":"a996l8fsp2gu","address":"7639 CENTER ROAD","swc":"ASHTOHXD","state":"OH"},"type":"Feature","geometry":{"type":"Point","coordinates":[-80.85494232,41.82860947]}},{"properties":{"city":"ASHTABULA","zip":"44004","latitude":41.89818954,"county":"ASHTABULA","fa":10106791,"lata":320,"longitude":-80.71996307,"id":"a996l88o7awt","address":"1030 SILL ROAD","swc":"ASHTOHXA","state":"OH"},"type":"Feature","geometry":{"type":"Point","coordinates":[-80.71996307,41.89818954]}},{"properties":{"city":"ASHTABULA","zip":"44005","latitude":41.88729095,"county":"ASHTABULA","fa":10015096,"lata":320,"longitude":-80.77214813,"id":"a996l8etlxbl","address":"2100 STATE ROAD","swc":"ASHTOHXA","state":"OH"},"type":"Feature","geometry":{"type":"Point","coordinates":[-80.77214813,41.88729095]}},{"properties":{"city":"CONNEAUT","zip":"44030","latitude":41.94015884,"county":"ASHTABULA","fa":10015092,"lata":320,"longitude":-80.52835846,"id":"a996l8fb1y87","address":"455 EAST MAIN STREET","swc":"CNNTOHXA","state":"OH"},"type":"Feature","geometry":{"type":"Point","coordinates":[-80.52835846,41.94015884]}},{"properties":{"city":"CONNEAUT","zip":"44030","latitude":41.92102814,"county":"ASHTABULA","fa":10015093,"lata":320,"longitude":-80.57480621,"id":"a996l8abax3d","address":"629 CENTER ROAD","swc":"CNNTOHXA","state":"OH"},"type":"Feature","geometry":{"type":"Point","coordinates":[-80.57480621,41.92102814]}},{"properties":{"city":"DORSET","zip":"44032","latitude":41.65205002,"county":"ASHTABULA","fa":10103736,"lata":320,"longitude":-80.70719147,"id":"a996l8iw7kqk","address":"2177 ALLEN COMP ROAD","swc":"DRSTOHXA","state":"OH"},"type":"Feature","geometry":{"type":"Point","coordinates":[-80.70719147,41.65205002]}},{"properties":{"city":"GENEVA","zip":"44041","latitude":41.76414108,"county":"ASHTABULA","fa":10015100,"lata":320,"longitude":-80.9576416,"id":"a996l8gkd1uh","address":"5585 STATE ROUTE 307","swc":"GENVOHXA","state":"OH"},"type":"Feature","geometry":{"type":"Point","coordinates":[-80.9576416,41.76414108]}},{"properties":{"city":"GENEVA","zip":"44041","latitude":41.82265854,"county":"ASHTABULA","fa":10042710,"lata":320,"longitude":-80.94576263,"id":"a996l86u5sgn","address":"3639 NORTH BROADWAY","swc":"GENVOHXA","state":"OH"},"type":"Feature","geometry":{"type":"Point","coordinates":[-80.94576263,41.82265854]}},{"properties":{"city":"GENEVA","zip":"44041","latitude":41.85538864,"county":"ASHTABULA","fa":10106793,"lata":320,"longitude":-80.97267151,"id":"a996l8kjj4hm","address":"GENEVA STATE PARK/ MARINA PADANARUM ROAD","swc":"GENVOHXA","state":"OH"},"type":"Feature","geometry":{"type":"Point","coordinates":[-80.97267151,41.85538864]}},{"properties":{"city":"JEFFERSON","zip":"44047","latitude":41.71987152,"county":"ASHTABULA","fa":10042960,"lata":322,"longitude":-80.74899292,"id":"a996l869sxf5","address":"1156 STATE ROAD 307 EAST","swc":"JFSAOHXA","state":"OH"},"type":"Feature","geometry":{"type":"Point","coordinates":[-80.74899292,41.71987152]}},{"properties":{"city":"KINGSVILLE","zip":"44048","latitude":41.88169861,"county":"ASHTABULA","fa":10015094,"lata":320,"longitude":-80.6631012,"id":"a996l8djxw5q","address":"3869 FOX ROAD","swc":"KGVLOHXA","state":"OH"},"type":"Feature","geometry":{"type":"Point","coordinates":[-80.6631012,41.88169861]}},{"properties":{"city":"NORTH KINGSVILLE","zip":"44068","latitude":41.92372131,"county":"ASHTABULA","fa":10106790,"lata":320,"longitude":-80.64221191,"id":"a996l8d2ntw1","address":"STATE ROUTE 20 (EAST CENTER STREET)","swc":"CNNTOHXA","state":"OH"},"type":"Feature","geometry":{"type":"Point","coordinates":[-80.64221191,41.92372131]}},{"properties":{"city":"ORWELL","zip":"44076","latitude":41.53604889,"county":"ASHTABULA","fa":10146810,"lata":320,"longitude":-80.8462677,"id":"a996l8jvzmo4","address":"2693 US ROUTE 322","swc":"ORWLOHXA","state":"OH"},"type":"Feature","geometry":{"type":"Point","coordinates":[-80.8462677,41.53604889]}},{"properties":{"city":"WILLIAMSFIELD","zip":"44093","latitude":41.57099915,"county":"ASHTABULA","fa":10103735,"lata":322,"longitude":-80.70865631,"id":"a996l8buo0p8","address":"2166 LINTON ROAD","swc":"ANDVOHXA","state":"OH"},"type":"Feature","geometry":{"type":"Point","coordinates":[-80.70865631,41.57099915]}},{"properties":{"city":"SAINT MARYS","zip":"45885","latitude":40.55860901,"county":"AUGLAIZE","fa":10144428,"lata":326,"longitude":-84.39472198,"id":"a996l8itc7zw","address":"14378 SAINT MARYS RIVER ROAD","swc":"STMYOHXA","state":"OH"},"type":"Feature","geometry":{"type":"Point","coordinates":[-84.39472198,40.55860901]}},{"properties":{"city":"WAPAKONETA","zip":"45895","latitude":40.6282196,"county":"AUGLAIZE","fa":10083284,"lata":326,"longitude":-84.13059235,"id":"a996l85u3srn","address":"16784 BUCKLAND HOLDEN ROAD","swc":"WPKNOHXA","state":"OH"},"type":"Feature","geometry":{"type":"Point","coordinates":[-84.13059235,40.6282196]}},{"properties":{"city":"WAPAKONETA","zip":"45895","latitude":40.51660156,"county":"AUGLAIZE","fa":10108270,"lata":326,"longitude":-84.16651917,"id":"a996l86rz4u0","address":"11293 CEMETARY ROAD","swc":"WPKNOHXA","state":"OH"},"type":"Feature","geometry":{"type":"Point","coordinates":[-84.16651917,40.51660156]}},{"properties":{"city":"WAPAKONETA","zip":"45895","latitude":40.55944061,"county":"AUGLAIZE","fa":10144338,"lata":326,"longitude":-84.18193817,"id":"a996l8bkxfhk","address":"900 INDUSTRIAL DRIVE","swc":"WPKNOHXA","state":"OH"},"type":"Feature","geometry":{"type":"Point","coordinates":[-84.18193817,40.55944061]}},{"properties":{"city":"MINSTER","zip":"45865","latitude":40.41627884,"county":"AUGLAIZE","fa":10588416,"lata":326,"longitude":-84.37985229,"id":"a996l8clwnhi","address":"04625 STATE ROUTE 66","swc":"MNSTOHXA","state":"OH"},"type":"Feature","geometry":{"type":"Point","coordinates":[-84.37985229,40.41627884]}},{"properties":{"city":"BARNESVILLE","zip":"43713","latitude":40.06138992,"county":"BELMONT","fa":10082226,"lata":324,"longitude":-81.15805817,"id":"a996l8g9du9y","address":"5 COUNTY ROAD 108 / OLD NATIONAL PIKE","swc":"FRVWOHXA","state":"OH"},"type":"Feature","geometry":{"type":"Point","coordinates":[-81.15805817,40.06138992]}},{"properties":{"city":"BARNESVILLE","zip":"43713","latitude":40.05916977,"county":"BELMONT","fa":10108272,"lata":324,"longitude":-81.21778107,"id":"a996l8kmny4a","address":"32745 OLD NATIONAL ROAD","swc":"FRVWOHXA","state":"OH"},"type":"Feature","geometry":{"type":"Point","coordinates":[-81.21778107,40.05916977]}},{"properties":{"city":"BETHESDA","zip":"43719","latitude":40.05443954,"county":"BELMONT","fa":10082074,"lata":324,"longitude":-81.0847168,"id":"a996l89piu39","address":"66485 WILSON ROAD","swc":"MRTWOHXA","state":"OH"},"type":"Feature","geometry":{"type":"Point","coordinates":[-81.0847168,40.05443954]}},{"properties":{"city":"POWHATAN POINT","zip":"43942","latitude":39.85142899,"county":"BELMONT","fa":10093490,"lata":324,"longitude":-80.82907104,"id":"a996l86yc18k","address":"54158 POWHATAN HILL ROAD","swc":"PWPNOHXA","state":"OH"},"type":"Feature","geometry":{"type":"Point","coordinates":[-80.82907104,39.85142899]}},{"properties":{"city":"FAYETTEVILLE","zip":"45118","latitude":39.17528152,"county":"BROWN","fa":10062398,"lata":922,"longitude":-83.95361328,"id":"a996l8fn0xxc","address":"3032-A US ROUTE 50","swc":"FYVLOHXA","state":"OH"},"type":"Feature","geometry":{"type":"Point","coordinates":[-83.95361328,39.17528152]}},{"properties":{"city":"SARDINIA","zip":"45171","latitude":39.01155853,"county":"BROWN","fa":10042693,"lata":328,"longitude":-83.79953003,"id":"a996l89lhbd4","address":"7427 SARDINIA MOWRYSTOWN ROAD","swc":"SRDNOHXA","state":"OH"},"type":"Feature","geometry":{"type":"Point","coordinates":[-83.79953003,39.01155853]}},{"properties":{"city":"DECATUR","zip":"45115","latitude":38.81792068,"county":"BROWN","fa":10154251,"lata":328,"longitude":-83.69641113,"id":"a996l8hv4m27","address":"10287 STATE ROUTE 125","swc":"DCTROHXB","state":"OH"},"type":"Feature","geometry":{"type":"Point","coordinates":[-83.69641113,38.81792068]}},{"properties":{"city":"GEORGETOWN","zip":"45121","latitude":38.80099869,"county":"BROWN","fa":10154253,"lata":923,"longitude":-83.96511841,"id":"a996l86y013q","address":"5786 STATE ROUTE 125","swc":"LFYTOHXA","state":"OH"},"type":"Feature","geometry":{"type":"Point","coordinates":[-83.96511841,38.80099869]}},{"properties":{"city":"CABLE","zip":"43009","latitude":40.16904068,"county":"CHAMPAIGN","fa":10062416,"lata":328,"longitude":-83.64659882,"id":"a996l89g8nwp","address":"5173 CABLE ROAD","swc":"URBNOHXA","state":"OH"},"type":"Feature","geometry":{"type":"Point","coordinates":[-83.64659882,40.16904068]}},{"properties":{"city":"MECHANICSBURG","zip":"43044","latitude":40.03139877,"county":"CHAMPAIGN","fa":10012934,"lata":328,"longitude":-83.65516663,"id":"a996l87aovi6","address":"5448 STATE ROUTE 4","swc":"MCBGOHXA","state":"OH"},"type":"Feature","geometry":{"type":"Point","coordinates":[-83.65516663,40.03139877]}},{"properties":{"city":"SAINT PARIS","zip":"43072","latitude":40.15644073,"county":"CHAMPAIGN","fa":10011832,"lata":328,"longitude":-83.96964264,"id":"a996l8c13501","address":"2171 MOUNT PLEASANT CEMETERY ROAD","swc":"STPROHXA","state":"OH"},"type":"Feature","geometry":{"type":"Point","coordinates":[-83.96964264,40.15644073]}},{"properties":{"city":"URBANA","zip":"43078","latitude":40.0886116,"county":"CHAMPAIGN","fa":10011850,"lata":328,"longitude":-83.75639343,"id":"a996l85uw463","address":"1509 SOUTH ROUTE 68","swc":"URBNOHXA","state":"OH"},"type":"Feature","geometry":{"type":"Point","coordinates":[-83.75639343,40.0886116]}},{"properties":{"city":"URBANA","zip":"43078","latitude":40.11669159,"county":"CHAMPAIGN","fa":10062421,"lata":328,"longitude":-83.71069336,"id":"a996l8eytxzk","address":"1063 DUGAN ROAD","swc":"URBNOHXA","state":"OH"},"type":"Feature","geometry":{"type":"Point","coordinates":[-83.71069336,40.11669159]}},{"properties":{"city":"MOSCOW","zip":"45153","latitude":38.83568954,"county":"CLERMONT","fa":10011632,"lata":328,"longitude":-84.20324707,"id":"a996l8jub9md","address":"2055 UTTER ROAD","swc":"FLCYOHXA","state":"OH"},"type":"Feature","geometry":{"type":"Point","coordinates":[-84.20324707,38.83568954]}},{"properties":{"city":"CINCINNATI","zip":"45245","latitude":39.1029892,"county":"CLERMONT","fa":10145297,"lata":922,"longitude":-84.27716827,"id":"a996l89q1sr7","address":"4601 EASTGAGE BOULEVARD","swc":"TBSCOHTO","state":"OH"},"type":"Feature","geometry":{"type":"Point","coordinates":[-84.27716827,39.1029892]}},{"properties":{"city":"WILMINGTON","zip":"45177","latitude":39.44194031,"county":"CLINTON","fa":10011853,"lata":328,"longitude":-83.88694,"id":"a996l8jw1zsh","address":"3327 WEST STATE ROAD 3 &amp; US 22","swc":"WLMGOHXB","state":"OH"},"type":"Feature","geometry":{"type":"Point","coordinates":[-83.88694,39.44194031]}},{"properties":{"city":"WILMINGTON","zip":"45177","latitude":39.45050049,"county":"CLINTON","fa":10041670,"lata":328,"longitude":-83.80568695,"id":"a996l8g7khvl","address":"1425 ROMBACH AVENUE","swc":"WLMGOHXB","state":"OH"},"type":"Feature","geometry":{"type":"Point","coordinates":[-83.80568695,39.45050049]}},{"properties":{"city":"SALINEVILLE","zip":"43945","latitude":40.68978119,"county":"COLUMBIANA","fa":10127132,"lata":325,"longitude":-80.87950134,"id":"a996l88hwcrz","address":"14728 SUMMITVILLE ROAD","swc":"HVTNOHXA","state":"OH"},"type":"Feature","geometry":{"type":"Point","coordinates":[-80.87950134,40.68978119]}},{"properties":{"city":"HANOVERTON","zip":"44423","latitude":40.77864075,"county":"COLUMBIANA","fa":10126083,"lata":325,"longitude":-80.92507935,"id":"a996l8jgow92","address":"30546 SPEIDEL ROAD","swc":"HVTNOHXA","state":"OH"},"type":"Feature","geometry":{"type":"Point","coordinates":[-80.92507935,40.77864075]}},{"properties":{"city":"KENSINGTON","zip":"44427","latitude":40.74422073,"county":"COLUMBIANA","fa":10123592,"lata":325,"longitude":-80.99855804,"id":"a996l8cyumbf","address":"10880 LYNCHBURGH ROAD","swc":"ERCHOHXA","state":"OH"},"type":"Feature","geometry":{"type":"Point","coordinates":[-80.99855804,40.74422073]}},{"properties":{"city":"SALEM","zip":"44460","latitude":40.84111023,"county":"COLUMBIANA","fa":10123589,"lata":325,"longitude":-80.83836365,"id":"a996l8jlfvqg","address":"35115 GROOMELY ROAD","swc":"WINOOHXA","state":"OH"},"type":"Feature","geometry":{"type":"Point","coordinates":[-80.83836365,40.84111023]}},{"properties":{"city":"SALEM","zip":"44460","latitude":40.84357834,"county":"COLUMBIANA","fa":10125338,"lata":325,"longitude":-80.91468811,"id":"a996l8ak2efd","address":"3944 SLATER ROAD","swc":"WINOOHXA","state":"OH"},"type":"Feature","geometry":{"type":"Point","coordinates":[-80.91468811,40.84357834]}},{"properties":{"city":"BUCYRUS","zip":"44820","latitude":40.83443832,"county":"CRAWFORD","fa":10146813,"lata":923,"longitude":-82.98999023,"id":"a996l8l4nht1","address":"TOWNSHIP ROAD 59","swc":"BCYROHXA","state":"OH"},"type":"Feature","geometry":{"type":"Point","coordinates":[-82.98999023,40.83443832]}},{"properties":{"city":"BUCYRUS","zip":"44820","latitude":40.80070114,"county":"CRAWFORD","fa":10146814,"lata":923,"longitude":-82.94039917,"id":"a996l875l5j9","address":"3528 LOWER LEESVILLE ROAD","swc":"BCYROHXA","state":"OH"},"type":"Feature","geometry":{"type":"Point","coordinates":[-82.94039917,40.80070114]}},{"properties":{"city":"BUCYRUS","zip":"44820","latitude":40.74116135,"county":"CRAWFORD","fa":10146816,"lata":923,"longitude":-83.07376099,"id":"a996l85ncgtl","address":"1060 KNAUSS ROAD","swc":"BCYROHXA","state":"OH"},"type":"Feature","geometry":{"type":"Point","coordinates":[-83.07376099,40.74116135]}},{"properties":{"city":"CRESTLINE","zip":"44827","latitude":40.83504105,"county":"CRAWFORD","fa":10083326,"lata":923,"longitude":-82.78343201,"id":"a996l8ekt2yp","address":"7043 KLAHN ROAD","swc":"CRLNOHXA","state":"OH"},"type":"Feature","geometry":{"type":"Point","coordinates":[-82.78343201,40.83504105]}},{"properties":{"city":"CRESTLINE","zip":"44827","latitude":40.77988815,"county":"CRAWFORD","fa":10103742,"lata":923,"longitude":-82.76203918,"id":"a996l8f5qmee","address":"1171 GLEDHILL ROAD","swc":"CRLNOHXA","state":"OH"},"type":"Feature","geometry":{"type":"Point","coordinates":[-82.76203918,40.77988815]}},{"properties":{"city":"GALION","zip":"44833","latitude":40.71096039,"county":"CRAWFORD","fa":10146739,"lata":923,"longitude":-82.727211,"id":"a996l8bjged0","address":"8185 CRAWFORD-MORROW COUNTY LINE ROAD","swc":"GLINOHXA","state":"OH"},"type":"Feature","geometry":{"type":"Point","coordinates":[-82.727211,40.71096039]}},{"properties":{"city":"GALION","zip":"44833","latitude":40.75490189,"county":"CRAWFORD","fa":10146815,"lata":923,"longitude":-82.80039978,"id":"a996l8fkfz3w","address":"1376 STATE ROUTE 598","swc":"GLINOHXA","state":"OH"},"type":"Feature","geometry":{"type":"Point","coordinates":[-82.80039978,40.75490189]}},{"properties":{"city":"ARCANUM","zip":"45304","latitude":39.97972107,"county":"DARKE","fa":10012937,"lata":328,"longitude":-84.5163269,"id":"a996l8ktjs84","address":"2140 GORDON LANDIS ROAD","swc":"ARCNOHXA","state":"OH"},"type":"Feature","geometry":{"type":"Point","coordinates":[-84.5163269,39.97972107]}},{"properties":{"city":"GREENVILLE","zip":"45331","latitude":40.07588959,"county":"DARKE","fa":10011852,"lata":328,"longitude":-84.61377716,"id":"a996l88792za","address":"5121 SEBRING-WARNER ROAD","swc":"GNVLOHXA","state":"OH"},"type":"Feature","geometry":{"type":"Point","coordinates":[-84.61377716,40.07588959]}},{"properties":{"city":"GREENVILLE","zip":"45331","latitude":40.13908005,"county":"DARKE","fa":10029543,"lata":328,"longitude":-84.61775208,"id":"a996l8kixfiv","address":"7670 CELINA ROAD","swc":"GNVLOHXA","state":"OH"},"type":"Feature","geometry":{"type":"Point","coordinates":[-84.61775208,40.13908005]}},{"properties":{"city":"VERSAILLES","zip":"45380","latitude":40.23141861,"county":"DARKE","fa":10011821,"lata":328,"longitude":-84.4821701,"id":"a996l8l520jj","address":"10707 REED ROAD","swc":"VRSLOHXA","state":"OH"},"type":"Feature","geometry":{"type":"Point","coordinates":[-84.4821701,40.23141861]}},{"properties":{"city":"UNION CITY","zip":"45390","latitude":40.1978302,"county":"DARKE","fa":10066440,"lata":937,"longitude":-84.79341888,"id":"a996l8jc6cb2","address":"330 SOUTHEAST DEERFIELD ROAD","swc":"UNCYPAXU","state":"OH"},"type":"Feature","geometry":{"type":"Point","coordinates":[-84.79341888,40.1978302]}},{"properties":{"city":"DEFIANCE","zip":"43512","latitude":41.31138992,"county":"DEFIANCE","fa":10144842,"lata":326,"longitude":-84.36528015,"id":"a996l8jm63m8","address":"23778 ELLIOTT ROAD","swc":"DFNCOHXA","state":"OH"},"type":"Feature","geometry":{"type":"Point","coordinates":[-84.36528015,41.31138992]}},{"properties":{"city":"DEFIANCE","zip":"43512","latitude":41.27972031,"county":"DEFIANCE","fa":10144844,"lata":326,"longitude":-84.32444,"id":"a996l8aex8xv","address":"1986 SPRUCE STREET","swc":"DFNCOHXA","state":"OH"},"type":"Feature","geometry":{"type":"Point","coordinates":[-84.32444,41.27972031]}},{"properties":{"city":"HICKSVILLE","zip":"43526","latitude":41.2677803,"county":"DEFIANCE","fa":10144664,"lata":326,"longitude":-84.76528168,"id":"a996l8eayci9","address":"2887 JERICHO ROAD","swc":"HCVLOHXA","state":"OH"},"type":"Feature","geometry":{"type":"Point","coordinates":[-84.76528168,41.2677803]}},{"properties":{"city":"HICKSVILLE","zip":"43526","latitude":41.29806137,"county":"DEFIANCE","fa":10144665,"lata":326,"longitude":-84.76249695,"id":"a996l861vy9o","address":"306 ELM STREET","swc":"HCVLOHXA","state":"OH"},"type":"Feature","geometry":{"type":"Point","coordinates":[-84.76249695,41.29806137]}},{"properties":{"city":"SHERWOOD","zip":"43556","latitude":41.29138947,"county":"DEFIANCE","fa":10144843,"lata":326,"longitude":-84.53749847,"id":"a996l850g2d9","address":"10374 ROSEBROOK ROAD","swc":"SHWDOHXA","state":"OH"},"type":"Feature","geometry":{"type":"Point","coordinates":[-84.53749847,41.29138947]}},{"properties":{"city":"DEFIANCE","zip":"43512","latitude":41.27217102,"county":"DEFIANCE","fa":10154271,"lata":326,"longitude":-84.40075684,"id":"a996l8690zju","address":"1234 INTEGRITY DRIVE","swc":"DFNCOHXA","state":"OH"},"type":"Feature","geometry":{"type":"Point","coordinates":[-84.40075684,41.27217102]}},{"properties":{"city":"DELAWARE","zip":"43015","latitude":40.21971893,"county":"DELAWARE","fa":10011695,"lata":324,"longitude":-83.16860962,"id":"a996l84ufcez","address":"6500 CONCORD ROAD","swc":"RTHBOHXA","state":"OH"},"type":"Feature","geometry":{"type":"Point","coordinates":[-83.16860962,40.21971893]}},{"properties":{"city":"DELAWARE","zip":"43015","latitude":40.38166046,"county":"DELAWARE","fa":10095040,"lata":324,"longitude":-83.0790863,"id":"a996l8a8dhnm","address":"152 TROUTMAN ROAD","swc":"DLWROHXA","state":"OH"},"type":"Feature","geometry":{"type":"Point","coordinates":[-83.0790863,40.38166046]}},{"properties":{"city":"KELLEYS ISLAND","zip":"43438","latitude":41.59666824,"county":"ERIE","fa":10012229,"lata":326,"longitude":-82.70983124,"id":"a996l8d2wdze","address":"106 CHAPPEL STREET","swc":"KLISOHXA","state":"OH"},"type":"Feature","geometry":{"type":"Point","coordinates":[-82.70983124,41.59666824]}},{"properties":{"city":"VERMILION","zip":"44089","latitude":41.39028168,"county":"ERIE","fa":10012167,"lata":320,"longitude":-82.36572266,"id":"a996l89wmqwh","address":"2713 STATE ROAD","swc":"VRMLOHXA","state":"OH"},"type":"Feature","geometry":{"type":"Point","coordinates":[-82.36572266,41.39028168]}},{"properties":{"city":"VERMILION","zip":"44089","latitude":41.41461945,"county":"ERIE","fa":10037395,"lata":320,"longitude":-82.36084747,"id":"a996l8dy5cwa","address":"1100 DOUGLAS DRIVE","swc":"VRMLOHXA","state":"OH"},"type":"Feature","geometry":{"type":"Point","coordinates":[-82.36084747,41.41461945]}},{"properties":{"city":"VERMILION","zip":"44089","latitude":41.38306046,"county":"ERIE","fa":10077543,"lata":320,"longitude":-82.42536926,"id":"a996l88pn4vz","address":"1115 STANLEY ROAD","swc":"VRMLOHXA","state":"OH"},"type":"Feature","geometry":{"type":"Point","coordinates":[-82.42536926,41.38306046]}},{"properties":{"city":"BERLIN HEIGHTS","zip":"44814","latitude":41.35200119,"county":"ERIE","fa":10012226,"lata":326,"longitude":-82.4925766,"id":"a996l88fn77h","address":"7306 DRIVER ROAD","swc":"BLHNOHXB","state":"OH"},"type":"Feature","geometry":{"type":"Point","coordinates":[-82.4925766,41.35200119]}},{"properties":{"city":"BERLIN HEIGHTS","zip":"44814","latitude":41.32413864,"county":"ERIE","fa":10077484,"lata":326,"longitude":-82.50341797,"id":"a996l89j5maq","address":"11349 BERLIN ROAD","swc":"BLHNOHXB","state":"OH"},"type":"Feature","geometry":{"type":"Point","coordinates":[-82.50341797,41.32413864]}},{"properties":{"city":"BERLIN HEIGHTS","zip":"44814","latitude":41.28442001,"county":"ERIE","fa":10102936,"lata":326,"longitude":-82.45812225,"id":"a996l8k5f0bm","address":"9091 NASH ROAD","swc":"NRWLOHXA","state":"OH"},"type":"Feature","geometry":{"type":"Point","coordinates":[-82.45812225,41.28442001]}},{"properties":{"city":"BIRMINGHAM","zip":"44816","latitude":41.33287811,"county":"ERIE","fa":10012224,"lata":320,"longitude":-82.36342621,"id":"a996l8bo7dqz","address":"6921 SAVANNAH VERMILION ROAD","swc":"BRHMOHXA","state":"OH"},"type":"Feature","geometry":{"type":"Point","coordinates":[-82.36342621,41.33287811]}},{"properties":{"city":"CASTALIA","zip":"44824","latitude":41.33974075,"county":"ERIE","fa":10012227,"lata":326,"longitude":-82.79003906,"id":"a996l8a39xq5","address":"9414 PORTLAND ROAD","swc":"BLLVOHXA","state":"OH"},"type":"Feature","geometry":{"type":"Point","coordinates":[-82.79003906,41.33974075]}},{"properties":{"city":"HURON","zip":"44839","latitude":41.39889145,"county":"ERIE","fa":10037394,"lata":326,"longitude":-82.57945251,"id":"a996l8gqhfxa","address":"1529 SAWMILL PARKWAY","swc":"HURNOHXA","state":"OH"},"type":"Feature","geometry":{"type":"Point","coordinates":[-82.57945251,41.39889145]}},{"properties":{"city":"MILAN","zip":"44846","latitude":41.33058167,"county":"ERIE","fa":10012225,"lata":326,"longitude":-82.60133362,"id":"a996l8hgkc5n","address":"11016 HOOVER ROAD","swc":"MILNOHXA","state":"OH"},"type":"Feature","geometry":{"type":"Point","coordinates":[-82.60133362,41.33058167]}},{"properties":{"city":"NORWALK","zip":"44857","latitude":41.28884125,"county":"ERIE","fa":10102938,"lata":326,"longitude":-82.53338623,"id":"a996l8fzb694","address":"14214 STATE ROUTE 61 EAST","swc":"NRWLOHXA","state":"OH"},"type":"Feature","geometry":{"type":"Point","coordinates":[-82.53338623,41.28884125]}},{"properties":{"city":"WAKEMAN","zip":"44889","latitude":41.34360886,"county":"ERIE","fa":10083299,"lata":320,"longitude":-82.34694672,"id":"a996l8cpbv4i","address":"10118 DEAN ROAD","swc":"BRHMOHXA","state":"OH"},"type":"Feature","geometry":{"type":"Point","coordinates":[-82.34694672,41.34360886]}},{"properties":{"city":"WAKEMAN","zip":"44889","latitude":41.32889175,"county":"ERIE","fa":10083308,"lata":320,"longitude":-82.40693665,"id":"a996l897viki","address":"11300 ANGLING ROAD","swc":"BRHMOHXA","state":"OH"},"type":"Feature","geometry":{"type":"Point","coordinates":[-82.40693665,41.32889175]}},{"properties":{"city":"CALEDONIA","zip":"43154","latitude":40.63856125,"county":"FAIRFIELD","fa":10147717,"lata":923,"longitude":-82.95113373,"id":"a996l8jsc1xp","address":"1375 COUNTY ROAD 39B","swc":"AMDAOHXA","state":"OH"},"type":"Feature","geometry":{"type":"Point","coordinates":[-82.95113373,40.63856125]}},{"properties":{"city":"WASHINGTON COURT HOUSE","zip":"43160","latitude":39.64527893,"county":"FAYETTE","fa":10146778,"lata":324,"longitude":-83.2977829,"id":"a996l87yscv7","address":"11147 POST ROAD NORTHEAST","swc":"MTSTOHXA","state":"OH"},"type":"Feature","geometry":{"type":"Point","coordinates":[-83.2977829,39.64527893]}},{"properties":{"city":"ARCHBOLD","zip":"43502","latitude":41.58800125,"county":"FULTON","fa":10083272,"lata":326,"longitude":-84.34319305,"id":"a996l8g9wpi4","address":"8179 COUNTY ROAD 25","swc":"ARCHOHXA","state":"OH"},"type":"Feature","geometry":{"type":"Point","coordinates":[-84.34319305,41.58800125]}},{"properties":{"city":"DELTA","zip":"43515","latitude":41.59218979,"county":"FULTON","fa":10083277,"lata":326,"longitude":-84.02478027,"id":"a996l86s88je","address":"8292 COUNTY ROAD 81","swc":"DELTOHXA","state":"OH"},"type":"Feature","geometry":{"type":"Point","coordinates":[-84.02478027,41.59218979]}},{"properties":{"city":"METAMORA","zip":"43540","latitude":41.68619919,"county":"FULTON","fa":10108255,"lata":326,"longitude":-83.93769836,"id":"a996l8amgfbt","address":"4125 COUNTY ROAD SOUTH","swc":"MTMOOHXA","state":"OH"},"type":"Feature","geometry":{"type":"Point","coordinates":[-83.93769836,41.68619919]}},{"properties":{"city":"SWANTON","zip":"43558","latitude":41.60388947,"county":"FULTON","fa":10083275,"lata":326,"longitude":-83.90561676,"id":"a996l8gw37pm","address":"9201 STATE ROUTE 64","swc":"SWTNOHXA","state":"OH"},"type":"Feature","geometry":{"type":"Point","coordinates":[-83.90561676,41.60388947]}},{"properties":{"city":"WAUSEON","zip":"43567","latitude":41.56219101,"county":"FULTON","fa":10083555,"lata":326,"longitude":-84.15049744,"id":"a996l8h12rmn","address":"550 WEST LINFOOT STREET","swc":"WASNOHXA","state":"OH"},"type":"Feature","geometry":{"type":"Point","coordinates":[-84.15049744,41.56219101]}},{"properties":{"city":"SWANTON","zip":"43558","latitude":41.55916977,"county":"FULTON","fa":10107688,"lata":326,"longitude":-83.82417297,"id":"a996l8fud05t","address":"4425 BERKEY ROAD SOUTHERN","swc":"CenturyLink","state":"OH"},"type":"Feature","geometry":{"type":"Point","coordinates":[-83.82417297,41.55916977]}},{"properties":{"city":"CHARDON","zip":"44024","latitude":41.58261108,"county":"GEAUGA","fa":10042479,"lata":320,"longitude":-81.13453674,"id":"a996l875wsql","address":"10650A OLD STATE ROAD","swc":"CHRDOHXA","state":"OH"},"type":"Feature","geometry":{"type":"Point","coordinates":[-81.13453674,41.58261108]}},{"properties":{"city":"HUNTSBURG","zip":"44046","latitude":41.5533905,"county":"GEAUGA","fa":10012148,"lata":320,"longitude":-81.07008362,"id":"a996l85vzkzn","address":"11699 CLAY STREET","swc":"HTBGOHXA","state":"OH"},"type":"Feature","geometry":{"type":"Point","coordinates":[-81.07008362,41.5533905]}},{"properties":{"city":"HUNTSBURG","zip":"44046","latitude":41.52793884,"county":"GEAUGA","fa":10077583,"lata":320,"longitude":-81.08483124,"id":"a996l85khzju","address":"12603 PRINCETON ROAD","swc":"HTBGOHXA","state":"OH"},"type":"Feature","geometry":{"type":"Point","coordinates":[-81.08483124,41.52793884]}},{"properties":{"city":"MONTVILLE","zip":"44064","latitude":41.63376999,"county":"GEAUGA","fa":10077582,"lata":320,"longitude":-81.06102753,"id":"a996l8dbnqg2","address":"16343 LEGGETT ROAD","swc":"MTVLOHXA","state":"OH"},"type":"Feature","geometry":{"type":"Point","coordinates":[-81.06102753,41.63376999]}},{"properties":{"city":"THOMPSON","zip":"44086","latitude":41.69432068,"county":"GEAUGA","fa":10083295,"lata":320,"longitude":-81.04988861,"id":"a996l88rlbgk","address":"6575A MADISON ROAD","swc":"THSNOHXA","state":"OH"},"type":"Feature","geometry":{"type":"Point","coordinates":[-81.04988861,41.69432068]}},{"properties":{"city":"BYESVILLE","zip":"43723","latitude":39.94403076,"county":"GUERNSEY","fa":10126061,"lata":324,"longitude":-81.5344696,"id":"a996l8ay5l72","address":"11135 SENECA LANE","swc":"BYVLOHXA","state":"OH"},"type":"Feature","geometry":{"type":"Point","coordinates":[-81.5344696,39.94403076]}},{"properties":{"city":"BYESVILLE","zip":"43725","latitude":39.99369049,"county":"GUERNSEY","fa":10123578,"lata":324,"longitude":-81.57502747,"id":"a996l85auobv","address":"61587 SOUTHGATE ROAD","swc":"CMBROHXB","state":"OH"},"type":"Feature","geometry":{"type":"Point","coordinates":[-81.57502747,39.99369049]}},{"properties":{"city":"CAMBRIDGE","zip":"43725","latitude":40.0288887,"county":"GUERNSEY","fa":10123579,"lata":324,"longitude":-81.52111053,"id":"a996l852mkh2","address":"63930 LARRICK RIDGE ROAD","swc":"CMBROHXB","state":"OH"},"type":"Feature","geometry":{"type":"Point","coordinates":[-81.52111053,40.0288887]}},{"properties":{"city":"CAMBRIDGE","zip":"43725","latitude":40.12638855,"county":"GUERNSEY","fa":10123598,"lata":324,"longitude":-81.55610657,"id":"a996l8bcehw0","address":"9561 BELL ROAD","swc":"CMBROHXB","state":"OH"},"type":"Feature","geometry":{"type":"Point","coordinates":[-81.55610657,40.12638855]}},{"properties":{"city":"CAMBRIDGE","zip":"43725","latitude":40.06082916,"county":"GUERNSEY","fa":10125349,"lata":324,"longitude":-81.57167053,"id":"a996l8j83587","address":"65975 READ ROAD","swc":"CMBROHXB","state":"OH"},"type":"Feature","geometry":{"type":"Point","coordinates":[-81.57167053,40.06082916]}},{"properties":{"city":"CAMBRIDGE","zip":"43725","latitude":40.00622177,"county":"GUERNSEY","fa":10130294,"lata":324,"longitude":-81.65088654,"id":"a996l88jzq10","address":"62205 SAVAGE ROAD","swc":"CMBROHXB","state":"OH"},"type":"Feature","geometry":{"type":"Point","coordinates":[-81.65088654,40.00622177]}},{"properties":{"city":"LORE CITY","zip":"43755","latitude":40.03250122,"county":"GUERNSEY","fa":10125321,"lata":324,"longitude":-81.44249725,"id":"a996l8be2e8s","address":"64393 RANGE ROAD","swc":"OLWSOHXA","state":"OH"},"type":"Feature","geometry":{"type":"Point","coordinates":[-81.44249725,40.03250122]}},{"properties":{"city":"QUAKER CITY","zip":"43773","latitude":40.05778122,"county":"GUERNSEY","fa":10125317,"lata":324,"longitude":-81.32055664,"id":"a996l87oebwj","address":"22377 BRIDGEWATER ROAD","swc":"FRVWOHXA","state":"OH"},"type":"Feature","geometry":{"type":"Point","coordinates":[-81.32055664,40.05778122]}},{"properties":{"city":"SENECAVILLE","zip":"43780","latitude":39.92502975,"county":"GUERNSEY","fa":10125310,"lata":324,"longitude":-81.45156097,"id":"a996l8iujhg5","address":"15568 HATCHERY ROAD","swc":"BYVLOHXA","state":"OH"},"type":"Feature","geometry":{"type":"Point","coordinates":[-81.45156097,39.92502975]}},{"properties":{"city":"CINCINNATI","zip":"45215","latitude":39.24739838,"county":"HAMILTON","fa":11583428,"lata":922,"longitude":-84.44737244,"id":"a996l8kh16t5","address":"711 CHICAGO AVE","swc":"EVDLOHEV","state":"OH"},"type":"Feature","geometry":{"type":"Point","coordinates":[-84.44737244,39.24739838]}},{"properties":{"city":"CINCINNATI","zip":"45246","latitude":39.2906189,"county":"HAMILTON","fa":10145298,"lata":922,"longitude":-84.46495056,"id":"a996l8hkizuq","address":"11700 PRINCETON PIKE","swc":"RILTOHCS","state":"OH"},"type":"Feature","geometry":{"type":"Point","coordinates":[-84.46495056,39.2906189]}},{"properties":{"city":"ARLINGTON","zip":"45814","latitude":40.89083099,"county":"HANCOCK","fa":10146780,"lata":326,"longitude":-83.61972046,"id":"a996l87044dd","address":"13651 STATE ROAD 103","swc":"ARTNOHXA","state":"OH"},"type":"Feature","geometry":{"type":"Point","coordinates":[-83.61972046,40.89083099]}},{"properties":{"city":"FINDLAY","zip":"45840","latitude":41.05028152,"county":"HANCOCK","fa":10146368,"lata":326,"longitude":-83.79444122,"id":"a996l86xv1n2","address":"4509 US 224","swc":"MCCMOHXB","state":"OH"},"type":"Feature","geometry":{"type":"Point","coordinates":[-83.79444122,41.05028152]}},{"properties":{"city":"MC COMB","zip":"45858","latitude":41.11193848,"county":"HANCOCK","fa":10107869,"lata":326,"longitude":-83.75250244,"id":"a996l8c64vi8","address":"6700 STATE ROUTE 613","swc":"MCCMOHXB","state":"OH"},"type":"Feature","geometry":{"type":"Point","coordinates":[-83.75250244,41.11193848]}},{"properties":{"city":"RAWSON","zip":"45881","latitude":40.9441185,"county":"HANCOCK","fa":10083269,"lata":326,"longitude":-83.76644897,"id":"a996l85ygb6z","address":"15480-B TOWNSHIP ROAD 59","swc":"RWSNOHXB","state":"OH"},"type":"Feature","geometry":{"type":"Point","coordinates":[-83.76644897,40.9441185]}},{"properties":{"city":"VAN BUREN","zip":"45889","latitude":41.15166855,"county":"HANCOCK","fa":10107691,"lata":326,"longitude":-83.56832886,"id":"a996l8eg066s","address":"1107 TOWNSHIP ROAD 18","swc":"BMDLOHXA","state":"OH"},"type":"Feature","geometry":{"type":"Point","coordinates":[-83.56832886,41.15166855]}},{"properties":{"city":"KENTON","zip":"43326","latitude":40.67361069,"county":"HARDIN","fa":10146851,"lata":326,"longitude":-83.60887909,"id":"a996l8dofho3","address":"14262 TOWNSHIP ROAD 110","swc":"KNTNOHXA","state":"OH"},"type":"Feature","geometry":{"type":"Point","coordinates":[-83.60887909,40.67361069]}},{"properties":{"city":"ADA","zip":"45810","latitude":40.76610947,"county":"HARDIN","fa":10146850,"lata":923,"longitude":-83.83721924,"id":"a996l88hg2cs","address":"525 S. MAIN STREET","swc":"ADA OHXA","state":"OH"},"type":"Feature","geometry":{"type":"Point","coordinates":[-83.83721924,40.76610947]}},{"properties":{"city":"FOREST","zip":"45843","latitude":40.82638931,"county":"HARDIN","fa":10145804,"lata":326,"longitude":-83.62306213,"id":"a996l8e81a8b","address":"13579 TOWNSHIP ROAD 146","swc":"ARTNOHXA","state":"OH"},"type":"Feature","geometry":{"type":"Point","coordinates":[-83.62306213,40.82638931]}},{"properties":{"city":"FOREST","zip":"45843","latitude":40.84978104,"county":"HARDIN","fa":10146836,"lata":326,"longitude":-83.47360229,"id":"a996l8har1gr","address":"18802 TOWNSHIP HIGHWAY 49","swc":"WHTNOHXB","state":"OH"},"type":"Feature","geometry":{"type":"Point","coordinates":[-83.47360229,40.84978104]}},{"properties":{"city":"CADIZ","zip":"43907","latitude":40.29555893,"county":"HARRISON","fa":10126060,"lata":324,"longitude":-80.9852829,"id":"a996l8fzgwcq","address":"44300 CADIZ/STEUBENVILLE ROAD","swc":"CADZOHXA","state":"OH"},"type":"Feature","geometry":{"type":"Point","coordinates":[-80.9852829,40.29555893]}},{"properties":{"city":"SCIO","zip":"43988","latitude":40.33308029,"county":"HARRISON","fa":10127128,"lata":324,"longitude":-81.13506317,"id":"a996l890er2w","address":"85153 BEAVER BAY ROAD","swc":"CADZOHXA","state":"OH"},"type":"Feature","geometry":{"type":"Point","coordinates":[-81.13506317,40.33308029]}},{"properties":{"city":"HOLGATE","zip":"43527","latitude":41.29999924,"county":"HENRY","fa":10144668,"lata":326,"longitude":-84.15611267,"id":"a996l8jvcqn4","address":"15-160 COUNTY ROAD J","swc":"HLGTOHXA","state":"OH"},"type":"Feature","geometry":{"type":"Point","coordinates":[-84.15611267,41.29999924]}},{"properties":{"city":"NAPOLEON","zip":"43545","latitude":41.4113884,"county":"HENRY","fa":10144503,"lata":326,"longitude":-84.08805847,"id":"a996l8k91i68","address":"11-600 STATE ROAD 424","swc":"NPLNOHXA","state":"OH"},"type":"Feature","geometry":{"type":"Point","coordinates":[-84.08805847,41.4113884]}},{"properties":{"city":"NEW VIENNA","zip":"45159","latitude":39.30842972,"county":"HIGHLAND","fa":10062415,"lata":328,"longitude":-83.70156097,"id":"a996l8bvsfus","address":"11551 NOBLE ROAD","swc":"NWVNOHXA","state":"OH"},"type":"Feature","geometry":{"type":"Point","coordinates":[-83.70156097,39.30842972]}},{"properties":{"city":"ROCKBRIDGE","zip":"43138","latitude":39.5728302,"county":"HOCKING","fa":10127131,"lata":324,"longitude":-82.5161972,"id":"a996l8c0jceh","address":"26790 US 33","swc":"LOGNOHXA","state":"OH"},"type":"Feature","geometry":{"type":"Point","coordinates":[-82.5161972,39.5728302]}},{"properties":{"city":"SHREVE","zip":"44676","latitude":40.6572113,"county":"HOLMES","fa":10077183,"lata":923,"longitude":-82.01139069,"id":"a996l8ioqv3k","address":"10962 TOWNSHIP ROAD 530","swc":"SHRVOHXA","state":"OH"},"type":"Feature","geometry":{"type":"Point","coordinates":[-82.01139069,40.6572113]}},{"properties":{"city":"BELLEVUE","zip":"44811","latitude":41.26556015,"county":"HURON","fa":10102947,"lata":326,"longitude":-82.79110718,"id":"a996l8gswgn3","address":"5490 US ROUTE 20","swc":"BLLVOHXA","state":"OH"},"type":"Feature","geometry":{"type":"Point","coordinates":[-82.79110718,41.26556015]}},{"properties":{"city":"GREENWICH","zip":"44837","latitude":41.09020996,"county":"HURON","fa":10146852,"lata":326,"longitude":-82.48985291,"id":"a996l860822e","address":"5111 STATE ROUTE 13","swc":"NWLNOHXA","state":"OH"},"type":"Feature","geometry":{"type":"Point","coordinates":[-82.48985291,41.09020996]}},{"properties":{"city":"MONROEVILLE","zip":"44847","latitude":41.23971939,"county":"HURON","fa":10102946,"lata":326,"longitude":-82.72110748,"id":"a996l855uwdl","address":"3603 FARR ROAD","swc":"MOVLOHXA","state":"OH"},"type":"Feature","geometry":{"type":"Point","coordinates":[-82.72110748,41.23971939]}},{"properties":{"city":"NORWALK","zip":"44857","latitude":41.24499893,"county":"HURON","fa":10102941,"lata":326,"longitude":-82.59555817,"id":"a996l87773j4","address":"171 AKRON ROAD","swc":"NRWLOHXA","state":"OH"},"type":"Feature","geometry":{"type":"Point","coordinates":[-82.59555817,41.24499893]}},{"properties":{"city":"NORWALK","zip":"44857","latitude":41.27027893,"county":"HURON","fa":10102942,"lata":326,"longitude":-82.60806274,"id":"a996l89ye662","address":"4826 US ROUTE 250 NORTH","swc":"NRWLOHXA","state":"OH"},"type":"Feature","geometry":{"type":"Point","coordinates":[-82.60806274,41.27027893]}},{"properties":{"city":"NORWALK","zip":"44857","latitude":41.24311066,"county":"HURON","fa":10102943,"lata":326,"longitude":-82.6364212,"id":"a996l8g9afvi","address":"75 NORTH WEST STREET","swc":"NRWLOHXA","state":"OH"},"type":"Feature","geometry":{"type":"Point","coordinates":[-82.6364212,41.24311066]}},{"properties":{"city":"NORWALK","zip":"44857","latitude":41.26332855,"county":"HURON","fa":10102944,"lata":326,"longitude":-82.67749786,"id":"a996l8gzcg3h","address":"4480 RIVER ROAD","swc":"MOVLOHXA","state":"OH"},"type":"Feature","geometry":{"type":"Point","coordinates":[-82.67749786,41.26332855]}},{"properties":{"city":"WAKEMAN","zip":"44889","latitude":41.24539185,"county":"HURON","fa":10102934,"lata":320,"longitude":-82.4201889,"id":"a996l8iphfx4","address":"3956 FITCHVILLE RIVER ROAD","swc":"WKMNOHXA","state":"OH"},"type":"Feature","geometry":{"type":"Point","coordinates":[-82.4201889,41.24539185]}},{"properties":{"city":"CHILLICOTHE","zip":"45601","latitude":39.17443848,"county":"JACKSON","fa":10081990,"lata":324,"longitude":-82.76055908,"id":"a996l897gu0u","address":"956 LEISURE ROAD","swc":"JCSNOHXA","state":"OH"},"type":"Feature","geometry":{"type":"Point","coordinates":[-82.76055908,39.17443848]}},{"properties":{"city":"JACKSON","zip":"45640","latitude":39.04600143,"county":"JACKSON","fa":10548008,"lata":324,"longitude":-82.6389389,"id":"a996l8ch5xy2","address":"60 1/2 DICKASON STREET","swc":"JCSNOHXA","state":"OH"},"type":"Feature","geometry":{"type":"Point","coordinates":[-82.6389389,39.04600143]}},{"properties":{"city":"CENTERBURG","zip":"43011","latitude":40.33868027,"county":"KNOX","fa":10092125,"lata":923,"longitude":-82.60823059,"id":"a996l8fi4466","address":"6702 TUCKER ROAD","swc":"MTVROHXA","state":"OH"},"type":"Feature","geometry":{"type":"Point","coordinates":[-82.60823059,40.33868027]}},{"properties":{"city":"CENTERBURG","zip":"43011","latitude":40.3161087,"county":"KNOX","fa":10092126,"lata":923,"longitude":-82.67666626,"id":"a996l89ynn0r","address":"5138 OLD COLUMBUS ROAD","swc":"CNBGOHXA","state":"OH"},"type":"Feature","geometry":{"type":"Point","coordinates":[-82.67666626,40.3161087]}},{"properties":{"city":"CENTERBURG","zip":"43011","latitude":40.28427887,"county":"KNOX","fa":10092129,"lata":923,"longitude":-82.74877167,"id":"a996l88qu5oa","address":"2542 COLUMBUS ROAD - ROUTE 36","swc":"CNBGOHXA","state":"OH"},"type":"Feature","geometry":{"type":"Point","coordinates":[-82.74877167,40.28427887]}},{"properties":{"city":"FREDERICKTOWN","zip":"43019","latitude":40.48693848,"county":"KNOX","fa":10092124,"lata":923,"longitude":-82.55832672,"id":"a996l8km1jt6","address":"801-A SALEM AVENUE EXTENSION","swc":"FRTWOHXA","state":"OH"},"type":"Feature","geometry":{"type":"Point","coordinates":[-82.55832672,40.48693848]}},{"properties":{"city":"MOUNT VERNON","zip":"43050","latitude":40.31818008,"county":"KNOX","fa":10092119,"lata":923,"longitude":-82.46135712,"id":"a996l88o8uxa","address":"5293 NEWARK ROAD","swc":"MTVROHXA","state":"OH"},"type":"Feature","geometry":{"type":"Point","coordinates":[-82.46135712,40.31818008]}},{"properties":{"city":"MOUNT VERNON","zip":"43050","latitude":40.40517807,"county":"KNOX","fa":10146874,"lata":923,"longitude":-82.35119629,"id":"a996l8hwfjjs","address":"TBD","swc":"GMBROHXA","state":"OH"},"type":"Feature","geometry":{"type":"Point","coordinates":[-82.35119629,40.40517807]}},{"properties":{"city":"SOUTH POINT","zip":"45680","latitude":38.4829216,"county":"LAWRENCE","fa":10122334,"lata":324,"longitude":-82.47077179,"id":"a996l8fogsnh","address":"4665 COUNTY ROAD 17","swc":"CHSKOHXA","state":"OH"},"type":"Feature","geometry":{"type":"Point","coordinates":[-82.47077179,38.4829216]}},{"properties":{"city":"SOUTH POINT","zip":"45680","latitude":38.44517899,"county":"LAWRENCE","fa":10141912,"lata":324,"longitude":-82.55580902,"id":"a996l8g0xrw1","address":"417 PRIVATE ROAD 856","swc":"BURLOHXA","state":"OH"},"type":"Feature","geometry":{"type":"Point","coordinates":[-82.55580902,38.44517899]}},{"properties":{"city":"JOHNSTOWN","zip":"43031","latitude":40.17221832,"county":"LICKING","fa":10092117,"lata":324,"longitude":-82.64827728,"id":"a996l8fw6gwj","address":"8282 JOHNSTOWN-UTICA ROAD","swc":"JHTWOHXA","state":"OH"},"type":"Feature","geometry":{"type":"Point","coordinates":[-82.64827728,40.17221832]}},{"properties":{"city":"JOHNSTOWN","zip":"43055","latitude":40.20180893,"county":"LICKING","fa":10092116,"lata":324,"longitude":-82.57988739,"id":"a996l8f07z2o","address":"4401 JOHNSTOWN-UTICA ROAD","swc":"JHTWOHXA","state":"OH"},"type":"Feature","geometry":{"type":"Point","coordinates":[-82.57988739,40.20180893]}},{"properties":{"city":"SAINT LOUISVILLE","zip":"43071","latitude":40.18450165,"county":"LICKING","fa":10092113,"lata":324,"longitude":-82.39656067,"id":"a996l8iw84ps","address":"7836 DOG HOLLOW ROAD","swc":"STLSOHXA","state":"OH"},"type":"Feature","geometry":{"type":"Point","coordinates":[-82.39656067,40.18450165]}},{"properties":{"city":"UTICA","zip":"43080","latitude":40.24599838,"county":"LICKING","fa":10092115,"lata":923,"longitude":-82.48142242,"id":"a996l8j8xd9u","address":"13515 JUSTIN ROAD","swc":"UTICOHXA","state":"OH"},"type":"Feature","geometry":{"type":"Point","coordinates":[-82.48142242,40.24599838]}},{"properties":{"city":"BELLEFONTAINE","zip":"43311","latitude":40.35443878,"county":"LOGAN","fa":10011708,"lata":923,"longitude":-83.70555878,"id":"a996l8jk8f2c","address":"2955 TRAIL 180","swc":"BLLFOHXA","state":"OH"},"type":"Feature","geometry":{"type":"Point","coordinates":[-83.70555878,40.35443878]}},{"properties":{"city":"BELLEFONTAINE","zip":"43311","latitude":40.35221863,"county":"LOGAN","fa":10029009,"lata":923,"longitude":-83.76917267,"id":"a996l85k9u33","address":"621 PLUM VALLEY ROAD","swc":"BLLFOHXA","state":"OH"},"type":"Feature","geometry":{"type":"Point","coordinates":[-83.76917267,40.35221863]}},{"properties":{"city":"LAKEVIEW","zip":"43331","latitude":40.52774048,"county":"LOGAN","fa":10049540,"lata":923,"longitude":-83.88085175,"id":"a996l8jgtqel","address":"14297C STATE ROUTE 235 NORTH","swc":"RSPNOHXA","state":"OH"},"type":"Feature","geometry":{"type":"Point","coordinates":[-83.88085175,40.52774048]}},{"properties":{"city":"LEWISTOWN","zip":"43333","latitude":40.43972015,"county":"LOGAN","fa":10011763,"lata":923,"longitude":-83.89138794,"id":"a996l88p6mve","address":"5863 ROAD 61","swc":"RSPNOHXA","state":"OH"},"type":"Feature","geometry":{"type":"Point","coordinates":[-83.89138794,40.43972015]}},{"properties":{"city":"QUINCY","zip":"43343","latitude":40.28630829,"county":"LOGAN","fa":10014185,"lata":923,"longitude":-83.98243713,"id":"a996l87kjgwz","address":"11681 STATE ROUTE 706","swc":"DGRFOHXA","state":"OH"},"type":"Feature","geometry":{"type":"Point","coordinates":[-83.98243713,40.28630829]}},{"properties":{"city":"AMHERST","zip":"44001","latitude":41.36148071,"county":"LORAIN","fa":10012166,"lata":320,"longitude":-82.21382904,"id":"a996l89u1l38","address":"46145 TELEGRAPH ROAD","swc":"AMHROHXB","state":"OH"},"type":"Feature","geometry":{"type":"Point","coordinates":[-82.21382904,41.36148071]}},{"properties":{"city":"AMHERST","zip":"44001","latitude":41.41016006,"county":"LORAIN","fa":10042459,"lata":320,"longitude":-82.18170929,"id":"a996l85z8t12","address":"5961 OBERLIN ROAD","swc":"LORNOHXB","state":"OH"},"type":"Feature","geometry":{"type":"Point","coordinates":[-82.18170929,41.41016006]}},{"properties":{"city":"AMHERST","zip":"44001","latitude":41.34236908,"county":"LORAIN","fa":10042711,"lata":320,"longitude":-82.27023315,"id":"a996l8f5ha1a","address":"48750 RUSSIA ROAD","swc":"AMHROHXB","state":"OH"},"type":"Feature","geometry":{"type":"Point","coordinates":[-82.27023315,41.34236908]}},{"properties":{"city":"AMHERST","zip":"44001","latitude":41.39997101,"county":"LORAIN","fa":10077473,"lata":320,"longitude":-82.25232697,"id":"a996l8kri5sd","address":"1015 QUARRY ROAD","swc":"AMHROHXA","state":"OH"},"type":"Feature","geometry":{"type":"Point","coordinates":[-82.25232697,41.39997101]}},{"properties":{"city":"AMHERST","zip":"44001","latitude":41.36445999,"county":"LORAIN","fa":10077475,"lata":320,"longitude":-82.29666901,"id":"a996l8bdramd","address":"8909 GIFFORD ROAD","swc":"AMHROHXA","state":"OH"},"type":"Feature","geometry":{"type":"Point","coordinates":[-82.29666901,41.36445999]}},{"properties":{"city":"AVON","zip":"44011","latitude":41.47000122,"county":"LORAIN","fa":10103711,"lata":320,"longitude":-81.9732132,"id":"a996l89dvfa0","address":"32150 JUST IMAGINE DRIVE","swc":"AVONOHXB","state":"OH"},"type":"Feature","geometry":{"type":"Point","coordinates":[-81.9732132,41.47000122]}},{"properties":{"city":"AVON","zip":"44011","latitude":41.46976089,"county":"LORAIN","fa":10146856,"lata":320,"longitude":-81.9909668,"id":"a996l88isphn","address":"1370 LEAR-NAGLE RD","swc":"AVONOHXB","state":"OH"},"type":"Feature","geometry":{"type":"Point","coordinates":[-81.9909668,41.46976089]}},{"properties":{"city":"GRAFTON","zip":"44044","latitude":41.31634903,"county":"LORAIN","fa":10012165,"lata":320,"longitude":-82.0229187,"id":"a996l84tahss","address":"11920 &amp; 11930 AVON BELDEN ROAD","swc":"NETNOHXA","state":"OH"},"type":"Feature","geometry":{"type":"Point","coordinates":[-82.0229187,41.31634903]}},{"properties":{"city":"GRAFTON","zip":"44044","latitude":41.27138901,"county":"LORAIN","fa":10069764,"lata":320,"longitude":-82.02583313,"id":"a996l8kx5xn6","address":"14708 WOOSTER-AVON LAKE ROAD","swc":"GFTNOHXA","state":"OH"},"type":"Feature","geometry":{"type":"Point","coordinates":[-82.02583313,41.27138901]}},{"properties":{"city":"GRAFTON","zip":"44044","latitude":41.23006821,"county":"LORAIN","fa":10103744,"lata":320,"longitude":-82.02355957,"id":"a996l8e6956a","address":"17332 STATE ROAD 83","swc":"GFTNOHXA","state":"OH"},"type":"Feature","geometry":{"type":"Point","coordinates":[-82.02355957,41.23006821]}},{"properties":{"city":"LORAIN","zip":"44052","latitude":41.43529892,"county":"LORAIN","fa":10033632,"lata":320,"longitude":-82.18470001,"id":"a996l8ciwlg1","address":"760 HALF TOWER BOULEVARD","swc":"LORNOHXC","state":"OH"},"type":"Feature","geometry":{"type":"Point","coordinates":[-82.18470001,41.43529892]}},{"properties":{"city":"LORAIN","zip":"44052","latitude":41.47600937,"county":"LORAIN","fa":10042460,"lata":320,"longitude":-82.13002777,"id":"a996l8dxghfs","address":"719 ROOT ROAD","swc":"SHLKOHXA","state":"OH"},"type":"Feature","geometry":{"type":"Point","coordinates":[-82.13002777,41.47600937]}},{"properties":{"city":"LORAIN","zip":"44052","latitude":41.46334839,"county":"LORAIN","fa":10077316,"lata":320,"longitude":-82.12037659,"id":"a996l8gh1ffd","address":"3811 COLORADO AVENUE","swc":"SHLKOHXA","state":"OH"},"type":"Feature","geometry":{"type":"Point","coordinates":[-82.12037659,41.46334839]}},{"properties":{"city":"LORAIN","zip":"44052","latitude":41.46829987,"county":"LORAIN","fa":10077317,"lata":320,"longitude":-82.1867981,"id":"a996l85zr7gm","address":"200 OBERLIN AVENUE","swc":"LORNOHXA","state":"OH"},"type":"Feature","geometry":{"type":"Point","coordinates":[-82.1867981,41.46829987]}},{"properties":{"city":"LORAIN","zip":"44052","latitude":41.42612839,"county":"LORAIN","fa":10077474,"lata":320,"longitude":-82.26000214,"id":"a996l890ii2k","address":"7101 WEST ERIE AVENUE","swc":"LORNOHXC","state":"OH"},"type":"Feature","geometry":{"type":"Point","coordinates":[-82.26000214,41.42612839]}},{"properties":{"city":"LORAIN","zip":"44055","latitude":41.44610977,"county":"LORAIN","fa":10037396,"lata":320,"longitude":-82.1222229,"id":"a996l88wkzct","address":"2117 EAST 28TH STREET","swc":"LORNOHXE","state":"OH"},"type":"Feature","geometry":{"type":"Point","coordinates":[-82.1222229,41.44610977]}},{"properties":{"city":"LORAIN","zip":"44055","latitude":41.42279053,"county":"LORAIN","fa":10077318,"lata":320,"longitude":-82.13999939,"id":"a996l8bpnmu7","address":"5279 GLOBE AVENUE","swc":"LORNOHXB","state":"OH"},"type":"Feature","geometry":{"type":"Point","coordinates":[-82.13999939,41.42279053]}},{"properties":{"city":"OBERLIN","zip":"44074","latitude":41.26549911,"county":"LORAIN","fa":10012168,"lata":320,"longitude":-82.21199799,"id":"a996l8inxe3q","address":"45635 US ROUTE 20","swc":"OBRLOHXA","state":"OH"},"type":"Feature","geometry":{"type":"Point","coordinates":[-82.21199799,41.26549911]}},{"properties":{"city":"OBERLIN","zip":"44074","latitude":41.31193924,"county":"LORAIN","fa":10083325,"lata":320,"longitude":-82.22566223,"id":"a996l8ddjgqw","address":"46268 BUTTERNUT RIDGE ROAD","swc":"OBRLOHXA","state":"OH"},"type":"Feature","geometry":{"type":"Point","coordinates":[-82.22566223,41.31193924]}},{"properties":{"city":"OBERLIN","zip":"44074","latitude":41.29111099,"county":"LORAIN","fa":10103743,"lata":320,"longitude":-82.31443787,"id":"a996l8g3b4xy","address":"13611 BAIRD ROAD","swc":"TBD","state":"OH"},"type":"Feature","geometry":{"type":"Point","coordinates":[-82.31443787,41.29111099]}},{"properties":{"city":"VERMILION","zip":"44089","latitude":41.41220856,"county":"LORAIN","fa":10042455,"lata":320,"longitude":-82.29795074,"id":"a996l8c4y62s","address":"2500 BROWNHELM STATION ROAD","swc":"VRMLOHXA","state":"OH"},"type":"Feature","geometry":{"type":"Point","coordinates":[-82.29795074,41.41220856]}},{"properties":{"city":"VERMILION","zip":"44089","latitude":41.40113068,"county":"LORAIN","fa":10077476,"lata":320,"longitude":-82.33638763,"id":"a996l8jsjfgn","address":"52392 STATE ROUTE 2","swc":"VRMLOHXA","state":"OH"},"type":"Feature","geometry":{"type":"Point","coordinates":[-82.33638763,41.40113068]}},{"properties":{"city":"WELLINGTON","zip":"44090","latitude":41.16268921,"county":"LORAIN","fa":10012219,"lata":320,"longitude":-82.22621918,"id":"a996l87p6pjd","address":"200 ERIE STREET","swc":"WGTNOHXA","state":"OH"},"type":"Feature","geometry":{"type":"Point","coordinates":[-82.22621918,41.16268921]}},{"properties":{"city":"WELLINGTON","zip":"44090","latitude":41.15694046,"county":"LORAIN","fa":10037461,"lata":320,"longitude":-82.13141632,"id":"a996l8dq720o","address":"43191 JONES ROAD","swc":"WGTNOHXA","state":"OH"},"type":"Feature","geometry":{"type":"Point","coordinates":[-82.13141632,41.15694046]}},{"properties":{"city":"CURTICE","zip":"43412","latitude":41.6391716,"county":"LUCAS","fa":10108253,"lata":326,"longitude":-83.31889343,"id":"a996l8an7tpo","address":"9555 JERUSALEM ROAD","swc":"CRTCOHXA","state":"OH"},"type":"Feature","geometry":{"type":"Point","coordinates":[-83.31889343,41.6391716]}},{"properties":{"city":"SWANTON","zip":"43558","latitude":41.53250122,"county":"LUCAS","fa":10107687,"lata":326,"longitude":-83.85694122,"id":"a996l88u3w13","address":"13110 WATERVILLE SWANTON ROAD","swc":"NPLSOHXA","state":"OH"},"type":"Feature","geometry":{"type":"Point","coordinates":[-83.85694122,41.53250122]}},{"properties":{"city":"WATERVILLE","zip":"43566","latitude":41.46221924,"county":"LUCAS","fa":10108266,"lata":326,"longitude":-83.78582764,"id":"a996l87fc5v7","address":"HERTZFIELD M2","swc":"WTVLOHXA","state":"OH"},"type":"Feature","geometry":{"type":"Point","coordinates":[-83.78582764,41.46221924]}},{"properties":{"city":"PLAIN CITY","zip":"43064","latitude":40.08750153,"county":"MADISON","fa":10011721,"lata":324,"longitude":-83.2647171,"id":"a996l88ybt03","address":"7575 CONVERSE HUFF ROAD","swc":"PNCYOHXA","state":"OH"},"type":"Feature","geometry":{"type":"Point","coordinates":[-83.2647171,40.08750153]}},{"properties":{"city":"MOUNT STERLING","zip":"43143","latitude":39.72917175,"county":"MADISON","fa":10070846,"lata":324,"longitude":-83.36916351,"id":"a996l87rak2m","address":"5552 STATE ROUTE 323","swc":"MTSTOHXA","state":"OH"},"type":"Feature","geometry":{"type":"Point","coordinates":[-83.36916351,39.72917175]}},{"properties":{"city":"MOUNT STERLING","zip":"43143","latitude":39.76889038,"county":"MADISON","fa":10011697,"lata":324,"longitude":-83.27861023,"id":"a996l8bqevtb","address":"11900 KIOUSVILLE-PALESTINE ROAD","swc":"MTSTOHXA","state":"OH"},"type":"Feature","geometry":{"type":"Point","coordinates":[-83.27861023,39.76889038]}},{"properties":{"city":"BERLIN CENTER","zip":"44401","latitude":41.00988007,"county":"MAHONING","fa":10012947,"lata":322,"longitude":-80.94516754,"id":"a996l8hm7xav","address":"15571 BERLIN STATION ROAD","swc":"BRCTOHXA","state":"OH"},"type":"Feature","geometry":{"type":"Point","coordinates":[-80.94516754,41.00988007]}},{"properties":{"city":"BERLIN CENTER","zip":"44401","latitude":41.02513885,"county":"MAHONING","fa":10126068,"lata":322,"longitude":-80.90841675,"id":"a996l889yk36","address":"6370 DUCK CREEK ROAD","swc":"BRCTOHXA","state":"OH"},"type":"Feature","geometry":{"type":"Point","coordinates":[-80.90841675,41.02513885]}},{"properties":{"city":"LAKE MILTON","zip":"44429","latitude":41.10689163,"county":"MAHONING","fa":10123600,"lata":322,"longitude":-80.99971771,"id":"a996l8ewhw7f","address":"1135 COUNTY LINE ROAD","swc":"LKMLOHXA","state":"OH"},"type":"Feature","geometry":{"type":"Point","coordinates":[-80.99971771,41.10689163]}},{"properties":{"city":"NORTH JACKSON","zip":"44451","latitude":41.0365181,"county":"MAHONING","fa":10030039,"lata":322,"longitude":-80.88774109,"id":"a996l8cbgf2a","address":"12570 ELLSWORHT ROAD","swc":"BRCTOHXA","state":"OH"},"type":"Feature","geometry":{"type":"Point","coordinates":[-80.88774109,41.0365181]}},{"properties":{"city":"SALEM","zip":"44460","latitude":40.98463821,"county":"MAHONING","fa":10012284,"lata":322,"longitude":-80.85669708,"id":"a996l85nl507","address":"9274 SALEM WARREN ROAD","swc":"BRCTOHXA","state":"OH"},"type":"Feature","geometry":{"type":"Point","coordinates":[-80.85669708,40.98463821]}},{"properties":{"city":"MARION","zip":"43302","latitude":40.67227936,"county":"MARION","fa":10041616,"lata":324,"longitude":-83.1254425,"id":"a996l8a0ldqh","address":"699 MARSEILLES-GALION ROAD EAST","swc":"MARNOHXC","state":"OH"},"type":"Feature","geometry":{"type":"Point","coordinates":[-83.1254425,40.67227936]}},{"properties":{"city":"PROSPECT","zip":"43302","latitude":40.53144073,"county":"MARION","fa":10041617,"lata":324,"longitude":-83.19017029,"id":"a996l882j5sp","address":"STATE ROAD 203","swc":"GRCMOHXA","state":"OH"},"type":"Feature","geometry":{"type":"Point","coordinates":[-83.19017029,40.53144073]}},{"properties":{"city":"MARION","zip":"43302","latitude":40.62335968,"county":"MARION","fa":10050441,"lata":324,"longitude":-83.12882996,"id":"a996l8gossuz","address":"1788 MARION-BUCYRUS ROAD","swc":"MARNOHXC","state":"OH"},"type":"Feature","geometry":{"type":"Point","coordinates":[-83.12882996,40.62335968]}},{"properties":{"city":"MARION","zip":"43302","latitude":40.52690125,"county":"MARION","fa":10050443,"lata":324,"longitude":-83.06742096,"id":"a996l8evbsbb","address":"3123 RICHLAND PIKE","swc":"MARNOHXB","state":"OH"},"type":"Feature","geometry":{"type":"Point","coordinates":[-83.06742096,40.52690125]}},{"properties":{"city":"MARION","zip":"43302","latitude":40.58610916,"county":"MARION","fa":10050451,"lata":324,"longitude":-83.05647278,"id":"a996l88ng7qi","address":"2772 MARION MOUNT GILEAD ROAD","swc":"MARNOHXB","state":"OH"},"type":"Feature","geometry":{"type":"Point","coordinates":[-83.05647278,40.58610916]}},{"properties":{"city":"MARION","zip":"43302","latitude":40.56361008,"county":"MARION","fa":10095043,"lata":324,"longitude":-83.13361359,"id":"a996l8i0x43d","address":"445 BARKS ROAD WEST","swc":"MARNOHXC","state":"OH"},"type":"Feature","geometry":{"type":"Point","coordinates":[-83.13361359,40.56361008]}},{"properties":{"city":"CALEDONIA","zip":"43314","latitude":40.57889175,"county":"MARION","fa":10106355,"lata":324,"longitude":-82.96582794,"id":"a996l8l1tm4c","address":"469 CALEDONIA ASHLEY ROAD SOUTH","swc":"MARNOHXB","state":"OH"},"type":"Feature","geometry":{"type":"Point","coordinates":[-82.96582794,40.57889175]}},{"properties":{"city":"PROSPECT","zip":"43342","latitude":40.46702957,"county":"MARION","fa":10041619,"lata":324,"longitude":-83.1879425,"id":"a996l89ub4ub","address":"STATE ROAD 203 SOUTH","swc":"PRSPOHXA","state":"OH"},"type":"Feature","geometry":{"type":"Point","coordinates":[-83.1879425,40.46702957]}},{"properties":{"city":"WALDO","zip":"43356","latitude":40.43946838,"county":"MARION","fa":10083346,"lata":324,"longitude":-83.07512665,"id":"a996l8anr3sr","address":"7415 WALDO DELAWARE ROAD","swc":"WALDOHXA","state":"OH"},"type":"Feature","geometry":{"type":"Point","coordinates":[-83.07512665,40.43946838]}},{"properties":{"city":"MEDINA","zip":"44256","latitude":41.09305954,"county":"MEDINA","fa":10077666,"lata":325,"longitude":-81.93566132,"id":"a996l8i80ll0","address":"6611 LAFAYETTE ROAD (STATE ROAD 42)","swc":"MEDNOHXB","state":"OH"},"type":"Feature","geometry":{"type":"Point","coordinates":[-81.93566132,41.09305954]}},{"properties":{"city":"MEDINA","zip":"44256","latitude":41.16416168,"county":"MEDINA","fa":10012131,"lata":325,"longitude":-81.91319275,"id":"a996l8im07wk","address":"6297 NORWALK ROAD","swc":"MEDNOHXB","state":"OH"},"type":"Feature","geometry":{"type":"Point","coordinates":[-81.91319275,41.16416168]}},{"properties":{"city":"WEST SALEM","zip":"44287","latitude":40.99161148,"county":"MEDINA","fa":10012291,"lata":326,"longitude":-82.09488678,"id":"a996l8adosa7","address":"10215 RIVERS CORNERS BOULEVARD","swc":"WSLMOHXA","state":"OH"},"type":"Feature","geometry":{"type":"Point","coordinates":[-82.09488678,40.99161148]}},{"properties":{"city":"CELINA","zip":"45822","latitude":40.55932999,"county":"MERCER","fa":10011844,"lata":326,"longitude":-84.61888885,"id":"a996l87cm76f","address":"4748 FAIRGROUND ROAD","swc":"CELNOHXA","state":"OH"},"type":"Feature","geometry":{"type":"Point","coordinates":[-84.61888885,40.55932999]}},{"properties":{"city":"CELINA","zip":"45822","latitude":40.55899811,"county":"MERCER","fa":10154307,"lata":923,"longitude":-84.54308319,"id":"a996l8chek3w","address":"1901 INDUSTRIAL DRIVE","swc":"OHCYOHXA","state":"OH"},"type":"Feature","geometry":{"type":"Point","coordinates":[-84.54308319,40.55899811]}},{"properties":{"city":"BRADFORD","zip":"45308","latitude":40.11693954,"county":"MIAMI","fa":10062397,"lata":328,"longitude":-84.42053223,"id":"a996l8k087bh","address":"11425 WEST US ROUTE-36","swc":"BRFROHXA","state":"OH"},"type":"Feature","geometry":{"type":"Point","coordinates":[-84.42053223,40.11693954]}},{"properties":{"city":"WEST MILTON","zip":"45383","latitude":39.94836044,"county":"MIAMI","fa":10011820,"lata":328,"longitude":-84.35456085,"id":"a996l89wva3s","address":"8190 WEST EMRICK ROAD","swc":"WMTNOHXA","state":"OH"},"type":"Feature","geometry":{"type":"Point","coordinates":[-84.35456085,39.94836044]}},{"properties":{"city":"CLAYTON","zip":"45315","latitude":39.85343933,"county":"MONTGOMERY","fa":10014198,"lata":328,"longitude":-84.35928345,"id":"a996l85xkry3","address":"7790 KIMMEL ROAD","swc":"ENWDOHXA","state":"OH"},"type":"Feature","geometry":{"type":"Point","coordinates":[-84.35928345,39.85343933]}},{"properties":{"city":"GERMANTOWN","zip":"45327","latitude":39.63806152,"county":"MONTGOMERY","fa":10066410,"lata":328,"longitude":-84.3713913,"id":"a996l896evqa","address":"909 NORTH CHERRY STREET","swc":"GMTWOHXA","state":"OH"},"type":"Feature","geometry":{"type":"Point","coordinates":[-84.3713913,39.63806152]}},{"properties":{"city":"GERMANTOWN","zip":"45327","latitude":39.58277893,"county":"MONTGOMERY","fa":10011799,"lata":328,"longitude":-84.36860657,"id":"a996l86nh6ws","address":"8879 KIESTER ROAD","swc":"GMTWOHXA","state":"OH"},"type":"Feature","geometry":{"type":"Point","coordinates":[-84.36860657,39.58277893]}},{"properties":{"city":"MALTA","zip":"43758","latitude":39.64400101,"county":"MORGAN","fa":10082013,"lata":324,"longitude":-81.86694336,"id":"a996l89ehcim","address":"COUNTY ROAD 4","swc":"MCNVOHXA","state":"OH"},"type":"Feature","geometry":{"type":"Point","coordinates":[-81.86694336,39.64400101]}},{"properties":{"city":"CARDINGTON","zip":"43315","latitude":40.47317123,"county":"MORROW","fa":10050448,"lata":923,"longitude":-82.92717743,"id":"a996l8e0yvhr","address":"3125 COUNTY ROAD 150","swc":"CRDGOHXA","state":"OH"},"type":"Feature","geometry":{"type":"Point","coordinates":[-82.92717743,40.47317123]}},{"properties":{"city":"EDISON","zip":"43320","latitude":40.54761124,"county":"MORROW","fa":10050450,"lata":923,"longitude":-82.86025238,"id":"a996l8e1guog","address":"3293 TOWNSHIP ROAD 127","swc":"MTGLOHXA","state":"OH"},"type":"Feature","geometry":{"type":"Point","coordinates":[-82.86025238,40.54761124]}},{"properties":{"city":"MARENGO","zip":"43334","latitude":40.37971878,"county":"MORROW","fa":10076961,"lata":923,"longitude":-82.81861115,"id":"a996l8j90xhi","address":"712 COUNTY ROAD 26","swc":"MRNGOHXA","state":"OH"},"type":"Feature","geometry":{"type":"Point","coordinates":[-82.81861115,40.37971878]}},{"properties":{"city":"MARENGO","zip":"43334","latitude":40.43968964,"county":"MORROW","fa":10077180,"lata":923,"longitude":-82.79888916,"id":"a996l84zlp49","address":"4499 COUNTY ROAD 179","swc":"MRNGOHXA","state":"OH"},"type":"Feature","geometry":{"type":"Point","coordinates":[-82.79888916,40.43968964]}},{"properties":{"city":"MOUNT GILEAD","zip":"43338","latitude":40.5593605,"county":"MORROW","fa":10050449,"lata":923,"longitude":-82.76689911,"id":"a996l88kts8p","address":"5618 US HIGHWAY 42","swc":"MTGLOHXA","state":"OH"},"type":"Feature","geometry":{"type":"Point","coordinates":[-82.76689911,40.5593605]}},{"properties":{"city":"MOUNT GILEAD","zip":"43338","latitude":40.54249954,"county":"MORROW","fa":10069940,"lata":923,"longitude":-82.66110992,"id":"a996l8cwwkor","address":"5171 STATE ROUTE 314","swc":"CHVLOHXA","state":"OH"},"type":"Feature","geometry":{"type":"Point","coordinates":[-82.66110992,40.54249954]}},{"properties":{"city":"MOUNT GILEAD","zip":"43338","latitude":40.49789047,"county":"MORROW","fa":10077181,"lata":923,"longitude":-82.72132874,"id":"a996l8ksm4zu","address":"6022 STATE ROUTE 95","swc":"CHVLOHXA","state":"OH"},"type":"Feature","geometry":{"type":"Point","coordinates":[-82.72132874,40.49789047]}},{"properties":{"city":"MOUNT GILEAD","zip":"43338","latitude":40.67679214,"county":"MORROW","fa":10146776,"lata":923,"longitude":-82.81804657,"id":"a996l8jwb7gg","address":"TBD","swc":"GLINOHXA","state":"OH"},"type":"Feature","geometry":{"type":"Point","coordinates":[-82.81804657,40.67679214]}},{"properties":{"city":"NEWARK","zip":"43056","latitude":39.94556046,"county":"MUSKINGUM","fa":10011718,"lata":324,"longitude":-82.20056152,"id":"a996l87ur4mf","address":"11285 IDEN ROAD","swc":"GRTTOHXA","state":"OH"},"type":"Feature","geometry":{"type":"Point","coordinates":[-82.20056152,39.94556046]}},{"properties":{"city":"NEW CONCORD","zip":"43762","latitude":39.97964096,"county":"MUSKINGUM","fa":10011779,"lata":324,"longitude":-81.74282837,"id":"a996l8j2vgnp","address":"13087 PLEASANT HILL ROAD","swc":"NWCNOHXA","state":"OH"},"type":"Feature","geometry":{"type":"Point","coordinates":[-81.74282837,39.97964096]}},{"properties":{"city":"CALDWELL","zip":"43724","latitude":39.68772125,"county":"NOBLE","fa":10125351,"lata":324,"longitude":-81.48510742,"id":"a996l8hwh0i6","address":"TOWNSHIP HIGHWAY 297","swc":"DXCYOHXA","state":"OH"},"type":"Feature","geometry":{"type":"Point","coordinates":[-81.48510742,39.68772125]}},{"properties":{"city":"CALDWELL","zip":"43724","latitude":39.74888992,"county":"NOBLE","fa":10126058,"lata":324,"longitude":-81.5612793,"id":"a996l86eshrf","address":"44955 COUNTY ROAD 60","swc":"CLWLOHXA","state":"OH"},"type":"Feature","geometry":{"type":"Point","coordinates":[-81.5612793,39.74888992]}},{"properties":{"city":"CALDWELL","zip":"43724","latitude":39.81666946,"county":"NOBLE","fa":10126070,"lata":324,"longitude":-81.55388641,"id":"a996l85c34m2","address":"COUNTY ROAD 128","swc":"CLWLOHXA","state":"OH"},"type":"Feature","geometry":{"type":"Point","coordinates":[-81.55388641,39.81666946]}},{"properties":{"city":"PLEASANT CITY","zip":"43772","latitude":39.87611008,"county":"NOBLE","fa":10125333,"lata":324,"longitude":-81.52610779,"id":"a996l85drnva","address":"53506 OLD INFIRMARY ROAD","swc":"BYVLOHXA","state":"OH"},"type":"Feature","geometry":{"type":"Point","coordinates":[-81.52610779,39.87611008]}},{"properties":{"city":"SENECAVILLE","zip":"43780","latitude":39.87667084,"county":"NOBLE","fa":10125359,"lata":324,"longitude":-81.39736176,"id":"a996l87v3ou0","address":"53451 SENECA LAKE ROAD","swc":"SRFDOHXA","state":"OH"},"type":"Feature","geometry":{"type":"Point","coordinates":[-81.39736176,39.87667084]}},{"properties":{"city":"LAKESIDE-MARBLEHEAD","zip":"43440","latitude":41.52528,"county":"OTTAWA","fa":10108720,"lata":326,"longitude":-82.77610779,"id":"a996l8gks7u7","address":"8286 HARBOR ROAD","swc":"MRBLOHXA","state":"OH"},"type":"Feature","geometry":{"type":"Point","coordinates":[-82.77610779,41.52528]}},{"properties":{"city":"LAKESIDE-MARBLEHEAD","zip":"43440","latitude":41.52555847,"county":"OTTAWA","fa":10108740,"lata":326,"longitude":-82.8319397,"id":"a996l8kf0ejs","address":"310 SOUTHBRIDGE ROAD","swc":"PCTNOHXA","state":"OH"},"type":"Feature","geometry":{"type":"Point","coordinates":[-82.8319397,41.52555847]}},{"properties":{"city":"OAK HARBOR","zip":"43449","latitude":41.61053085,"county":"OTTAWA","fa":10102975,"lata":326,"longitude":-83.11524963,"id":"a996l89kt6mq","address":"9522 LONG BEACH ROAD","swc":"OKHROHXB","state":"OH"},"type":"Feature","geometry":{"type":"Point","coordinates":[-83.11524963,41.61053085]}},{"properties":{"city":"OAK HARBOR","zip":"43449","latitude":41.58980942,"county":"OTTAWA","fa":10102976,"lata":326,"longitude":-83.22145081,"id":"a996l8iffh6c","address":"5183 NORTH STATE ROUTE 590","swc":"OKHROHXB","state":"OH"},"type":"Feature","geometry":{"type":"Point","coordinates":[-83.22145081,41.58980942]}},{"properties":{"city":"PORT CLINTON","zip":"43452","latitude":41.49322128,"county":"OTTAWA","fa":10102972,"lata":326,"longitude":-83.15441895,"id":"a996l8ceidhx","address":"1571 SOUTH APPLEGATE ROAD","swc":"OKHROHXB","state":"OH"},"type":"Feature","geometry":{"type":"Point","coordinates":[-83.15441895,41.49322128]}},{"properties":{"city":"PORT CLINTON","zip":"43452","latitude":41.50910187,"county":"OTTAWA","fa":10102973,"lata":326,"longitude":-82.95870972,"id":"a996l8dhtcfx","address":"1005 WEST THIRD STREET","swc":"PCTNOHXA","state":"OH"},"type":"Feature","geometry":{"type":"Point","coordinates":[-82.95870972,41.50910187]}},{"properties":{"city":"PORT CLINTON","zip":"43452","latitude":41.54964828,"county":"OTTAWA","fa":10102974,"lata":326,"longitude":-83.05805206,"id":"a996l8ivlwzh","address":"6505 WEST CAMP PERRY WESTERN ROAD","swc":"PCTNOHXB","state":"OH"},"type":"Feature","geometry":{"type":"Point","coordinates":[-83.05805206,41.54964828]}},{"properties":{"city":"PORT CLINTON","zip":"43452","latitude":41.57500076,"county":"OTTAWA","fa":10107868,"lata":326,"longitude":-82.84693909,"id":"a996l8eua3cd","address":"3742 NORTHWEST CATAWBA ROAD","swc":"CTISOHXA","state":"OH"},"type":"Feature","geometry":{"type":"Point","coordinates":[-82.84693909,41.57500076]}},{"properties":{"city":"PORT CLINTON","zip":"43452","latitude":41.50611115,"county":"OTTAWA","fa":10132567,"lata":326,"longitude":-82.92575073,"id":"a996l8dry67l","address":"37 PARK AVENUE","swc":"PCTNOHXA","state":"OH"},"type":"Feature","geometry":{"type":"Point","coordinates":[-82.92575073,41.50611115]}},{"properties":{"city":"PUT IN BAY","zip":"43456","latitude":41.64471817,"county":"OTTAWA","fa":10107690,"lata":326,"longitude":-82.83528137,"id":"a996l869wya3","address":"1380 WARDEN AVENUE","swc":"PTBYOHXA","state":"OH"},"type":"Feature","geometry":{"type":"Point","coordinates":[-82.83528137,41.64471817]}},{"properties":{"city":"ANTWERP","zip":"45813","latitude":41.18027878,"county":"PAULDING","fa":10144291,"lata":326,"longitude":-84.72471619,"id":"a996l8jcpyh3","address":"107 VICTORY LANE COUNTY ROAD 176","swc":"ATWPOHXA","state":"OH"},"type":"Feature","geometry":{"type":"Point","coordinates":[-84.72471619,41.18027878]}},{"properties":{"city":"PAULDING","zip":"45879","latitude":41.1466713,"county":"PAULDING","fa":10144487,"lata":923,"longitude":-84.59249878,"id":"a996l8fr7efc","address":"802 MEADOW BROOK DRIVE","swc":"PLNGOHXA","state":"OH"},"type":"Feature","geometry":{"type":"Point","coordinates":[-84.59249878,41.1466713]}},{"properties":{"city":"PAYNE","zip":"45880","latitude":41.07889175,"county":"PAULDING","fa":10144490,"lata":326,"longitude":-84.72250366,"id":"a996l8eoka4u","address":"312-A EAST ORCHARD STREET","swc":"PAYNOHXA","state":"OH"},"type":"Feature","geometry":{"type":"Point","coordinates":[-84.72250366,41.07889175]}},{"properties":{"city":"JUNCTION CITY","zip":"43748","latitude":39.71014023,"county":"PERRY","fa":10129440,"lata":324,"longitude":-82.29405212,"id":"a996l88ntvbb","address":"690 STATE ROUTE 668","swc":"JNCYOHXA","state":"OH"},"type":"Feature","geometry":{"type":"Point","coordinates":[-82.29405212,39.71014023]}},{"properties":{"city":"LOGAN","zip":"43766","latitude":39.6207695,"county":"PERRY","fa":10127129,"lata":324,"longitude":-82.3342514,"id":"a996l8ij2vn9","address":"7397 STATE ROUTE 668","swc":"JNCYOHXA","state":"OH"},"type":"Feature","geometry":{"type":"Point","coordinates":[-82.3342514,39.6207695]}},{"properties":{"city":"NEW HOLLAND","zip":"43145","latitude":39.56705856,"county":"PICKAWAY","fa":10011785,"lata":324,"longitude":-83.1855011,"id":"a996l8gm8kdx","address":"25594 LOCUST GROVE ROAD","swc":"WLPTOHXB","state":"OH"},"type":"Feature","geometry":{"type":"Point","coordinates":[-83.1855011,39.56705856]}},{"properties":{"city":"BEAVER","zip":"45613","latitude":39.03963852,"county":"PIKE","fa":10081994,"lata":324,"longitude":-82.83511353,"id":"a996l85jlvpj","address":"4903 BEAVER PIKE","swc":"BEVROHXB","state":"OH"},"type":"Feature","geometry":{"type":"Point","coordinates":[-82.83511353,39.03963852]}},{"properties":{"city":"PEEBLES","zip":"45660","latitude":39.02416992,"county":"PIKE","fa":10110924,"lata":328,"longitude":-83.27639008,"id":"a996l84rh7i1","address":"277 MOUSER ROAD","swc":"SNSPOHXB","state":"OH"},"type":"Feature","geometry":{"type":"Point","coordinates":[-83.27639008,39.02416992]}},{"properties":{"city":"PIKETON","zip":"45661","latitude":39.03527832,"county":"PIKE","fa":10081985,"lata":324,"longitude":-83.06305695,"id":"a996l856d9nu","address":"4956 LONG FORK ROAD","swc":"PKTNOHXA","state":"OH"},"type":"Feature","geometry":{"type":"Point","coordinates":[-83.06305695,39.03527832]}},{"properties":{"city":"PIKETON","zip":"45661","latitude":39.0606308,"county":"PIKE","fa":10132561,"lata":324,"longitude":-83.13838959,"id":"a996l8d3wnma","address":"1578 GLEASON ROAD","swc":"IDAHOHXA","state":"OH"},"type":"Feature","geometry":{"type":"Point","coordinates":[-83.13838959,39.0606308]}},{"properties":{"city":"DIAMOND","zip":"44412","latitude":41.09677124,"county":"PORTAGE","fa":10012283,"lata":322,"longitude":-81.05033875,"id":"a996l86l6qeu","address":"3956 1/2 DEERFIELD-WINHAM ROAD","swc":"LKMLOHXA","state":"OH"},"type":"Feature","geometry":{"type":"Point","coordinates":[-81.05033875,41.09677124]}},{"properties":{"city":"CAMDEN","zip":"45311","latitude":39.63444138,"county":"PREBLE","fa":10050761,"lata":328,"longitude":-84.65917206,"id":"a996l8hzn3ip","address":"8045 CAMDEN SUGAR VALLEY ROAD","swc":"CMDNOHXA","state":"OH"},"type":"Feature","geometry":{"type":"Point","coordinates":[-84.65917206,39.63444138]}},{"properties":{"city":"CAMDEN","zip":"45311","latitude":39.63758087,"county":"PREBLE","fa":10011842,"lata":328,"longitude":-84.57541656,"id":"a996l88itycs","address":"7504 QUAKER TRACE ROAD","swc":"GRTSOHXA","state":"OH"},"type":"Feature","geometry":{"type":"Point","coordinates":[-84.57541656,39.63758087]}},{"properties":{"city":"EATON","zip":"45320","latitude":39.73746872,"county":"PREBLE","fa":10012948,"lata":328,"longitude":-84.62019348,"id":"a996l8d4tk8j","address":"722-B SOUTH FRANKLIN STREET","swc":"EATNOHXA","state":"OH"},"type":"Feature","geometry":{"type":"Point","coordinates":[-84.62019348,39.73746872]}},{"properties":{"city":"EATON","zip":"45320","latitude":39.8311882,"county":"PREBLE","fa":10011800,"lata":328,"longitude":-84.6277771,"id":"a996l8fa2mmz","address":"6136 US ROUTE 127 NORTH","swc":"TBD","state":"OH"},"type":"Feature","geometry":{"type":"Point","coordinates":[-84.6277771,39.8311882]}},{"properties":{"city":"CAMDEN","zip":"45311","latitude":39.57292938,"county":"PREBLE","fa":10153308,"lata":328,"longitude":-84.65843201,"id":"a996l8f906eh","address":"688 OXFORD GERMANTOWN ROAD","swc":"CMDNOHXA","state":"OH"},"type":"Feature","geometry":{"type":"Point","coordinates":[-84.65843201,39.57292938]}},{"properties":{"city":"FORT JENNINGS","zip":"45844","latitude":40.94332886,"county":"PUTNAM","fa":10145803,"lata":923,"longitude":-84.29694366,"id":"a996l86bszil","address":"22777 US 224","swc":"FTJNOHXA","state":"OH"},"type":"Feature","geometry":{"type":"Point","coordinates":[-84.29694366,40.94332886]}},{"properties":{"city":"LEIPSIC","zip":"45856","latitude":41.08916855,"county":"PUTNAM","fa":10146369,"lata":326,"longitude":-83.99278259,"id":"a996l861v18q","address":"200 WELLFIELD DRIVE","swc":"LPSCOHXA","state":"OH"},"type":"Feature","geometry":{"type":"Point","coordinates":[-83.99278259,41.08916855]}},{"properties":{"city":"BELLVILLE","zip":"44813","latitude":40.65697098,"county":"RICHLAND","fa":10077525,"lata":923,"longitude":-82.54206848,"id":"a996l8c9c385","address":"970 STATE ROUTE 97","swc":"BLVLOHXA","state":"OH"},"type":"Feature","geometry":{"type":"Point","coordinates":[-82.54206848,40.65697098]}},{"properties":{"city":"BELLVILLE","zip":"44813","latitude":40.59835052,"county":"RICHLAND","fa":10077526,"lata":923,"longitude":-82.59374237,"id":"a996l8jsca4q","address":"2285 WOODBURY ROAD","swc":"BLVLOHXA","state":"OH"},"type":"Feature","geometry":{"type":"Point","coordinates":[-82.59374237,40.59835052]}},{"properties":{"city":"ONTARIO","zip":"44862","latitude":40.774189,"county":"RICHLAND","fa":10012295,"lata":923,"longitude":-82.61141968,"id":"a996l8bygt9g","address":"2715 WEST 4TH STREET","swc":"MNFDOHXD","state":"OH"},"type":"Feature","geometry":{"type":"Point","coordinates":[-82.61141968,40.774189]}},{"properties":{"city":"SHELBY","zip":"44875","latitude":40.87944031,"county":"RICHLAND","fa":10095467,"lata":923,"longitude":-82.58722687,"id":"a996l8b8g09k","address":"4645 BOWMAN STREET ROAD","swc":"SHLBOHXA","state":"OH"},"type":"Feature","geometry":{"type":"Point","coordinates":[-82.58722687,40.87944031]}},{"properties":{"city":"SHELBY","zip":"44875","latitude":40.8461113,"county":"RICHLAND","fa":10095468,"lata":923,"longitude":-82.65611267,"id":"a996l89owd8h","address":"4034 STIVING ROAD","swc":"SHLBOHXA","state":"OH"},"type":"Feature","geometry":{"type":"Point","coordinates":[-82.65611267,40.8461113]}},{"properties":{"city":"MANSFIELD","zip":"44903","latitude":40.72383118,"county":"RICHLAND","fa":10037462,"lata":923,"longitude":-82.47924805,"id":"a996l8934ith","address":"1654 MANSFIELD LUCAS ROAD","swc":"MNFDOHXA","state":"OH"},"type":"Feature","geometry":{"type":"Point","coordinates":[-82.47924805,40.72383118]}},{"properties":{"city":"MANSFIELD","zip":"44903","latitude":40.77864075,"county":"RICHLAND","fa":10037463,"lata":923,"longitude":-82.41555023,"id":"a996l8672oax","address":"2607 EMMA STREET","swc":"MNFDOHXB","state":"OH"},"type":"Feature","geometry":{"type":"Point","coordinates":[-82.41555023,40.77864075]}},{"properties":{"city":"MANSFIELD","zip":"44903","latitude":40.81930923,"county":"RICHLAND","fa":10077548,"lata":923,"longitude":-82.56011963,"id":"a996l8j8xoj7","address":"2412 KLINE ROAD","swc":"MNFDOHXC","state":"OH"},"type":"Feature","geometry":{"type":"Point","coordinates":[-82.56011963,40.81930923]}},{"properties":{"city":"MANSFIELD","zip":"44903","latitude":40.71549988,"county":"RICHLAND","fa":10077653,"lata":923,"longitude":-82.56889343,"id":"a996l86ffq7n","address":"1570 WEST COOK ROAD","swc":"WLDROHXA","state":"OH"},"type":"Feature","geometry":{"type":"Point","coordinates":[-82.56889343,40.71549988]}},{"properties":{"city":"MANSFIELD","zip":"44903","latitude":40.75749969,"county":"RICHLAND","fa":10077654,"lata":923,"longitude":-82.52889252,"id":"a996l875j7w1","address":"156 MARION AVENUE","swc":"MNFDOHXA","state":"OH"},"type":"Feature","geometry":{"type":"Point","coordinates":[-82.52889252,40.75749969]}},{"properties":{"city":"MANSFIELD","zip":"44903","latitude":40.76366043,"county":"RICHLAND","fa":10115793,"lata":923,"longitude":-82.66345215,"id":"a996l8i74dk4","address":"4135 PARK AVENUE WEST","swc":"MNFDOHXD","state":"OH"},"type":"Feature","geometry":{"type":"Point","coordinates":[-82.66345215,40.76366043]}},{"properties":{"city":"MANSFIELD","zip":"44904","latitude":40.67446899,"county":"RICHLAND","fa":10012292,"lata":923,"longitude":-82.52166748,"id":"a996l8cqzc9u","address":"309 VANDERBILT ROAD","swc":"WLDROHXA","state":"OH"},"type":"Feature","geometry":{"type":"Point","coordinates":[-82.52166748,40.67446899]}},{"properties":{"city":"MANSFIELD","zip":"44904","latitude":40.77661133,"county":"RICHLAND","fa":10012293,"lata":923,"longitude":-82.47885895,"id":"a996l8azyqxg","address":"680 PENNSYLVANIA AVENUE","swc":"MNFDOHXB","state":"OH"},"type":"Feature","geometry":{"type":"Point","coordinates":[-82.47885895,40.77661133]}},{"properties":{"city":"MANSFIELD","zip":"44904","latitude":40.67499924,"county":"RICHLAND","fa":10115797,"lata":923,"longitude":-82.61921692,"id":"a996l8ch6wn5","address":"2912 PENNY LANE","swc":"LXTNOHXA","state":"OH"},"type":"Feature","geometry":{"type":"Point","coordinates":[-82.61921692,40.67499924]}},{"properties":{"city":"MANSFIELD","zip":"44905","latitude":40.74555969,"county":"RICHLAND","fa":10077660,"lata":923,"longitude":-82.45500183,"id":"a996l89zygip","address":"437 SOUTH FORD ROAD","swc":"MNFDOHXB","state":"OH"},"type":"Feature","geometry":{"type":"Point","coordinates":[-82.45500183,40.74555969]}},{"properties":{"city":"MANSFIELD","zip":"44906","latitude":40.7864418,"county":"RICHLAND","fa":10126498,"lata":923,"longitude":-82.55874634,"id":"a996l8cm45rz","address":"1043 SPRINGMILL ROAD","swc":"MNFDOHXC","state":"OH"},"type":"Feature","geometry":{"type":"Point","coordinates":[-82.55874634,40.7864418]}},{"properties":{"city":"MANSFIELD","zip":"44907","latitude":40.73546982,"county":"RICHLAND","fa":10012294,"lata":923,"longitude":-82.52944183,"id":"a996l8eg3kpp","address":"665 R LEXINGTON AVENUE","swc":"WLDROHXA","state":"OH"},"type":"Feature","geometry":{"type":"Point","coordinates":[-82.52944183,40.73546982]}},{"properties":{"city":"CHILLICOTHE","zip":"45601","latitude":39.26055908,"county":"ROSS","fa":10081993,"lata":324,"longitude":-82.97389221,"id":"a996l8evkacf","address":"6157 US HIGHWAY 23","swc":"MSVLOHXA","state":"OH"},"type":"Feature","geometry":{"type":"Point","coordinates":[-82.97389221,39.26055908]}},{"properties":{"city":"CHILLICOTHE","zip":"45601","latitude":39.22055817,"county":"ROSS","fa":10082002,"lata":324,"longitude":-82.84082794,"id":"a996l85xdk1h","address":"33005 US ROUTE 35","swc":"RCDLOHXA","state":"OH"},"type":"Feature","geometry":{"type":"Point","coordinates":[-82.84082794,39.22055817]}},{"properties":{"city":"CHILLICOTHE","zip":"45601","latitude":39.32305908,"county":"ROSS","fa":10082003,"lata":324,"longitude":-83.06194305,"id":"a996l8acc14m","address":"245 RED BIRD LANE","swc":"CHLCOHXA","state":"OH"},"type":"Feature","geometry":{"type":"Point","coordinates":[-83.06194305,39.32305908]}},{"properties":{"city":"CHILLICOTHE","zip":"45601","latitude":39.3236084,"county":"ROSS","fa":10082004,"lata":324,"longitude":-82.98139191,"id":"a996l86sxw8x","address":"BROOKSIDE AVENUE","swc":"CHLCOHXA","state":"OH"},"type":"Feature","geometry":{"type":"Point","coordinates":[-82.98139191,39.3236084]}},{"properties":{"city":"CHILLICOTHE","zip":"45601","latitude":39.34500122,"county":"ROSS","fa":10082005,"lata":324,"longitude":-83.01833344,"id":"a996l87o5xix","address":"48 1/2 FRUIT HILL DRIVE","swc":"CHLCOHXA","state":"OH"},"type":"Feature","geometry":{"type":"Point","coordinates":[-83.01833344,39.34500122]}},{"properties":{"city":"CHILLICOTHE","zip":"45601","latitude":39.35874939,"county":"ROSS","fa":10108271,"lata":324,"longitude":-82.96833801,"id":"a996l8b732e8","address":"747 MARIETTA PIKE","swc":"CHLCOHXA","state":"OH"},"type":"Feature","geometry":{"type":"Point","coordinates":[-82.96833801,39.35874939]}},{"properties":{"city":"CHILLICOTHE","zip":"45601","latitude":39.37805939,"county":"ROSS","fa":10081987,"lata":324,"longitude":-82.92888641,"id":"a996l89fouds","address":"ROCKY ROAD","swc":"CHLCOHXA","state":"OH"},"type":"Feature","geometry":{"type":"Point","coordinates":[-82.92888641,39.37805939]}},{"properties":{"city":"CHILLICOTHE","zip":"45601","latitude":39.47148895,"county":"ROSS","fa":10106780,"lata":324,"longitude":-82.95021057,"id":"a996l88sfay7","address":"476 IMMELL ROAD","swc":"KGTNOHXA","state":"OH"},"type":"Feature","geometry":{"type":"Point","coordinates":[-82.95021057,39.47148895]}},{"properties":{"city":"CHILLICOTHE","zip":"45601","latitude":39.36191177,"county":"ROSS","fa":10146760,"lata":324,"longitude":-82.91329193,"id":"a996l8kze4vk","address":"606 LITTLE ROCKY ROAD","swc":"CHLCOHXA","state":"OH"},"type":"Feature","geometry":{"type":"Point","coordinates":[-82.91329193,39.36191177]}},{"properties":{"city":"BOURNEVILLE","zip":"45617","latitude":39.23416901,"county":"ROSS","fa":10106819,"lata":324,"longitude":-83.19416809,"id":"a996l8dp35x2","address":"1067 COPPERAS MOUNTAIN ROAD","swc":"BRNVOHXA","state":"OH"},"type":"Feature","geometry":{"type":"Point","coordinates":[-83.19416809,39.23416901]}},{"properties":{"city":"FRANKFORT","zip":"45628","latitude":39.40436172,"county":"ROSS","fa":10106779,"lata":324,"longitude":-83.12674713,"id":"a996l8fk8roj","address":"1291 SIMMONS ROAD","swc":"FRFTOHXA","state":"OH"},"type":"Feature","geometry":{"type":"Point","coordinates":[-83.12674713,39.40436172]}},{"properties":{"city":"LONDONDERRY","zip":"45647","latitude":39.25888824,"county":"ROSS","fa":10135409,"lata":324,"longitude":-82.75917053,"id":"a996l8edydyi","address":"NORTH OF US ROUTE 50","swc":"LDRYOHXA","state":"OH"},"type":"Feature","geometry":{"type":"Point","coordinates":[-82.75917053,39.25888824]}},{"properties":{"city":"WAVERLY","zip":"45690","latitude":39.19638824,"county":"ROSS","fa":10081992,"lata":324,"longitude":-82.9852829,"id":"a996l8ayg6lv","address":"MEAD PAPER PROPERTY DEBORD ROAD","swc":"WVRLOHXA","state":"OH"},"type":"Feature","geometry":{"type":"Point","coordinates":[-82.9852829,39.19638824]}},{"properties":{"city":"GENOA","zip":"43430","latitude":41.4932785,"county":"SANDUSKY","fa":10083285,"lata":326,"longitude":-83.3768692,"id":"a996l85i9ll6","address":"5325 TOWNSHIP HIGHWAY 28","swc":"GENOOHXA","state":"OH"},"type":"Feature","geometry":{"type":"Point","coordinates":[-83.3768692,41.4932785]}},{"properties":{"city":"LINDSEY","zip":"43442","latitude":41.44728088,"county":"SANDUSKY","fa":10083288,"lata":326,"longitude":-83.25878143,"id":"a996l87obqw6","address":"3723 COUNTY ROAD 82","swc":"ELMROHXA","state":"OH"},"type":"Feature","geometry":{"type":"Point","coordinates":[-83.25878143,41.44728088]}},{"properties":{"city":"BELLEVUE","zip":"44811","latitude":41.35995865,"county":"SANDUSKY","fa":10083274,"lata":326,"longitude":-82.87489319,"id":"a996l8aump6a","address":"665 COUNTY LINE ROAD 302","swc":"CLYDOHXA","state":"OH"},"type":"Feature","geometry":{"type":"Point","coordinates":[-82.87489319,41.35995865]}},{"properties":{"city":"LUCASVILLE","zip":"45648","latitude":38.87305832,"county":"SCIOTO","fa":10082001,"lata":324,"longitude":-83.03083038,"id":"a996l8d1l09w","address":"CROWE HOLLOW ROAD","swc":"LUVLOHXA","state":"OH"},"type":"Feature","geometry":{"type":"Point","coordinates":[-83.03083038,38.87305832]}},{"properties":{"city":"MINFORD","zip":"45653","latitude":38.85528183,"county":"SCIOTO","fa":10106816,"lata":324,"longitude":-82.81221771,"id":"a996l8itzjqc","address":"2457C GLADES ROAD","swc":"MNFROHXA","state":"OH"},"type":"Feature","geometry":{"type":"Point","coordinates":[-82.81221771,38.85528183]}},{"properties":{"city":"ATTICA","zip":"44807","latitude":41.05443954,"county":"SENECA","fa":10146834,"lata":326,"longitude":-82.86055756,"id":"a996l8id3365","address":"RURAL DRIVE 2, STATE ROUTE 224","swc":"ATTCOHXA","state":"OH"},"type":"Feature","geometry":{"type":"Point","coordinates":[-82.86055756,41.05443954]}},{"properties":{"city":"REPUBLIC","zip":"44867","latitude":41.1094017,"county":"SENECA","fa":10146833,"lata":326,"longitude":-83.02555084,"id":"a996l8ifztav","address":"1043 STATE ROUTE 67","swc":"RPBLOHXB","state":"OH"},"type":"Feature","geometry":{"type":"Point","coordinates":[-83.02555084,41.1094017]}},{"properties":{"city":"TIFFIN","zip":"44883","latitude":41.24085999,"county":"SENECA","fa":10131006,"lata":326,"longitude":-83.15329742,"id":"a996l8ec4mkl","address":"785 EAST TOWNSHIP ROAD","swc":"OLFTOHXA","state":"OH"},"type":"Feature","geometry":{"type":"Point","coordinates":[-83.15329742,41.24085999]}},{"properties":{"city":"TIFFIN","zip":"44883","latitude":41.14461899,"county":"SENECA","fa":10131007,"lata":326,"longitude":-83.2809906,"id":"a996l86dngcs","address":"1385 ROUTE 635","swc":"BSCMOHXA","state":"OH"},"type":"Feature","geometry":{"type":"Point","coordinates":[-83.2809906,41.14461899]}},{"properties":{"city":"ANNA","zip":"45302","latitude":40.40338898,"county":"SHELBY","fa":10011828,"lata":923,"longitude":-84.16847229,"id":"a996l87q829q","address":"14010 COUNTY ROAD 25A","swc":"ANNAOHXA","state":"OH"},"type":"Feature","geometry":{"type":"Point","coordinates":[-84.16847229,40.40338898]}},{"properties":{"city":"SIDNEY","zip":"45365","latitude":40.26118851,"county":"SHELBY","fa":10029476,"lata":923,"longitude":-84.18685913,"id":"a996l8c8fnac","address":"1940 VANDEMARK ROAD","swc":"SDNYOHXA","state":"OH"},"type":"Feature","geometry":{"type":"Point","coordinates":[-84.18685913,40.26118851]}},{"properties":{"city":"SIDNEY","zip":"45365","latitude":40.29626083,"county":"SHELBY","fa":10029542,"lata":923,"longitude":-84.16355133,"id":"a996l89h9plo","address":"505 GOODE STREET","swc":"SDNYOHXA","state":"OH"},"type":"Feature","geometry":{"type":"Point","coordinates":[-84.16355133,40.29626083]}},{"properties":{"city":"NAVARRE","zip":"44662","latitude":40.68677139,"county":"STARK","fa":10012158,"lata":325,"longitude":-81.56230927,"id":"a996l8kugpiz","address":"8709 DAY AVENUE SOUTHWEST","swc":"BRWSOHXA","state":"OH"},"type":"Feature","geometry":{"type":"Point","coordinates":[-81.56230927,40.68677139]}},{"properties":{"city":"NAVARRE","zip":"44662","latitude":40.69441986,"county":"STARK","fa":10103746,"lata":325,"longitude":-81.63031006,"id":"a996l8b62h1y","address":"8126 ALABAMA AVENUE SOUTHWEST","swc":"BRWSOHXA","state":"OH"},"type":"Feature","geometry":{"type":"Point","coordinates":[-81.63031006,40.69441986]}},{"properties":{"city":"PARIS","zip":"44669","latitude":40.77111053,"county":"STARK","fa":10103727,"lata":325,"longitude":-81.16719055,"id":"a996l8e9xgeh","address":"12579 FREED STREET SOUTHEAST","swc":"PARSOHXA","state":"OH"},"type":"Feature","geometry":{"type":"Point","coordinates":[-81.16719055,40.77111053]}},{"properties":{"city":"BRISTOLVILLE","zip":"44402","latitude":41.40977859,"county":"TRUMBULL","fa":10083296,"lata":322,"longitude":-80.89341736,"id":"a996l8blj8lw","address":"2560 HYDE OAKFIELD ROAD","swc":"BIVLOHXA","state":"OH"},"type":"Feature","geometry":{"type":"Point","coordinates":[-80.89341736,41.40977859]}},{"properties":{"city":"BRISTOLVILLE","zip":"44402","latitude":41.38106155,"county":"TRUMBULL","fa":10126064,"lata":322,"longitude":-80.86578369,"id":"a996l8hqpmsp","address":"6000 STATE ROUTE 45","swc":"BIVLOHXA","state":"OH"},"type":"Feature","geometry":{"type":"Point","coordinates":[-80.86578369,41.38106155]}},{"properties":{"city":"CORTLAND","zip":"44410","latitude":41.29568863,"county":"TRUMBULL","fa":10037491,"lata":322,"longitude":-80.72799683,"id":"a996l8e6sn01","address":"2583 TOBIN LANE","swc":"CRLDOHXA","state":"OH"},"type":"Feature","geometry":{"type":"Point","coordinates":[-80.72799683,41.29568863]}},{"properties":{"city":"CORTLAND","zip":"44410","latitude":41.31428146,"county":"TRUMBULL","fa":10077558,"lata":322,"longitude":-80.68969727,"id":"a996l8e3ucfa","address":"3486 RIDGE ROAD NORTHEAST","swc":"CRLDOHXA","state":"OH"},"type":"Feature","geometry":{"type":"Point","coordinates":[-80.68969727,41.31428146]}},{"properties":{"city":"CORTLAND","zip":"44410","latitude":41.30397034,"county":"TRUMBULL","fa":10083560,"lata":322,"longitude":-80.74820709,"id":"a996l859k8pc","address":"3168 WARREN MEADVILLE ROAD","swc":"CRLDOHXA","state":"OH"},"type":"Feature","geometry":{"type":"Point","coordinates":[-80.74820709,41.30397034]}},{"properties":{"city":"CORTLAND","zip":"44410","latitude":41.33602905,"county":"TRUMBULL","fa":10123569,"lata":322,"longitude":-80.70146942,"id":"a996l88y16f5","address":"3263 EVERETT HULL ROAD","swc":"CRLDOHXA","state":"OH"},"type":"Feature","geometry":{"type":"Point","coordinates":[-80.70146942,41.33602905]}},{"properties":{"city":"CORTLAND","zip":"44410","latitude":41.39191818,"county":"TRUMBULL","fa":10123586,"lata":322,"longitude":-80.71649933,"id":"a996l8h1dd0o","address":"2881 GREENVILLE ROAD","swc":"JHTNOHXA","state":"OH"},"type":"Feature","geometry":{"type":"Point","coordinates":[-80.71649933,41.39191818]}},{"properties":{"city":"FARMDALE","zip":"44417","latitude":41.44121933,"county":"TRUMBULL","fa":10126084,"lata":322,"longitude":-80.66461182,"id":"a996l8a9in6j","address":"8604 STATE ROUTE 193","swc":"KNMNOHXA","state":"OH"},"type":"Feature","geometry":{"type":"Point","coordinates":[-80.66461182,41.44121933]}},{"properties":{"city":"HARTFORD","zip":"44418","latitude":41.29724884,"county":"TRUMBULL","fa":10123607,"lata":322,"longitude":-80.5704422,"id":"a996l8gu2s2z","address":"2841 STATE ROAD 7","swc":"HRFROHXA","state":"OH"},"type":"Feature","geometry":{"type":"Point","coordinates":[-80.5704422,41.29724884]}},{"properties":{"city":"KINSMAN","zip":"44428","latitude":41.44182968,"county":"TRUMBULL","fa":10123601,"lata":322,"longitude":-80.56414032,"id":"a996l8bb2z2c","address":"7124 KINSMAN-NICKERSON ROAD","swc":"KNMNOHXA","state":"OH"},"type":"Feature","geometry":{"type":"Point","coordinates":[-80.56414032,41.44182968]}},{"properties":{"city":"KINSMAN","zip":"44428","latitude":41.38566971,"county":"TRUMBULL","fa":10125347,"lata":322,"longitude":-80.57216644,"id":"a996l8d1c2d8","address":"6906 STATE ROUTE 88","swc":"HRFROHXA","state":"OH"},"type":"Feature","geometry":{"type":"Point","coordinates":[-80.57216644,41.38566971]}},{"properties":{"city":"LEAVITTSBURG","zip":"44430","latitude":41.25310898,"county":"TRUMBULL","fa":10012281,"lata":322,"longitude":-80.9065094,"id":"a996l89w51ro","address":"6780 NELSON-MOSIER ROAD","swc":"LVBGOHXA","state":"OH"},"type":"Feature","geometry":{"type":"Point","coordinates":[-80.9065094,41.25310898]}},{"properties":{"city":"LEAVITTSBURG","zip":"44430","latitude":41.22946167,"county":"TRUMBULL","fa":10077577,"lata":322,"longitude":-80.90947723,"id":"a996l88zaltp","address":"2942 STATE ROUTE 5 SOUTHWEST","swc":"LVBGOHXA","state":"OH"},"type":"Feature","geometry":{"type":"Point","coordinates":[-80.90947723,41.22946167]}},{"properties":{"city":"NEWTON FALLS","zip":"44444","latitude":41.1570282,"county":"TRUMBULL","fa":10012248,"lata":322,"longitude":-80.93933868,"id":"a996l8buxs7o","address":"3935 CARSON SALT SPRINGS ROAD","swc":"NWFLOHXA","state":"OH"},"type":"Feature","geometry":{"type":"Point","coordinates":[-80.93933868,41.1570282]}},{"properties":{"city":"NEWTON FALLS","zip":"44444","latitude":41.23329926,"county":"TRUMBULL","fa":10077568,"lata":322,"longitude":-80.97699738,"id":"a996l85q3nrt","address":"5219 STATE ROUTE 303","swc":"LVBGOHXA","state":"OH"},"type":"Feature","geometry":{"type":"Point","coordinates":[-80.97699738,41.23329926]}},{"properties":{"city":"NEWTON FALLS","zip":"44444","latitude":41.19298935,"county":"TRUMBULL","fa":10042477,"lata":322,"longitude":-80.9684906,"id":"a996l8531j6b","address":"500 WARREN ROAD","swc":"NWFLOHXA","state":"OH"},"type":"Feature","geometry":{"type":"Point","coordinates":[-80.9684906,41.19298935]}},{"properties":{"city":"NORTH BLOOMFIELD","zip":"44450","latitude":41.48065186,"county":"TRUMBULL","fa":10103734,"lata":322,"longitude":-80.71291351,"id":"a996l8hsuq3n","address":"2981 WAKEFIELD CREEK ROAD","swc":"GRNEOHXA","state":"OH"},"type":"Feature","geometry":{"type":"Point","coordinates":[-80.71291351,41.48065186]}},{"properties":{"city":"SOUTHINGTON","zip":"44470","latitude":41.31943893,"county":"TRUMBULL","fa":10012253,"lata":322,"longitude":-80.92366791,"id":"a996l8kbilgw","address":"3692 1/2 BARCLAY MESSERLY ROAD","swc":"LVBGOHXA","state":"OH"},"type":"Feature","geometry":{"type":"Point","coordinates":[-80.92366791,41.31943893]}},{"properties":{"city":"SOUTHINGTON","zip":"44470","latitude":41.30904007,"county":"TRUMBULL","fa":10083330,"lata":322,"longitude":-80.9701767,"id":"a996l8h4fulg","address":"4780 STATE ROAD 305","swc":"LVBGOHXA","state":"OH"},"type":"Feature","geometry":{"type":"Point","coordinates":[-80.9701767,41.30904007]}},{"properties":{"city":"VIENNA","zip":"44473","latitude":41.23445892,"county":"TRUMBULL","fa":10012278,"lata":322,"longitude":-80.66480255,"id":"a996l8kkwjsv","address":"4308 SEMINOLE TERRACE","swc":"WRRNOHXF","state":"OH"},"type":"Feature","geometry":{"type":"Point","coordinates":[-80.66480255,41.23445892]}},{"properties":{"city":"WARREN","zip":"44481","latitude":41.15716171,"county":"TRUMBULL","fa":10012257,"lata":322,"longitude":-80.85797882,"id":"a996l88lk2ao","address":"7364 TOD AVENUE","swc":"LRTWOHXB","state":"OH"},"type":"Feature","geometry":{"type":"Point","coordinates":[-80.85797882,41.15716171]}},{"properties":{"city":"WARREN","zip":"44481","latitude":41.18811035,"county":"TRUMBULL","fa":10077567,"lata":322,"longitude":-80.92147064,"id":"a996l8jbfg4b","address":"3384 NEWTON FALLS BAILEY ROAD","swc":"LRTWOHXB","state":"OH"},"type":"Feature","geometry":{"type":"Point","coordinates":[-80.92147064,41.18811035]}},{"properties":{"city":"CHAMPION","zip":"44481","latitude":41.30189896,"county":"TRUMBULL","fa":10083331,"lata":322,"longitude":-80.89620209,"id":"a996l8bj6efr","address":"5400 OAK HILL DRIVE","swc":"WRRNOHXE","state":"OH"},"type":"Feature","geometry":{"type":"Point","coordinates":[-80.89620209,41.30189896]}},{"properties":{"city":"LORDSTOWN","zip":"44481","latitude":41.15858841,"county":"TRUMBULL","fa":10083336,"lata":322,"longitude":-80.89309692,"id":"a996l85tlcwo","address":"2640 INDUSTRIAL TRACE ROAD","swc":"LRTWOHXB","state":"OH"},"type":"Feature","geometry":{"type":"Point","coordinates":[-80.89309692,41.15858841]}},{"properties":{"city":"LORDSTOWN","zip":"44481","latitude":41.14556122,"county":"TRUMBULL","fa":10123593,"lata":322,"longitude":-80.88555908,"id":"a996l8jrbopu","address":"3293 BAILEY ROAD","swc":"LRTWOHXB","state":"OH"},"type":"Feature","geometry":{"type":"Point","coordinates":[-80.88555908,41.14556122]}},{"properties":{"city":"WARREN","zip":"44481","latitude":41.26541901,"county":"TRUMBULL","fa":10125343,"lata":322,"longitude":-80.87814331,"id":"a996l89rf7fw","address":"4664 PARKMAN ROAD","swc":"LVBGOHXA","state":"OH"},"type":"Feature","geometry":{"type":"Point","coordinates":[-80.87814331,41.26541901]}},{"properties":{"city":"WARREN","zip":"44481","latitude":41.2781105,"county":"TRUMBULL","fa":10125345,"lata":322,"longitude":-80.77632904,"id":"a996l8efjzwx","address":"2205 ELM ROAD EXTENSION","swc":"WRRNOHXB","state":"OH"},"type":"Feature","geometry":{"type":"Point","coordinates":[-80.77632904,41.2781105]}},{"properties":{"city":"WARREN","zip":"44483","latitude":41.27696991,"county":"TRUMBULL","fa":10012255,"lata":322,"longitude":-80.84700775,"id":"a996l8a8eh6s","address":"201 FOLSOM ROAD NORTHWEST","swc":"WRRNOHXE","state":"OH"},"type":"Feature","geometry":{"type":"Point","coordinates":[-80.84700775,41.27696991]}},{"properties":{"city":"WARREN","zip":"44483","latitude":41.19960022,"county":"TRUMBULL","fa":10077579,"lata":322,"longitude":-80.81580353,"id":"a996l8gqgaip","address":"540 WEST 28TH STREET","swc":"WRRNOHXA","state":"OH"},"type":"Feature","geometry":{"type":"Point","coordinates":[-80.81580353,41.19960022]}},{"properties":{"city":"WARREN","zip":"44483","latitude":41.31185913,"county":"TRUMBULL","fa":10123574,"lata":322,"longitude":-80.84631348,"id":"a996l897s6oa","address":"CORNER OF ROUTE 45 AND 305 OR 149 CENTER STREET","swc":"WRRNOHXE","state":"OH"},"type":"Feature","geometry":{"type":"Point","coordinates":[-80.84631348,41.31185913]}},{"properties":{"city":"WARREN","zip":"44484","latitude":41.23831177,"county":"TRUMBULL","fa":10037490,"lata":322,"longitude":-80.72792053,"id":"a996l8ij3a08","address":"8957 EAST MARKET STREET","swc":"WRRNOHXF","state":"OH"},"type":"Feature","geometry":{"type":"Point","coordinates":[-80.72792053,41.23831177]}},{"properties":{"city":"WARREN","zip":"44484","latitude":41.2516098,"county":"TRUMBULL","fa":10127147,"lata":322,"longitude":-80.75760651,"id":"a996l8je2zpa","address":"7500 NORTHEAST ANDERSON AVENUE","swc":"WRRNOHXF","state":"OH"},"type":"Feature","geometry":{"type":"Point","coordinates":[-80.75760651,41.2516098]}},{"properties":{"city":"WARREN","zip":"44485","latitude":41.23860168,"county":"TRUMBULL","fa":10042707,"lata":322,"longitude":-80.86029816,"id":"a996l8dmtw5w","address":"2460 WEST MARKET STREET","swc":"LVBGOHXA","state":"OH"},"type":"Feature","geometry":{"type":"Point","coordinates":[-80.86029816,41.23860168]}},{"properties":{"city":"STONE CREEK","zip":"43840","latitude":40.40139008,"county":"TUSCARAWAS","fa":10125355,"lata":325,"longitude":-81.53861237,"id":"a996l86pfjxy","address":"3971 WILLIAMS LAKE ROAD","swc":"NWPHOHXB","state":"OH"},"type":"Feature","geometry":{"type":"Point","coordinates":[-81.53861237,40.40139008]}},{"properties":{"city":"BOLIVAR","zip":"44612","latitude":40.62385941,"county":"TUSCARAWAS","fa":10083319,"lata":325,"longitude":-81.46381378,"id":"a996l8cxopfj","address":"9404 FRENCH HILLS ROAD","swc":"BLVROHXA","state":"OH"},"type":"Feature","geometry":{"type":"Point","coordinates":[-81.46381378,40.62385941]}},{"properties":{"city":"DOVER","zip":"44622","latitude":40.5288887,"county":"TUSCARAWAS","fa":10083320,"lata":325,"longitude":-81.50110626,"id":"a996l8a2sv8j","address":"3148 REESE ROAD","swc":"NWPHOHXA","state":"OH"},"type":"Feature","geometry":{"type":"Point","coordinates":[-81.50110626,40.5288887]}},{"properties":{"city":"DOVER","zip":"44622","latitude":40.50888824,"county":"TUSCARAWAS","fa":10123566,"lata":325,"longitude":-81.4963913,"id":"a996l8ayj7b3","address":"2250 RED HILL ROAD","swc":"NWPHOHXA","state":"OH"},"type":"Feature","geometry":{"type":"Point","coordinates":[-81.4963913,40.50888824]}},{"properties":{"city":"NEW PHILADELPHIA","zip":"44663","latitude":40.49428177,"county":"TUSCARAWAS","fa":10083339,"lata":325,"longitude":-81.46833038,"id":"a996l8j1lamd","address":"1145 WEST HIGH STREET","swc":"NWPHOHXB","state":"OH"},"type":"Feature","geometry":{"type":"Point","coordinates":[-81.46833038,40.49428177]}},{"properties":{"city":"NEW PHILADELPHIA","zip":"44663","latitude":40.44786072,"county":"TUSCARAWAS","fa":10123572,"lata":325,"longitude":-81.42505646,"id":"a996l8956j26","address":"2162 GOSHEN HILL ROAD SOUTHEAST","swc":"NWPHOHXB","state":"OH"},"type":"Feature","geometry":{"type":"Point","coordinates":[-81.42505646,40.44786072]}},{"properties":{"city":"NEW PHILADELPHIA","zip":"44663","latitude":40.48971939,"county":"TUSCARAWAS","fa":10125329,"lata":325,"longitude":-81.42500305,"id":"a996l8jtbb55","address":"1456 RIDGE ROAD NORTHEAST","swc":"NWPHOHXA","state":"OH"},"type":"Feature","geometry":{"type":"Point","coordinates":[-81.42500305,40.48971939]}},{"properties":{"city":"NEW PHILADELPHIA","zip":"44663","latitude":40.45888901,"county":"TUSCARAWAS","fa":10125330,"lata":325,"longitude":-81.50805664,"id":"a996l8ce01al","address":"1436 STONE CREEK ROAD SOUTHWEST","swc":"NWPHOHXB","state":"OH"},"type":"Feature","geometry":{"type":"Point","coordinates":[-81.50805664,40.45888901]}},{"properties":{"city":"NEW PHILADELPHIA","zip":"44663","latitude":40.50347137,"county":"TUSCARAWAS","fa":10129441,"lata":325,"longitude":-81.57035828,"id":"a996l89b9cni","address":"5816 SHILLING HILL ROAD","swc":"NWPHOHXA","state":"OH"},"type":"Feature","geometry":{"type":"Point","coordinates":[-81.57035828,40.50347137]}},{"properties":{"city":"STRASBURG","zip":"44680","latitude":40.59416962,"county":"TUSCARAWAS","fa":10083318,"lata":325,"longitude":-81.51999664,"id":"a996l8cv1zkt","address":"7540 FORT LAURENS ROAD","swc":"STBGOHXA","state":"OH"},"type":"Feature","geometry":{"type":"Point","coordinates":[-81.51999664,40.59416962]}},{"properties":{"city":"SUGARCREEK","zip":"44681","latitude":40.51408005,"county":"TUSCARAWAS","fa":10125352,"lata":325,"longitude":-81.65316772,"id":"a996l8a8eqib","address":"225 HILLCREST DRIVE NORTHWEST","swc":"SGRCOHXA","state":"OH"},"type":"Feature","geometry":{"type":"Point","coordinates":[-81.65316772,40.51408005]}},{"properties":{"city":"MARYSVILLE","zip":"43040","latitude":40.17778015,"county":"UNION","fa":10070831,"lata":324,"longitude":-83.23777771,"id":"a996l8i0giwy","address":"11484 WATKINS-CALIFORNIA ROAD","swc":"PNCYOHXA","state":"OH"},"type":"Feature","geometry":{"type":"Point","coordinates":[-83.23777771,40.17778015]}},{"properties":{"city":"PLAIN CITY","zip":"43064","latitude":40.14944077,"county":"UNION","fa":10011761,"lata":324,"longitude":-83.2223587,"id":"a996l8h3vuuk","address":"9350 INDUSTRIAL PARKWAY","swc":"PNCYOHXA","state":"OH"},"type":"Feature","geometry":{"type":"Point","coordinates":[-83.2223587,40.14944077]}},{"properties":{"city":"PLAIN CITY","zip":"43064","latitude":40.16389084,"county":"UNION","fa":10069873,"lata":324,"longitude":-83.18083191,"id":"a996l8fn2mau","address":"7530 BROCK ROAD","swc":"PNCYOHXA","state":"OH"},"type":"Feature","geometry":{"type":"Point","coordinates":[-83.18083191,40.16389084]}},{"properties":{"city":"RICHWOOD","zip":"43344","latitude":40.39693832,"county":"UNION","fa":10011781,"lata":324,"longitude":-83.26844025,"id":"a996l8czkw0b","address":"26881 STATE ROAD 4","swc":"RCWDOHXA","state":"OH"},"type":"Feature","geometry":{"type":"Point","coordinates":[-83.26844025,40.39693832]}},{"properties":{"city":"CONVOY","zip":"45832","latitude":40.91667175,"county":"VAN WERT","fa":10144836,"lata":923,"longitude":-84.69277954,"id":"a996l8cv973t","address":"6954 LINCOLN HIGHWAY","swc":"CNVYOHXA","state":"OH"},"type":"Feature","geometry":{"type":"Point","coordinates":[-84.69277954,40.91667175]}},{"properties":{"city":"MIDDLE POINT","zip":"45863","latitude":40.87166977,"county":"VAN WERT","fa":10144573,"lata":923,"longitude":-84.4522171,"id":"a996l8a4kt44","address":"19184 OLD ROUTE 30","swc":"MDPNOHXA","state":"OH"},"type":"Feature","geometry":{"type":"Point","coordinates":[-84.4522171,40.87166977]}},{"properties":{"city":"OHIO CITY","zip":"45874","latitude":40.77666855,"county":"VAN WERT","fa":10144472,"lata":923,"longitude":-84.62832642,"id":"a996l888cb9j","address":"15633 LIBERTY UNION ROAD","swc":"OHCYOHXA","state":"OH"},"type":"Feature","geometry":{"type":"Point","coordinates":[-84.62832642,40.77666855]}},{"properties":{"city":"VAN WERT","zip":"45891","latitude":40.88777924,"county":"VAN WERT","fa":10144374,"lata":923,"longitude":-84.61000061,"id":"a996l8iqmtob","address":"1198 JOHN BROWN ROAD","swc":"VNWROHXA","state":"OH"},"type":"Feature","geometry":{"type":"Point","coordinates":[-84.61000061,40.88777924]}},{"properties":{"city":"VAN WERT","zip":"45891","latitude":40.87028122,"county":"VAN WERT","fa":10144375,"lata":923,"longitude":-84.56639099,"id":"a996l89nnrhs","address":"1220-A EAST JACKSON STREET","swc":"VNWROHXA","state":"OH"},"type":"Feature","geometry":{"type":"Point","coordinates":[-84.56639099,40.87028122]}},{"properties":{"city":"VAN WERT","zip":"45891","latitude":40.83805847,"county":"VAN WERT","fa":10144376,"lata":923,"longitude":-84.70610809,"id":"a996l8ah0gab","address":"6071 KREISCHER ROAD","swc":"WLSHOHXA","state":"OH"},"type":"Feature","geometry":{"type":"Point","coordinates":[-84.70610809,40.83805847]}},{"properties":{"city":"VAN WERT","zip":"45891","latitude":40.90166855,"county":"VAN WERT","fa":10144377,"lata":923,"longitude":-84.57277679,"id":"a996l8f6w3m0","address":"6973 US 127","swc":"VNWROHXA","state":"OH"},"type":"Feature","geometry":{"type":"Point","coordinates":[-84.57277679,40.90166855]}},{"properties":{"city":"VAN WERT","zip":"45891","latitude":40.85028076,"county":"VAN WERT","fa":10144378,"lata":923,"longitude":-84.58778381,"id":"a996l84zvkax","address":"240 FOX ROAD","swc":"VNWROHXA","state":"OH"},"type":"Feature","geometry":{"type":"Point","coordinates":[-84.58778381,40.85028076]}},{"properties":{"city":"WILKESVILLE","zip":"45695","latitude":39.13780975,"county":"VINTON","fa":10113140,"lata":324,"longitude":-82.37014008,"id":"a996l8czsz3d","address":"40000 STATE ROUTE 160","swc":"WKVLOHXA","state":"OH"},"type":"Feature","geometry":{"type":"Point","coordinates":[-82.37014008,39.13780975]}},{"properties":{"city":"LEBANON","zip":"45036","latitude":39.40196991,"county":"WARREN","fa":10011646,"lata":922,"longitude":-84.20852661,"id":"a996l89hhix2","address":"2200 LEBANON ROAD","swc":"LBNNOHXA","state":"OH"},"type":"Feature","geometry":{"type":"Point","coordinates":[-84.20852661,39.40196991]}},{"properties":{"city":"LEBANON","zip":"45036","latitude":39.43714142,"county":"WARREN","fa":10014202,"lata":922,"longitude":-84.22332764,"id":"a996l8gshl5u","address":"185-A HARMON AVENUE","swc":"LBNNOHXA","state":"OH"},"type":"Feature","geometry":{"type":"Point","coordinates":[-84.22332764,39.43714142]}},{"properties":{"city":"LEBANON","zip":"45036","latitude":39.46281815,"county":"WARREN","fa":10115759,"lata":922,"longitude":-84.1697464,"id":"a996l84wm8q5","address":"1815 STATE ROUTE 42","swc":"LBNNOHXA","state":"OH"},"type":"Feature","geometry":{"type":"Point","coordinates":[-84.1697464,39.46281815]}},{"properties":{"city":"MASON","zip":"45040","latitude":39.31409836,"county":"WARREN","fa":10553110,"lata":922,"longitude":-84.30860138,"id":"a996l8aowb4i","address":"8700 MASON MONTGOMERY ROAD","swc":"MASNOHXA","state":"OH"},"type":"Feature","geometry":{"type":"Point","coordinates":[-84.30860138,39.31409836]}},{"properties":{"city":"WAYNESVILLE","zip":"45068","latitude":39.5483284,"county":"WARREN","fa":10011847,"lata":922,"longitude":-84.16249847,"id":"a996l8l87g58","address":"1748 EAST STATE ROUTE 73","swc":"WYVLOHXA","state":"OH"},"type":"Feature","geometry":{"type":"Point","coordinates":[-84.16249847,39.5483284]}},{"properties":{"city":"WAYNESVILLE","zip":"45068","latitude":39.46506119,"county":"WARREN","fa":10066543,"lata":328,"longitude":-83.99260712,"id":"a996l8e1hofh","address":"10000 LEVICY ROAD","swc":"CLVLOHXB","state":"OH"},"type":"Feature","geometry":{"type":"Point","coordinates":[-83.99260712,39.46506119]}},{"properties":{"city":"WAYNESVILLE","zip":"45068","latitude":39.50849915,"county":"WARREN","fa":10011807,"lata":922,"longitude":-84.06363678,"id":"a996l8iix4dn","address":"5374 NORTH CLARKSVILLE ROAD","swc":"WYVLOHXA","state":"OH"},"type":"Feature","geometry":{"type":"Point","coordinates":[-84.06363678,39.50849915]}},{"properties":{"city":"MORROW","zip":"45152","latitude":39.35639191,"county":"WARREN","fa":10049531,"lata":922,"longitude":-84.1027832,"id":"a996l8jn6bqe","address":"5818 US HIGHWAY 22","swc":"MRRWOHXA","state":"OH"},"type":"Feature","geometry":{"type":"Point","coordinates":[-84.1027832,39.35639191]}},{"properties":{"city":"LOWELL","zip":"45744","latitude":39.58501053,"county":"WASHINGTON","fa":10129390,"lata":324,"longitude":-81.45333099,"id":"a996l8igexi9","address":"7870 HIGHLAND RIDGE ROAD","swc":"LWSLOHXA","state":"OH"},"type":"Feature","geometry":{"type":"Point","coordinates":[-81.45333099,39.58501053]}},{"properties":{"city":"VINCENT","zip":"45784","latitude":39.39068985,"county":"WASHINGTON","fa":10115723,"lata":324,"longitude":-81.66407776,"id":"a996l8chgg9s","address":"392 WARRIOR DRIVE","swc":"BRLWOHXA","state":"OH"},"type":"Feature","geometry":{"type":"Point","coordinates":[-81.66407776,39.39068985]}},{"properties":{"city":"WATERFORD","zip":"45786","latitude":39.5403595,"county":"WASHINGTON","fa":10081979,"lata":324,"longitude":-81.62773895,"id":"a996l8av9z3l","address":"TOWNSHIP ROAD 145","swc":"BVRLOHXA","state":"OH"},"type":"Feature","geometry":{"type":"Point","coordinates":[-81.62773895,39.5403595]}},{"properties":{"city":"BURBANK","zip":"44214","latitude":40.91265106,"county":"WAYNE","fa":10024385,"lata":326,"longitude":-82.00029755,"id":"a996l8knpe4l","address":"3225 WEST PLEASANT HOME ROAD","swc":"CNGROHXA","state":"OH"},"type":"Feature","geometry":{"type":"Point","coordinates":[-82.00029755,40.91265106]}},{"properties":{"city":"RITTMAN","zip":"44270","latitude":40.97497177,"county":"WAYNE","fa":10012222,"lata":923,"longitude":-81.79441833,"id":"a996l87pho33","address":"85 NORTH METZGER AVENUE","swc":"RTMNOHXA","state":"OH"},"type":"Feature","geometry":{"type":"Point","coordinates":[-81.79441833,40.97497177]}},{"properties":{"city":"RITTMAN","zip":"44270","latitude":40.97100067,"county":"WAYNE","fa":10077495,"lata":923,"longitude":-81.76380157,"id":"a996l89i24xe","address":"102 MORNING STAR DRIVE","swc":"RTMNOHXA","state":"OH"},"type":"Feature","geometry":{"type":"Point","coordinates":[-81.76380157,40.97100067]}},{"properties":{"city":"WEST SALEM","zip":"44287","latitude":40.9550209,"county":"WAYNE","fa":10077517,"lata":326,"longitude":-82.06788635,"id":"a996l8jwx8mz","address":"7433 RUFF ROAD","swc":"WSLMOHXA","state":"OH"},"type":"Feature","geometry":{"type":"Point","coordinates":[-82.06788635,40.9550209]}},{"properties":{"city":"APPLE CREEK","zip":"44606","latitude":40.7705307,"county":"WAYNE","fa":10024395,"lata":923,"longitude":-81.83561707,"id":"a996l8czx616","address":"7767 ELY ROAD","swc":"APCKOHXA","state":"OH"},"type":"Feature","geometry":{"type":"Point","coordinates":[-81.83561707,40.7705307]}},{"properties":{"city":"APPLE CREEK","zip":"44606","latitude":40.71976089,"county":"WAYNE","fa":10077636,"lata":923,"longitude":-81.81033325,"id":"a996l8btg522","address":"9318 BEAR HOLLOW ROAD","swc":"APCKOHXA","state":"OH"},"type":"Feature","geometry":{"type":"Point","coordinates":[-81.81033325,40.71976089]}},{"properties":{"city":"DALTON","zip":"44618","latitude":40.76639175,"county":"WAYNE","fa":10077534,"lata":923,"longitude":-81.68842316,"id":"a996l851txck","address":"2402 SOUTH MOUNT EATON ROAD","swc":"KDRNOHXA","state":"OH"},"type":"Feature","geometry":{"type":"Point","coordinates":[-81.68842316,40.76639175]}},{"properties":{"city":"FREDERICKSBURG","zip":"44627","latitude":40.6830101,"county":"WAYNE","fa":10083316,"lata":923,"longitude":-81.92965698,"id":"a996l8iibtr4","address":"9445 JAMES ROAD","swc":"FRBGOHXA","state":"OH"},"type":"Feature","geometry":{"type":"Point","coordinates":[-81.92965698,40.6830101]}},{"properties":{"city":"MARSHALLVILLE","zip":"44645","latitude":40.90583038,"county":"WAYNE","fa":10077494,"lata":923,"longitude":-81.79225159,"id":"a996l8brp205","address":"1005 YODER ROAD","swc":"MRVLOHXA","state":"OH"},"type":"Feature","geometry":{"type":"Point","coordinates":[-81.79225159,40.90583038]}},{"properties":{"city":"MOUNT EATON","zip":"44659","latitude":40.69226074,"county":"WAYNE","fa":10024398,"lata":325,"longitude":-81.70957947,"id":"a996l8fgvd4o","address":"15413 SALT CREEK ROAD","swc":"BRWSOHXA","state":"OH"},"type":"Feature","geometry":{"type":"Point","coordinates":[-81.70957947,40.69226074]}},{"properties":{"city":"ORRVILLE","zip":"44667","latitude":40.83399963,"county":"WAYNE","fa":10024391,"lata":923,"longitude":-81.80339813,"id":"a996l8cnwiwy","address":"2785 CHIPPEWA ROAD","swc":"ORVLOHXA","state":"OH"},"type":"Feature","geometry":{"type":"Point","coordinates":[-81.80339813,40.83399963]}},{"properties":{"city":"MARSHALLVILLE","zip":"44667","latitude":40.88690186,"county":"WAYNE","fa":10024396,"lata":923,"longitude":-81.73500061,"id":"a996l89c1vaf","address":"14981 FOX LAKE ROAD","swc":"ORVLOHXA","state":"OH"},"type":"Feature","geometry":{"type":"Point","coordinates":[-81.73500061,40.88690186]}},{"properties":{"city":"ORRVILLE","zip":"44667","latitude":40.86650085,"county":"WAYNE","fa":10037430,"lata":923,"longitude":-81.76283264,"id":"a996l8kkdd08","address":"5445 WADSWORTH ROAD","swc":"ORVLOHXA","state":"OH"},"type":"Feature","geometry":{"type":"Point","coordinates":[-81.76283264,40.86650085]}},{"properties":{"city":"ORRVILLE","zip":"44667","latitude":40.79719925,"county":"WAYNE","fa":10077504,"lata":923,"longitude":-81.79570007,"id":"a996l8d4deam","address":"10084 EAST LINCOLNWAY","swc":"ORVLOHXA","state":"OH"},"type":"Feature","geometry":{"type":"Point","coordinates":[-81.79570007,40.79719925]}},{"properties":{"city":"SHREVE","zip":"44676","latitude":40.70439148,"county":"WAYNE","fa":10077634,"lata":923,"longitude":-82.11717224,"id":"a996l8aqu203","address":"8095 SNODDY ROAD","swc":"BGPROHXA","state":"OH"},"type":"Feature","geometry":{"type":"Point","coordinates":[-82.11717224,40.70439148]}},{"properties":{"city":"SMITHVILLE","zip":"44677","latitude":40.90089035,"county":"WAYNE","fa":10024390,"lata":923,"longitude":-81.85912323,"id":"a996l8jeb6ba","address":"5999 FULTON ROAD","swc":"SMVLOHXA","state":"OH"},"type":"Feature","geometry":{"type":"Point","coordinates":[-81.85912323,40.90089035]}},{"properties":{"city":"SMITHVILLE","zip":"44677","latitude":40.87342072,"county":"WAYNE","fa":10077492,"lata":923,"longitude":-81.84638977,"id":"a996l88lsydx","address":"5912 AKRON ROAD STATE ROAD 585","swc":"SMVLOHXA","state":"OH"},"type":"Feature","geometry":{"type":"Point","coordinates":[-81.84638977,40.87342072]}},{"properties":{"city":"WOOSTER","zip":"44691","latitude":40.8575592,"county":"WAYNE","fa":10024394,"lata":923,"longitude":-82.1162796,"id":"a996l881orll","address":"9505 WEST SMITHVILLE WESTERN ROAD","swc":"WSTROHXA","state":"OH"},"type":"Feature","geometry":{"type":"Point","coordinates":[-82.1162796,40.8575592]}},{"properties":{"city":"WOOSTER","zip":"44691","latitude":40.82778168,"county":"WAYNE","fa":10037493,"lata":923,"longitude":-81.87000275,"id":"a996l84yiaeu","address":"5369 BLACK ORVILLE ROAD","swc":"WSTROHXA","state":"OH"},"type":"Feature","geometry":{"type":"Point","coordinates":[-81.87000275,40.82778168]}},{"properties":{"city":"WOOSTER","zip":"44691","latitude":40.89590836,"county":"WAYNE","fa":10042712,"lata":923,"longitude":-81.94420624,"id":"a996l8gzk2nd","address":"532 FOX LAKE ROAD","swc":"MDBROHXA","state":"OH"},"type":"Feature","geometry":{"type":"Point","coordinates":[-81.94420624,40.89590836]}},{"properties":{"city":"WOOSTER","zip":"44691","latitude":40.74676132,"county":"WAYNE","fa":10077637,"lata":923,"longitude":-81.88655853,"id":"a996l89cgwvm","address":"4109 EAST TOLBERT ROAD","swc":"WSTROHXA","state":"OH"},"type":"Feature","geometry":{"type":"Point","coordinates":[-81.88655853,40.74676132]}},{"properties":{"city":"ALVORDTON","zip":"43501","latitude":41.68471909,"county":"WILLIAMS","fa":10144282,"lata":326,"longitude":-84.47222137,"id":"a996l8cekwus","address":"18143 R ROAD","swc":"PINROHXA","state":"OH"},"type":"Feature","geometry":{"type":"Point","coordinates":[-84.47222137,41.68471909]}},{"properties":{"city":"BRYAN","zip":"43506","latitude":41.51610947,"county":"WILLIAMS","fa":10144225,"lata":326,"longitude":-84.5541687,"id":"a996l8bf5wrb","address":"07144 STATE ROUTE 15","swc":"BRYNOHXA","state":"OH"},"type":"Feature","geometry":{"type":"Point","coordinates":[-84.5541687,41.51610947]}},{"properties":{"city":"BRYAN","zip":"43506","latitude":41.46416855,"county":"WILLIAMS","fa":10144226,"lata":326,"longitude":-84.54000092,"id":"a996l8cabfbd","address":"717-A EAST SOUTH STREET","swc":"BRYNOHXA","state":"OH"},"type":"Feature","geometry":{"type":"Point","coordinates":[-84.54000092,41.46416855]}},{"properties":{"city":"EDGERTON","zip":"43517","latitude":41.46805954,"county":"WILLIAMS","fa":10144813,"lata":326,"longitude":-84.70027924,"id":"a996l8huyqyr","address":"06501 COUNTY ROAD C 75","swc":"EGTNOHXA","state":"OH"},"type":"Feature","geometry":{"type":"Point","coordinates":[-84.70027924,41.46805954]}},{"properties":{"city":"EDON","zip":"43518","latitude":41.62467957,"county":"WILLIAMS","fa":10083276,"lata":326,"longitude":-84.74652863,"id":"a996l8fznfju","address":"14372 COUNTY ROAD 4","swc":"CONYOHXA","state":"OH"},"type":"Feature","geometry":{"type":"Point","coordinates":[-84.74652863,41.62467957]}},{"properties":{"city":"EDON","zip":"43518","latitude":41.64083099,"county":"WILLIAMS","fa":10144713,"lata":326,"longitude":-84.79250336,"id":"a996l8gudqo6","address":"15423 COUNTY ROAD 1-50","swc":"CONYOHXA","state":"OH"},"type":"Feature","geometry":{"type":"Point","coordinates":[-84.79250336,41.64083099]}},{"properties":{"city":"MONTPELIER","zip":"43543","latitude":41.61579132,"county":"WILLIAMS","fa":10083270,"lata":326,"longitude":-84.60590363,"id":"a996l86hyt66","address":"13590 COUNTY ROAD 11","swc":"MTPLOHXA","state":"OH"},"type":"Feature","geometry":{"type":"Point","coordinates":[-84.60590363,41.61579132]}},{"properties":{"city":"STRYKER","zip":"43557","latitude":41.44361115,"county":"WILLIAMS","fa":10144403,"lata":326,"longitude":-84.40888977,"id":"a996l8jqa848","address":"02139 STATE ROUTE 191","swc":"EVPTOHXA","state":"OH"},"type":"Feature","geometry":{"type":"Point","coordinates":[-84.40888977,41.44361115]}},{"properties":{"city":"WEST UNITY","zip":"43570","latitude":41.60911179,"county":"WILLIAMS","fa":10083278,"lata":326,"longitude":-84.46013641,"id":"a996l85elyj1","address":"13533 COUNTY ROAD 19","swc":"WUNTOHXA","state":"OH"},"type":"Feature","geometry":{"type":"Point","coordinates":[-84.46013641,41.60911179]}},{"properties":{"city":"WEST UNITY","zip":"43570","latitude":41.58000183,"county":"WILLIAMS","fa":10144349,"lata":326,"longitude":-84.4327774,"id":"a996l8j2dmm1","address":"313-B SOUTH MAIN STREET","swc":"WUNTOHXA","state":"OH"},"type":"Feature","geometry":{"type":"Point","coordinates":[-84.4327774,41.58000183]}},{"properties":{"city":"PEMBERVILLE","zip":"43450","latitude":41.35668945,"county":"WOOD","fa":10103004,"lata":326,"longitude":-83.51850128,"id":"a996l88uy64g","address":"6269 LINWOOD ROAD","swc":"PMVLOHXB","state":"OH"},"type":"Feature","geometry":{"type":"Point","coordinates":[-83.51850128,41.35668945]}},{"properties":{"city":"PEMBERVILLE","zip":"43450","latitude":41.39944077,"county":"WOOD","fa":10106770,"lata":326,"longitude":-83.43444061,"id":"a996l8f2lz03","address":"1926 KAHLER ROAD","swc":"PMVLOHXB","state":"OH"},"type":"Feature","geometry":{"type":"Point","coordinates":[-83.43444061,41.39944077]}},{"properties":{"city":"RUDOLPH","zip":"43462","latitude":41.27000046,"county":"WOOD","fa":10083287,"lata":326,"longitude":-83.66194153,"id":"a996l8howay9","address":"13608 BAYS ROAD","swc":"PRTGOHXA","state":"OH"},"type":"Feature","geometry":{"type":"Point","coordinates":[-83.66194153,41.27000046]}},{"properties":{"city":"GRAND RAPIDS","zip":"43522","latitude":41.41909027,"county":"WOOD","fa":10146860,"lata":326,"longitude":-83.86151886,"id":"a996l85vi96h","address":"13387 LUDWIG ROAD","swc":"GDRPOHXA","state":"OH"},"type":"Feature","geometry":{"type":"Point","coordinates":[-83.86151886,41.41909027]}},{"properties":{"city":"WESTON","zip":"43569","latitude":41.37305832,"county":"WOOD","fa":10108259,"lata":326,"longitude":-83.8041687,"id":"a996l8cvxeq5","address":"NORTHEAST OF US 6 AND TOWNSHIP 42","swc":"WSTNOHXA","state":"OH"},"type":"Feature","geometry":{"type":"Point","coordinates":[-83.8041687,41.37305832]}},{"properties":{"city":"NORTH BALTIMORE","zip":"45872","latitude":41.16778946,"county":"WOOD","fa":10083282,"lata":326,"longitude":-83.64875031,"id":"a996l8cd7mc1","address":"1188 SOUTH DIXIE ROAD","swc":"VNBROHXA","state":"OH"},"type":"Feature","geometry":{"type":"Point","coordinates":[-83.64875031,41.16778946]}},{"properties":{"city":"CAREY","zip":"43316","latitude":40.93466187,"county":"WYANDOT","fa":10064357,"lata":326,"longitude":-83.38305664,"id":"a996l89od9kn","address":"3842 PATTERSON STREET","swc":"CARYOHXA","state":"OH"},"type":"Feature","geometry":{"type":"Point","coordinates":[-83.38305664,40.93466187]}},{"properties":{"city":"CAREY","zip":"43316","latitude":40.96902084,"county":"WYANDOT","fa":10064358,"lata":326,"longitude":-83.45536041,"id":"a996l8g424ux","address":"17981 TOWNSHIP HIGHWAY 22","swc":"VANLOHXA","state":"OH"},"type":"Feature","geometry":{"type":"Point","coordinates":[-83.45536041,40.96902084]}},{"properties":{"city":"CAREY","zip":"43316","latitude":40.96583176,"county":"WYANDOT","fa":10145820,"lata":326,"longitude":-83.43000031,"id":"a996l89998ba","address":"1998 TOWNSHIP HIGHWAY 95","swc":"CARYOHXA","state":"OH"},"type":"Feature","geometry":{"type":"Point","coordinates":[-83.43000031,40.96583176]}},{"properties":{"city":"MORRAL","zip":"43337","latitude":40.72451019,"county":"WYANDOT","fa":10064443,"lata":324,"longitude":-83.16861725,"id":"a996l86nn2vs","address":"2994 TOWNSHIP HIGHWAY 72","swc":"HRPSOHXA","state":"OH"},"type":"Feature","geometry":{"type":"Point","coordinates":[-83.16861725,40.72451019]}}],"is_temporal":false,"author":{"url":"","metadata":"","contact_name":"","contact_address":"","source":"","contact_phone":""},"source":"","pagination":{"sort":null,"start":0,"total":510,"limit":1000000},"state":"complete","tags":"","published":"2014-08-14T19:20:19-04:00","id":283619}