{"type":"FeatureCollection","data_type":"Dataset","url_type":null,"permissions":[{"permissions":{"download":true,"view":true},"group_id":"everyone"}],"classification":null,"title":"Independent","count":18,"stream_id":283745,"contributor":{"url":"http://geocommons.com/users/53564","name":"Frankiec15"},"data_attributes":null,"calculation_params":null,"icon_link":null,"link":"http://geocommons.com/overlays/283745.json","extent":[-123.043,29.5105,-71.4804,44.9281],"geometry_types":["point"],"unique_name":null,"name":"Independent","feature_count":18,"description":"","next_feature":null,"is_raster":false,"short_classification":"Y","stats":{"proj. revenue":{"max":234417.87,"variance":4622108076.9917,"mean":40249.9344444444,"stdev":67986.0873781666,"min":386.37,"median":3848.85},"ytd revenue":{"max":136743.76,"variance":1572800723.76845,"mean":23479.1288888889,"stdev":39658.5517104249,"min":225.38,"median":2245.16}},"features":[{"properties":{"name":"Edic","city":"Rowlett","geo_score":1.0,"zip code":"75088-9256","proj. revenue":234417.87,"id":"a99eejdnhcgh","column_2":"Stephanian","address":"4302 Running Brook Dr","ytd revenue":136743.76,"geo_precision":"range","state":"TX"},"type":"Feature","geometry":{"type":"Point","coordinates":[-96.560438,32.877937]}},{"properties":{"name":"Jeff","city":"Sugar Land","geo_score":0.914,"zip code":"77479-6134","proj. revenue":160365.82,"id":"a99eejcoupxh","column_2":"Alford","address":"1106 Summer Brk Brooke","ytd revenue":93546.73,"geo_precision":"range","state":"TX"},"type":"Feature","geometry":{"type":"Point","coordinates":[-95.672891,29.541885]}},{"properties":{"name":"Richard McCauley, M.D","city":"Thousand Oaks","geo_score":0.902,"zip code":"91362-2970","proj. revenue":116418.39,"id":"a99eej98t5f8","column_2":null,"address":"1610 E Thousand Oaks Blvd","ytd revenue":67910.73,"geo_precision":"range","state":"CA"},"type":"Feature","geometry":{"type":"Point","coordinates":[-118.852156,34.178045]}},{"properties":{"name":"MedSlim Marysville","city":"Sacramento","geo_score":0.518,"zip code":"95834-2593","proj. revenue":101768.76,"id":"a99eej7m8g7p","column_2":null,"address":"4460 Duckhorn Dr Ste B","ytd revenue":59365.11,"geo_precision":"street","state":"CA"},"type":"Feature","geometry":{"type":"Point","coordinates":[-121.426448,38.518128]}},{"properties":{"name":"Elizebeth","city":"Salem","geo_score":1.0,"zip code":"97302","proj. revenue":45558.6,"id":"a99eejavelgu","column_2":"Harmon","address":"1395 Liberty St SE","ytd revenue":26575.85,"geo_precision":"range","state":"OR"},"type":"Feature","geometry":{"type":"Point","coordinates":[-123.0427,44.928122]}},{"properties":{"name":"Radiant Reflections","city":"Hattiesburg","geo_score":0.774,"zip code":"39402-8441","proj. revenue":24904.95,"id":"a99eejaqmdir","column_2":null,"address":"6600 U S Highway 98 Ste A","ytd revenue":14527.89,"geo_precision":"range","state":"MS"},"type":"Feature","geometry":{"type":"Point","coordinates":[-89.424836,31.316815]}},{"properties":{"name":"Medicine","city":"Marysville","geo_score":0.902,"zip code":"95901-5615","proj. revenue":19980.19,"id":"a99eej7pezz6","column_2":"Shoppe","address":"812 5th St","ytd revenue":11655.11,"geo_precision":"range","state":"CA"},"type":"Feature","geometry":{"type":"Point","coordinates":[-121.595341,39.139752]}},{"properties":{"name":"M.A. Khonsary, M.D.","city":"Oradell","geo_score":0.902,"zip code":"07649-1307","proj. revenue":4773.94,"id":"a99eej8dne7g","column_2":null,"address":"260 Forest Ave","ytd revenue":2784.8,"geo_precision":"range","state":"NJ"},"type":"Feature","geometry":{"type":"Point","coordinates":[-74.049551,40.963659]}},{"properties":{"name":"Florencia","city":"Cincinnati","geo_score":0.886,"zip code":"45246-1611","proj. revenue":3848.85,"id":"a99eej7b2670","column_2":"Guzman","address":"12053 Sheraton Ln Bldg 5","ytd revenue":2245.16,"geo_precision":"range","state":"OH"},"type":"Feature","geometry":{"type":"Point","coordinates":[-84.485143,39.299559]}},{"properties":{"name":"Thomas","city":"San Angelo","geo_score":0.805,"zip code":"76903","proj. revenue":3464.4,"id":"a99eejb96zeq","column_2":"Jeter","address":"602 South Bryant Blvd","ytd revenue":2020.9,"geo_precision":"street","state":"TX"},"type":"Feature","geometry":{"type":"Point","coordinates":[-100.441928,31.442839]}},{"properties":{"name":"Medical Reducing, Inc.","city":"Las Vegas","geo_score":0.819,"zip code":"89121-3622","proj. revenue":2376.0,"id":"a99eej6l5eao","column_2":null,"address":"2466 E Desert Inn Rd Ste C","ytd revenue":1386.0,"geo_precision":"range","state":"NV"},"type":"Feature","geometry":{"type":"Point","coordinates":[-115.11797,36.12989]}},{"properties":{"name":"Lauren","city":"Pittsburgh","geo_score":0.611,"zip code":"15217-2586","proj. revenue":1565.47,"id":"a99eej2azy0a","column_2":"Loya, M.D","address":"1207 Parkview Blvd","ytd revenue":913.19,"geo_precision":"street","state":"PA"},"type":"Feature","geometry":{"type":"Point","coordinates":[-79.933311,40.500001]}},{"properties":{"name":"Pamela","city":"Las Vegas","geo_score":0.894,"zip code":"89146-0816","proj. revenue":1493.19,"id":"a99eej1y6dc2","column_2":"Gabriel","address":"2001 S Rainbow Blvd Ste 100","ytd revenue":871.03,"geo_precision":"range","state":"NV"},"type":"Feature","geometry":{"type":"Point","coordinates":[-115.24323,36.148814]}},{"properties":{"name":"Sylvia","city":"Nashua","geo_score":1.0,"zip code":"3060","proj. revenue":1008.05,"id":"a99eejfgxn07","column_2":"W. Horsley, M.D","address":"166 Kinsley st","ytd revenue":588.03,"geo_precision":"range","state":"NH"},"type":"Feature","geometry":{"type":"Point","coordinates":[-71.480405,42.75027]}},{"properties":{"name":"Lori","city":"Newtown","geo_score":1.0,"zip code":"18940","proj. revenue":976.46,"id":"a99eej20jev4","column_2":"Gerber","address":"209 Penns Trail","ytd revenue":569.6,"geo_precision":"range","state":"PA"},"type":"Feature","geometry":{"type":"Point","coordinates":[-74.909898,40.222445]}},{"properties":{"name":"Eternity Med Spa","city":"Saint Louis","geo_score":0.772,"zip code":"63141-5448","proj. revenue":600.34,"id":"a99eej6u3rry","column_2":null,"address":"12401 Olive Blvd Ste 103","ytd revenue":350.2,"geo_precision":"range","state":"MO"},"type":"Feature","geometry":{"type":"Point","coordinates":[-90.46194,38.67546]}},{"properties":{"name":"Charles Christian, M.D","city":"San Antonio","geo_score":0.772,"zip code":"78229-3788","proj. revenue":591.17,"id":"a99eejetm0w9","column_2":null,"address":"4499 Medical Dr Ste 225","ytd revenue":344.85,"geo_precision":"range","state":"TX"},"type":"Feature","geometry":{"type":"Point","coordinates":[-98.571399,29.510522]}},{"properties":{"name":"Sea","city":"Santa Barbara","geo_score":0.857,"zip code":"93150-0204","proj. revenue":386.37,"id":"a99eejadcf8p","column_2":"Spa/Santa Barbara","address":"PO Box 50204","ytd revenue":225.38,"geo_precision":"zip","state":"CA"},"type":"Feature","geometry":{"type":"Point","coordinates":[-119.848555,34.262834]}}],"is_temporal":false,"author":{"url":"","metadata":"","contact_name":"","contact_address":"","source":"","contact_phone":""},"source":"","pagination":{"sort":null,"start":0,"total":18,"limit":1000000},"state":"complete","tags":"","published":"2014-08-14T19:26:30-04:00","id":283745}