{"type":"FeatureCollection","data_type":"Dataset","url_type":null,"permissions":[{"permissions":{"download":true,"view":true},"group_id":"everyone"}],"classification":null,"title":"china_map","count":190,"stream_id":283755,"contributor":{"url":"http://geocommons.com/users/53577","name":"william shu"},"data_attributes":null,"calculation_params":null,"icon_link":null,"link":"http://geocommons.com/overlays/283755.json","extent":[94.8667,18.6106,130.35,47.2396],"geometry_types":["point"],"unique_name":null,"name":"china_map","feature_count":190,"description":"","next_feature":null,"is_raster":false,"short_classification":"Y","stats":{},"features":[{"properties":{"city":"Rizhao","country":"China","geo_score":0.857,"id":"a99exdx957e7","geo_precision":"zip"},"type":"Feature","geometry":{"type":"Point","coordinates":[119.5458333,35.3902778]}},{"properties":{"city":"Qingdao","country":"China","geo_score":0.857,"id":"a99exdvroyrn","geo_precision":"zip"},"type":"Feature","geometry":{"type":"Point","coordinates":[123.2758333,39.8347222]}},{"properties":{"city":"Shantou","country":"China","geo_score":0.857,"id":"a99exdnzpcuu","geo_precision":"zip"},"type":"Feature","geometry":{"type":"Point","coordinates":[107.01,29.7661111]}},{"properties":{"city":"Tianjin","country":"China","geo_score":0.857,"id":"a99exdpcw8l0","geo_precision":"zip"},"type":"Feature","geometry":{"type":"Point","coordinates":[110.4858333,18.9722222]}},{"properties":{"city":"Zhangzhou","country":"China","geo_score":0.857,"id":"a99exdmijs5h","geo_precision":"zip"},"type":"Feature","geometry":{"type":"Point","coordinates":[117.6555556,24.5133333]}},{"properties":{"city":"Yichang","country":"China","geo_score":0.857,"id":"a99exdvilmq8","geo_precision":"zip"},"type":"Feature","geometry":{"type":"Point","coordinates":[105.9983333,27.3655556]}},{"properties":{"city":"Tacheng Area","country":"China","geo_score":0.857,"id":"a99exdtupwpe","geo_precision":"zip"},"type":"Feature","geometry":{"type":"Point","coordinates":[94.8666667,29.5333333]}},{"properties":{"city":"Luohe","country":"China","geo_score":0.857,"id":"a99exdx21zad","geo_precision":"zip"},"type":"Feature","geometry":{"type":"Point","coordinates":[105.1166667,26.6]}},{"properties":{"city":"Zhangjiakou","country":"China","geo_score":0.857,"id":"a99exdot60oh","geo_precision":"zip"},"type":"Feature","geometry":{"type":"Point","coordinates":[116.471677,24.537138]}},{"properties":{"city":"Heze","country":"China","geo_score":0.857,"id":"a99exdkm2gju","geo_precision":"zip"},"type":"Feature","geometry":{"type":"Point","coordinates":[97.8833333,24.45]}},{"properties":{"city":"Shanghai","country":"China","geo_score":0.857,"id":"a99exdtvoian","geo_precision":"zip"},"type":"Feature","geometry":{"type":"Point","coordinates":[120.4277778,28.7658333]}},{"properties":{"city":"Shanghai","country":"China","geo_score":0.857,"id":"a99exdr2c8uj","geo_precision":"zip"},"type":"Feature","geometry":{"type":"Point","coordinates":[120.4277778,28.7658333]}},{"properties":{"city":"Linxiahuizu Zi Zhi Zhou","country":"China","geo_score":0.857,"id":"a99exdkc9gme","geo_precision":"zip"},"type":"Feature","geometry":{"type":"Point","coordinates":[119.7061111,25.6155556]}},{"properties":{"city":"Shanghai","country":"China","geo_score":0.857,"id":"a99exdltjhfj","geo_precision":"zip"},"type":"Feature","geometry":{"type":"Point","coordinates":[120.4277778,28.7658333]}},{"properties":{"city":"Penglai","country":"China","geo_score":0.857,"id":"a99exdrklj1h","geo_precision":"zip"},"type":"Feature","geometry":{"type":"Point","coordinates":[117.6880556,25.2491667]}},{"properties":{"city":"Zhanjiang","country":"China","geo_score":0.857,"id":"a99exdyn6c5t","geo_precision":"zip"},"type":"Feature","geometry":{"type":"Point","coordinates":[114.1338889,26.8780556]}},{"properties":{"city":"Dalian","country":"China","geo_score":0.857,"id":"a99exdoqsy6h","geo_precision":"zip"},"type":"Feature","geometry":{"type":"Point","coordinates":[119.0733333,25.3105556]}},{"properties":{"city":"Dalian","country":"China","geo_score":0.857,"id":"a99exdx2dr4c","geo_precision":"zip"},"type":"Feature","geometry":{"type":"Point","coordinates":[119.0733333,25.3105556]}},{"properties":{"city":"Qingdao","country":"China","geo_score":0.857,"id":"a99exdo1ezjo","geo_precision":"zip"},"type":"Feature","geometry":{"type":"Point","coordinates":[123.2758333,39.8347222]}},{"properties":{"city":"Rizhao","country":"China","geo_score":0.857,"id":"a99exdrremma","geo_precision":"zip"},"type":"Feature","geometry":{"type":"Point","coordinates":[119.5458333,35.3902778]}},{"properties":{"city":"Yangjiang","country":"China","geo_score":0.857,"id":"a99exdsc4kkl","geo_precision":"zip"},"type":"Feature","geometry":{"type":"Point","coordinates":[117.9133333,28.1386111]}},{"properties":{"city":"Weihai","country":"China","geo_score":0.857,"id":"a99exdwsrmmq","geo_precision":"zip"},"type":"Feature","geometry":{"type":"Point","coordinates":[118.1322222,25.5772222]}},{"properties":{"city":"Jiaonan","country":"China","geo_score":0.857,"id":"a99exdqyu8mi","geo_precision":"zip"},"type":"Feature","geometry":{"type":"Point","coordinates":[113.151984,22.7053043]}},{"properties":{"city":"Donggang","country":"China","geo_score":0.857,"id":"a99exdvbm32t","geo_precision":"zip"},"type":"Feature","geometry":{"type":"Point","coordinates":[121.4738889,31.8280556]}},{"properties":{"city":"Pulandian","country":"China","geo_score":0.857,"id":"a99exdu6k82v","geo_precision":"zip"},"type":"Feature","geometry":{"type":"Point","coordinates":[114.1088889,25.9125]}},{"properties":{"city":"Penglai","country":"China","geo_score":0.857,"id":"a99exdmekchu","geo_precision":"zip"},"type":"Feature","geometry":{"type":"Point","coordinates":[117.6880556,25.2491667]}},{"properties":{"city":"Yantai","country":"China","geo_score":0.857,"id":"a99exdqrr2py","geo_precision":"zip"},"type":"Feature","geometry":{"type":"Point","coordinates":[106.01564,31.65796]}},{"properties":{"city":"Dalian","country":"China","geo_score":0.857,"id":"a99exdqyj3je","geo_precision":"zip"},"type":"Feature","geometry":{"type":"Point","coordinates":[119.0733333,25.3105556]}},{"properties":{"city":"Rongcheng","country":"China","geo_score":0.857,"id":"a99exdpdd8ke","geo_precision":"zip"},"type":"Feature","geometry":{"type":"Point","coordinates":[122.6075,37.3416667]}},{"properties":{"city":"Qingdao","country":"China","geo_score":0.857,"id":"a99exdk9ue37","geo_precision":"zip"},"type":"Feature","geometry":{"type":"Point","coordinates":[123.2758333,39.8347222]}},{"properties":{"city":"Shanwei","country":"China","geo_score":0.857,"id":"a99exdr4hqw7","geo_precision":"zip"},"type":"Feature","geometry":{"type":"Point","coordinates":[112.698903,23.26994]}},{"properties":{"city":"Hangzhou","country":"China","geo_score":0.857,"id":"a99exdo7977k","geo_precision":"zip"},"type":"Feature","geometry":{"type":"Point","coordinates":[111.202609,21.950227]}},{"properties":{"city":"Huzhou","country":"China","geo_score":0.857,"id":"a99exdqjiqtn","geo_precision":"zip"},"type":"Feature","geometry":{"type":"Point","coordinates":[113.169189,22.67079]}},{"properties":{"city":"Lianyungang","country":"China","geo_score":0.857,"id":"a99exdsdifnv","geo_precision":"zip"},"type":"Feature","geometry":{"type":"Point","coordinates":[119.1122821,34.5484419]}},{"properties":{"city":"Fuzhou","country":"China","geo_score":0.857,"id":"a99exdj84h99","geo_precision":"zip"},"type":"Feature","geometry":{"type":"Point","coordinates":[111.207027,21.982146]}},{"properties":{"city":"Weihai","country":"China","geo_score":0.857,"id":"a99exdljw884","geo_precision":"zip"},"type":"Feature","geometry":{"type":"Point","coordinates":[118.1322222,25.5772222]}},{"properties":{"city":"Binzhou","country":"China","geo_score":0.857,"id":"a99exdlmuk9i","geo_precision":"zip"},"type":"Feature","geometry":{"type":"Point","coordinates":[123.1666667,44.6]}},{"properties":{"city":"Chongqing","country":"China","geo_score":0.857,"id":"a99exdxwsslt","geo_precision":"zip"},"type":"Feature","geometry":{"type":"Point","coordinates":[112.864642,23.263988]}},{"properties":{"city":"Zhucheng","country":"China","geo_score":0.857,"id":"a99exdswuu8w","geo_precision":"zip"},"type":"Feature","geometry":{"type":"Point","coordinates":[118.3916667,30.7916667]}},{"properties":{"city":"Jinhua","country":"China","geo_score":0.857,"id":"a99exdza53r3","geo_precision":"zip"},"type":"Feature","geometry":{"type":"Point","coordinates":[110.3919444,20.4966667]}},{"properties":{"city":"Nangong","country":"China","geo_score":0.857,"id":"a99exdta3exs","geo_precision":"zip"},"type":"Feature","geometry":{"type":"Point","coordinates":[109.315,19.1005556]}},{"properties":{"city":"Yibin","country":"China","geo_score":0.857,"id":"a99exdp7v7ha","geo_precision":"zip"},"type":"Feature","geometry":{"type":"Point","coordinates":[117.3833333,28.6666667]}},{"properties":{"city":"Jiaozuo","country":"China","geo_score":0.857,"id":"a99exdl2p505","geo_precision":"zip"},"type":"Feature","geometry":{"type":"Point","coordinates":[114.3666667,23.5333333]}},{"properties":{"city":"Dezhou","country":"China","geo_score":0.857,"id":"a99exdy98v7y","geo_precision":"zip"},"type":"Feature","geometry":{"type":"Point","coordinates":[115.858275,24.5803721]}},{"properties":{"city":"Meishan","country":"China","geo_score":0.857,"id":"a99exdup5qev","geo_precision":"zip"},"type":"Feature","geometry":{"type":"Point","coordinates":[109.6502778,33.1711111]}},{"properties":{"city":"Taian","country":"China","geo_score":0.857,"id":"a99exdzacf4p","geo_precision":"zip"},"type":"Feature","geometry":{"type":"Point","coordinates":[118.48,24.7727778]}},{"properties":{"city":"Tongliao","country":"China","geo_score":0.857,"id":"a99exdvim4kh","geo_precision":"zip"},"type":"Feature","geometry":{"type":"Point","coordinates":[95.3166667,30.6666667]}},{"properties":{"city":"Jinzhou","country":"China","geo_score":0.857,"id":"a99exduqkcrf","geo_precision":"zip"},"type":"Feature","geometry":{"type":"Point","coordinates":[115.215,37.1916667]}},{"properties":{"city":"Bengbu","country":"China","geo_score":0.857,"id":"a99exdx4b0mw","geo_precision":"zip"},"type":"Feature","geometry":{"type":"Point","coordinates":[105.325,25.9916667]}},{"properties":{"city":"Zigong","country":"China","geo_score":0.857,"id":"a99exdkb0obq","geo_precision":"zip"},"type":"Feature","geometry":{"type":"Point","coordinates":[109.8197222,18.6105556]}},{"properties":{"city":"Zhaodong","country":"China","geo_score":0.857,"id":"a99exdz4dqtk","geo_precision":"zip"},"type":"Feature","geometry":{"type":"Point","coordinates":[116.378886,24.354619]}},{"properties":{"city":"Heshan","country":"China","geo_score":0.857,"id":"a99exdyx6dzs","geo_precision":"zip"},"type":"Feature","geometry":{"type":"Point","coordinates":[112.6863889,28.9241667]}},{"properties":{"city":"Huizhou","country":"China","geo_score":0.857,"id":"a99exdrqilo7","geo_precision":"zip"},"type":"Feature","geometry":{"type":"Point","coordinates":[113.169189,22.67079]}},{"properties":{"city":"Xiangtan","country":"China","geo_score":0.857,"id":"a99exdmo3g31","geo_precision":"zip"},"type":"Feature","geometry":{"type":"Point","coordinates":[109.9091667,25.0275]}},{"properties":{"city":"Huhehaote","country":"China","geo_score":0.0,"id":"a99exdxu9fdn","geo_precision":"unmatched"},"type":"Feature","geometry":null},{"properties":{"city":"Weifang","country":"China","geo_score":0.857,"id":"a99exdxrake4","geo_precision":"zip"},"type":"Feature","geometry":{"type":"Point","coordinates":[117.9218925,27.172671]}},{"properties":{"city":"Heze","country":"China","geo_score":0.857,"id":"a99exduw2mmv","geo_precision":"zip"},"type":"Feature","geometry":{"type":"Point","coordinates":[97.8833333,24.45]}},{"properties":{"city":"Dalian","country":"China","geo_score":0.857,"id":"a99exdzjofao","geo_precision":"zip"},"type":"Feature","geometry":{"type":"Point","coordinates":[119.0733333,25.3105556]}},{"properties":{"city":"Luzhou","country":"China","geo_score":0.857,"id":"a99exdp5snb3","geo_precision":"zip"},"type":"Feature","geometry":{"type":"Point","coordinates":[103.8833333,27.9]}},{"properties":{"city":"Shifang","country":"China","geo_score":0.857,"id":"a99exdt8tqo4","geo_precision":"zip"},"type":"Feature","geometry":{"type":"Point","coordinates":[110.8944444,27.4491667]}},{"properties":{"city":"Beijing","country":"China","geo_score":0.857,"id":"a99exdmcgf7r","geo_precision":"zip"},"type":"Feature","geometry":{"type":"Point","coordinates":[108.55,23.8]}},{"properties":{"city":"Tongliao","country":"China","geo_score":0.857,"id":"a99exdm29tt0","geo_precision":"zip"},"type":"Feature","geometry":{"type":"Point","coordinates":[95.3166667,30.6666667]}},{"properties":{"city":"Jiutai","country":"China","geo_score":0.857,"id":"a99exdkoaj5e","geo_precision":"zip"},"type":"Feature","geometry":{"type":"Point","coordinates":[119.75,34.35]}},{"properties":{"city":"Tongliao","country":"China","geo_score":0.857,"id":"a99exdyzjr3c","geo_precision":"zip"},"type":"Feature","geometry":{"type":"Point","coordinates":[95.3166667,30.6666667]}},{"properties":{"city":"Kaiyuan","country":"China","geo_score":0.857,"id":"a99exdsgreoq","geo_precision":"zip"},"type":"Feature","geometry":{"type":"Point","coordinates":[107.0,24.65]}},{"properties":{"city":"Liuan","country":"China","geo_score":0.857,"id":"a99exdxpnt4l","geo_precision":"zip"},"type":"Feature","geometry":{"type":"Point","coordinates":[117.9627778,25.0463889]}},{"properties":{"city":"Heze","country":"China","geo_score":0.857,"id":"a99exdwyl4x8","geo_precision":"zip"},"type":"Feature","geometry":{"type":"Point","coordinates":[97.8833333,24.45]}},{"properties":{"city":"Huaibei","country":"China","geo_score":0.857,"id":"a99exdqyeqb9","geo_precision":"zip"},"type":"Feature","geometry":{"type":"Point","coordinates":[114.1925,35.8991667]}},{"properties":{"city":"Yangzhou","country":"China","geo_score":0.857,"id":"a99exdl8chfg","geo_precision":"zip"},"type":"Feature","geometry":{"type":"Point","coordinates":[111.0738889,35.6052778]}},{"properties":{"city":"Zhangzhou","country":"China","geo_score":0.857,"id":"a99exdnttrkt","geo_precision":"zip"},"type":"Feature","geometry":{"type":"Point","coordinates":[117.6555556,24.5133333]}},{"properties":{"city":"Beijing","country":"China","geo_score":0.857,"id":"a99exdpd9jk2","geo_precision":"zip"},"type":"Feature","geometry":{"type":"Point","coordinates":[108.55,23.8]}},{"properties":{"city":"Weifang","country":"China","geo_score":0.857,"id":"a99exdq5lx91","geo_precision":"zip"},"type":"Feature","geometry":{"type":"Point","coordinates":[117.9218925,27.172671]}},{"properties":{"city":"Beihai","country":"China","geo_score":0.857,"id":"a99exdsfz620","geo_precision":"zip"},"type":"Feature","geometry":{"type":"Point","coordinates":[107.1540105,31.0352385]}},{"properties":{"city":"Shanghai","country":"China","geo_score":0.857,"id":"a99exdp38d2q","geo_precision":"zip"},"type":"Feature","geometry":{"type":"Point","coordinates":[120.4277778,28.7658333]}},{"properties":{"city":"Shanghai","country":"China","geo_score":0.857,"id":"a99exdjczdq3","geo_precision":"zip"},"type":"Feature","geometry":{"type":"Point","coordinates":[120.4277778,28.7658333]}},{"properties":{"city":"Tengzhou","country":"China","geo_score":0.857,"id":"a99exdurzia4","geo_precision":"zip"},"type":"Feature","geometry":{"type":"Point","coordinates":[124.325,41.6488889]}},{"properties":{"city":"Changge","country":"China","geo_score":0.857,"id":"a99exdox2ffv","geo_precision":"zip"},"type":"Feature","geometry":{"type":"Point","coordinates":[120.4277778,28.7658333]}},{"properties":{"city":"Shanghai","country":"China","geo_score":0.857,"id":"a99exdpj7umg","geo_precision":"zip"},"type":"Feature","geometry":{"type":"Point","coordinates":[120.4277778,28.7658333]}},{"properties":{"city":"Taian","country":"China","geo_score":0.857,"id":"a99exdjkhmql","geo_precision":"zip"},"type":"Feature","geometry":{"type":"Point","coordinates":[118.48,24.7727778]}},{"properties":{"city":"Langfang","country":"China","geo_score":0.857,"id":"a99exdwb8g4m","geo_precision":"zip"},"type":"Feature","geometry":{"type":"Point","coordinates":[118.5955556,25.4522222]}},{"properties":{"city":"Zhucheng","country":"China","geo_score":0.857,"id":"a99exdscc18i","geo_precision":"zip"},"type":"Feature","geometry":{"type":"Point","coordinates":[118.3916667,30.7916667]}},{"properties":{"city":"Zhoukou","country":"China","geo_score":0.857,"id":"a99exdou6s7o","geo_precision":"zip"},"type":"Feature","geometry":{"type":"Point","coordinates":[115.1469444,27.4936111]}},{"properties":{"city":"Yongji","country":"China","geo_score":0.857,"id":"a99exdklmf68","geo_precision":"zip"},"type":"Feature","geometry":{"type":"Point","coordinates":[111.5366667,28.2330556]}},{"properties":{"city":"Anyang","country":"China","geo_score":0.857,"id":"a99exdpfpkzm","geo_precision":"zip"},"type":"Feature","geometry":{"type":"Point","coordinates":[114.3366667,36.1363889]}},{"properties":{"city":"Haerbin","country":"China","geo_score":0.857,"id":"a99exdxvqylz","geo_precision":"zip"},"type":"Feature","geometry":{"type":"Point","coordinates":[126.250328,45.623403]}},{"properties":{"city":"Linyi","country":"China","geo_score":0.857,"id":"a99exdyksqdx","geo_precision":"zip"},"type":"Feature","geometry":{"type":"Point","coordinates":[110.3347222,18.8419444]}},{"properties":{"city":"Chengde","country":"China","geo_score":0.857,"id":"a99exdk3fk0o","geo_precision":"zip"},"type":"Feature","geometry":{"type":"Point","coordinates":[120.3527778,32.9611111]}},{"properties":{"city":"Chifeng","country":"China","geo_score":0.857,"id":"a99exdwbltsj","geo_precision":"zip"},"type":"Feature","geometry":{"type":"Point","coordinates":[110.8944444,27.4491667]}},{"properties":{"city":"Yanzhou","country":"China","geo_score":0.857,"id":"a99exdx772t1","geo_precision":"zip"},"type":"Feature","geometry":{"type":"Point","coordinates":[109.7652778,28.7638889]}},{"properties":{"city":"Weifang","country":"China","geo_score":0.857,"id":"a99exdvx4x2r","geo_precision":"zip"},"type":"Feature","geometry":{"type":"Point","coordinates":[117.9218925,27.172671]}},{"properties":{"city":"Anyang","country":"China","geo_score":0.857,"id":"a99exdzdjtyj","geo_precision":"zip"},"type":"Feature","geometry":{"type":"Point","coordinates":[114.3366667,36.1363889]}},{"properties":{"city":"Beijing","country":"China","geo_score":0.857,"id":"a99exdvnp9lf","geo_precision":"zip"},"type":"Feature","geometry":{"type":"Point","coordinates":[108.55,23.8]}},{"properties":{"city":"Shanghai","country":"China","geo_score":0.857,"id":"a99exdncccn8","geo_precision":"zip"},"type":"Feature","geometry":{"type":"Point","coordinates":[120.4277778,28.7658333]}},{"properties":{"city":"Nanchang","country":"China","geo_score":0.857,"id":"a99exdmf1t8h","geo_precision":"zip"},"type":"Feature","geometry":{"type":"Point","coordinates":[118.2975,25.7866667]}},{"properties":{"city":"Chongqing","country":"China","geo_score":0.857,"id":"a99exdtzvzwf","geo_precision":"zip"},"type":"Feature","geometry":{"type":"Point","coordinates":[112.864642,23.263988]}},{"properties":{"city":"Linyi","country":"China","geo_score":0.857,"id":"a99exdnwxj1h","geo_precision":"zip"},"type":"Feature","geometry":{"type":"Point","coordinates":[110.3347222,18.8419444]}},{"properties":{"city":"Jiamusi","country":"China","geo_score":0.857,"id":"a99exdtm1n0u","geo_precision":"zip"},"type":"Feature","geometry":{"type":"Point","coordinates":[130.35,46.8333333]}},{"properties":{"city":"Qingzhou","country":"China","geo_score":0.857,"id":"a99exdr16vjm","geo_precision":"zip"},"type":"Feature","geometry":{"type":"Point","coordinates":[117.3852778,33.9061111]}},{"properties":{"city":"Yucheng","country":"China","geo_score":0.857,"id":"a99exdlxhdvl","geo_precision":"zip"},"type":"Feature","geometry":{"type":"Point","coordinates":[105.9983333,27.3655556]}},{"properties":{"city":"Linyi","country":"China","geo_score":0.857,"id":"a99exdnr2pkq","geo_precision":"zip"},"type":"Feature","geometry":{"type":"Point","coordinates":[110.3347222,18.8419444]}},{"properties":{"city":"Qiqihaer","country":"China","geo_score":0.857,"id":"a99exdrbeji0","geo_precision":"zip"},"type":"Feature","geometry":{"type":"Point","coordinates":[123.918131,47.239628]}},{"properties":{"city":"Pingdu","country":"China","geo_score":0.857,"id":"a99exdypdhsb","geo_precision":"zip"},"type":"Feature","geometry":{"type":"Point","coordinates":[122.65,45.7166667]}},{"properties":{"city":"Qingzhou","country":"China","geo_score":0.857,"id":"a99exdqf1xpp","geo_precision":"zip"},"type":"Feature","geometry":{"type":"Point","coordinates":[117.3852778,33.9061111]}},{"properties":{"city":"Linyi","country":"China","geo_score":0.857,"id":"a99exdwasxd0","geo_precision":"zip"},"type":"Feature","geometry":{"type":"Point","coordinates":[110.3347222,18.8419444]}},{"properties":{"city":"Dezhou","country":"China","geo_score":0.857,"id":"a99exdks6b0k","geo_precision":"zip"},"type":"Feature","geometry":{"type":"Point","coordinates":[115.858275,24.5803721]}},{"properties":{"city":"Zhucheng","country":"China","geo_score":0.857,"id":"a99exdkw4xpo","geo_precision":"zip"},"type":"Feature","geometry":{"type":"Point","coordinates":[118.3916667,30.7916667]}},{"properties":{"city":"Jining","country":"China","geo_score":0.857,"id":"a99exdz1377w","geo_precision":"zip"},"type":"Feature","geometry":{"type":"Point","coordinates":[116.5293046,31.7418994]}},{"properties":{"city":"Beijing","country":"China","geo_score":0.857,"id":"a99exdlp2kty","geo_precision":"zip"},"type":"Feature","geometry":{"type":"Point","coordinates":[108.55,23.8]}},{"properties":{"city":"Binzhou","country":"China","geo_score":0.857,"id":"a99exdkz2839","geo_precision":"zip"},"type":"Feature","geometry":{"type":"Point","coordinates":[123.1666667,44.6]}},{"properties":{"city":"Xiamen","country":"China","geo_score":0.857,"id":"a99exdoa8kf4","geo_precision":"zip"},"type":"Feature","geometry":{"type":"Point","coordinates":[118.6897222,25.6036111]}},{"properties":{"city":"Changchun","country":"China","geo_score":0.857,"id":"a99exdwn3l1g","geo_precision":"zip"},"type":"Feature","geometry":{"type":"Point","coordinates":[115.3563889,31.8136111]}},{"properties":{"city":"Shouguang","country":"China","geo_score":0.857,"id":"a99exdkwxg96","geo_precision":"zip"},"type":"Feature","geometry":{"type":"Point","coordinates":[97.1199989318848,33.3650869620919]}},{"properties":{"city":"Bayannaoer","country":"China","geo_score":0.857,"id":"a99exdw4dgpc","geo_precision":"zip"},"type":"Feature","geometry":{"type":"Point","coordinates":[104.8833333,40.1666667]}},{"properties":{"city":"Baicheng","country":"China","geo_score":0.857,"id":"a99exdjpcjmh","geo_precision":"zip"},"type":"Feature","geometry":{"type":"Point","coordinates":[118.0833333,37.1333333]}},{"properties":{"city":"Changchun","country":"China","geo_score":0.857,"id":"a99exdts848b","geo_precision":"zip"},"type":"Feature","geometry":{"type":"Point","coordinates":[115.3563889,31.8136111]}},{"properties":{"city":"Taian","country":"China","geo_score":0.857,"id":"a99exdm7vq57","geo_precision":"zip"},"type":"Feature","geometry":{"type":"Point","coordinates":[118.48,24.7727778]}},{"properties":{"city":"Anshan","country":"China","geo_score":0.857,"id":"a99exdp3q6rk","geo_precision":"zip"},"type":"Feature","geometry":{"type":"Point","coordinates":[110.1633333,27.0402778]}},{"properties":{"city":"Qingdao","country":"China","geo_score":0.857,"id":"a99exdy3zr2n","geo_precision":"zip"},"type":"Feature","geometry":{"type":"Point","coordinates":[123.2758333,39.8347222]}},{"properties":{"city":"Gaomi","country":"China","geo_score":0.857,"id":"a99exdj4uq2z","geo_precision":"zip"},"type":"Feature","geometry":{"type":"Point","coordinates":[113.3497222,34.6730556]}},{"properties":{"city":"Wafangdian","country":"China","geo_score":0.857,"id":"a99exdjhsrgd","geo_precision":"zip"},"type":"Feature","geometry":{"type":"Point","coordinates":[110.6850059,30.164581]}},{"properties":{"city":"Haimen","country":"China","geo_score":0.857,"id":"a99exdymjiyv","geo_precision":"zip"},"type":"Feature","geometry":{"type":"Point","coordinates":[105.2291667,28.5702778]}},{"properties":{"city":"Liuan","country":"China","geo_score":0.857,"id":"a99exdzerufs","geo_precision":"zip"},"type":"Feature","geometry":{"type":"Point","coordinates":[117.9627778,25.0463889]}},{"properties":{"city":"Chifeng","country":"China","geo_score":0.857,"id":"a99exdx5p4eb","geo_precision":"zip"},"type":"Feature","geometry":{"type":"Point","coordinates":[110.8944444,27.4491667]}},{"properties":{"city":"Nanping","country":"China","geo_score":0.857,"id":"a99exduqh1qg","geo_precision":"zip"},"type":"Feature","geometry":{"type":"Point","coordinates":[98.95,23.5]}},{"properties":{"city":"Wuhan","country":"China","geo_score":0.857,"id":"a99exdsygbu4","geo_precision":"zip"},"type":"Feature","geometry":{"type":"Point","coordinates":[117.7333333,33.45]}},{"properties":{"city":"Yunfu","country":"China","geo_score":0.857,"id":"a99exdm731o7","geo_precision":"zip"},"type":"Feature","geometry":{"type":"Point","coordinates":[104.3833333,28.6333333]}},{"properties":{"city":"Zhucheng","country":"China","geo_score":0.857,"id":"a99exdotizg9","geo_precision":"zip"},"type":"Feature","geometry":{"type":"Point","coordinates":[118.3916667,30.7916667]}},{"properties":{"city":"Taian","country":"China","geo_score":0.857,"id":"a99exdu0xsuw","geo_precision":"zip"},"type":"Feature","geometry":{"type":"Point","coordinates":[118.48,24.7727778]}},{"properties":{"city":"Weifang","country":"China","geo_score":0.857,"id":"a99exdy9mmu4","geo_precision":"zip"},"type":"Feature","geometry":{"type":"Point","coordinates":[117.9218925,27.172671]}},{"properties":{"city":"Chifeng","country":"China","geo_score":0.857,"id":"a99exdn37x16","geo_precision":"zip"},"type":"Feature","geometry":{"type":"Point","coordinates":[110.8944444,27.4491667]}},{"properties":{"city":"Nanping","country":"China","geo_score":0.857,"id":"a99exdvua2en","geo_precision":"zip"},"type":"Feature","geometry":{"type":"Point","coordinates":[98.95,23.5]}},{"properties":{"city":"Heze","country":"China","geo_score":0.857,"id":"a99exdr1iuon","geo_precision":"zip"},"type":"Feature","geometry":{"type":"Point","coordinates":[97.8833333,24.45]}},{"properties":{"city":"Weifang","country":"China","geo_score":0.857,"id":"a99exdsavafp","geo_precision":"zip"},"type":"Feature","geometry":{"type":"Point","coordinates":[117.9218925,27.172671]}},{"properties":{"city":"Suining","country":"China","geo_score":0.857,"id":"a99exdqpew0j","geo_precision":"zip"},"type":"Feature","geometry":{"type":"Point","coordinates":[106.8,36.6]}},{"properties":{"city":"Heze","country":"China","geo_score":0.857,"id":"a99exdltzu1v","geo_precision":"zip"},"type":"Feature","geometry":{"type":"Point","coordinates":[97.8833333,24.45]}},{"properties":{"city":"Xiamen","country":"China","geo_score":0.857,"id":"a99exdru2nir","geo_precision":"zip"},"type":"Feature","geometry":{"type":"Point","coordinates":[118.6897222,25.6036111]}},{"properties":{"city":"Zhucheng","country":"China","geo_score":0.857,"id":"a99exdkm22wl","geo_precision":"zip"},"type":"Feature","geometry":{"type":"Point","coordinates":[118.3916667,30.7916667]}},{"properties":{"city":"Dezhou","country":"China","geo_score":0.857,"id":"a99exdp4ds7y","geo_precision":"zip"},"type":"Feature","geometry":{"type":"Point","coordinates":[115.858275,24.5803721]}},{"properties":{"city":"Yantai","country":"China","geo_score":0.857,"id":"a99exdu36pvs","geo_precision":"zip"},"type":"Feature","geometry":{"type":"Point","coordinates":[106.01564,31.65796]}},{"properties":{"city":"Fuxin","country":"China","geo_score":0.0,"id":"a99exdp8e90z","geo_precision":"unmatched"},"type":"Feature","geometry":null},{"properties":{"city":"Dezhou","country":"China","geo_score":0.857,"id":"a99exdtp0coe","geo_precision":"zip"},"type":"Feature","geometry":{"type":"Point","coordinates":[115.858275,24.5803721]}},{"properties":{"city":"Tangshan","country":"China","geo_score":0.857,"id":"a99exdxex0bq","geo_precision":"zip"},"type":"Feature","geometry":{"type":"Point","coordinates":[117.5833333,33.2972222]}},{"properties":{"city":"Yichang","country":"China","geo_score":0.857,"id":"a99exdy5t5xg","geo_precision":"zip"},"type":"Feature","geometry":{"type":"Point","coordinates":[105.9983333,27.3655556]}},{"properties":{"city":"Jiutai","country":"China","geo_score":0.857,"id":"a99exdrqx123","geo_precision":"zip"},"type":"Feature","geometry":{"type":"Point","coordinates":[119.75,34.35]}},{"properties":{"city":"Beijing","country":"China","geo_score":0.857,"id":"a99exdsvnv18","geo_precision":"zip"},"type":"Feature","geometry":{"type":"Point","coordinates":[108.55,23.8]}},{"properties":{"city":"Sanhe","country":"China","geo_score":0.857,"id":"a99exduud37t","geo_precision":"zip"},"type":"Feature","geometry":{"type":"Point","coordinates":[116.5766369,23.330193]}},{"properties":{"city":"Pingdu","country":"China","geo_score":0.857,"id":"a99exdvx12a5","geo_precision":"zip"},"type":"Feature","geometry":{"type":"Point","coordinates":[122.65,45.7166667]}},{"properties":{"city":"Suining","country":"China","geo_score":0.857,"id":"a99exdsit3fx","geo_precision":"zip"},"type":"Feature","geometry":{"type":"Point","coordinates":[106.8,36.6]}},{"properties":{"city":"Fuxin","country":"China","geo_score":0.0,"id":"a99exdnqtcx4","geo_precision":"unmatched"},"type":"Feature","geometry":null},{"properties":{"city":"Shenzhen","country":"China","geo_score":0.857,"id":"a99exdji5jac","geo_precision":"zip"},"type":"Feature","geometry":{"type":"Point","coordinates":[114.1333333,22.5666667]}},{"properties":{"city":"Changyi","country":"China","geo_score":0.857,"id":"a99exdp1mg8x","geo_precision":"zip"},"type":"Feature","geometry":{"type":"Point","coordinates":[125.2486111,43.1086111]}},{"properties":{"city":"Lianyungang","country":"China","geo_score":0.857,"id":"a99exdrqr2bo","geo_precision":"zip"},"type":"Feature","geometry":{"type":"Point","coordinates":[119.1122821,34.5484419]}},{"properties":{"city":"Luoyang","country":"China","geo_score":0.857,"id":"a99exdxl78xt","geo_precision":"zip"},"type":"Feature","geometry":{"type":"Point","coordinates":[106.1502778,33.3291667]}},{"properties":{"city":"Maanshan","country":"China","geo_score":0.857,"id":"a99exds9z8od","geo_precision":"zip"},"type":"Feature","geometry":{"type":"Point","coordinates":[106.6691667,33.1566667]}},{"properties":{"city":"Beijing","country":"China","geo_score":0.857,"id":"a99exdp7f0mv","geo_precision":"zip"},"type":"Feature","geometry":{"type":"Point","coordinates":[108.55,23.8]}},{"properties":{"city":"Rugao","country":"China","geo_score":0.857,"id":"a99exdvwlivf","geo_precision":"zip"},"type":"Feature","geometry":{"type":"Point","coordinates":[117.1184595,27.8287575]}},{"properties":{"city":"Xian","country":"China","geo_score":0.857,"id":"a99exduvvqqz","geo_precision":"zip"},"type":"Feature","geometry":{"type":"Point","coordinates":[103.6166667,30.2666667]}},{"properties":{"city":"Beijing","country":"China","geo_score":0.857,"id":"a99exdkr6vhv","geo_precision":"zip"},"type":"Feature","geometry":{"type":"Point","coordinates":[108.55,23.8]}},{"properties":{"city":"Linyi","country":"China","geo_score":0.857,"id":"a99exdlts9rd","geo_precision":"zip"},"type":"Feature","geometry":{"type":"Point","coordinates":[110.3347222,18.8419444]}},{"properties":{"city":"Baiyin","country":"China","geo_score":0.857,"id":"a99exdvwfs44","geo_precision":"zip"},"type":"Feature","geometry":{"type":"Point","coordinates":[116.4083333,30.55]}},{"properties":{"city":"Neijiang","country":"China","geo_score":0.857,"id":"a99exdl5ak1g","geo_precision":"zip"},"type":"Feature","geometry":{"type":"Point","coordinates":[97.3333333,30.0833333]}},{"properties":{"city":"Zhangzhou","country":"China","geo_score":0.857,"id":"a99exdxeizsj","geo_precision":"zip"},"type":"Feature","geometry":{"type":"Point","coordinates":[117.6555556,24.5133333]}},{"properties":{"city":"Maanshan","country":"China","geo_score":0.857,"id":"a99exdqc0jxv","geo_precision":"zip"},"type":"Feature","geometry":{"type":"Point","coordinates":[106.6691667,33.1566667]}},{"properties":{"city":"Zhucheng","country":"China","geo_score":0.857,"id":"a99exduhqyk9","geo_precision":"zip"},"type":"Feature","geometry":{"type":"Point","coordinates":[118.3916667,30.7916667]}},{"properties":{"city":"Shanghai","country":"China","geo_score":0.857,"id":"a99exdl9asr6","geo_precision":"zip"},"type":"Feature","geometry":{"type":"Point","coordinates":[120.4277778,28.7658333]}},{"properties":{"city":"Daqing","country":"China","geo_score":0.857,"id":"a99exdsn9yor","geo_precision":"zip"},"type":"Feature","geometry":{"type":"Point","coordinates":[104.6666667,26.9833333]}},{"properties":{"city":"Baiyin","country":"China","geo_score":0.857,"id":"a99exdk9g3b7","geo_precision":"zip"},"type":"Feature","geometry":{"type":"Point","coordinates":[116.4083333,30.55]}},{"properties":{"city":"Zhoukou","country":"China","geo_score":0.857,"id":"a99exdlfaucy","geo_precision":"zip"},"type":"Feature","geometry":{"type":"Point","coordinates":[115.1469444,27.4936111]}},{"properties":{"city":"Beijing","country":"China","geo_score":0.857,"id":"a99exdnzg0y9","geo_precision":"zip"},"type":"Feature","geometry":{"type":"Point","coordinates":[108.55,23.8]}},{"properties":{"city":"Yantai","country":"China","geo_score":0.857,"id":"a99exdl3jh2p","geo_precision":"zip"},"type":"Feature","geometry":{"type":"Point","coordinates":[106.01564,31.65796]}},{"properties":{"city":"Shanghai","country":"China","geo_score":0.857,"id":"a99exdyxzke1","geo_precision":"zip"},"type":"Feature","geometry":{"type":"Point","coordinates":[120.4277778,28.7658333]}},{"properties":{"city":"Zhoukou","country":"China","geo_score":0.857,"id":"a99exdtrtwb8","geo_precision":"zip"},"type":"Feature","geometry":{"type":"Point","coordinates":[115.1469444,27.4936111]}},{"properties":{"city":"Beijing","country":"China","geo_score":0.857,"id":"a99exdre6x25","geo_precision":"zip"},"type":"Feature","geometry":{"type":"Point","coordinates":[108.55,23.8]}},{"properties":{"city":"Shanghai","country":"China","geo_score":0.857,"id":"a99exdto3vko","geo_precision":"zip"},"type":"Feature","geometry":{"type":"Point","coordinates":[120.4277778,28.7658333]}},{"properties":{"city":"Shenzhen","country":"China","geo_score":0.857,"id":"a99exdk9f7q1","geo_precision":"zip"},"type":"Feature","geometry":{"type":"Point","coordinates":[114.1333333,22.5666667]}},{"properties":{"city":"Shanghai","country":"China","geo_score":0.857,"id":"a99exdx1hsij","geo_precision":"zip"},"type":"Feature","geometry":{"type":"Point","coordinates":[120.4277778,28.7658333]}},{"properties":{"city":"Dachang","country":"China","geo_score":0.857,"id":"a99exdovrw8p","geo_precision":"zip"},"type":"Feature","geometry":{"type":"Point","coordinates":[94.8666667,29.5333333]}},{"properties":{"city":"Weihai","country":"China","geo_score":0.857,"id":"a99exdv07lnr","geo_precision":"zip"},"type":"Feature","geometry":{"type":"Point","coordinates":[118.1322222,25.5772222]}},{"properties":{"city":"Chuzhou","country":"China","geo_score":0.857,"id":"a99exdmkvjnw","geo_precision":"zip"},"type":"Feature","geometry":{"type":"Point","coordinates":[108.6016667,27.7263889]}},{"properties":{"city":"Changyi","country":"China","geo_score":0.857,"id":"a99exdsufjyy","geo_precision":"zip"},"type":"Feature","geometry":{"type":"Point","coordinates":[125.2486111,43.1086111]}},{"properties":{"city":"Haimen","country":"China","geo_score":0.857,"id":"a99exdxmwnul","geo_precision":"zip"},"type":"Feature","geometry":{"type":"Point","coordinates":[105.2291667,28.5702778]}},{"properties":{"city":"Guangzhou","country":"China","geo_score":0.857,"id":"a99exdpzcu57","geo_precision":"zip"},"type":"Feature","geometry":{"type":"Point","coordinates":[117.3852778,33.9061111]}},{"properties":{"city":"Shanghai","country":"China","geo_score":0.857,"id":"a99exdwv7kqx","geo_precision":"zip"},"type":"Feature","geometry":{"type":"Point","coordinates":[120.4277778,28.7658333]}},{"properties":{"city":"Hongkong","country":"China","geo_score":0.857,"id":"a99exdlbm512","geo_precision":"zip"},"type":"Feature","geometry":{"type":"Point","coordinates":[117.6547222,26.8108333]}},{"properties":{"city":"Guangzhou","country":"China","geo_score":0.857,"id":"a99exdj582be","geo_precision":"zip"},"type":"Feature","geometry":{"type":"Point","coordinates":[117.3852778,33.9061111]}},{"properties":{"city":"Luohe","country":"China","geo_score":0.857,"id":"a99exdvxk2pb","geo_precision":"zip"},"type":"Feature","geometry":{"type":"Point","coordinates":[105.1166667,26.6]}},{"properties":{"city":"Yantai","country":"China","geo_score":0.857,"id":"a99exdug83zk","geo_precision":"zip"},"type":"Feature","geometry":{"type":"Point","coordinates":[106.01564,31.65796]}},{"properties":{"city":"Beijing","country":"China","geo_score":0.857,"id":"a99exdyt4k7r","geo_precision":"zip"},"type":"Feature","geometry":{"type":"Point","coordinates":[108.55,23.8]}},{"properties":{"city":"Dalian","country":"China","geo_score":0.857,"id":"a99exdo0ofuy","geo_precision":"zip"},"type":"Feature","geometry":{"type":"Point","coordinates":[119.0733333,25.3105556]}},{"properties":{"city":"Dongguan","country":"China","geo_score":0.857,"id":"a99exdvrbuou","geo_precision":"zip"},"type":"Feature","geometry":{"type":"Point","coordinates":[119.54,27.3338889]}}],"is_temporal":false,"author":{"url":"","metadata":null,"contact_name":null,"contact_address":null,"source":null,"contact_phone":null},"source":"","pagination":{"sort":null,"start":0,"total":190,"limit":1000000},"state":"complete","tags":"","published":"2014-08-14T19:27:17-04:00","id":283755}