{"type":"FeatureCollection","data_type":"Dataset","url_type":null,"permissions":[{"permissions":{"download":true,"view":true},"group_id":"everyone"}],"classification":null,"title":"Coal Defeated","count":78,"stream_id":284250,"contributor":{"url":"http://geocommons.com/users/52895","name":"jason@fluxx.io"},"data_attributes":null,"calculation_params":null,"icon_link":null,"link":"http://geocommons.com/overlays/284250.json","extent":[-119.357,25.3782,-75.2402,47.9041],"geometry_types":["point"],"unique_name":null,"name":"Coal Defeated","feature_count":78,"description":"","next_feature":null,"is_raster":false,"short_classification":"Y","stats":{"megawatts":{"max":1970,"variance":184904.0,"mean":733.0,"stdev":430.004651137636,"min":10,"median":700},"year shutdown":{"max":2012,"variance":2.93306693306694,"mean":2008.23076923077,"stdev":1.7126199032672,"min":2005,"median":2008}},"features":[{"properties":{"plant name":"Comanche","city":"Pueblo","megawatts":750,"geo_score":0.714,"metric tons per year":"4900000","year shutdown":2005,"id":"a9c1x2b01eik","geo_precision":"city","state":"Colorado"},"type":"Feature","geometry":{"type":"Point","coordinates":[-104.427776,38.344117]}},{"properties":{"plant name":"Colorado Springs Util.","city":"Colorado Springs","megawatts":150,"geo_score":0.714,"metric tons per year":"1000000","year shutdown":2005,"id":"a9c1x2hk3kix","geo_precision":"city","state":"Colorado"},"type":"Feature","geometry":{"type":"Point","coordinates":[-104.857828,38.861469]}},{"properties":{"plant name":"WYGen2","city":"Cheyenne","megawatts":410,"geo_score":0.714,"metric tons per year":"2700000","year shutdown":2005,"id":"a9c1x2hybfd2","geo_precision":"city","state":"Wyoming"},"type":"Feature","geometry":{"type":"Point","coordinates":[-104.56264,41.25173]}},{"properties":{"plant name":"Jerome","city":"Jerome","megawatts":600,"geo_score":0.714,"metric tons per year":"4000000","year shutdown":2006,"id":"a9c1x2cfcuoe","geo_precision":"city","state":"Idaho"},"type":"Feature","geometry":{"type":"Point","coordinates":[-114.374568,42.736869]}},{"properties":{"plant name":"Granite Fox","city":"Gerlach","megawatts":1450,"geo_score":0.714,"metric tons per year":"9600000","year shutdown":2006,"id":"a9c1x2pyxn50","geo_precision":"city","state":"Nevada"},"type":"Feature","geometry":{"type":"Point","coordinates":[-119.356505,40.652505]}},{"properties":{"plant name":"Mustang","city":"Farmington","megawatts":300,"geo_score":0.714,"metric tons per year":"2000000","year shutdown":2006,"id":"a9c1x2ilhbs1","geo_precision":"city","state":"New Mexico"},"type":"Feature","geometry":{"type":"Point","coordinates":[-108.100535,36.826248]}},{"properties":{"plant name":"Tri-State/Sunflower","city":"Lamar","megawatts":700,"geo_score":0.714,"metric tons per year":"4600000","year shutdown":2006,"id":"a9c1x2rdbwsw","geo_precision":"city","state":"Colorado"},"type":"Feature","geometry":{"type":"Point","coordinates":[-102.436416,37.955488]}},{"properties":{"plant name":"Springfield","city":"Springfield","megawatts":250,"geo_score":0.714,"metric tons per year":"1600000","year shutdown":2006,"id":"a9c1x2crdp5b","geo_precision":"city","state":"Illinois"},"type":"Feature","geometry":{"type":"Point","coordinates":[-88.252639,42.367273]}},{"properties":{"plant name":"San Antonio","city":"San Antonio","megawatts":750,"geo_score":0.714,"metric tons per year":"TBD","year shutdown":2006,"id":"a9c1x2ivp25q","geo_precision":"city","state":"Texas"},"type":"Feature","geometry":{"type":"Point","coordinates":[-102.192713,33.770506]}},{"properties":{"plant name":"Corn Belt Energy (Elkhart)","city":"Elkhart","megawatts":91,"geo_score":0.714,"metric tons per year":"600000","year shutdown":2007,"id":"a9c1x2ibptrq","geo_precision":"city","state":"Illinois"},"type":"Feature","geometry":{"type":"Point","coordinates":[-89.471352,40.109099]}},{"properties":{"plant name":"Manistee (Northern Lights)","city":"Manistee","megawatts":425,"geo_score":0.714,"metric tons per year":"2800000","year shutdown":2007,"id":"a9c1x2oa0vf4","geo_precision":"city","state":"Michigan"},"type":"Feature","geometry":{"type":"Point","coordinates":[-86.182473,44.263534]}},{"properties":{"plant name":"Xcel Energy","city":"Becker","megawatts":550,"geo_score":0.714,"metric tons per year":"3600000","year shutdown":2007,"id":"a9c1x2narny6","geo_precision":"city","state":"Minnesota"},"type":"Feature","geometry":{"type":"Point","coordinates":[-96.506156,46.890034]}},{"properties":{"plant name":"Duke","city":"Skyland","megawatts":800,"geo_score":0.714,"metric tons per year":"5300000","year shutdown":2007,"id":"a9c1x2qvjyxe","geo_precision":"city","state":"North Carolina"},"type":"Feature","geometry":{"type":"Point","coordinates":[-82.520707,35.483482]}},{"properties":{"plant name":"TXU (Trading House 3&amp;4)","city":"Waco","megawatts":1716,"geo_score":0.714,"metric tons per year":"11300000","year shutdown":2007,"id":"a9c1x2kpqj8u","geo_precision":"city","state":"Texas"},"type":"Feature","geometry":{"type":"Point","coordinates":[-100.815862,36.278199]}},{"properties":{"plant name":"TXU (Big Brown 3)","city":"Fairfield","megawatts":858,"geo_score":0.714,"metric tons per year":"5700000","year shutdown":2007,"id":"a9c1x2c0vgkz","geo_precision":"city","state":"Texas"},"type":"Feature","geometry":{"type":"Point","coordinates":[-96.138094,31.767543]}},{"properties":{"plant name":"TXU (Valley 4)","city":"Laguna Park","megawatts":858,"geo_score":0.714,"metric tons per year":"5700000","year shutdown":2007,"id":"a9c1x2p90acw","geo_precision":"city","state":"Texas"},"type":"Feature","geometry":{"type":"Point","coordinates":[-94.053801,32.078498]}},{"properties":{"plant name":"TXU (Monticello 4)","city":"Monticello","megawatts":858,"geo_score":0.714,"metric tons per year":"5700000","year shutdown":2007,"id":"a9c1x2mpt71e","geo_precision":"city","state":"Texas"},"type":"Feature","geometry":{"type":"Point","coordinates":[-95.468846,32.457366]}},{"properties":{"plant name":"TXU (Martin Lake 4)","city":"Tatum","megawatts":858,"geo_score":0.714,"metric tons per year":"5700000","year shutdown":2007,"id":"a9c1x2j87syk","geo_precision":"city","state":"Texas"},"type":"Feature","geometry":{"type":"Point","coordinates":[-94.742539,32.301179]}},{"properties":{"plant name":"TXU (Morgan Creek 7)","city":"Colorado City","megawatts":858,"geo_score":0.714,"metric tons per year":"5700000","year shutdown":2007,"id":"a9c1x2jz4hwx","geo_precision":"city","state":"Texas"},"type":"Feature","geometry":{"type":"Point","coordinates":[-100.900564,32.340912]}},{"properties":{"plant name":"TXU (Lake Creek 3)","city":"Riesel","megawatts":858,"geo_score":0.714,"metric tons per year":"5700000","year shutdown":2007,"id":"a9c1x2nujg6v","geo_precision":"city","state":"Texas"},"type":"Feature","geometry":{"type":"Point","coordinates":[-95.178279,33.476499]}},{"properties":{"plant name":"Westar Energy","city":"Topeka","megawatts":850,"geo_score":0.714,"metric tons per year":"5600000","year shutdown":2007,"id":"a9c1x2npja4l","geo_precision":"city","state":"Kansas"},"type":"Feature","geometry":{"type":"Point","coordinates":[-95.780662,38.988075]}},{"properties":{"plant name":"KCPL","city":"Kansas City","megawatts":850,"geo_score":0.714,"metric tons per year":"5600000","year shutdown":2007,"id":"a9c1x2fqcsae","geo_precision":"city","state":"Missouri"},"type":"Feature","geometry":{"type":"Point","coordinates":[-94.598583,39.102404]}},{"properties":{"plant name":"Bull Mountain Power (Roundup)","city":"Roundup","megawatts":300,"geo_score":0.714,"metric tons per year":"2000000","year shutdown":2007,"id":"a9c1x2proiim","geo_precision":"city","state":"Montana"},"type":"Feature","geometry":{"type":"Point","coordinates":[-108.427325,46.440929]}},{"properties":{"plant name":"FP&amp;L (St Lucie)","city":"Hutchinson Island","megawatts":1700,"geo_score":0.714,"metric tons per year":"11200000","year shutdown":2007,"id":"a9c1x2nc9kdl","geo_precision":"city","state":"Florida"},"type":"Feature","geometry":{"type":"Point","coordinates":[-80.252552,25.378169]}},{"properties":{"plant name":"FP&amp;L (Glades)","city":"Glades","megawatts":1970,"geo_score":0.714,"metric tons per year":"13000000","year shutdown":2007,"id":"a9c1x2m6wfov","geo_precision":"city","state":"Florida"},"type":"Feature","geometry":{"type":"Point","coordinates":[-80.382277,25.562607]}},{"properties":{"plant name":"Taylor Energy Center","city":"Perry","megawatts":800,"geo_score":0.714,"metric tons per year":"5300000","year shutdown":2007,"id":"a9c1x2lfhu2a","geo_precision":"city","state":"Florida"},"type":"Feature","geometry":{"type":"Point","coordinates":[-83.55146,29.931864]}},{"properties":{"plant name":"AEP (Red Rock)","city":"Red Rock","megawatts":950,"geo_score":0.714,"metric tons per year":"6300000","year shutdown":2007,"id":"a9c1x2eybhag","geo_precision":"city","state":"Oklahoma"},"type":"Feature","geometry":{"type":"Point","coordinates":[-99.695651,34.900613]}},{"properties":{"plant name":"Tenaska (Sallisaw)","city":"Sallisaw","megawatts":660,"geo_score":0.714,"metric tons per year":"4400000","year shutdown":2007,"id":"a9c1x2fgrbfk","geo_precision":"city","state":"Oklahoma"},"type":"Feature","geometry":{"type":"Point","coordinates":[-94.706796,35.450662]}},{"properties":{"plant name":"Westmoreland &amp; MDU (Gascoyne)","city":"Gascoyne","megawatts":175,"geo_score":0.714,"metric tons per year":"1200000","year shutdown":2007,"id":"a9c1x2cxneq5","geo_precision":"city","state":"North Dakota"},"type":"Feature","geometry":{"type":"Point","coordinates":[-103.079892,46.118339]}},{"properties":{"plant name":"NuCoastal","city":"point comfort","megawatts":300,"geo_score":0.714,"metric tons per year":"TBD","year shutdown":2007,"id":"a9c1x2ptse97","geo_precision":"city","state":"Texas"},"type":"Feature","geometry":{"type":"Point","coordinates":[-98.712767,29.945489]}},{"properties":{"plant name":"PacifiCorp","city":"Huntington","megawatts":900,"geo_score":0.714,"metric tons per year":"5900000","year shutdown":2007,"id":"a9c1x2qxl2r8","geo_precision":"city","state":"Utah"},"type":"Feature","geometry":{"type":"Point","coordinates":[-110.961933,39.283156]}},{"properties":{"plant name":"PacifiCorp and Idaho Power","city":"Kemmerer","megawatts":600,"geo_score":0.714,"metric tons per year":"4000000","year shutdown":2007,"id":"a9c1x2bo6mw1","geo_precision":"city","state":"Wyoming"},"type":"Feature","geometry":{"type":"Point","coordinates":[-110.514132,42.368433]}},{"properties":{"plant name":"Board of Public Utilities","city":"Kansas City","megawatts":200,"geo_score":0.714,"metric tons per year":"1300000","year shutdown":2007,"id":"a9c1x2kenv8d","geo_precision":"city","state":"Kansas"},"type":"Feature","geometry":{"type":"Point","coordinates":[-94.630384,39.103053]}},{"properties":{"plant name":"Indeck","city":"Elwood","megawatts":660,"geo_score":0.714,"metric tons per year":"4400000","year shutdown":2008,"id":"a9c1x2ov4wgj","geo_precision":"city","state":"Illinois"},"type":"Feature","geometry":{"type":"Point","coordinates":[-88.090588,41.44288]}},{"properties":{"plant name":"Minnkota Co-op (Milton Young)","city":"Grand Forks","megawatts":500,"geo_score":0.714,"metric tons per year":"3300000","year shutdown":2008,"id":"a9c1x2li94c6","geo_precision":"city","state":"North Dakota"},"type":"Feature","geometry":{"type":"Point","coordinates":[-97.431501,47.9041]}},{"properties":{"plant name":"AECI","city":"New Madrid","megawatts":660,"geo_score":0.714,"metric tons per year":"4400000","year shutdown":2008,"id":"a9c1x2d3wa90","geo_precision":"city","state":"Missouri"},"type":"Feature","geometry":{"type":"Point","coordinates":[-89.657159,36.679465]}},{"properties":{"plant name":"Westmoreland (Gascoyne)","city":"Gascoyne","megawatts":500,"geo_score":0.714,"metric tons per year":"3300000","year shutdown":2008,"id":"a9c1x2rdf471","geo_precision":"city","state":"North Dakota"},"type":"Feature","geometry":{"type":"Point","coordinates":[-103.079892,46.118339]}},{"properties":{"plant name":"PNM/Sempra (Twin Oaks)","city":"San Antonio","megawatts":600,"geo_score":0.714,"metric tons per year":"4000000","year shutdown":2008,"id":"a9c1x2nex5ey","geo_precision":"city","state":"Texas"},"type":"Feature","geometry":{"type":"Point","coordinates":[-102.192713,33.770506]}},{"properties":{"plant name":"NRG (Limestone)","city":"Limestone","megawatts":744,"geo_score":0.0,"metric tons per year":"TBD","year shutdown":2008,"id":"a9c1x2r13c38","geo_precision":"unmatched","state":"Texas"},"type":"Feature","geometry":null},{"properties":{"plant name":"MEA (Matanuska-Susitna)","city":"Matanuska-Susitna","megawatts":100,"geo_score":0.0,"metric tons per year":"700000","year shutdown":2008,"id":"a9c1x2dba5hb","geo_precision":"unmatched","state":"Alaska"},"type":"Feature","geometry":null},{"properties":{"plant name":"EnviroPower","city":"Franklin County","megawatts":600,"geo_score":0.714,"metric tons per year":"4000000","year shutdown":2008,"id":"a9c1x2lo3s2g","geo_precision":"city","state":"Illinois"},"type":"Feature","geometry":{"type":"Point","coordinates":[-89.891281,42.282256]}},{"properties":{"plant name":"Alliant (Cassville)","city":"Cassville","megawatts":300,"geo_score":0.571,"metric tons per year":"2000000","year shutdown":2008,"id":"a9c1x2i3oiej","geo_precision":"city","state":"Wisonsin"},"type":"Feature","geometry":{"type":"Point","coordinates":[-86.12277,40.560039]}},{"properties":{"plant name":"Kentucky Mountain Power","city":"Harrodsburg","megawatts":550,"geo_score":0.714,"metric tons per year":"3600000","year shutdown":2008,"id":"a9c1x2p8xtfw","geo_precision":"city","state":"Kentucky"},"type":"Feature","geometry":{"type":"Point","coordinates":[-84.860707,37.803283]}},{"properties":{"plant name":"Kentucky Thoroughbred","city":"Muhlenberg County","megawatts":1500,"geo_score":0.714,"metric tons per year":"9900000","year shutdown":2008,"id":"a9c1x2mx7e68","geo_precision":"city","state":"Kentucky"},"type":"Feature","geometry":{"type":"Point","coordinates":[-87.415009,36.64838]}},{"properties":{"plant name":"LS Power (Waterloo)","city":"Waterloo","megawatts":750,"geo_score":0.714,"metric tons per year":"4900000","year shutdown":2009,"id":"a9c1x2dvpjt1","geo_precision":"city","state":"Indiana"},"type":"Feature","geometry":{"type":"Point","coordinates":[-85.019562,41.461019]}},{"properties":{"plant name":"Highwood","city":"Great Falls","megawatts":250,"geo_score":0.714,"metric tons per year":"1600000","year shutdown":2009,"id":"a9c1x2naium8","geo_precision":"city","state":"Montana"},"type":"Feature","geometry":{"type":"Point","coordinates":[-111.422948,47.402024]}},{"properties":{"plant name":"Sithe","city":"Elrama","megawatts":300,"geo_score":0.714,"metric tons per year":"2000000","year shutdown":2009,"id":"a9c1x2jb3l7a","geo_precision":"city","state":"Pennsylvania"},"type":"Feature","geometry":{"type":"Point","coordinates":[-79.925235,40.252086]}},{"properties":{"plant name":"Ely Energy Center","city":"Ely","megawatts":1500,"geo_score":0.714,"metric tons per year":"9900000","year shutdown":2009,"id":"a9c1x2daxklr","geo_precision":"city","state":"Nevada"},"type":"Feature","geometry":{"type":"Point","coordinates":[-114.840433,39.314155]}},{"properties":{"plant name":"Shady Point","city":"Panama","megawatts":630,"geo_score":0.714,"metric tons per year":"4200000","year shutdown":2009,"id":"a9c1x2lhnuof","geo_precision":"city","state":"Oklahoma"},"type":"Feature","geometry":{"type":"Point","coordinates":[-94.670941,35.153493]}},{"properties":{"plant name":"Alliant (Marshalltown)","city":"Marshalltown","megawatts":600,"geo_score":0.0,"metric tons per year":"4000000","year shutdown":2009,"id":"a9c1x2ph72vm","geo_precision":"unmatched","state":"Indiana"},"type":"Feature","geometry":null},{"properties":{"plant name":"White Pine","city":"Ely","megawatts":1600,"geo_score":0.714,"metric tons per year":"10600000","year shutdown":2009,"id":"a9c1x2k8eu4i","geo_precision":"city","state":"Nevada"},"type":"Feature","geometry":{"type":"Point","coordinates":[-114.840433,39.314155]}},{"properties":{"plant name":"Entergy (Little Gypsy)","city":"Westlake","megawatts":530,"geo_score":0.714,"metric tons per year":"3500000","year shutdown":2009,"id":"a9c1x2oqj9qj","geo_precision":"city","state":"Louisiana"},"type":"Feature","geometry":{"type":"Point","coordinates":[-93.275454,30.240705]}},{"properties":{"plant name":"LS Power (Midland)","city":"Midland","megawatts":750,"geo_score":0.714,"metric tons per year":"4900000","year shutdown":2009,"id":"a9c1x2qhgl7n","geo_precision":"city","state":"Michigan"},"type":"Feature","geometry":{"type":"Point","coordinates":[-84.33803,43.626132]}},{"properties":{"plant name":"Basin Electric/NextGen (Selby)","city":"Selby","megawatts":700,"geo_score":0.714,"metric tons per year":"4600000","year shutdown":2009,"id":"a9c1x2lz0jsi","geo_precision":"city","state":"South Dakota"},"type":"Feature","geometry":{"type":"Point","coordinates":[-100.098171,45.434632]}},{"properties":{"plant name":"Northern Michigan Universiy","city":"Marquette","megawatts":10,"geo_score":0.714,"metric tons per year":"100000","year shutdown":2009,"id":"a9c1x2eip7wg","geo_precision":"city","state":"Michigan"},"type":"Feature","geometry":{"type":"Point","coordinates":[-87.615282,46.593435]}},{"properties":{"plant name":"Hempstead (SWEPCO)","city":"Texarkana","megawatts":600,"geo_score":0.0,"metric tons per year":"4000000","year shutdown":2009,"id":"a9c1x2jy8x6f","geo_precision":"unmatched","state":"Arkansas"},"type":"Feature","geometry":null},{"properties":{"plant name":"Intermountain Power","city":"Delta","megawatts":900,"geo_score":0.714,"metric tons per year":"5900000","year shutdown":2009,"id":"a9c1x2c3ufy5","geo_precision":"city","state":"Utah"},"type":"Feature","geometry":{"type":"Point","coordinates":[-112.526542,39.247056]}},{"properties":{"plant name":"Santee Cooper (Pee Dee)","city":"Pee Dee","megawatts":1320,"geo_score":0.714,"metric tons per year":"8700000","year shutdown":2009,"id":"a9c1x2qmsy7x","geo_precision":"city","state":"South Carolina"},"type":"Feature","geometry":{"type":"Point","coordinates":[-79.538945,34.205992]}},{"properties":{"plant name":"Otter Tail Power (Big Stone II)","city":"Milbank","megawatts":600,"geo_score":0.714,"metric tons per year":"4000000","year shutdown":2009,"id":"a9c1x2lu4je9","geo_precision":"city","state":"South Dakota"},"type":"Feature","geometry":{"type":"Point","coordinates":[-96.629203,45.171617]}},{"properties":{"plant name":"Wellington Development Corporation","city":"Nemacolin","megawatts":525,"geo_score":0.714,"metric tons per year":"3500000","year shutdown":2009,"id":"a9c1x2btviwt","geo_precision":"city","state":"Pennsylvania"},"type":"Feature","geometry":{"type":"Point","coordinates":[-79.925807,39.877901]}},{"properties":{"plant name":"AMP-Ohio","city":"Meigs County","megawatts":1000,"geo_score":0.714,"metric tons per year":"6600000","year shutdown":2009,"id":"a9c1x2qxibhw","geo_precision":"city","state":"Ohio"},"type":"Feature","geometry":{"type":"Point","coordinates":[-80.616195,41.756356]}},{"properties":{"plant name":"Seminole","city":"Palatka","megawatts":750,"geo_score":0.714,"metric tons per year":"4900000","year shutdown":2009,"id":"a9c1x2dbdjha","geo_precision":"city","state":"Florida"},"type":"Feature","geometry":{"type":"Point","coordinates":[-81.785957,29.611093]}},{"properties":{"plant name":"Robinson Power (Beech Hollow)","city":"Beech Hollow","megawatts":272,"geo_score":0.714,"metric tons per year":"1800000","year shutdown":2010,"id":"a9c1x2ilssjg","geo_precision":"city","state":"Pennsylvania"},"type":"Feature","geometry":{"type":"Point","coordinates":[-75.24019,41.482733]}},{"properties":{"plant name":"Louisiana Generating (Big Cajun II)","city":"New Roads","megawatts":705,"geo_score":0.714,"metric tons per year":"4600000","year shutdown":2010,"id":"a9c1x2aw0t5e","geo_precision":"city","state":"Louisiana"},"type":"Feature","geometry":{"type":"Point","coordinates":[-93.968905,32.96331]}},{"properties":{"plant name":"Sithe (Toquop)","city":"Ely","megawatts":750,"geo_score":0.714,"metric tons per year":"4900000","year shutdown":2010,"id":"a9c1x2o51nrh","geo_precision":"city","state":"Nevada"},"type":"Feature","geometry":{"type":"Point","coordinates":[-114.840433,39.314155]}},{"properties":{"plant name":"Sithe (Desert Rock)","city":"Las Cruces","megawatts":1500,"geo_score":0.714,"metric tons per year":"9900000","year shutdown":2010,"id":"a9c1x2q6z5kd","geo_precision":"city","state":"New Mexico"},"type":"Feature","geometry":{"type":"Point","coordinates":[-105.836957,34.652009]}},{"properties":{"plant name":"East Kentucky Power Coopoerative (Smith)","city":"Smith","megawatts":278,"geo_score":0.714,"metric tons per year":"1800000","year shutdown":2010,"id":"a9c1x2c4euac","geo_precision":"city","state":"Kentucky"},"type":"Feature","geometry":{"type":"Point","coordinates":[-83.33573,36.731332]}},{"properties":{"plant name":"Lansing Board of Water and Light","city":"Lansing","megawatts":350,"geo_score":0.714,"metric tons per year":"2300000","year shutdown":2010,"id":"a9c1x2iwn2lo","geo_precision":"city","state":"Michigan"},"type":"Feature","geometry":{"type":"Point","coordinates":[-84.555535,42.732535]}},{"properties":{"plant name":"Old Dominion Electric Cooperative (Cypress Creek)","city":"Dendron,","megawatts":1500,"geo_score":0.714,"metric tons per year":"9900000","year shutdown":2010,"id":"a9c1x2k37et4","geo_precision":"city","state":"Virginia"},"type":"Feature","geometry":{"type":"Point","coordinates":[-76.915537,37.065785]}},{"properties":{"plant name":"Baard Energy CTL","city":"Columbiana County","megawatts":250,"geo_score":0.714,"metric tons per year":"12400000","year shutdown":2011,"id":"a9c1x2g77g0u","geo_precision":"city","state":"Ohio"},"type":"Feature","geometry":{"type":"Point","coordinates":[-80.730023,40.857858]}},{"properties":{"plant name":"LS Power (Longleaf)","city":"Book Grove","megawatts":1200,"geo_score":0.0,"metric tons per year":"8000000","year shutdown":2011,"id":"a9c1x2jkc7wy","geo_precision":"unmatched","state":"Georgia"},"type":"Feature","geometry":null},{"properties":{"plant name":"SWEPCO (Turk)","city":"Texarkana","megawatts":600,"geo_score":0.0,"metric tons per year":"TBD","year shutdown":2011,"id":"a9c1x2m7jo5h","geo_precision":"unmatched","state":"Arkansas"},"type":"Feature","geometry":null},{"properties":{"plant name":"LS Power (Plum Point II)","city":"Osceloa","megawatts":665,"geo_score":0.714,"metric tons per year":"4400000","year shutdown":2011,"id":"a9c1x2oubq0o","geo_precision":"city","state":"Arkansas"},"type":"Feature","geometry":{"type":"Point","coordinates":[-90.094653,35.646832]}},{"properties":{"plant name":"Consumers Energy","city":"Bay City","megawatts":830,"geo_score":0.714,"metric tons per year":"6000000","year shutdown":2011,"id":"a9c1x2cwdm5d","geo_precision":"city","state":"Michigan"},"type":"Feature","geometry":{"type":"Point","coordinates":[-83.953007,43.608773]}},{"properties":{"plant name":"NRG (Big Cajun I)","city":"New Roads","megawatts":230,"geo_score":0.714,"metric tons per year":"2500000","year shutdown":2012,"id":"a9c1x2qz14ez","geo_precision":"city","state":"Louisiana"},"type":"Feature","geometry":{"type":"Point","coordinates":[-93.968905,32.96331]}},{"properties":{"plant name":"Power4Georgians (Ben Hill)","city":"Ben Hill","megawatts":850,"geo_score":0.714,"metric tons per year":"6300000","year shutdown":2012,"id":"a9c1x2q57i9p","geo_precision":"city","state":"Georgia"},"type":"Feature","geometry":{"type":"Point","coordinates":[-82.905139,30.826044]}},{"properties":{"plant name":"Las Brisas Energy (Las Brisas Energy Center)","city":"Corpus Christi","megawatts":1320,"geo_score":0.714,"metric tons per year":"12000000","year shutdown":2012,"id":"a9c1x2gb6gw3","geo_precision":"city","state":"Texas"},"type":"Feature","geometry":{"type":"Point","coordinates":[-94.367813,32.027962]}},{"properties":{"plant name":"Cypress Creek","city":"Surry","megawatts":1500,"geo_score":0.714,"metric tons per year":"14600000","year shutdown":2012,"id":"a9c1x2r9g6hn","geo_precision":"city","state":"Virginia"},"type":"Feature","geometry":{"type":"Point","coordinates":[-76.821125,37.095554]}}],"is_temporal":false,"author":{"url":"","metadata":"","contact_name":"","contact_address":"","source":"","contact_phone":""},"source":"","pagination":{"sort":null,"start":0,"total":78,"limit":1000000},"state":"complete","tags":"","published":"2014-08-14T19:59:15-04:00","id":284250}