{"type":"FeatureCollection","data_type":"Dataset","url_type":null,"permissions":[{"permissions":{"download":true,"view":true},"group_id":"everyone"}],"classification":null,"title":"US Hackerspaces","count":250,"stream_id":284365,"contributor":{"url":"http://geocommons.com/users/12138","name":"justgrimes"},"data_attributes":null,"calculation_params":null,"icon_link":null,"link":"http://geocommons.com/overlays/284365.json","extent":[-168.022,20.8497,-69.5296,48.3311],"geometry_types":["point"],"unique_name":null,"name":"US Hackerspaces","feature_count":250,"description":"","next_feature":null,"is_raster":false,"short_classification":"Y","stats":{},"features":[{"properties":{"name":"SocialGeeks","city":"Twin Falls","status":"active","date of founding":"10/5/2010","geo_score":0.714,"website":"http://www.socialgeeks.com","id":"a9clf4yzxae5","geo_precision":"city","state":"Idaho"},"type":"Feature","geometry":{"type":"Point","coordinates":[-114.629497,42.443224]}},{"properties":{"name":"HackPittsburgh","city":"Pittsburgh","status":"active","date of founding":"3/14/2009","geo_score":0.714,"website":"http://www.hackpittsburgh.org","id":"a9clf4wgja1i","geo_precision":"city","state":"Pennsylvania"},"type":"Feature","geometry":{"type":"Point","coordinates":[-80.024817,40.434436]}},{"properties":{"name":"The Crucible","city":"Oakland","status":"active","date of founding":"1/1/2010","geo_score":0.714,"website":"http://thecrucible.org","id":"a9clf4tqzjcd","geo_precision":"city","state":"California"},"type":"Feature","geometry":{"type":"Point","coordinates":[-122.223779,37.786027]}},{"properties":{"name":"Hazard Factory","city":"Seattle","status":"active","date of founding":null,"geo_score":0.714,"website":"http://www.hazardfactory.org/","id":"a9clf52rrhve","geo_precision":"city","state":"Washington"},"type":"Feature","geometry":{"type":"Point","coordinates":[-121.803388,47.432251]}},{"properties":{"name":"Devnuts","city":"Philadelphia","status":"active","date of founding":"1/1/2008","geo_score":0.714,"website":"http://www.devnuts.com","id":"a9clf53snam4","geo_precision":"city","state":"Pennsylvania"},"type":"Feature","geometry":{"type":"Point","coordinates":[-75.11787,40.001811]}},{"properties":{"name":"Crafts Center","city":"Medford","status":"active","date of founding":null,"geo_score":0.714,"website":"http://tuftscrafts.com/","id":"a9clf52157oc","geo_precision":"city","state":"Massachusetts"},"type":"Feature","geometry":{"type":"Point","coordinates":[-71.459405,42.446396]}},{"properties":{"name":"Borman STL","city":"Maryland Heights","status":"active","date of founding":"1/1/2001","geo_score":0.714,"website":null,"id":"a9clf4rn3occ","geo_precision":"city","state":"Missouri"},"type":"Feature","geometry":{"type":"Point","coordinates":[-90.447418,38.723951]}},{"properties":{"name":"Proxy Hack Lab","city":"Winston Salem","status":"active","date of founding":"1/1/2010","geo_score":0.714,"website":"http://repraplogphase.blogspot.com/","id":"a9clf4y2n9ed","geo_precision":"city","state":"North Carolina"},"type":"Feature","geometry":{"type":"Point","coordinates":[-78.244459,35.563572]}},{"properties":{"name":"Makelab Charleston","city":"Charleston","status":"active","date of founding":"11/22/2010","geo_score":0.714,"website":"http://www.makelabcharleston.org/","id":"a9clf4wj03dl","geo_precision":"city","state":"South Carolina"},"type":"Feature","geometry":{"type":"Point","coordinates":[-79.970643,32.85712]}},{"properties":{"name":"Dallas Makerspace","city":"Dallas","status":"active","date of founding":"1/27/2010","geo_score":0.714,"website":"http://dallasmakerspace.org","id":"a9clf5357qck","geo_precision":"city","state":"Texas"},"type":"Feature","geometry":{"type":"Point","coordinates":[-96.240533,32.370699]}},{"properties":{"name":"(Baltimore) Harford Hackerspace","city":"Baltimore","status":"active","date of founding":"2/1/2009","geo_score":0.714,"website":"http://www.baltimorehackerspace.com","id":"a9clf4s19f78","geo_precision":"city","state":"Maryland"},"type":"Feature","geometry":{"type":"Point","coordinates":[-75.844658,39.058168]}},{"properties":{"name":"Ace Monster Toys","city":"Oakland","status":"active","date of founding":"5/24/2010","geo_score":0.714,"website":"http://acemonstertoys.org/","id":"a9clf4w2stie","geo_precision":"city","state":"California"},"type":"Feature","geometry":{"type":"Point","coordinates":[-122.223779,37.786027]}},{"properties":{"name":"Ponoko - San Francisco, United States of America","city":"Oakland","status":"active","date of founding":null,"geo_score":0.714,"website":"http://www.ponoko.com/about/contact","id":"a9clf56e3vsu","geo_precision":"city","state":"California"},"type":"Feature","geometry":{"type":"Point","coordinates":[-122.223779,37.786027]}},{"properties":{"name":"High Impedance Air Gap","city":"Lansing","status":"active","date of founding":"11/16/2010","geo_score":0.714,"website":"http://www.highimpedanceairgap.com/","id":"a9clf509fdk8","geo_precision":"city","state":"Michigan"},"type":"Feature","geometry":{"type":"Point","coordinates":[-84.555535,42.732535]}},{"properties":{"name":"HackManhattan","city":"New York","status":"active","date of founding":"8/25/2011","geo_score":0.714,"website":"http://hackmanhattan.com","id":"a9clf4siwthn","geo_precision":"city","state":"New York"},"type":"Feature","geometry":{"type":"Point","coordinates":[-74.005973,40.714269]}},{"properties":{"name":"FamiLAB","city":"Orlando","status":"active","date of founding":"6/16/2009","geo_score":0.714,"website":"http://familab.org/","id":"a9clf55ul3q3","geo_precision":"city","state":"Florida"},"type":"Feature","geometry":{"type":"Point","coordinates":[-81.373291,28.545179]}},{"properties":{"name":"Monoceros Media","city":"San Jose","status":"active","date of founding":"7/1/2009","geo_score":0.714,"website":null,"id":"a9clf4t644bb","geo_precision":"city","state":"California"},"type":"Feature","geometry":{"type":"Point","coordinates":[-121.705327,37.189396]}},{"properties":{"name":"Makers Local 256","city":"Huntsville","status":"active","date of founding":"3/20/2008","geo_score":0.714,"website":"https://256.makerslocal.org","id":"a9clf4yw50ev","geo_precision":"city","state":"Alabama"},"type":"Feature","geometry":{"type":"Point","coordinates":[-86.556439,34.718428]}},{"properties":{"name":"MakeLV","city":"Allentown","status":"active","date of founding":"11/1/2010","geo_score":0.714,"website":"http://makelehighvalley.com/","id":"a9clf50xtcdm","geo_precision":"city","state":"Pennsylvania"},"type":"Feature","geometry":{"type":"Point","coordinates":[-75.470026,40.607497]}},{"properties":{"name":"Freegeek Little Rock","city":"Little Rock","status":"active","date of founding":"5/1/2012","geo_score":0.714,"website":"http://www.freegeekarkansas.org","id":"a9clf55x7dom","geo_precision":"city","state":"Arkansas"},"type":"Feature","geometry":{"type":"Point","coordinates":[-91.793741,33.464557]}},{"properties":{"name":"Antitronics","city":"Huntsville","status":"active","date of founding":"4/13/2009","geo_score":0.714,"website":"http:www.antitronics.com","id":"a9clf535ervs","geo_precision":"city","state":"Alabama"},"type":"Feature","geometry":{"type":"Point","coordinates":[-86.556439,34.718428]}},{"properties":{"name":"TheIMClab","city":"New York City","status":"active","date of founding":"12/31/2009","geo_score":0.714,"website":"http://TheIMClab.com","id":"a9clf52t7cqe","geo_precision":"city","state":"New York"},"type":"Feature","geometry":{"type":"Point","coordinates":[-74.005973,40.714269]}},{"properties":{"name":"Port City Makerspace","city":"Portsmouth","status":"active","date of founding":null,"geo_score":0.714,"website":"http://www.portcitymakerspace.com","id":"a9clf4ycvpcz","geo_precision":"city","state":"New Hampshire"},"type":"Feature","geometry":{"type":"Point","coordinates":[-71.013202,43.005895]}},{"properties":{"name":"TechShop RDU","city":"Raleigh","status":"active","date of founding":"3/23/2009","geo_score":0.714,"website":"http://techshoprdu.com/","id":"a9clf50s7ikt","geo_precision":"city","state":"North Carolina"},"type":"Feature","geometry":{"type":"Point","coordinates":[-82.293464,36.034279]}},{"properties":{"name":"Bozeman MakerSpace","city":"Bozeman","status":"active","date of founding":"1/7/2011","geo_score":0.714,"website":"http://bozemanmakers.com/","id":"a9clf4uhvii5","geo_precision":"city","state":"Montana"},"type":"Feature","geometry":{"type":"Point","coordinates":[-111.168212,45.809998]}},{"properties":{"name":"SB Hackerspace","city":"Santa Barbara","status":"active","date of founding":"8/2/2010","geo_score":0.714,"website":"http://sbhackerspace.com","id":"a9clf4wdo0zb","geo_precision":"city","state":"California"},"type":"Feature","geometry":{"type":"Point","coordinates":[-116.994511,32.843956]}},{"properties":{"name":"The WatershedPDX","city":"Portland","status":"active","date of founding":"3/1/2007","geo_score":0.714,"website":"http://watershedpdx.com/","id":"a9clf4uw7s0a","geo_precision":"city","state":"Oregon"},"type":"Feature","geometry":{"type":"Point","coordinates":[-122.693157,45.498931]}},{"properties":{"name":"Quelab","city":"Albuquerque","status":"active","date of founding":"7/22/2010","geo_score":0.714,"website":"http://www.quelab.net","id":"a9clf4yxcxs2","geo_precision":"city","state":"New Mexico"},"type":"Feature","geometry":{"type":"Point","coordinates":[-106.651137,35.084491]}},{"properties":{"name":"Studio Bricolage","city":"Minneapolis","status":"active","date of founding":null,"geo_score":0.714,"website":"http://www.studiobricolage.org","id":"a9clf57ejyc8","geo_precision":"city","state":"Minnesota"},"type":"Feature","geometry":{"type":"Point","coordinates":[-93.273024,44.979265]}},{"properties":{"name":"TechStars","city":"Boulder","status":"active","date of founding":"12/26/2008","geo_score":0.714,"website":"http://www.winterinthebunker.com/","id":"a9clf4rt7nwm","geo_precision":"city","state":"Colorado"},"type":"Feature","geometry":{"type":"Point","coordinates":[-105.278083,40.094787]}},{"properties":{"name":"Institute for Exploratory Research","city":"Wall Township","status":"active","date of founding":"4/28/2011","geo_score":0.0,"website":"http://www.ixrnj.org","id":"a9clf55ce4g5","geo_precision":"unmatched","state":"New Jersey"},"type":"Feature","geometry":null},{"properties":{"name":"CapeCod","city":"Cape Cod","status":"active","date of founding":"6/25/2011","geo_score":0.0,"website":"http://www.capecodmakerspace.org","id":"a9clf4xyaj9g","geo_precision":"unmatched","state":"Massachusetts"},"type":"Feature","geometry":null},{"properties":{"name":"Huntsville Alabama L5 Society (HAL5) - Project HALO","city":"Huntsville","status":"active","date of founding":"1/1/1994","geo_score":0.714,"website":"http://chapters.nss.org/al/HAL5/HALO-Intro.shtml","id":"a9clf530fj9d","geo_precision":"city","state":"Alabama"},"type":"Feature","geometry":{"type":"Point","coordinates":[-86.556439,34.718428]}},{"properties":{"name":"NYC Resistor","city":"New York City","status":"active","date of founding":"8/18/2007","geo_score":0.714,"website":"http://nycresistor.com","id":"a9clf4swaeh8","geo_precision":"city","state":"New York"},"type":"Feature","geometry":{"type":"Point","coordinates":[-74.005973,40.714269]}},{"properties":{"name":"SquidFoo Art Gallery Studio and Hackerspace","city":"Springfield","status":"active","date of founding":"5/6/2011","geo_score":0.714,"website":"http://www.squidfoo.com","id":"a9clf4xbyh29","geo_precision":"city","state":"Missouri"},"type":"Feature","geometry":{"type":"Point","coordinates":[-92.02405,37.762541]}},{"properties":{"name":"OHM","city":"Oklahoma City","status":"active","date of founding":"1/15/2011","geo_score":0.714,"website":"http://www.ohmspace.org","id":"a9clf51dg0b2","geo_precision":"city","state":"Oklahoma"},"type":"Feature","geometry":{"type":"Point","coordinates":[-97.562817,35.491608]}},{"properties":{"name":"MakeHaven","city":"New Haven","status":"active","date of founding":"1/1/2012","geo_score":0.714,"website":"http://www.makehaven.org","id":"a9clf55xuqcf","geo_precision":"city","state":"Connecticut"},"type":"Feature","geometry":{"type":"Point","coordinates":[-72.927507,41.365709]}},{"properties":{"name":"Area 42","city":"Saint Louis","status":"active","date of founding":"9/1/2011","geo_score":0.714,"website":"http://www.area-42.org/","id":"a9clf55fwtko","geo_precision":"city","state":"Missouri"},"type":"Feature","geometry":{"type":"Point","coordinates":[-92.254481,38.251613]}},{"properties":{"name":"757 Labs","city":"Norfolk","status":"active","date of founding":"12/25/2009","geo_score":0.714,"website":"http:www.757labs.com","id":"a9clf4tkb93r","geo_precision":"city","state":"Virginia"},"type":"Feature","geometry":{"type":"Point","coordinates":[-76.208521,36.895911]}},{"properties":{"name":"Denhac","city":"Denver","status":"active","date of founding":"9/3/2008","geo_score":0.714,"website":"http://www.denhac.org","id":"a9clf50nx1ck","geo_precision":"city","state":"Colorado"},"type":"Feature","geometry":{"type":"Point","coordinates":[-104.856808,39.726303]}},{"properties":{"name":"I3 Detroit","city":"Ferndale","status":"active","date of founding":"4/1/2009","geo_score":0.714,"website":"http://www.i3detroit.com/","id":"a9clf55u639n","geo_precision":"city","state":"Michigan"},"type":"Feature","geometry":{"type":"Point","coordinates":[-83.140675,42.460586]}},{"properties":{"name":"ATX Hackerspace","city":"Austin","status":"active","date of founding":"7/1/2009","geo_score":0.714,"website":"http://atxhackerspace.org/index.php/Main_Page","id":"a9clf54l0xzl","geo_precision":"city","state":"Texas"},"type":"Feature","geometry":{"type":"Point","coordinates":[-97.771258,30.326374]}},{"properties":{"name":"Southern Arizona Technology Lab","city":"Tucson","status":"active","date of founding":"12/25/2008","geo_score":0.714,"website":"http:www.satl.info","id":"a9clf4uuzon9","geo_precision":"city","state":"Arizona"},"type":"Feature","geometry":{"type":"Point","coordinates":[-110.970869,32.217975]}},{"properties":{"name":"DHMN","city":"Appleton","status":"active","date of founding":"8/2/2010","geo_score":0.714,"website":"http://dhmn.net","id":"a9clf537s6pk","geo_precision":"city","state":"Wisconsin"},"type":"Feature","geometry":{"type":"Point","coordinates":[-88.370856,44.275702]}},{"properties":{"name":"CMKT 4","city":"DeKalb","status":"active","date of founding":"8/28/2010","geo_score":0.714,"website":"https://sites.google.com/site/cmktfour/home","id":"a9clf52po488","geo_precision":"city","state":"Illinois"},"type":"Feature","geometry":{"type":"Point","coordinates":[-88.79101,41.816826]}},{"properties":{"name":"Neucleon","city":"San Diego","status":"active","date of founding":"8/1/2010","geo_score":0.714,"website":"http://www.Neucleon.org","id":"a9clf4v0t8wn","geo_precision":"city","state":"California"},"type":"Feature","geometry":{"type":"Point","coordinates":[-117.174366,32.7211]}},{"properties":{"name":"NIMBY","city":"Oakland","status":"active","date of founding":"4/1/2004","geo_score":0.714,"website":"https://www.nimbyspace.org","id":"a9clf4xspkul","geo_precision":"city","state":"California"},"type":"Feature","geometry":{"type":"Point","coordinates":[-122.223779,37.786027]}},{"properties":{"name":"The Archive Hacker Pad","city":"Los angeles","status":"active","date of founding":"2/1/2010","geo_score":0.714,"website":null,"id":"a9clf4stbjej","geo_precision":"city","state":"California"},"type":"Feature","geometry":{"type":"Point","coordinates":[-120.618608,38.052816]}},{"properties":{"name":"Arch Reactor","city":"Saint Louis","status":"active","date of founding":"6/1/2009","geo_score":0.714,"website":"http://archreactor.org","id":"a9clf4vvbwx3","geo_precision":"city","state":"Missouri"},"type":"Feature","geometry":{"type":"Point","coordinates":[-92.254481,38.251613]}},{"properties":{"name":"Ames MakerSpace","city":"Ames","status":"active","date of founding":null,"geo_score":0.714,"website":"http://amesmakerspace.com","id":"a9clf4y3l5kq","geo_precision":"city","state":"Iowa"},"type":"Feature","geometry":{"type":"Point","coordinates":[-93.600254,42.037879]}},{"properties":{"name":"San Diego Hacker News Meetup","city":"San Diego","status":"active","date of founding":"1/29/2010","geo_score":0.714,"website":null,"id":"a9clf4vzkiy2","geo_precision":"city","state":"California"},"type":"Feature","geometry":{"type":"Point","coordinates":[-117.174366,32.7211]}},{"properties":{"name":"Syracuse Innovators Guild","city":"Syracuse","status":"active","date of founding":"11/19/2010","geo_score":0.714,"website":"https://sig315.org","id":"a9clf4thheaq","geo_precision":"city","state":"New York"},"type":"Feature","geometry":{"type":"Point","coordinates":[-76.197701,43.02143]}},{"properties":{"name":"Joplin,Mo","city":"Joplin","status":"active","date of founding":"1/29/2011","geo_score":0.714,"website":null,"id":"a9clf57ptqpk","geo_precision":"city","state":"Missouri"},"type":"Feature","geometry":{"type":"Point","coordinates":[-94.502663,37.113343]}},{"properties":{"name":"Makerbar","city":"Hoboken","status":"active","date of founding":"5/1/2012","geo_score":0.714,"website":"http://makerbar.com","id":"a9clf4rwlqzr","geo_precision":"city","state":"New Jersey"},"type":"Feature","geometry":{"type":"Point","coordinates":[-74.033934,40.746851]}},{"properties":{"name":"AS220 Labs","city":"Providence","status":"active","date of founding":"4/1/2008","geo_score":0.714,"website":"http://labs.as220.org","id":"a9clf4sfwxp5","geo_precision":"city","state":"Rhode Island"},"type":"Feature","geometry":{"type":"Point","coordinates":[-71.414451,41.82275]}},{"properties":{"name":"FUBAR Labs","city":"Highland Park","status":"active","date of founding":"7/11/2009","geo_score":0.0,"website":"http://fubarlabs.com","id":"a9clf4x7zz8s","geo_precision":"unmatched","state":"New Jersey"},"type":"Feature","geometry":null},{"properties":{"name":"3D Printing Makerspace San Diego","city":"San Diego","status":"active","date of founding":"12/1/2011","geo_score":0.714,"website":null,"id":"a9clf4z83ry5","geo_precision":"city","state":"California"},"type":"Feature","geometry":{"type":"Point","coordinates":[-117.174366,32.7211]}},{"properties":{"name":"MITERS","city":"Boston","status":"active","date of founding":"1973","geo_score":0.714,"website":"http://miters.mit.edu","id":"a9clf4v8huzj","geo_precision":"city","state":"Massachusetts"},"type":"Feature","geometry":{"type":"Point","coordinates":[-71.026964,42.370567]}},{"properties":{"name":"The Bocoup Loft","city":"Boston","status":"active","date of founding":"12/1/2009","geo_score":0.714,"website":"http://loft.bocoup.com","id":"a9clf4vxg9yr","geo_precision":"city","state":"Massachusetts"},"type":"Feature","geometry":{"type":"Point","coordinates":[-71.026964,42.370567]}},{"properties":{"name":"Sector67","city":"Madison","status":"active","date of founding":"3/10/2010","geo_score":0.714,"website":"http://sector67.org","id":"a9clf4zia4rg","geo_precision":"city","state":"Wisconsin"},"type":"Feature","geometry":{"type":"Point","coordinates":[-89.423861,43.06956]}},{"properties":{"name":"757Labs","city":"Norfolk","status":"active","date of founding":"3/1/2010","geo_score":0.714,"website":"http://757labs.org","id":"a9clf5519v64","geo_precision":"city","state":"Virginia"},"type":"Feature","geometry":{"type":"Point","coordinates":[-76.208521,36.895911]}},{"properties":{"name":"HackerDojo","city":"Mountain View","status":"active","date of founding":"6/1/2009","geo_score":0.714,"website":"http://wiki.hackerdojo.com","id":"a9clf4w0h6b2","geo_precision":"city","state":"California"},"type":"Feature","geometry":{"type":"Point","coordinates":[-121.705327,37.189396]}},{"properties":{"name":"The Curious Forge","city":"Grass Valley","status":"active","date of founding":null,"geo_score":0.714,"website":"http://www.thecuriousforge.org/","id":"a9clf57qeypk","geo_precision":"city","state":"California"},"type":"Feature","geometry":{"type":"Point","coordinates":[-120.627348,37.422175]}},{"properties":{"name":"Droplabs","city":"Los Angeles","status":"active","date of founding":"5/6/2011","geo_score":0.714,"website":"http://droplabs.net","id":"a9clf4smev32","geo_precision":"city","state":"California"},"type":"Feature","geometry":{"type":"Point","coordinates":[-120.618608,38.052816]}},{"properties":{"name":"GeniusCorps Hacker Hostels","city":"Atlanta","status":"active","date of founding":"11/1/2010","geo_score":0.714,"website":"http://www.hacker-hostel.com","id":"a9clf50c9yi7","geo_precision":"city","state":"Georgia"},"type":"Feature","geometry":{"type":"Point","coordinates":[-84.47405,33.844371]}},{"properties":{"name":"IslandLabs","city":"Farmingdale","status":"active","date of founding":"7/23/2008","geo_score":0.714,"website":"http://islandlabs.org","id":"a9clf5332pax","geo_precision":"city","state":"New York"},"type":"Feature","geometry":{"type":"Point","coordinates":[-73.601772,40.754757]}},{"properties":{"name":"Foothills community workshop","city":"Granite Falls","status":"active","date of founding":"8/19/2011","geo_score":0.714,"website":"http://foothillscommunityworkshop.org/","id":"a9clf519pw9i","geo_precision":"city","state":"North Carolina"},"type":"Feature","geometry":{"type":"Point","coordinates":[-81.683719,36.219017]}},{"properties":{"name":"Reverse Space","city":"Herndon","status":"active","date of founding":"10/1/2010","geo_score":0.714,"website":"http://reversespace.com","id":"a9clf52d7cfo","geo_precision":"city","state":"Virginia"},"type":"Feature","geometry":{"type":"Point","coordinates":[-77.370819,39.014276]}},{"properties":{"name":"Science and Technology Wing (STWing)","city":"Philadelphia","status":"active","date of founding":null,"geo_score":0.714,"website":"http://www.stwing.upenn.edu/","id":"a9clf4ubne4g","geo_precision":"city","state":"Pennsylvania"},"type":"Feature","geometry":{"type":"Point","coordinates":[-75.11787,40.001811]}},{"properties":{"name":"ADX","city":"Portland","status":"active","date of founding":"1/1/2011","geo_score":0.714,"website":"http://www.adxportland.com","id":"a9clf53m4fkc","geo_precision":"city","state":"Oregon"},"type":"Feature","geometry":{"type":"Point","coordinates":[-122.693157,45.498931]}},{"properties":{"name":"Skillhouse","city":"Gainesville","status":"active","date of founding":"3/31/2009","geo_score":0.714,"website":"http://www.skillhouse.org","id":"a9clf4uo5une","geo_precision":"city","state":"Florida"},"type":"Feature","geometry":{"type":"Point","coordinates":[-82.345739,29.68041]}},{"properties":{"name":"Logan Laser Lab","city":"Logan","status":"active","date of founding":"11/8/2011","geo_score":0.714,"website":null,"id":"a9clf4swzkmf","geo_precision":"city","state":"Utah"},"type":"Feature","geometry":{"type":"Point","coordinates":[-111.885084,41.76695]}},{"properties":{"name":"BrainSilo","city":"Portland","status":"active","date of founding":"5/2/2009","geo_score":0.714,"website":"http://brainsilo.org/","id":"a9clf536kk4s","geo_precision":"city","state":"Oregon"},"type":"Feature","geometry":{"type":"Point","coordinates":[-122.693157,45.498931]}},{"properties":{"name":"Pumping Station: One","city":"Chicago","status":"active","date of founding":"9/26/2008","geo_score":0.714,"website":"http://www.pumpingstationone.org","id":"a9clf4zgqatj","geo_precision":"city","state":"Illinois"},"type":"Feature","geometry":{"type":"Point","coordinates":[-87.68732,41.811929]}},{"properties":{"name":"Fuzzlabs","city":"Iowa City","status":"active","date of founding":"11/1/2010","geo_score":0.714,"website":"http://www.fuzzlabs.org","id":"a9clf4rjlf2m","geo_precision":"city","state":"Iowa"},"type":"Feature","geometry":{"type":"Point","coordinates":[-92.161281,43.198027]}},{"properties":{"name":"10BitWorks","city":"San Antonio","status":"active","date of founding":"8/15/2010","geo_score":0.714,"website":"http://www.10bitworks.com/","id":"a9clf57v77kn","geo_precision":"city","state":"Texas"},"type":"Feature","geometry":{"type":"Point","coordinates":[-102.192713,33.770506]}},{"properties":{"name":"Columbia Gadget Works","city":"Columbia","status":"active","date of founding":"8/18/2009","geo_score":0.714,"website":"http:www.columbiagadgetworks.org","id":"a9clf4wd5abo","geo_precision":"city","state":"Missouri"},"type":"Feature","geometry":{"type":"Point","coordinates":[-92.274145,38.894165]}},{"properties":{"name":"BUILDS","city":"Boston","status":"active","date of founding":"1/26/2010","geo_score":0.714,"website":"http://builds.bu.edu","id":"a9clf4s39l9c","geo_precision":"city","state":"Massachusetts"},"type":"Feature","geometry":{"type":"Point","coordinates":[-71.026964,42.370567]}},{"properties":{"name":"Omaha Maker Group","city":"Omaha","status":"active","date of founding":"8/31/2010","geo_score":0.714,"website":"http://www.omahamakergroup.org/","id":"a9clf53xovj0","geo_precision":"city","state":"Nebraska"},"type":"Feature","geometry":{"type":"Point","coordinates":[-96.171104,41.291736]}},{"properties":{"name":"Tampa","city":"Tampa","status":"active","date of founding":"2/1/2010","geo_score":0.714,"website":"http://www.creativityincommerce.com/","id":"a9clf4rjtfla","geo_precision":"city","state":"Florida"},"type":"Feature","geometry":{"type":"Point","coordinates":[-82.582035,27.996097]}},{"properties":{"name":"Paradygm","city":"Fort Smith","status":"active","date of founding":"10/1/2010","geo_score":0.714,"website":"http://paradygm.shyft.us","id":"a9clf4ryo5gh","geo_precision":"city","state":"Arkansas"},"type":"Feature","geometry":{"type":"Point","coordinates":[-94.339412,35.231245]}},{"properties":{"name":"Gumbo Labs","city":"New Orleans","status":"active","date of founding":"8/1/2009","geo_score":0.714,"website":"http://www.gumbolabs.org/","id":"a9clf4y61ac7","geo_precision":"city","state":"Louisiana"},"type":"Feature","geometry":{"type":"Point","coordinates":[-89.930956,30.068812]}},{"properties":{"name":"Texarkana Institute of Technology","city":"Texarkana","status":"active","date of founding":null,"geo_score":0.0,"website":"http://www.texarkanainstituteoftechnology.com","id":"a9clf4vym8wx","geo_precision":"unmatched","state":"Texas"},"type":"Feature","geometry":null},{"properties":{"name":"MakeIt Labs","city":"Nashua","status":"active","date of founding":"3/1/2010","geo_score":0.714,"website":"http://www.makeitlabs.com","id":"a9clf50pyyog","geo_precision":"city","state":"New Hampshire"},"type":"Feature","geometry":{"type":"Point","coordinates":[-71.626336,42.771537]}},{"properties":{"name":"Yakima Hackerspace","city":"Yakima","status":"active","date of founding":"6/1/2001","geo_score":0.714,"website":null,"id":"a9clf4sa1k2e","geo_precision":"city","state":"Washington"},"type":"Feature","geometry":{"type":"Point","coordinates":[-120.725557,46.644476]}},{"properties":{"name":"Station House Studios","city":"Fargo","status":"active","date of founding":"10/1/2011","geo_score":0.714,"website":"http://www.stationhousestudios.org/","id":"a9clf51it18f","geo_precision":"city","state":"North Dakota"},"type":"Feature","geometry":{"type":"Point","coordinates":[-96.990615,46.92536]}},{"properties":{"name":"The Make Space","city":"State College","status":"active","date of founding":"4/20/2012","geo_score":0.714,"website":"http://themakespace.com/","id":"a9clf504unop","geo_precision":"city","state":"Pennsylvania"},"type":"Feature","geometry":{"type":"Point","coordinates":[-77.867822,40.881935]}},{"properties":{"name":"Metrix Create:Space","city":"Seattle","status":"active","date of founding":"10/15/2009","geo_score":0.714,"website":"http://metrixcreatespace.com/","id":"a9clf55vu66x","geo_precision":"city","state":"Washington"},"type":"Feature","geometry":{"type":"Point","coordinates":[-121.803388,47.432251]}},{"properties":{"name":"MakerSpace Urbana","city":"Urbana","status":"active","date of founding":"12/15/2009","geo_score":0.714,"website":"http://www.makerspaceu.org","id":"a9clf4z6neyq","geo_precision":"city","state":"Illinois"},"type":"Feature","geometry":{"type":"Point","coordinates":[-89.04063,37.974495]}},{"properties":{"name":"Hasty Pastry","city":"Cambridge","status":"active","date of founding":"2/10/2003","geo_score":0.714,"website":"http://www.hastypastry.net","id":"a9clf4trocss","geo_precision":"city","state":"Massachusetts"},"type":"Feature","geometry":{"type":"Point","coordinates":[-71.103663,42.358431]}},{"properties":{"name":"NESIT","city":"Meriden","status":"active","date of founding":"6/1/2010","geo_score":0.714,"website":"http://www.nesit.org","id":"a9clf55m6uqh","geo_precision":"city","state":"Connecticut"},"type":"Feature","geometry":{"type":"Point","coordinates":[-72.801901,41.536498]}},{"properties":{"name":"911 Media Arts Center","city":"Seattle","status":"active","date of founding":null,"geo_score":0.714,"website":"http://911media.org","id":"a9clf5207472","geo_precision":"city","state":"Washington"},"type":"Feature","geometry":{"type":"Point","coordinates":[-121.803388,47.432251]}},{"properties":{"name":"Ribbon Farm","city":"Detroit","status":"active","date of founding":"1/23/2012","geo_score":0.714,"website":"http://ribbonfarm.org/","id":"a9clf4rtye3h","geo_precision":"city","state":"Michigan"},"type":"Feature","geometry":{"type":"Point","coordinates":[-83.150823,42.239933]}},{"properties":{"name":"DaytonDiode","city":"Dayton","status":"active","date of founding":null,"geo_score":0.714,"website":"http://www.daytondiode.org","id":"a9clf579xgv7","geo_precision":"city","state":"Ohio"},"type":"Feature","geometry":{"type":"Point","coordinates":[-84.268593,39.750471]}},{"properties":{"name":"StudentRND","city":"Bellevue","status":"active","date of founding":"4/19/2009","geo_score":0.714,"website":"http://studentrnd.org/","id":"a9clf4xqtnor","geo_precision":"city","state":"Washington"},"type":"Feature","geometry":{"type":"Point","coordinates":[-122.207221,47.615471]}},{"properties":{"name":"Null Space Labs","city":"Los Angeles","status":"active","date of founding":"5/1/2010","geo_score":0.714,"website":"http://032.la","id":"a9clf5044827","geo_precision":"city","state":"California"},"type":"Feature","geometry":{"type":"Point","coordinates":[-120.618608,38.052816]}},{"properties":{"name":"Eyebeam","city":"New York City","status":"active","date of founding":null,"geo_score":0.714,"website":"http://www.eyebeam.org/","id":"a9clf4z2b112","geo_precision":"city","state":"New York"},"type":"Feature","geometry":{"type":"Point","coordinates":[-74.005973,40.714269]}},{"properties":{"name":"7hills Makerspace","city":"Rome","status":"active","date of founding":"6/1/2011","geo_score":0.714,"website":"http://www.7hillsmake.org","id":"a9clf4yr3kis","geo_precision":"city","state":"Georgia"},"type":"Feature","geometry":{"type":"Point","coordinates":[-85.22089,34.262335]}},{"properties":{"name":"SOPO Hackerspace","city":"South Portland","status":"active","date of founding":"3/16/2011","geo_score":0.714,"website":null,"id":"a9clf4tqwcm6","geo_precision":"city","state":"Maine"},"type":"Feature","geometry":{"type":"Point","coordinates":[-69.529648,43.935605]}},{"properties":{"name":"TekArts","city":"Milford","status":"active","date of founding":"12/1/2011","geo_score":0.714,"website":"http://tekarts.com","id":"a9clf50jfai2","geo_precision":"city","state":"New Hampshire"},"type":"Feature","geometry":{"type":"Point","coordinates":[-71.743882,42.848787]}},{"properties":{"name":"Workshop 88","city":"Glen Ellyn","status":"active","date of founding":null,"geo_score":0.714,"website":"http:workshop88.com","id":"a9clf4zpua8y","geo_precision":"city","state":"Illinois"},"type":"Feature","geometry":{"type":"Point","coordinates":[-88.029385,41.872034]}},{"properties":{"name":"Splat Space","city":"Durham","status":"active","date of founding":"9/1/2010","geo_score":0.714,"website":"http://splatspace.org","id":"a9clf53v28de","geo_precision":"city","state":"North Carolina"},"type":"Feature","geometry":{"type":"Point","coordinates":[-78.906933,35.981803]}},{"properties":{"name":"Urban Rethink","city":"Orlando","status":"active","date of founding":null,"geo_score":0.714,"website":"http://urbanrethink.com/","id":"a9clf54brivs","geo_precision":"city","state":"Florida"},"type":"Feature","geometry":{"type":"Point","coordinates":[-81.373291,28.545179]}},{"properties":{"name":"Www.xlabs-usf.com","city":"Tampa","status":"active","date of founding":"7/1/2006","geo_score":0.714,"website":"http://www.xlabs-usf.com","id":"a9clf4vycki4","geo_precision":"city","state":"Florida"},"type":"Feature","geometry":{"type":"Point","coordinates":[-82.582035,27.996097]}},{"properties":{"name":"Eugene Maker Space","city":"Eugene","status":"active","date of founding":"1/7/2011","geo_score":0.714,"website":"http://www.eugenemakerspace.com","id":"a9clf4sty0si","geo_precision":"city","state":"Oregon"},"type":"Feature","geometry":{"type":"Point","coordinates":[-123.074193,44.117868]}},{"properties":{"name":"QueLab","city":"Albuquerque","status":"active","date of founding":"12/1/2008","geo_score":0.714,"website":"http://quelab.net/","id":"a9clf4xjfzmf","geo_precision":"city","state":"New Mexico"},"type":"Feature","geometry":{"type":"Point","coordinates":[-106.651137,35.084491]}},{"properties":{"name":"Joplin Hackspace","city":"Joplin","status":"active","date of founding":"4/11/2011","geo_score":0.714,"website":"http://www.kickstarter.com/profile/joplinhackspace","id":"a9clf4x7crkl","geo_precision":"city","state":"Missouri"},"type":"Feature","geometry":{"type":"Point","coordinates":[-94.502663,37.113343]}},{"properties":{"name":"Minot Makers","city":"Minot","status":"active","date of founding":"11/10/2011","geo_score":0.714,"website":"http://www.minotmakers.com","id":"a9clf53a4x1q","geo_precision":"city","state":"North Dakota"},"type":"Feature","geometry":{"type":"Point","coordinates":[-102.636569,48.331131]}},{"properties":{"name":"GeeksOk, LLC","city":"Davenport","status":"active","date of founding":null,"geo_score":0.714,"website":"http://www.geeksok.com","id":"a9clf53q9szh","geo_precision":"city","state":"Oklahoma"},"type":"Feature","geometry":{"type":"Point","coordinates":[-96.766992,35.708886]}},{"properties":{"name":"Fablocker","city":"Winston Salem","status":"active","date of founding":"2/1/2011","geo_score":0.714,"website":"http://fablocker.org/","id":"a9clf4zonfvm","geo_precision":"city","state":"North Carolina"},"type":"Feature","geometry":{"type":"Point","coordinates":[-78.244459,35.563572]}},{"properties":{"name":"Darlington","city":"Midvale","status":"active","date of founding":"5/1/2012","geo_score":0.714,"website":"http://thetransistor.com","id":"a9clf51t6z8e","geo_precision":"city","state":"Utah"},"type":"Feature","geometry":{"type":"Point","coordinates":[-111.885868,40.608972]}},{"properties":{"name":"FredHack","city":"Fredericksburg","status":"active","date of founding":null,"geo_score":0.714,"website":"http://fredhack.blogspot.com","id":"a9clf51gmcrj","geo_precision":"city","state":"Virginia"},"type":"Feature","geometry":{"type":"Point","coordinates":[-77.483689,38.295135]}},{"properties":{"name":"Crash Space","city":"Los Angeles","status":"active","date of founding":"10/12/2009","geo_score":0.714,"website":"http://crashspace.org/","id":"a9clf53sw8h2","geo_precision":"city","state":"California"},"type":"Feature","geometry":{"type":"Point","coordinates":[-120.618608,38.052816]}},{"properties":{"name":"Reno Bridgewire","city":"Reno","status":"active","date of founding":"1/13/2011","geo_score":0.714,"website":"http://www.renobridgewire.org","id":"a9clf4vpvzd9","geo_precision":"city","state":"Nevada"},"type":"Feature","geometry":{"type":"Point","coordinates":[-119.704614,39.65558]}},{"properties":{"name":"HI Capacity","city":"Honolulu","status":"active","date of founding":"2/24/2011","geo_score":0.714,"website":"http://hicapacity.org","id":"a9clf4spi7dr","geo_precision":"city","state":"Hawaii"},"type":"Feature","geometry":{"type":"Point","coordinates":[-168.021815,24.859832]}},{"properties":{"name":"HakOlyHak","city":"Olympia","status":"active","date of founding":"6/26/2010","geo_score":0.714,"website":"http://olymega.org/","id":"a9clf4xxx7h0","geo_precision":"city","state":"Washington"},"type":"Feature","geometry":{"type":"Point","coordinates":[-122.869079,46.984767]}},{"properties":{"name":"Emerald Coast Community of Makers","city":"Pensacola","status":"active","date of founding":"2/18/2012","geo_score":0.714,"website":"http://www.eccmakers.com","id":"a9clf4wofse5","geo_precision":"city","state":"Florida"},"type":"Feature","geometry":{"type":"Point","coordinates":[-87.256471,30.424838]}},{"properties":{"name":"LVL1","city":"Louisville","status":"active","date of founding":"11/10/2009","geo_score":0.714,"website":"http://www.lvl1.org/","id":"a9clf51j29k6","geo_precision":"city","state":"Kentucky"},"type":"Feature","geometry":{"type":"Point","coordinates":[-85.676819,38.188962]}},{"properties":{"name":"Titusville, north Brevard","city":"Titusville","status":"active","date of founding":"10/6/2011","geo_score":0.714,"website":"http://hackerspace.titusvillefl.net/","id":"a9clf4x8fewx","geo_precision":"city","state":"Florida"},"type":"Feature","geometry":{"type":"Point","coordinates":[-80.853421,28.548877]}},{"properties":{"name":"HacDC","city":"Washington D.C.","status":"active","date of founding":null,"geo_score":0.714,"website":"http://www.hacdc.org/","id":"a9clf53447rw","geo_precision":"city","state":"District of Columbia"},"type":"Feature","geometry":{"type":"Point","coordinates":[-77.036366,38.895112]}},{"properties":{"name":"The Soldered Resistor","city":"Pawtucket","status":"active","date of founding":"3/17/2010","geo_score":0.0,"website":null,"id":"a9clf4xer5sc","geo_precision":"unmatched","state":"Rhode Island"},"type":"Feature","geometry":null},{"properties":{"name":"The Rabbit Hole","city":"Rochester","status":"active","date of founding":"9/1/2012","geo_score":0.714,"website":"http://tymkrs.com/rabbithole","id":"a9clf55b1cau","geo_precision":"city","state":"Minnesota"},"type":"Feature","geometry":{"type":"Point","coordinates":[-92.516916,44.075285]}},{"properties":{"name":"Beta Two Labs","city":"White Plains","status":"active","date of founding":"11/1/2010","geo_score":0.714,"website":"http://www.betatwolabs.com","id":"a9clf4tnerrd","geo_precision":"city","state":"New York"},"type":"Feature","geometry":{"type":"Point","coordinates":[-73.769626,41.031397]}},{"properties":{"name":"Southern Maryland Hacker Space","city":"Huntingtown","status":"active","date of founding":"7/1/2011","geo_score":0.714,"website":"http://www.smhack.org","id":"a9clf54nd0gw","geo_precision":"city","state":"Maryland"},"type":"Feature","geometry":{"type":"Point","coordinates":[-77.206926,39.097053]}},{"properties":{"name":"ChattLab","city":"Chattanooga","status":"active","date of founding":"3/1/2012","geo_score":0.714,"website":"http://www.chattlab.org/","id":"a9clf4t2spyz","geo_precision":"city","state":"Tennessee"},"type":"Feature","geometry":{"type":"Point","coordinates":[-85.206426,35.017818]}},{"properties":{"name":"BetaLab","city":"Oakland","status":"active","date of founding":null,"geo_score":0.714,"website":"http:betalab01.org","id":"a9clf55squxy","geo_precision":"city","state":"California"},"type":"Feature","geometry":{"type":"Point","coordinates":[-122.223779,37.786027]}},{"properties":{"name":"Xerocraft","city":"Tucson","status":"active","date of founding":"7/17/2010","geo_score":0.714,"website":"http://xerocraft.org/","id":"a9clf4zpzzq0","geo_precision":"city","state":"Arizona"},"type":"Feature","geometry":{"type":"Point","coordinates":[-110.970869,32.217975]}},{"properties":{"name":"Non-kinetic Warfare","city":"San Antonio","status":"active","date of founding":"11/2/2010","geo_score":0.714,"website":null,"id":"a9clf4toorr7","geo_precision":"city","state":"Texas"},"type":"Feature","geometry":{"type":"Point","coordinates":[-102.192713,33.770506]}},{"properties":{"name":"Foothills Community Workshop","city":"Granite Falls","status":"active","date of founding":"8/19/2011","geo_score":0.714,"website":"http://www.foothillscommunityworkshop.org/","id":"a9clf4zm4sfl","geo_precision":"city","state":"North Carolina"},"type":"Feature","geometry":{"type":"Point","coordinates":[-81.683719,36.219017]}},{"properties":{"name":"Hacker Consortium","city":"Nashville","status":"active","date of founding":"10/1/2007","geo_score":0.714,"website":"http://www.hackerconsortium.com","id":"a9clf4t11h2l","geo_precision":"city","state":"Tennessee"},"type":"Feature","geometry":{"type":"Point","coordinates":[-86.778098,36.165688]}},{"properties":{"name":"Nova Labs","city":"Reston","status":"active","date of founding":"12/2/2011","geo_score":0.714,"website":"http://nova-labs.org/","id":"a9clf543ep5o","geo_precision":"city","state":"Virginia"},"type":"Feature","geometry":{"type":"Point","coordinates":[-77.3418,38.96146]}},{"properties":{"name":"Twin Cities Robotics Group","city":"Saint Paul","status":"active","date of founding":null,"geo_score":0.714,"website":"http://tcrobots.org/","id":"a9clf4u6jl2f","geo_precision":"city","state":"Minnesota"},"type":"Feature","geometry":{"type":"Point","coordinates":[-92.989204,44.822826]}},{"properties":{"name":"Trenton Atelier","city":"Trenton","status":"active","date of founding":"1/1/2000","geo_score":0.714,"website":"http://trentonatelier.com/","id":"a9clf52mtzck","geo_precision":"city","state":"New Jersey"},"type":"Feature","geometry":{"type":"Point","coordinates":[-74.712018,40.280531]}},{"properties":{"name":"Feral Technology Institute","city":"Guernsey","status":"active","date of founding":"11/30/1996","geo_score":0.714,"website":"http://feral-tech.com/","id":"a9clf4ua4wvj","geo_precision":"city","state":"Iowa"},"type":"Feature","geometry":{"type":"Point","coordinates":[-96.056964,42.92721]}},{"properties":{"name":"Midsouth Makers","city":"Midsouth Makers","status":"active","date of founding":"1/8/2010","geo_score":0.0,"website":"http://www.midsouthmakers.org","id":"a9clf51mjkc9","geo_precision":"unmatched","state":"Tennessee"},"type":"Feature","geometry":null},{"properties":{"name":"Montana Ethical Hackers","city":"Helena","status":"active","date of founding":"9/1/2010","geo_score":0.714,"website":"http://mthackers.blogspot.com/","id":"a9clf4s00ej1","geo_precision":"city","state":"Montana"},"type":"Feature","geometry":{"type":"Point","coordinates":[-112.197616,46.70934]}},{"properties":{"name":"Hive13","city":"Cincinnati","status":"active","date of founding":"4/9/2009","geo_score":0.714,"website":"http://www.hive13.org","id":"a9clf51fwh4l","geo_precision":"city","state":"Ohio"},"type":"Feature","geometry":{"type":"Point","coordinates":[-84.53822,39.166759]}},{"properties":{"name":"SYN/HAK","city":"Akron","status":"active","date of founding":"7/13/2011","geo_score":0.714,"website":"http://synhak.org","id":"a9clf4sklofi","geo_precision":"city","state":"Ohio"},"type":"Feature","geometry":{"type":"Point","coordinates":[-81.507831,41.012239]}},{"properties":{"name":"GrendelVan","city":"Colorado Springs","status":"active","date of founding":"1/1/2008","geo_score":0.714,"website":"http://mhs.hackerdemia.com","id":"a9clf55j41hq","geo_precision":"city","state":"Colorado"},"type":"Feature","geometry":{"type":"Point","coordinates":[-104.857828,38.861469]}},{"properties":{"name":"HeatSync Labs","city":"Mesa","status":"active","date of founding":"4/5/2009","geo_score":0.714,"website":"http://www.heatsynclabs.org","id":"a9clf5127bjm","geo_precision":"city","state":"Arizona"},"type":"Feature","geometry":{"type":"Point","coordinates":[-111.856967,33.440695]}},{"properties":{"name":"New York Hacking Society","city":"New York City","status":"active","date of founding":"5/1/2008","geo_score":0.714,"website":null,"id":"a9clf55hmyb8","geo_precision":"city","state":"New York"},"type":"Feature","geometry":{"type":"Point","coordinates":[-74.005973,40.714269]}},{"properties":{"name":"The Build Shop, LLC","city":"Los Angeles","status":"active","date of founding":"11/4/2011","geo_score":0.714,"website":"http://thebuildshop.org","id":"a9clf4wz7z4j","geo_precision":"city","state":"California"},"type":"Feature","geometry":{"type":"Point","coordinates":[-120.618608,38.052816]}},{"properties":{"name":"Club Workshop","city":"Denver","status":"active","date of founding":"9/5/2008","geo_score":0.714,"website":"http://www.clubworkshop.com/","id":"a9clf4vtpjvl","geo_precision":"city","state":"Colorado"},"type":"Feature","geometry":{"type":"Point","coordinates":[-104.856808,39.726303]}},{"properties":{"name":"Buffalo Lab","city":"Buffalo","status":"active","date of founding":"5/6/2009","geo_score":0.714,"website":"http://www.buffalolab.org/blog","id":"a9clf4w1k8s9","geo_precision":"city","state":"New York"},"type":"Feature","geometry":{"type":"Point","coordinates":[-78.832706,42.929303]}},{"properties":{"name":"The Transistor","city":"Provo","status":"active","date of founding":"1/1/2010","geo_score":0.714,"website":"http://thetransistor.com","id":"a9clf4tnloir","geo_precision":"city","state":"Utah"},"type":"Feature","geometry":{"type":"Point","coordinates":[-111.695558,40.235053]}},{"properties":{"name":"The KOIpound","city":"Cincinnati","status":"active","date of founding":null,"geo_score":0.714,"website":"http://koipound.com","id":"a9clf4xgj53l","geo_precision":"city","state":"Ohio"},"type":"Feature","geometry":{"type":"Point","coordinates":[-84.53822,39.166759]}},{"properties":{"name":"My inventor club","city":"Atlanta","status":"active","date of founding":"10/1/2011","geo_score":0.714,"website":"http://www.myinventorclub.com","id":"a9clf54bery5","geo_precision":"city","state":"Georgia"},"type":"Feature","geometry":{"type":"Point","coordinates":[-84.47405,33.844371]}},{"properties":{"name":"TekVenture","city":"Fort Wayne","status":"active","date of founding":"1/1/2008","geo_score":0.714,"website":"http://www.TekVenture.org","id":"a9clf53u2jjf","geo_precision":"city","state":"Indiana"},"type":"Feature","geometry":{"type":"Point","coordinates":[-85.12886,41.130604]}},{"properties":{"name":"AS220 labs","city":"Providence","status":"active","date of founding":"4/1/2008","geo_score":0.714,"website":"http://as220.org/labs","id":"a9clf52e61lm","geo_precision":"city","state":"Rhode Island"},"type":"Feature","geometry":{"type":"Point","coordinates":[-71.414451,41.82275]}},{"properties":{"name":"Iron Tribe","city":"White Plains","status":"active","date of founding":"5/18/2010","geo_score":0.714,"website":"http://betatwolabs.com/","id":"a9clf50rp0a4","geo_precision":"city","state":"New York"},"type":"Feature","geometry":{"type":"Point","coordinates":[-73.769626,41.031397]}},{"properties":{"name":"Radiantstream hackerspace","city":"Goshen","status":"active","date of founding":"9/12/2011","geo_score":0.714,"website":"http://www.radiantstream.com","id":"a9clf561lm8q","geo_precision":"city","state":"Indiana"},"type":"Feature","geometry":{"type":"Point","coordinates":[-85.858059,41.584839]}},{"properties":{"name":"WesternMass Hackerspace","city":"Indian Orchard","status":"active","date of founding":"10/1/2010","geo_score":0.714,"website":"http://www.meetup.com/TheGeekGroupofWesternMass/","id":"a9clf54l7973","geo_precision":"city","state":"Massachusetts"},"type":"Feature","geometry":{"type":"Point","coordinates":[-72.51278,42.150593]}},{"properties":{"name":"The Hacktory","city":"Philadelphia","status":"active","date of founding":null,"geo_score":0.714,"website":"http://thehacktory.org/","id":"a9clf55nxb6u","geo_precision":"city","state":"Pennsylvania"},"type":"Feature","geometry":{"type":"Point","coordinates":[-75.11787,40.001811]}},{"properties":{"name":"WIT NetworkingLAB AITP","city":"Boston","status":"active","date of founding":"10/10/2009","geo_score":0.714,"website":"http://witaitp.org","id":"a9clf4skask2","geo_precision":"city","state":"Massachusetts"},"type":"Feature","geometry":{"type":"Point","coordinates":[-71.026964,42.370567]}},{"properties":{"name":"MakeSLC","city":"Salt Lake City","status":"active","date of founding":"8/15/2010","geo_score":0.714,"website":"http://www.makeslc.com","id":"a9clf4rghsj5","geo_precision":"city","state":"Utah"},"type":"Feature","geometry":{"type":"Point","coordinates":[-111.900719,40.756095]}},{"properties":{"name":"Gangplank","city":"Chandler","status":"active","date of founding":"10/1/2009","geo_score":0.714,"website":"http://gangplankhq.com","id":"a9clf56luqw7","geo_precision":"city","state":"Arizona"},"type":"Feature","geometry":{"type":"Point","coordinates":[-111.686171,33.212186]}},{"properties":{"name":"Hammerspace","city":"Kansas City","status":"active","date of founding":null,"geo_score":0.714,"website":"http://hammerspacehobby.com","id":"a9clf4vorxex","geo_precision":"city","state":"Missouri"},"type":"Feature","geometry":{"type":"Point","coordinates":[-94.598583,39.102404]}},{"properties":{"name":"GeniusCorps Hacker Hostel","city":"Atlanta","status":"active","date of founding":"11/1/2010","geo_score":0.714,"website":"http://www.hacker-hostel.com","id":"a9clf4tj0lfb","geo_precision":"city","state":"Georgia"},"type":"Feature","geometry":{"type":"Point","coordinates":[-84.47405,33.844371]}},{"properties":{"name":"Weird Science Salon","city":"Seattle","status":"active","date of founding":null,"geo_score":0.714,"website":"http://amasci.com/wsci/","id":"a9clf57o0xr9","geo_precision":"city","state":"Washington"},"type":"Feature","geometry":{"type":"Point","coordinates":[-121.803388,47.432251]}},{"properties":{"name":"Coshack","city":null,"status":"active","date of founding":"9/1/2012","geo_score":0.0,"website":"http://CosHack.co","id":"a9clf4xrjlqu","geo_precision":"unmatched","state":"Colorado"},"type":"Feature","geometry":null},{"properties":{"name":"Hammer Time!","city":"Fort Collins","status":"active","date of founding":"6/1/2009","geo_score":0.714,"website":"http://www.hammertimeprojects.org","id":"a9clf4x65txt","geo_precision":"city","state":"Colorado"},"type":"Feature","geometry":{"type":"Point","coordinates":[-108.685164,39.149614]}},{"properties":{"name":"Phoenix Asylum","city":"Boulder","status":"active","date of founding":"11/1/2008","geo_score":0.714,"website":"http://phoenixasylum.org","id":"a9clf546yqun","geo_precision":"city","state":"Colorado"},"type":"Feature","geometry":{"type":"Point","coordinates":[-105.278083,40.094787]}},{"properties":{"name":"Delaware Hackerspace","city":"Wilmington","status":"active","date of founding":"7/30/2009","geo_score":0.714,"website":"http://www.vintagecomputer.net","id":"a9clf4xsjm3m","geo_precision":"city","state":"Delaware"},"type":"Feature","geometry":{"type":"Point","coordinates":[-75.58437,39.68678]}},{"properties":{"name":"Syn Shop","city":"Las Vegas","status":"active","date of founding":"4/1/2012","geo_score":0.714,"website":"https://synshop.org","id":"a9clf4vsbv32","geo_precision":"city","state":"Nevada"},"type":"Feature","geometry":{"type":"Point","coordinates":[-115.10647,36.17372]}},{"properties":{"name":"JaxHax","city":"Jacksonville","status":"active","date of founding":"7/14/2011","geo_score":0.0,"website":"http://www.jaxhax.org","id":"a9clf57f64w6","geo_precision":"unmatched","state":"Florida"},"type":"Feature","geometry":null},{"properties":{"name":"Close Quarters","city":"Pawtucket","status":"active","date of founding":"3/3/2010","geo_score":0.0,"website":"http://www.closequarters.org/","id":"a9clf4tno30i","geo_precision":"unmatched","state":"Rhode Island"},"type":"Feature","geometry":null},{"properties":{"name":"Twin Cities Maker","city":"Minneapolis","status":"active","date of founding":"1/6/2009","geo_score":0.714,"website":"http://www.tcmaker.org","id":"a9clf4sj679a","geo_precision":"city","state":"Minnesota"},"type":"Feature","geometry":{"type":"Point","coordinates":[-93.273024,44.979265]}},{"properties":{"name":"Fraternal Order of Buffalo","city":"Buffalo","status":"active","date of founding":"2007","geo_score":0.714,"website":"http://www.orderofbuffalo.com/","id":"a9clf4ymyfkq","geo_precision":"city","state":"New York"},"type":"Feature","geometry":{"type":"Point","coordinates":[-78.832706,42.929303]}},{"properties":{"name":"SVI Hackspace","city":"Stanford","status":"active","date of founding":null,"geo_score":0.714,"website":"http://www.svihackspace.com","id":"a9clf55x34a7","geo_precision":"city","state":"California"},"type":"Feature","geometry":{"type":"Point","coordinates":[-122.431045,39.28207]}},{"properties":{"name":"Hive 76","city":"Philadelphia","status":"active","date of founding":"5/18/2009","geo_score":0.714,"website":"http:hive76.org","id":"a9clf574lokp","geo_precision":"city","state":"Pennsylvania"},"type":"Feature","geometry":{"type":"Point","coordinates":[-75.11787,40.001811]}},{"properties":{"name":"The Geek Group","city":"Grand Rapids","status":"active","date of founding":"7/7/1994","geo_score":0.714,"website":"http:www.thegeekgroup.org","id":"a9clf54mh6ki","geo_precision":"city","state":"Michigan"},"type":"Feature","geometry":{"type":"Point","coordinates":[-85.306756,46.158336]}},{"properties":{"name":"Lincoln Hacker League","city":"Lincoln","status":"active","date of founding":"12/20/2010","geo_score":0.714,"website":"http://www.lincolnhackerleague.org","id":"a9clf4v6pmn0","geo_precision":"city","state":"Nebraska"},"type":"Feature","geometry":{"type":"Point","coordinates":[-96.823133,40.865142]}},{"properties":{"name":"BioCurious","city":"Sunnyvale","status":"active","date of founding":"1/1/2010","geo_score":0.714,"website":"http://www.biocurious.org","id":"a9clf57yl58k","geo_precision":"city","state":"California"},"type":"Feature","geometry":{"type":"Point","coordinates":[-118.298662,33.786594]}},{"properties":{"name":"MakerStation - TekVenture","city":"Fort Wayne","status":"active","date of founding":null,"geo_score":0.714,"website":"http://tekventure.org/maker-station/","id":"a9clf55zadtl","geo_precision":"city","state":"Indiana"},"type":"Feature","geometry":{"type":"Point","coordinates":[-85.12886,41.130604]}},{"properties":{"name":"4-H Robotics &amp; Technology Club","city":"Traverse City","status":"active","date of founding":null,"geo_score":0.714,"website":"http://tech.dir.groups.yahoo.com/group/4-HRoboticsAndTechnologyClub/","id":"a9clf4t58dor","geo_precision":"city","state":"Michigan"},"type":"Feature","geometry":{"type":"Point","coordinates":[-88.234001,47.194369]}},{"properties":{"name":"Hacker Lab","city":"Sacramento","status":"active","date of founding":"3/17/2012","geo_score":0.714,"website":"http://hackerlab.org","id":"a9clf52im92p","geo_precision":"city","state":"California"},"type":"Feature","geometry":{"type":"Point","coordinates":[-121.555406,38.380456]}},{"properties":{"name":"Unallocated Space","city":"Severn","status":"active","date of founding":"10/1/2010","geo_score":0.714,"website":"http://unallocatedspace.org/","id":"a9clf4wky9tk","geo_precision":"city","state":"Maryland"},"type":"Feature","geometry":{"type":"Point","coordinates":[-76.623121,38.983971]}},{"properties":{"name":"Sugar Shack","city":"Los Angeles","status":"active","date of founding":"9/21/2001","geo_score":0.714,"website":"http://www.twitter.com/sugarshack","id":"a9clf51g4kuu","geo_precision":"city","state":"California"},"type":"Feature","geometry":{"type":"Point","coordinates":[-120.618608,38.052816]}},{"properties":{"name":"Mojave Makers","city":"Mojave","status":"active","date of founding":"1/23/2012","geo_score":0.714,"website":"http://mojavemakers.org/","id":"a9clf57brlgs","geo_precision":"city","state":"California"},"type":"Feature","geometry":{"type":"Point","coordinates":[-118.31596,35.038066]}},{"properties":{"name":"OmniCorpDetroit","city":"Detroit","status":"active","date of founding":null,"geo_score":0.714,"website":"http:www.omnicorpdetroit.com","id":"a9clf534y4gd","geo_precision":"city","state":"Michigan"},"type":"Feature","geometry":{"type":"Point","coordinates":[-83.150823,42.239933]}},{"properties":{"name":"Club Cyberia","city":"Indianapolis","status":"active","date of founding":"2/1/2011","geo_score":0.714,"website":"http://clubcyberia.org","id":"a9clf4zijsnd","geo_precision":"city","state":"Indiana"},"type":"Feature","geometry":{"type":"Point","coordinates":[-86.13216,39.775092]}},{"properties":{"name":"Monroe County Hackerspace","city":"Madisonville","status":"active","date of founding":"9/22/2011","geo_score":0.714,"website":null,"id":"a9clf4su9j41","geo_precision":"city","state":"Tennessee"},"type":"Feature","geometry":{"type":"Point","coordinates":[-84.33952,35.491574]}},{"properties":{"name":"The Hacker Foundation","city":null,"status":"active","date of founding":null,"geo_score":0.0,"website":"http://www.hackerfoundation.org/","id":"a9clf543e1sg","geo_precision":"unmatched","state":"California"},"type":"Feature","geometry":null},{"properties":{"name":"Salebarn","city":"George","status":"active","date of founding":"1/1/2012","geo_score":0.714,"website":"http://www.salebarn.com","id":"a9clf55kzk2k","geo_precision":"city","state":"Iowa"},"type":"Feature","geometry":{"type":"Point","coordinates":[-95.988879,43.345209]}},{"properties":{"name":"NextFab Studio","city":"Philadelphia","status":"active","date of founding":"1/23/2010","geo_score":0.714,"website":"http://nextfabstudio.com/","id":"a9clf57t380d","geo_precision":"city","state":"Pennsylvania"},"type":"Feature","geometry":{"type":"Point","coordinates":[-75.11787,40.001811]}},{"properties":{"name":"TechShop Menlo Park","city":"Menlo Park","status":"active","date of founding":"9/30/2006","geo_score":0.714,"website":"http://www.techshop.ws","id":"a9clf4xisvyr","geo_precision":"city","state":"California"},"type":"Feature","geometry":{"type":"Point","coordinates":[-122.186373,37.439616]}},{"properties":{"name":"Tinker Tank","city":"Miami","status":"active","date of founding":"1/10/2011","geo_score":0.714,"website":"http://www.tinkertankmiami.com","id":"a9clf53mp3u1","geo_precision":"city","state":"Florida"},"type":"Feature","geometry":{"type":"Point","coordinates":[-80.193659,25.774266]}},{"properties":{"name":"New Work City","city":"New York City","status":"active","date of founding":"11/1/2008","geo_score":0.714,"website":"http://nwc.co","id":"a9clf510srvu","geo_precision":"city","state":"New York"},"type":"Feature","geometry":{"type":"Point","coordinates":[-74.005973,40.714269]}},{"properties":{"name":"Baltimore Node","city":"Baltimore","status":"active","date of founding":"7/16/2009","geo_score":0.714,"website":"http://www.baltimorenode.org/","id":"a9clf4uldtfr","geo_precision":"city","state":"Maryland"},"type":"Feature","geometry":{"type":"Point","coordinates":[-75.844658,39.058168]}},{"properties":{"name":"10bitworks","city":"San Antonio","status":"active","date of founding":"8/15/2012","geo_score":0.714,"website":"http://10bitworks.com","id":"a9clf4vezoi9","geo_precision":"city","state":"Texas"},"type":"Feature","geometry":{"type":"Point","coordinates":[-102.192713,33.770506]}},{"properties":{"name":"HacroEvolution","city":"Manhattan","status":"active","date of founding":"3/1/2012","geo_score":0.714,"website":"http://www.hacroevolution.blogspot.com/","id":"a9clf4sb74p6","geo_precision":"city","state":"Kansas"},"type":"Feature","geometry":{"type":"Point","coordinates":[-96.564589,39.209375]}},{"properties":{"name":"Artisan's Asylum","city":"Boston","status":"active","date of founding":"5/1/2010","geo_score":0.714,"website":"http://www.artisansasylum.com","id":"a9clf50xfev2","geo_precision":"city","state":"Massachusetts"},"type":"Feature","geometry":{"type":"Point","coordinates":[-71.026964,42.370567]}},{"properties":{"name":"Air Light Time &amp; Space","city":"Seattle","status":"active","date of founding":"1/9/2011","geo_score":0.714,"website":"http://www.airlighttimespace.org/","id":"a9clf4t4puk0","geo_precision":"city","state":"Washington"},"type":"Feature","geometry":{"type":"Point","coordinates":[-121.803388,47.432251]}},{"properties":{"name":"Tech Brewery","city":"Ann Arbor","status":"active","date of founding":null,"geo_score":0.714,"website":"http://www.techbrewery.org/","id":"a9clf4t1e20g","geo_precision":"city","state":"Michigan"},"type":"Feature","geometry":{"type":"Point","coordinates":[-86.176715,42.96502]}},{"properties":{"name":"Solid State Depot","city":"Boulder","status":"active","date of founding":"2/20/2010","geo_score":0.714,"website":"http://boulderhackerspace.com/","id":"a9clf4v0h9w8","geo_precision":"city","state":"Colorado"},"type":"Feature","geometry":{"type":"Point","coordinates":[-105.278083,40.094787]}},{"properties":{"name":"TheTransistor","city":"Provo","status":"active","date of founding":"1/1/2010","geo_score":0.714,"website":"http://thetransistor.com","id":"a9clf4rufstf","geo_precision":"city","state":"Utah"},"type":"Feature","geometry":{"type":"Point","coordinates":[-111.695558,40.235053]}},{"properties":{"name":"Ohmspace","city":"Oklahoma City","status":"active","date of founding":"6/1/2011","geo_score":0.714,"website":"http://www.ohmspace.com","id":"a9clf503zar0","geo_precision":"city","state":"Oklahoma"},"type":"Feature","geometry":{"type":"Point","coordinates":[-97.562817,35.491608]}},{"properties":{"name":"Maker Works","city":"Ann Arbor","status":"active","date of founding":"8/8/2011","geo_score":0.714,"website":"http://www.maker-works.com/","id":"a9clf50yo6km","geo_precision":"city","state":"Michigan"},"type":"Feature","geometry":{"type":"Point","coordinates":[-86.176715,42.96502]}},{"properties":{"name":"Squidwrench","city":"Poughkeepsie","status":"active","date of founding":"1/1/2010","geo_score":0.0,"website":"http://squidwrench.org","id":"a9clf4xd4lbp","geo_precision":"unmatched","state":"New York"},"type":"Feature","geometry":null},{"properties":{"name":"Bucketworks","city":"Milwaukee","status":"active","date of founding":"5/20/2002","geo_score":0.714,"website":"http://bucketworks.org","id":"a9clf50empd7","geo_precision":"city","state":"Wisconsin"},"type":"Feature","geometry":{"type":"Point","coordinates":[-87.958409,43.011264]}},{"properties":{"name":"Collab","city":"New York City","status":"active","date of founding":"8/1/2009","geo_score":0.714,"website":"http://www.collab-orators.com","id":"a9clf518wv5c","geo_precision":"city","state":"New York"},"type":"Feature","geometry":{"type":"Point","coordinates":[-74.005973,40.714269]}},{"properties":{"name":"CT Hackerspace","city":"Watertown","status":"active","date of founding":"2/14/2010","geo_score":0.714,"website":"http://www.connecticuthackerspace.com","id":"a9clf4w139cq","geo_precision":"city","state":"Connecticut"},"type":"Feature","geometry":{"type":"Point","coordinates":[-73.162003,41.759427]}},{"properties":{"name":"The Learned Nerd","city":"Fort Lauderdale","status":"active","date of founding":"3/1/2010","geo_score":0.714,"website":"http://www.thelearnednerd.com","id":"a9clf56eoaxx","geo_precision":"city","state":"Florida"},"type":"Feature","geometry":{"type":"Point","coordinates":[-80.208381,26.166474]}},{"properties":{"name":"Fablocker Hackerspace","city":"Winston Salem","status":"active","date of founding":"3/1/2011","geo_score":0.714,"website":"http://fablocker.org/","id":"a9clf4uue4u4","geo_precision":"city","state":"North Carolina"},"type":"Feature","geometry":{"type":"Point","coordinates":[-78.244459,35.563572]}},{"properties":{"name":"Jigsaw Renaissance","city":"Seattle","status":"active","date of founding":"6/6/2009","geo_score":0.714,"website":"http://www.jigsawrenaissance.org","id":"a9clf4wirf4w","geo_precision":"city","state":"Washington"},"type":"Feature","geometry":{"type":"Point","coordinates":[-121.803388,47.432251]}},{"properties":{"name":"Hack.rva","city":"Richmond","status":"active","date of founding":"3/26/2009","geo_score":0.714,"website":"http://hackrva.org","id":"a9clf506kqky","geo_precision":"city","state":"Virginia"},"type":"Feature","geometry":{"type":"Point","coordinates":[-76.83774,37.914858]}},{"properties":{"name":"505 Labs","city":"Los Alamos","status":"active","date of founding":"6/1/2012","geo_score":0.714,"website":null,"id":"a9clf559g2ex","geo_precision":"city","state":"New Mexico"},"type":"Feature","geometry":{"type":"Point","coordinates":[-105.836957,34.652009]}},{"properties":{"name":"ITP","city":"New York City","status":"active","date of founding":null,"geo_score":0.714,"website":"http://itp.nyu.edu","id":"a9clf5275czr","geo_precision":"city","state":"New York"},"type":"Feature","geometry":{"type":"Point","coordinates":[-74.005973,40.714269]}},{"properties":{"name":"Milwaukee Makerspace","city":"Milwaukee","status":"active","date of founding":"9/22/2009","geo_score":0.714,"website":"http://milwaukeemakerspace.org/","id":"a9clf4w4wx2j","geo_precision":"city","state":"Wisconsin"},"type":"Feature","geometry":{"type":"Point","coordinates":[-87.958409,43.011264]}},{"properties":{"name":"Genspace NYC","city":"New York City","status":"active","date of founding":"2/11/2009","geo_score":0.714,"website":"http://www.genspace.org","id":"a9clf4tbhy9j","geo_precision":"city","state":"New York"},"type":"Feature","geometry":{"type":"Point","coordinates":[-74.005973,40.714269]}},{"properties":{"name":"Red Mountain Makers","city":"Birmingham","status":"active","date of founding":"3/27/2012","geo_score":0.714,"website":"http://www.meetup.com/RedMountainMakers/","id":"a9clf4vntzrn","geo_precision":"city","state":"Alabama"},"type":"Feature","geometry":{"type":"Point","coordinates":[-86.801904,33.456412]}},{"properties":{"name":"QC Co-Lab","city":"Davenport","status":"active","date of founding":"2/11/2010","geo_score":0.714,"website":"https://www.qccolab.com","id":"a9clf4ufdfab","geo_precision":"city","state":"Iowa"},"type":"Feature","geometry":{"type":"Point","coordinates":[-90.573686,41.527232]}},{"properties":{"name":"Collexion","city":"Lexington","status":"active","date of founding":null,"geo_score":0.0,"website":"http://collexion.net/","id":"a9clf50dqd67","geo_precision":"unmatched","state":"Kentucky"},"type":"Feature","geometry":null},{"properties":{"name":"The Makers Alliance","city":"Cleveland","status":"active","date of founding":"4/18/2009","geo_score":0.714,"website":"http://www.makersalliance.org/","id":"a9clf4xdz08u","geo_precision":"city","state":"Ohio"},"type":"Feature","geometry":{"type":"Point","coordinates":[-81.599648,41.523401]}},{"properties":{"name":"Knoxville Hackerspace","city":"Knoxville","status":"active","date of founding":"8/3/2010","geo_score":0.0,"website":"http://knoxmakers.org/","id":"a9clf57t0ny1","geo_precision":"unmatched","state":"Tennessee"},"type":"Feature","geometry":null},{"properties":{"name":"FreesideAtlanta","city":"Atlanta","status":"active","date of founding":"12/2/2008","geo_score":0.714,"website":"http://www.FreesideAtlanta.org","id":"a9clf4vkiwt4","geo_precision":"city","state":"Georgia"},"type":"Feature","geometry":{"type":"Point","coordinates":[-84.47405,33.844371]}},{"properties":{"name":"Wizards' Lair","city":"Plymouth","status":"active","date of founding":"10/20/2011","geo_score":0.714,"website":"http://www.phreakingadventures.info/","id":"a9clf577p0md","geo_precision":"city","state":"Connecticut"},"type":"Feature","geometry":{"type":"Point","coordinates":[-73.044364,41.65873]}},{"properties":{"name":"Zero1 Nation","city":"Colorado Springs","status":"active","date of founding":"8/17/2007","geo_score":0.714,"website":null,"id":"a9clf4yiqj1f","geo_precision":"city","state":"Colorado"},"type":"Feature","geometry":{"type":"Point","coordinates":[-104.857828,38.861469]}},{"properties":{"name":"Hackerbot Labs","city":"Seattle","status":"active","date of founding":null,"geo_score":0.714,"website":"http://www.hackerbotlabs.com/","id":"a9clf50rali0","geo_precision":"city","state":"Washington"},"type":"Feature","geometry":{"type":"Point","coordinates":[-121.803388,47.432251]}},{"properties":{"name":"Bloominglabs","city":"Bloomington","status":"active","date of founding":"7/1/2010","geo_score":0.714,"website":"http://www.bloominglabs.org","id":"a9clf4yg5vbf","geo_precision":"city","state":"Indiana"},"type":"Feature","geometry":{"type":"Point","coordinates":[-87.221819,39.779078]}},{"properties":{"name":"Alpha One Labs","city":"New York City","status":"active","date of founding":"8/1/2009","geo_score":0.714,"website":"http://www.alphaonelabs.com","id":"a9clf57no3y6","geo_precision":"city","state":"New York"},"type":"Feature","geometry":{"type":"Point","coordinates":[-74.005973,40.714269]}},{"properties":{"name":"World Hackers United","city":"Queens","status":"active","date of founding":"12/19/2009","geo_score":0.714,"website":"http:www.worldhackersunited.org","id":"a9clf4tbikbt","geo_precision":"city","state":"New York"},"type":"Feature","geometry":{"type":"Point","coordinates":[-78.215299,43.285058]}},{"properties":{"name":"Black Lodge","city":"Redmond","status":"active","date of founding":"9/1/2008","geo_score":0.714,"website":"http://www.blacklodgeresearch.org","id":"a9clf4s85g19","geo_precision":"city","state":"Washington"},"type":"Feature","geometry":{"type":"Point","coordinates":[-122.121034,47.678756]}},{"properties":{"name":"RoastellaLabs","city":"Roanoke/Salem","status":"active","date of founding":"4/29/2011","geo_score":0.0,"website":"http://groups.google.com/group/roastellalabs","id":"a9clf4zz1gv8","geo_precision":"unmatched","state":"Virginia"},"type":"Feature","geometry":null},{"properties":{"name":"TechShop San Francisco","city":"San Francisco","status":"active","date of founding":"2/19/2011","geo_score":0.714,"website":"http://www.techshop.ws","id":"a9clf56nfwgn","geo_precision":"city","state":"California"},"type":"Feature","geometry":{"type":"Point","coordinates":[-118.298662,33.786594]}},{"properties":{"name":"TX/RX Labs (Houston Hackerspace)","city":"Houston","status":"active","date of founding":"1/1/2009","geo_score":0.714,"website":"http://txrxlabs.org/","id":"a9clf4tfrek8","geo_precision":"city","state":"Texas"},"type":"Feature","geometry":{"type":"Point","coordinates":[-96.919704,29.845783]}},{"properties":{"name":"Metropolitan Hackerspaces / Tech Shops","city":"Atlanta","status":"active","date of founding":"10/1/2011","geo_score":0.714,"website":null,"id":"a9clf4scatcr","geo_precision":"city","state":"Georgia"},"type":"Feature","geometry":{"type":"Point","coordinates":[-84.47405,33.844371]}},{"properties":{"name":"23b Shop","city":"Fullerton","status":"active","date of founding":"5/1/2007","geo_score":0.714,"website":"http://shop.23b.org/","id":"a9clf53jodmg","geo_precision":"city","state":"California"},"type":"Feature","geometry":{"type":"Point","coordinates":[-117.925338,33.870292]}},{"properties":{"name":"OMNICORPDETROIT","city":"Detroit","status":"active","date of founding":"11/1/2010","geo_score":0.714,"website":"http://omnicorpdetroit.com","id":"a9clf4rv9jii","geo_precision":"city","state":"Michigan"},"type":"Feature","geometry":{"type":"Point","coordinates":[-83.150823,42.239933]}},{"properties":{"name":"Hackerspace Charlotte","city":"Charlotte","status":"active","date of founding":"10/6/2010","geo_score":0.714,"website":"http://www.hackerspacecharlotte.org/","id":"a9clf4y08uvh","geo_precision":"city","state":"North Carolina"},"type":"Feature","geometry":{"type":"Point","coordinates":[-80.804151,35.26002]}},{"properties":{"name":"All Hands Active!","city":"Ann Arbor","status":"active","date of founding":"9/10/2009","geo_score":0.714,"website":"http://www.allhandsactive.com/","id":"a9clf4u6xeol","geo_precision":"city","state":"Michigan"},"type":"Feature","geometry":{"type":"Point","coordinates":[-86.176715,42.96502]}},{"properties":{"name":"Laboratory B","city":"Burlington","status":"active","date of founding":"11/27/2010","geo_score":0.714,"website":"http://www.laboratoryb.org","id":"a9clf4yev4q4","geo_precision":"city","state":"Vermont"},"type":"Feature","geometry":{"type":"Point","coordinates":[-73.151384,44.507404]}},{"properties":{"name":"North Street Labs","city":"Portsmouth","status":"active","date of founding":"9/2/2010","geo_score":0.714,"website":"http://www.Northstreetlabs.org","id":"a9clf4zwuiqg","geo_precision":"city","state":"Virginia"},"type":"Feature","geometry":{"type":"Point","coordinates":[-76.367715,36.811498]}},{"properties":{"name":"Computer Club of Western Michigan University","city":"Kalamazoo","status":"active","date of founding":"10/1/1976","geo_score":0.714,"website":"http://yakko.cs.wmich.edu","id":"a9clf4xp7xcr","geo_precision":"city","state":"Michigan"},"type":"Feature","geometry":{"type":"Point","coordinates":[-85.510095,42.261596]}},{"properties":{"name":"REPLIK8TR","city":"Missoula","status":"active","date of founding":"3/30/2012","geo_score":0.714,"website":"http://www.replik8tr.com","id":"a9clf4w09ms4","geo_precision":"city","state":"Montana"},"type":"Feature","geometry":{"type":"Point","coordinates":[-113.909123,46.853606]}},{"properties":{"name":"Cowtown Computer Congress","city":"Kansas City","status":"active","date of founding":"3/15/2008","geo_score":0.714,"website":"http://c3kc.org/","id":"a9clf57u548b","geo_precision":"city","state":"Missouri"},"type":"Feature","geometry":{"type":"Point","coordinates":[-94.598583,39.102404]}},{"properties":{"name":"IEEE MTU","city":"Houghton","status":"active","date of founding":"3/4/2008","geo_score":0.714,"website":"http://ieee.students.mtu.edu/node","id":"a9clf4rlpv9x","geo_precision":"city","state":"Michigan"},"type":"Feature","geometry":{"type":"Point","coordinates":[-88.548157,47.105336]}},{"properties":{"name":"Founders","city":"Fort Wayne","status":"active","date of founding":"7/30/2012","geo_score":0.714,"website":"http://atfounders.com","id":"a9clf51ju550","geo_precision":"city","state":"Indiana"},"type":"Feature","geometry":{"type":"Point","coordinates":[-85.12886,41.130604]}},{"properties":{"name":"The Bourse, New Haven's Coworking Un-Office","city":"New Haven","status":"active","date of founding":null,"geo_score":0.714,"website":"http://www.boursenewhave.com/","id":"a9clf4vyqrtm","geo_precision":"city","state":"Connecticut"},"type":"Feature","geometry":{"type":"Point","coordinates":[-72.927507,41.365709]}},{"properties":{"name":"Maui Makers","city":"Haiku","status":"active","date of founding":null,"geo_score":0.714,"website":"http://www.mauimakers.com/blog/","id":"a9clf50s23u0","geo_precision":"city","state":"Hawaii"},"type":"Feature","geometry":{"type":"Point","coordinates":[-156.165622,20.849675]}},{"properties":{"name":"M.A.G. Lab","city":"Pomona","status":"active","date of founding":"12/2/2011","geo_score":0.714,"website":"http://maglaboratory.org/","id":"a9clf52lqlq3","geo_precision":"city","state":"California"},"type":"Feature","geometry":{"type":"Point","coordinates":[-118.298662,33.786594]}},{"properties":{"name":"Interlock Rochester","city":"Rochester","status":"active","date of founding":"10/11/2009","geo_score":0.714,"website":"http://www.interlockroc.org","id":"a9clf56brkk4","geo_precision":"city","state":"New York"},"type":"Feature","geometry":{"type":"Point","coordinates":[-77.684264,43.286024]}},{"properties":{"name":"Noisebridge","city":"San Francisco","status":"active","date of founding":"3/3/2007","geo_score":0.714,"website":"https://www.noisebridge.net/","id":"a9clf4vpuxwc","geo_precision":"city","state":"California"},"type":"Feature","geometry":{"type":"Point","coordinates":[-118.298662,33.786594]}},{"properties":{"name":"Area515","city":"Des Moines","status":"active","date of founding":"8/17/2011","geo_score":0.714,"website":"http://Area515.org","id":"a9clf4ub65ef","geo_precision":"city","state":"Iowa"},"type":"Feature","geometry":{"type":"Point","coordinates":[-93.572173,41.672687]}},{"properties":{"name":"InfluenSol Hackerspace","city":"Hempstead","status":"active","date of founding":"2/7/2011","geo_score":0.714,"website":"http://www.InfluenSol.com","id":"a9clf4w05fgi","geo_precision":"city","state":"New York"},"type":"Feature","geometry":{"type":"Point","coordinates":[-73.645129,40.696491]}},{"properties":{"name":"Buildmore Workshop","city":"Dublin","status":"active","date of founding":"1/1/2010","geo_score":0.714,"website":"http://www.buildmoreworkshop.com","id":"a9clf51txp5y","geo_precision":"city","state":"Ohio"},"type":"Feature","geometry":{"type":"Point","coordinates":[-83.011389,39.969036]}},{"properties":{"name":"SYN Shop","city":"Las Vegas","status":"active","date of founding":"7/1/2010","geo_score":0.714,"website":"http://synshop.org","id":"a9clf4wgdta0","geo_precision":"city","state":"Nevada"},"type":"Feature","geometry":{"type":"Point","coordinates":[-115.10647,36.17372]}},{"properties":{"name":"Columbus Idea Foundry","city":"Columbus","status":"active","date of founding":"2/21/2009","geo_score":0.714,"website":"http://www.ColumbusIdeaFoundry.com","id":"a9clf4slvpcm","geo_precision":"city","state":"Ohio"},"type":"Feature","geometry":{"type":"Point","coordinates":[-84.15053,40.97793]}},{"properties":{"name":"BuildMore Workshop","city":"Dublin","status":"active","date of founding":"1/1/2010","geo_score":0.714,"website":"http:www.BuildMoreWorkshop.com","id":"a9clf4vhapkj","geo_precision":"city","state":"Ohio"},"type":"Feature","geometry":{"type":"Point","coordinates":[-83.011389,39.969036]}},{"properties":{"name":"ReCode Hackspace","city":"Pendleton","status":"active","date of founding":"9/1/2010","geo_score":0.714,"website":"https://www.facebook.com/group.php?gid=114415871948346","id":"a9clf54voh7o","geo_precision":"city","state":"Oregon"},"type":"Feature","geometry":{"type":"Point","coordinates":[-118.637974,45.711814]}}],"is_temporal":false,"author":{"url":"","metadata":"","contact_name":"","contact_address":"","source":"","contact_phone":""},"source":"","pagination":{"sort":null,"start":0,"total":250,"limit":1000000},"state":"complete","tags":"hackerspace","published":"2014-08-14T20:08:26-04:00","id":284365}