{"type":"FeatureCollection","data_type":"Dataset","url_type":null,"permissions":[{"permissions":{"download":true,"view":true},"group_id":"everyone"}],"classification":null,"title":"Clio3 Geocommons Example","count":95,"stream_id":284506,"contributor":{"url":"http://geocommons.com/users/25572","name":"rungiraffe"},"data_attributes":null,"calculation_params":null,"icon_link":null,"link":"http://geocommons.com/overlays/284506.json","extent":[-77.108,38.8792,-76.9837,38.9587],"geometry_types":["point"],"unique_name":null,"name":"Clio3 Geocommons Example","feature_count":95,"description":"","next_feature":null,"is_raster":false,"short_classification":"Y","stats":{},"features":[{"properties":{"name":"Edward CROSSLAND of KY","city":"Washington","hotel":null,"geo_score":0.551,"street":"1013 E St. NW","id":"a9cwe614jj1x","geo_precision":"street","party":"Democrat","state":"DC"},"type":"Feature","geometry":{"type":"Point","coordinates":[-77.01217,38.907235]}},{"properties":{"name":"George Madison ADAMS of KY","city":"Washington","hotel":null,"geo_score":0.551,"street":"1013 E St. NW","id":"a9cwe6410xas","geo_precision":"street","party":"Democrat","state":"DC"},"type":"Feature","geometry":{"type":"Point","coordinates":[-77.01217,38.907235]}},{"properties":{"name":"Alonzo Jacob RANSIER of SC","city":"Washington","hotel":null,"geo_score":0.514,"street":"1017 12th St. NW","id":"a9cwe5r35yqa","geo_precision":"street","party":"Black Republican","state":"DC"},"type":"Feature","geometry":{"type":"Point","coordinates":[-77.028081,38.896132]}},{"properties":{"name":"Josiah Thomas WALLS of FL","city":"Washington","hotel":null,"geo_score":0.551,"street":"1019 F St. NW","id":"a9cwe65ligcg","geo_precision":"street","party":"Black Republican","state":"DC"},"type":"Feature","geometry":{"type":"Point","coordinates":[-77.021897,38.91776]}},{"properties":{"name":"William Henry STONE of MO","city":"Washington","hotel":null,"geo_score":0.551,"street":"1106 New York Ave. NW","id":"a9cwe5zg25vf","geo_precision":"street","party":"Democrat","state":"DC"},"type":"Feature","geometry":{"type":"Point","coordinates":[-77.01217,38.907235]}},{"properties":{"name":"Joseph Humphrey SLOSS of AL","city":"Washington","hotel":null,"geo_score":0.514,"street":"1118 10th St. NW","id":"a9cwe61de4qm","geo_precision":"street","party":"Democrat","state":"DC"},"type":"Feature","geometry":{"type":"Point","coordinates":[-77.026001,38.894444]}},{"properties":{"name":"Samuel Jackson RANDALL of PA","city":"Washington","hotel":null,"geo_score":0.551,"street":"120 C St. SE","id":"a9cwe5y7bu3w","geo_precision":"street","party":"Democrat","state":"DC"},"type":"Feature","geometry":{"type":"Point","coordinates":[-77.005887,38.902515]}},{"properties":{"name":"Hosea Washington PARKER of NH","city":"Washington","hotel":"Kirkwood House","geo_score":0.474,"street":"1201 Pennsylvania Ave. NW","id":"a9cwe60l6stn","geo_precision":"street","party":"Democrat","state":"DC"},"type":"Feature","geometry":{"type":"Point","coordinates":[-77.033645,38.897345]}},{"properties":{"name":"Robert Brown ELLIOTT of SC","city":"Washington","hotel":null,"geo_score":0.514,"street":"1208 16th St. NW","id":"a9cwe66qrk9d","geo_precision":"street","party":"Black Republican","state":"DC"},"type":"Feature","geometry":{"type":"Point","coordinates":[-77.036538,38.903739]}},{"properties":{"name":"Simeon Kalfius WOLFE of IN","city":"Washington","hotel":null,"geo_score":0.551,"street":"1222 G St. NW","id":"a9cwe5siztzx","geo_precision":"street","party":"Democrat","state":"DC"},"type":"Feature","geometry":{"type":"Point","coordinates":[-77.023967,38.899052]}},{"properties":{"name":"Asa Hoxie WILLIE of TX","city":"Washington","hotel":null,"geo_score":0.551,"street":"1303 F St.NW","id":"a9cwe61u888i","geo_precision":"street","party":"Democrat","state":"DC"},"type":"Feature","geometry":{"type":"Point","coordinates":[-77.021897,38.91776]}},{"properties":{"name":"John Morgan BRIGHT of TN","city":"Washington","hotel":null,"geo_score":0.551,"street":"1313 M St. NW","id":"a9cwe63xw9vt","geo_precision":"street","party":"Democrat","state":"DC"},"type":"Feature","geometry":{"type":"Point","coordinates":[-77.013966,38.905642]}},{"properties":{"name":"Lucius Quintus Cincinnatus LAMAR of MS","city":"Washington","hotel":null,"geo_score":0.551,"street":"1327 F St. NW","id":"a9cwe5xshjt8","geo_precision":"street","party":"Democrat","state":"DC"},"type":"Feature","geometry":{"type":"Point","coordinates":[-77.021897,38.91776]}},{"properties":{"name":"Charles West KENDALL of NV","city":"Washington","hotel":null,"geo_score":0.84,"street":"1328 Corcoran St.","id":"a9cwe60d9f2d","geo_precision":"range","party":"Democrat","state":"DC"},"type":"Feature","geometry":{"type":"Point","coordinates":[-77.031305,38.911792]}},{"properties":{"name":"Milton Jameson DURHAM of KY","city":"Washington","hotel":null,"geo_score":0.551,"street":"1331 G St. NW","id":"a9cwe6618cux","geo_precision":"street","party":"Democrat","state":"DC"},"type":"Feature","geometry":{"type":"Point","coordinates":[-77.023967,38.899052]}},{"properties":{"name":"William Brown READ of KY","city":"Washington","hotel":null,"geo_score":0.551,"street":"1336 I St. NW","id":"a9cwe63zu2g8","geo_precision":"street","party":"Democrat","state":"DC"},"type":"Feature","geometry":{"type":"Point","coordinates":[-77.012162,38.901319]}},{"properties":{"name":"David Miller DE WITT of NY","city":"Washington","hotel":null,"geo_score":0.551,"street":"1338 New York Ave. NW","id":"a9cwe66kvpjc","geo_precision":"street","party":"Democrat","state":"DC"},"type":"Feature","geometry":{"type":"Point","coordinates":[-77.01217,38.907235]}},{"properties":{"name":"Milton Isaiah SOUTHARD of OH","city":"Washington","hotel":"Ebbitt House","geo_score":0.902,"street":"1345 F St NW","id":"a9cwe62d4djf","geo_precision":"range","party":"Democrat","state":"DC"},"type":"Feature","geometry":{"type":"Point","coordinates":[-77.031048,38.897422]}},{"properties":{"name":"Abram COMINGO of MO","city":"Washington","hotel":"Willard's Hotel","geo_score":0.474,"street":"1401 Pennsylvania Ave. NW","id":"a9cwe6754h7q","geo_precision":"street","party":"Democrat","state":"DC"},"type":"Feature","geometry":{"type":"Point","coordinates":[-77.033645,38.897345]}},{"properties":{"name":"Alfred Moore WADDELL of NC","city":"Washington","hotel":"Willard's Hotel","geo_score":0.474,"street":"1401 Pennsylvania Ave. NW","id":"a9cwe5wzc6ij","geo_precision":"street","party":"Democrat","state":"DC"},"type":"Feature","geometry":{"type":"Point","coordinates":[-77.033645,38.897345]}},{"properties":{"name":"Charles Nelson LAMISON of OH","city":"Washington","hotel":"Willard's Hotel","geo_score":0.474,"street":"1401 Pennsylvania Ave. NW","id":"a9cwe5r9ggdf","geo_precision":"street","party":"Democrat","state":"DC"},"type":"Feature","geometry":{"type":"Point","coordinates":[-77.033645,38.897345]}},{"properties":{"name":"Elisha David STANDIFORD of KY","city":"Washington","hotel":"Willard's Hotel","geo_score":0.474,"street":"1401 Pennsylvania Ave. NW","id":"a9cwe5zp19ag","geo_precision":"street","party":"Democrat","state":"DC"},"type":"Feature","geometry":{"type":"Point","coordinates":[-77.033645,38.897345]}},{"properties":{"name":"Erastus WELLS of MO","city":"Washington","hotel":"Willard's Hotel","geo_score":0.474,"street":"1401 Pennsylvania Ave. NW","id":"a9cwe61e2ubi","geo_precision":"street","party":"Democrat","state":"DC"},"type":"Feature","geometry":{"type":"Point","coordinates":[-77.033645,38.897345]}},{"properties":{"name":"John King LUTTRELL of CA","city":"Washington","hotel":"Willard's Hotel","geo_score":0.474,"street":"1401 Pennsylvania Ave. NW","id":"a9cwe621xr8a","geo_precision":"street","party":"Democrat","state":"DC"},"type":"Feature","geometry":{"type":"Point","coordinates":[-77.033645,38.897345]}},{"properties":{"name":"John Osborne WHITEHOUSE of NY","city":"Washington","hotel":"Willard's Hotel","geo_score":0.474,"street":"1401 Pennsylvania Ave. NW","id":"a9cwe62bxm0g","geo_precision":"street","party":"Democrat","state":"DC"},"type":"Feature","geometry":{"type":"Point","coordinates":[-77.033645,38.897345]}},{"properties":{"name":"Morgan RAWLS of GA","city":"Washington","hotel":"Willard's Hotel","geo_score":0.474,"street":"1401 Pennsylvania Ave. NW","id":"a9cwe5rstzx6","geo_precision":"street","party":"Democrat","state":"DC"},"type":"Feature","geometry":{"type":"Point","coordinates":[-77.033645,38.897345]}},{"properties":{"name":"Richard Parks BLAND of MO","city":"Washington","hotel":"Willard's Hotel","geo_score":0.474,"street":"1401 Pennsylvania Ave. NW","id":"a9cwe637uel8","geo_precision":"street","party":"Democrat","state":"DC"},"type":"Feature","geometry":{"type":"Point","coordinates":[-77.033645,38.897345]}},{"properties":{"name":"Robert HAMILTON of NJ","city":"Washington","hotel":"Willard's Hotel","geo_score":0.474,"street":"1401 Pennsylvania Ave. NW","id":"a9cwe5urwwdk","geo_precision":"street","party":"Democrat","state":"DC"},"type":"Feature","geometry":{"type":"Point","coordinates":[-77.033645,38.897345]}},{"properties":{"name":"William Ralls MORRISON of IL","city":"Washington","hotel":"Willard's Hotel","geo_score":0.474,"street":"1401 Pennsylvania Ave. NW","id":"a9cwe65h3p4w","geo_precision":"street","party":"Democrat","state":"DC"},"type":"Feature","geometry":{"type":"Point","coordinates":[-77.033645,38.897345]}},{"properties":{"name":"William Randall ROBERTS of NY","city":"Washington","hotel":"Willard's Hotel","geo_score":0.474,"street":"1401 Pennsylvania Ave. NW","id":"a9cwe5yzpqu9","geo_precision":"street","party":"Democrat","state":"DC"},"type":"Feature","geometry":{"type":"Point","coordinates":[-77.033645,38.897345]}},{"properties":{"name":"Frank HEREFORD of WV","city":"Washington","hotel":null,"geo_score":0.551,"street":"1412 I St. NW","id":"a9cwe5wh6mqi","geo_precision":"street","party":"Democrat","state":"DC"},"type":"Feature","geometry":{"type":"Point","coordinates":[-77.012162,38.901319]}},{"properties":{"name":"John Roy LYNCH of MS","city":"Washington","hotel":null,"geo_score":0.551,"street":"1416 I St. NW","id":"a9cwe5whr2ki","geo_precision":"street","party":"Black Republican","state":"DC"},"type":"Feature","geometry":{"type":"Point","coordinates":[-77.012162,38.901319]}},{"properties":{"name":"Hiester CLYMER of PA","city":"Washington","hotel":null,"geo_score":0.474,"street":"1517 Pennsylvania Ave. NW","id":"a9cwe5wq4x2x","geo_precision":"street","party":"Democrat","state":"DC"},"type":"Feature","geometry":{"type":"Point","coordinates":[-77.033645,38.897345]}},{"properties":{"name":"John Montgomery GLOVER of MO","city":"Washington","hotel":null,"geo_score":0.524,"street":"160 4th St. NW","id":"a9cwe637uvyc","geo_precision":"street","party":"Democrat","state":"DC"},"type":"Feature","geometry":{"type":"Point","coordinates":[-77.016179,38.896132]}},{"properties":{"name":"James Thomas RAPIER of AL","city":"Washington","hotel":null,"geo_score":0.551,"street":"1619 K St. NW","id":"a9cwe66nakhb","geo_precision":"street","party":"Black Republican","state":"DC"},"type":"Feature","geometry":{"type":"Point","coordinates":[-77.023967,38.899052]}},{"properties":{"name":"Clarkson Nott POTTER of NY","city":"Washington","hotel":null,"geo_score":0.551,"street":"2009 I St.NW","id":"a9cwe6742a0t","geo_precision":"street","party":"Democrat","state":"DC"},"type":"Feature","geometry":{"type":"Point","coordinates":[-77.012162,38.901319]}},{"properties":{"name":"William McKendree ROBBINS of NC","city":"Washington","hotel":null,"geo_score":0.74,"street":"221 3rd St.","id":"a9cwe5z7wivr","geo_precision":"range","party":"Democrat","state":"DC"},"type":"Feature","geometry":{"type":"Point","coordinates":[-77.002115,38.886247]}},{"properties":{"name":"Thomas Montague GUNTER of AR","city":"Washington","hotel":null,"geo_score":0.524,"street":"224 3rd St. NW","id":"a9cwe65sys35","geo_precision":"street","party":"Democrat","state":"DC"},"type":"Feature","geometry":{"type":"Point","coordinates":[-77.0152,38.890634]}},{"properties":{"name":"Robert Anthony HATCHER of MO","city":"Washington","hotel":null,"geo_score":0.524,"street":"225 3rd St. NW","id":"a9cwe5uxwqkv","geo_precision":"street","party":"Democrat","state":"DC"},"type":"Feature","geometry":{"type":"Point","coordinates":[-77.0152,38.890634]}},{"properties":{"name":"Joseph Hayne RAINEY of SC","city":"Washington","hotel":null,"geo_score":0.524,"street":"24 3rd St. NE","id":"a9cwe60hlt53","geo_precision":"street","party":"Black Republican","state":"DC"},"type":"Feature","geometry":{"type":"Point","coordinates":[-77.002043,38.892547]}},{"properties":{"name":"William Evans ARTHUR of KY","city":"Washington","hotel":null,"geo_score":0.84,"street":"310 Indiana Ave.","id":"a9cwe5vl6gf1","geo_precision":"range","party":"Democrat","state":"DC"},"type":"Feature","geometry":{"type":"Point","coordinates":[-77.016097,38.894671]}},{"properties":{"name":"William Steele HOLMAN of IN","city":"Washington","hotel":null,"geo_score":0.495,"street":"314 Madison Dr. NW","id":"a9cwe60c6mop","geo_precision":"street","party":"Democrat","state":"DC"},"type":"Feature","geometry":{"type":"Point","coordinates":[-77.013421,38.958732]}},{"properties":{"name":"William Ellis NIBLACK of IN","city":"Washington","hotel":null,"geo_score":0.551,"street":"3207 O St. NW","id":"a9cwe5r3003n","geo_precision":"street","party":"Democrat","state":"DC"},"type":"Feature","geometry":{"type":"Point","coordinates":[-77.018937,38.907236]}},{"properties":{"name":"Rees Tate BOWEN of VA","city":"Washington","hotel":null,"geo_score":0.524,"street":"400 3rd St. NW","id":"a9cwe5sbjgi9","geo_precision":"street","party":"Democrat","state":"DC"},"type":"Feature","geometry":{"type":"Point","coordinates":[-77.0152,38.890634]}},{"properties":{"name":"John DeWitt Clinton ATKINS of TN","city":"Washington","hotel":null,"geo_score":0.514,"street":"409 12th St. NW","id":"a9cwe5tyrim6","geo_precision":"street","party":"Democrat","state":"DC"},"type":"Feature","geometry":{"type":"Point","coordinates":[-77.028081,38.896132]}},{"properties":{"name":"Washington Curran WHITTHORNE of TN","city":"Washington","hotel":null,"geo_score":0.514,"street":"409 12th St. NW","id":"a9cwe5wd5krh","geo_precision":"street","party":"Democrat","state":"DC"},"type":"Feature","geometry":{"type":"Point","coordinates":[-77.028081,38.896132]}},{"properties":{"name":"Eppa HUNTON of VA","city":"Washington","hotel":null,"geo_score":0.514,"street":"411 12th St. NW","id":"a9cwe5t15w2g","geo_precision":"street","party":"Democrat","state":"DC"},"type":"Feature","geometry":{"type":"Point","coordinates":[-77.028081,38.896132]}},{"properties":{"name":"James Madison LEACH of NC","city":"Washington","hotel":null,"geo_score":0.514,"street":"421 11th St. NW","id":"a9cwe5sptdga","geo_precision":"street","party":"Democrat","state":"DC"},"type":"Feature","geometry":{"type":"Point","coordinates":[-77.027034,38.898316]}},{"properties":{"name":"Henry Richard HARRIS of GA","city":"Washington","hotel":null,"geo_score":0.524,"street":"511 4th St. NW","id":"a9cwe62lx05f","geo_precision":"street","party":"Democrat","state":"DC"},"type":"Feature","geometry":{"type":"Point","coordinates":[-77.016179,38.896132]}},{"properties":{"name":"Hiram Parks BELL of GA","city":"Washington","hotel":null,"geo_score":0.524,"street":"511 4th St. NW","id":"a9cwe65yh3hb","geo_precision":"street","party":"Democrat","state":"DC"},"type":"Feature","geometry":{"type":"Point","coordinates":[-77.016179,38.896132]}},{"properties":{"name":"John Brutzman STORM of PA","city":"Washington","hotel":null,"geo_score":0.514,"street":"515 12th St. NW","id":"a9cwe61wr8xv","geo_precision":"street","party":"Democrat","state":"DC"},"type":"Feature","geometry":{"type":"Point","coordinates":[-77.028081,38.896132]}},{"properties":{"name":"Alexander Hamilton STEPHENS of GA","city":"Washington","hotel":"National Hotel","geo_score":0.474,"street":"600 Pennsylvania Ave. NW","id":"a9cwe5y9isx8","geo_precision":"street","party":"Democrat","state":"DC"},"type":"Feature","geometry":{"type":"Point","coordinates":[-77.033645,38.897345]}},{"properties":{"name":"Alexander Mathews DAVIS of VA","city":"Washington","hotel":"National Hotel","geo_score":0.474,"street":"600 Pennsylvania Ave. NW","id":"a9cwe5vbygcg","geo_precision":"street","party":"Democrat","state":"DC"},"type":"Feature","geometry":{"type":"Point","coordinates":[-77.033645,38.897345]}},{"properties":{"name":"John Alexander MAGEE of PA","city":"Washington","hotel":"National Hotel","geo_score":0.474,"street":"600 Pennsylvania Ave. NW","id":"a9cwe616nfd7","geo_precision":"street","party":"Democrat","state":"DC"},"type":"Feature","geometry":{"type":"Point","coordinates":[-77.033645,38.897345]}},{"properties":{"name":"John HANCOCK of TX","city":"Washington","hotel":"National Hotel","geo_score":0.474,"street":"600 Pennsylvania Ave. NW","id":"a9cwe663x327","geo_precision":"street","party":"Democrat","state":"DC"},"type":"Feature","geometry":{"type":"Point","coordinates":[-77.033645,38.897345]}},{"properties":{"name":"John James DAVIS of WV","city":"Washington","hotel":"National Hotel","geo_score":0.474,"street":"600 Pennsylvania Ave. NW","id":"a9cwe5tpy41w","geo_precision":"street","party":"Democrat","state":"DC"},"type":"Feature","geometry":{"type":"Point","coordinates":[-77.033645,38.897345]}},{"properties":{"name":"Robert Milton SPEER of PA","city":"Washington","hotel":"National Hotel","geo_score":0.474,"street":"600 Pennsylvania Ave. NW","id":"a9cwe6757e6l","geo_precision":"street","party":"Democrat","state":"DC"},"type":"Feature","geometry":{"type":"Point","coordinates":[-77.033645,38.897345]}},{"properties":{"name":"James Carroll ROBINSON of IL","city":"Washington","hotel":"Metropolitan Hotel","geo_score":0.474,"street":"601 Pennsylvania Ave. NW","id":"a9cwe5ulu61u","geo_precision":"street","party":"Democrat","state":"DC"},"type":"Feature","geometry":{"type":"Point","coordinates":[-77.033645,38.897345]}},{"properties":{"name":"James Henderson BLOUNT of GA","city":"Washington","hotel":"Metropolitan Hotel","geo_score":0.474,"street":"601 Pennsylvania Ave. NW","id":"a9cwe5zfknwk","geo_precision":"street","party":"Democrat","state":"DC"},"type":"Feature","geometry":{"type":"Point","coordinates":[-77.033645,38.897345]}},{"properties":{"name":"John BERRY of OH","city":"Washington","hotel":"Metropolitan Hotel","geo_score":0.474,"street":"601 Pennsylvania Ave. NW","id":"a9cwe5y301mr","geo_precision":"street","party":"Democrat","state":"DC"},"type":"Feature","geometry":{"type":"Point","coordinates":[-77.033645,38.897345]}},{"properties":{"name":"John Duncan YOUNG of KY","city":"Washington","hotel":"Metropolitan Hotel","geo_score":0.474,"street":"601 Pennsylvania Ave. NW","id":"a9cwe5xzkdmw","geo_precision":"street","party":"Democrat","state":"DC"},"type":"Feature","geometry":{"type":"Point","coordinates":[-77.033645,38.897345]}},{"properties":{"name":"John Thomas HARRIS of VA","city":"Washington","hotel":"Metropolitan Hotel","geo_score":0.474,"street":"601 Pennsylvania Ave. NW","id":"a9cwe5t84lzv","geo_precision":"street","party":"Democrat","state":"DC"},"type":"Feature","geometry":{"type":"Point","coordinates":[-77.033645,38.897345]}},{"properties":{"name":"John Young BROWN of KY","city":"Washington","hotel":"Metropolitan Hotel","geo_score":0.474,"street":"601 Pennsylvania Ave. NW","id":"a9cwe5t402ik","geo_precision":"street","party":"Democrat","state":"DC"},"type":"Feature","geometry":{"type":"Point","coordinates":[-77.033645,38.897345]}},{"properties":{"name":"Philip COOK of GA","city":"Washington","hotel":"Metropolitan Hotel","geo_score":0.474,"street":"601 Pennsylvania Ave. NW","id":"a9cwe5rtbzgw","geo_precision":"street","party":"Democrat","state":"DC"},"type":"Feature","geometry":{"type":"Point","coordinates":[-77.033645,38.897345]}},{"properties":{"name":"Robert McCarty KNAPP of IL","city":"Washington","hotel":"Metropolitan Hotel","geo_score":0.474,"street":"601 Pennsylvania Ave. NW","id":"a9cwe648bdlz","geo_precision":"street","party":"Democrat","state":"DC"},"type":"Feature","geometry":{"type":"Point","coordinates":[-77.033645,38.897345]}},{"properties":{"name":"Samuel Scott MARSHALL of IL","city":"Washington","hotel":"Metropolitan Hotel","geo_score":0.474,"street":"601 Pennsylvania Ave. NW","id":"a9cwe60grc7t","geo_precision":"street","party":"Democrat","state":"DC"},"type":"Feature","geometry":{"type":"Point","coordinates":[-77.033645,38.897345]}},{"properties":{"name":"Thomas Samuel ASHE of NC","city":"Washington","hotel":"Metropolitan Hotel","geo_score":0.474,"street":"601 Pennsylvania Ave. NW","id":"a9cwe5ycjttq","geo_precision":"street","party":"Democrat","state":"DC"},"type":"Feature","geometry":{"type":"Point","coordinates":[-77.033645,38.897345]}},{"properties":{"name":"William Edward FINCK of OH","city":"Washington","hotel":"Metropolitan Hotel","geo_score":0.474,"street":"601 Pennsylvania Ave. NW","id":"a9cwe5xw7om2","geo_precision":"street","party":"Democrat","state":"DC"},"type":"Feature","geometry":{"type":"Point","coordinates":[-77.033645,38.897345]}},{"properties":{"name":"Charles Augustus ELDREDGE of WI","city":"Washington","hotel":null,"geo_score":0.514,"street":"607 13th St. NW","id":"a9cwe5xdn0lr","geo_precision":"street","party":"Democrat","state":"DC"},"type":"Feature","geometry":{"type":"Point","coordinates":[-77.029632,38.899808]}},{"properties":{"name":"Robert Brank VANCE of NC","city":"Washington","hotel":null,"geo_score":0.551,"street":"608 M St. NW","id":"a9cwe5ykuaqo","geo_precision":"street","party":"Democrat","state":"DC"},"type":"Feature","geometry":{"type":"Point","coordinates":[-77.013966,38.905642]}},{"properties":{"name":"Henry Blackstone BANNING of OH","city":"Washington","hotel":null,"geo_score":0.514,"street":"609 13th St. NW","id":"a9cwe5x4123q","geo_precision":"street","party":"Democrat","state":"DC"},"type":"Feature","geometry":{"type":"Point","coordinates":[-77.029632,38.899808]}},{"properties":{"name":"Lawrence Talbot NEAL of OH","city":"Washington","hotel":null,"geo_score":0.514,"street":"611 13th St. NW","id":"a9cwe5r4b078","geo_precision":"street","party":"Democrat","state":"DC"},"type":"Feature","geometry":{"type":"Point","coordinates":[-77.029632,38.899808]}},{"properties":{"name":"Richard Harvey CAIN of SC","city":"Washington","hotel":null,"geo_score":0.561,"street":"637 South Carolina Ave.","id":"a9cwe64una17","geo_precision":"street","party":"Black Republican","state":"DC"},"type":"Feature","geometry":{"type":"Point","coordinates":[-77.108009,38.927443]}},{"properties":{"name":"Aylett Hawes BUCKNER of MO","city":"Washington","hotel":null,"geo_score":0.514,"street":"716 13th St. NW","id":"a9cwe626ckfs","geo_precision":"street","party":"Democrat","state":"DC"},"type":"Feature","geometry":{"type":"Point","coordinates":[-77.029632,38.899808]}},{"properties":{"name":"John Bullock, Jr. CLARK of MO","city":"Washington","hotel":null,"geo_score":0.514,"street":"716 13th St. NW","id":"a9cwe65f7rbf","geo_precision":"street","party":"Democrat","state":"DC"},"type":"Feature","geometry":{"type":"Point","coordinates":[-77.029632,38.899808]}},{"properties":{"name":"Thomas Theodore CRITTENDEN of MO","city":"Washington","hotel":null,"geo_score":0.514,"street":"716 13th St. NW","id":"a9cwe61hrdwn","geo_precision":"street","party":"Democrat","state":"DC"},"type":"Feature","geometry":{"type":"Point","coordinates":[-77.029632,38.899808]}},{"properties":{"name":"Ephraim King WILSON of MD","city":"Washington","hotel":null,"geo_score":0.514,"street":"720 13th St. NW","id":"a9cwe5s1m7ra","geo_precision":"street","party":"Democrat","state":"DC"},"type":"Feature","geometry":{"type":"Point","coordinates":[-77.029632,38.899808]}},{"properties":{"name":"Stevenson ARCHER of MD","city":"Washington","hotel":null,"geo_score":0.514,"street":"720 13th St. NW","id":"a9cwe61kqn2b","geo_precision":"street","party":"Democrat","state":"DC"},"type":"Feature","geometry":{"type":"Point","coordinates":[-77.029632,38.899808]}},{"properties":{"name":"James Willis NESMITH of OR","city":"Washington","hotel":null,"geo_score":0.514,"street":"723 14th St. NW","id":"a9cwe61y77qi","geo_precision":"street","party":"Democrat","state":"DC"},"type":"Feature","geometry":{"type":"Point","coordinates":[-77.031962,38.88951]}},{"properties":{"name":"Alexander MITCHELL of WI","city":"Washington","hotel":"Wormley's Hotel","geo_score":0.844,"street":"809 15th St NW","id":"a9cwe62o2qz0","geo_precision":"range","party":"Democrat","state":"DC"},"type":"Feature","geometry":{"type":"Point","coordinates":[-77.033568,38.90069]}},{"properties":{"name":"Hugh Judge JEWETT of OH","city":"Washington","hotel":"Wormley's Hotel","geo_score":0.844,"street":"809 15th St NW","id":"a9cwe65uzen0","geo_precision":"range","party":"Democrat","state":"DC"},"type":"Feature","geometry":{"type":"Point","coordinates":[-77.033568,38.90069]}},{"properties":{"name":"Eli PERRY of NY","city":"Washington","hotel":"The Arlington","geo_score":0.49,"street":"810 Vermont Ave. NW","id":"a9cwe608keu6","geo_precision":"street","party":"Democrat","state":"DC"},"type":"Feature","geometry":{"type":"Point","coordinates":[-77.027039,38.924765]}},{"properties":{"name":"John Godfrey SCHUMAKER of NY","city":"Washington","hotel":"The Arlington","geo_score":0.49,"street":"810 Vermont Ave. NW","id":"a9cwe67lkk4v","geo_precision":"street","party":"Democrat","state":"DC"},"type":"Feature","geometry":{"type":"Point","coordinates":[-77.027039,38.924765]}},{"properties":{"name":"Milton SAYLER of OH","city":"Washington","hotel":"The Arlington","geo_score":0.49,"street":"810 Vermont Ave. NW","id":"a9cwe62qy31n","geo_precision":"street","party":"Democrat","state":"DC"},"type":"Feature","geometry":{"type":"Point","coordinates":[-77.027039,38.924765]}},{"properties":{"name":"Pierce Manning Butler YOUNG of GA","city":"Washington","hotel":"The Arlington","geo_score":0.49,"street":"810 Vermont Ave. NW","id":"a9cwe5t6kbpv","geo_precision":"street","party":"Democrat","state":"DC"},"type":"Feature","geometry":{"type":"Point","coordinates":[-77.027039,38.924765]}},{"properties":{"name":"Samuel Sullivan COX of OH","city":"Washington","hotel":"The Arlington","geo_score":0.49,"street":"810 Vermont Ave. NW","id":"a9cwe6227fi4","geo_precision":"street","party":"Democrat","state":"DC"},"type":"Feature","geometry":{"type":"Point","coordinates":[-77.027039,38.924765]}},{"properties":{"name":"Thomas James CREAMER of NY","city":"Washington","hotel":"The Arlington","geo_score":0.49,"street":"810 Vermont Ave. NW","id":"a9cwe63x0m4i","geo_precision":"street","party":"Democrat","state":"DC"},"type":"Feature","geometry":{"type":"Point","coordinates":[-77.027039,38.924765]}},{"properties":{"name":"William Henry BARNUM of CT","city":"Washington","hotel":"The Arlington","geo_score":0.49,"street":"810 Vermont Ave. NW","id":"a9cwe5t2ekfy","geo_precision":"street","party":"Democrat","state":"DC"},"type":"Feature","geometry":{"type":"Point","coordinates":[-77.027039,38.924765]}},{"properties":{"name":"John Henry CALDWELL of AL","city":"Washington","hotel":null,"geo_score":0.551,"street":"813 K St. NW","id":"a9cwe5rqc0kq","geo_precision":"street","party":"Democrat","state":"DC"},"type":"Feature","geometry":{"type":"Point","coordinates":[-77.023967,38.899052]}},{"properties":{"name":"Thomas SWANN of MD","city":"Washington","hotel":null,"geo_score":0.756,"street":"823 15th St.","id":"a9cwe5s1fn2g","geo_precision":"range","party":"Democrat","state":"DC"},"type":"Feature","geometry":{"type":"Point","coordinates":[-76.983738,38.879203]}},{"properties":{"name":"James Burnie BECK of KY","city":"Washington","hotel":null,"geo_score":0.49,"street":"823 Vermont Ave. NW","id":"a9cwe5wr402y","geo_precision":"street","party":"Democrat","state":"DC"},"type":"Feature","geometry":{"type":"Point","coordinates":[-77.027039,38.924765]}},{"properties":{"name":"Fernando WOOD of NY","city":"Washington","hotel":null,"geo_score":0.514,"street":"825 15th St. NW","id":"a9cwe5zh7z79","geo_precision":"street","party":"Democrat","state":"DC"},"type":"Feature","geometry":{"type":"Point","coordinates":[-77.033759,38.889652]}},{"properties":{"name":"De Witt Clinton GIDDINGS of TX","city":"Washington","hotel":null,"geo_score":0.551,"street":"922 E St. NW","id":"a9cwe67jwcyd","geo_precision":"street","party":"Democrat","state":"DC"},"type":"Feature","geometry":{"type":"Point","coordinates":[-77.01217,38.907235]}},{"properties":{"name":"William Pinkney McLEAN of TX","city":"Washington","hotel":null,"geo_score":0.551,"street":"936 E St. NW","id":"a9cwe65qxq1k","geo_precision":"street","party":"Democrat","state":"DC"},"type":"Feature","geometry":{"type":"Point","coordinates":[-77.01217,38.907235]}},{"properties":{"name":"William Smith HERNDON of TX","city":"Washington","hotel":null,"geo_score":0.551,"street":"938 E St. NW","id":"a9cwe5xlyc3u","geo_precision":"street","party":"Democrat","state":"DC"},"type":"Feature","geometry":{"type":"Point","coordinates":[-77.01217,38.907235]}}],"is_temporal":false,"author":{"url":"","metadata":"","contact_name":"","contact_address":"","source":"","contact_phone":""},"source":"","pagination":{"sort":null,"start":0,"total":95,"limit":1000000},"state":"complete","tags":"","published":"2014-08-14T20:19:28-04:00","id":284506}