{"type":"FeatureCollection","data_type":"Dataset","url_type":null,"permissions":[{"permissions":{"download":true,"view":true},"group_id":"everyone"}],"classification":null,"title":"no plan","count":35,"stream_id":285943,"contributor":{"url":"http://geocommons.com/users/39546","name":"annpham"},"data_attributes":null,"calculation_params":null,"icon_link":null,"link":"http://geocommons.com/overlays/285943.json","extent":[-119.731,31.9701,-102.525,42.8599],"geometry_types":["point"],"unique_name":null,"name":"no plan","feature_count":35,"description":"","next_feature":null,"is_raster":false,"short_classification":"Y","stats":{"pop":{"max":324655,"variance":4884502036.55798,"mean":114724.028571429,"stdev":69889.212590771,"min":53569,"median":92625}},"features":[{"properties":{"city":"Arivaca","geo_score":0.714,"pop":59253,"id":"a9i04mxojaqu","geo_precision":"city","state":"AZ"},"type":"Feature","geometry":{"type":"Point","coordinates":[-111.890713,31.970131]}},{"properties":{"city":"Arvada","geo_score":0.714,"pop":108172,"id":"a9i04mmckp8a","geo_precision":"city","state":"CO"},"type":"Feature","geometry":{"type":"Point","coordinates":[-105.223945,39.522014]}},{"properties":{"city":"Aurora","geo_score":0.714,"pop":324655,"id":"a9i04mwoz2zp","geo_precision":"city","state":"CO"},"type":"Feature","geometry":{"type":"Point","coordinates":[-104.84748,39.715287]}},{"properties":{"city":"Carson City","geo_score":0.714,"pop":55176,"id":"a9i04mqazvco","geo_precision":"city","state":"NV"},"type":"Feature","geometry":{"type":"Point","coordinates":[-119.73074,39.154485]}},{"properties":{"city":"Casper","geo_score":0.714,"pop":53569,"id":"a9i04mvx13kb","geo_precision":"city","state":"WY"},"type":"Feature","geometry":{"type":"Point","coordinates":[-106.312561,42.859875]}},{"properties":{"city":"Cheyenne","geo_score":0.714,"pop":56460,"id":"a9i04mnsakik","geo_precision":"city","state":"WY"},"type":"Feature","geometry":{"type":"Point","coordinates":[-104.56264,41.25173]}},{"properties":{"city":"Goodyear","geo_score":0.714,"pop":66308,"id":"a9i04mx25273","geo_precision":"city","state":"AZ"},"type":"Feature","geometry":{"type":"Point","coordinates":[-112.18717,33.276539]}},{"properties":{"city":"Grand Junction","geo_score":0.714,"pop":58444,"id":"a9i04mv2oza0","geo_precision":"city","state":"CO"},"type":"Feature","geometry":{"type":"Point","coordinates":[-106.256615,39.030747]}},{"properties":{"city":"Greeley","geo_score":0.714,"pop":92625,"id":"a9i04mmmq0pw","geo_precision":"city","state":"CO"},"type":"Feature","geometry":{"type":"Point","coordinates":[-104.680631,40.384991]}},{"properties":{"city":"Lake Havasu City","geo_score":0.714,"pop":55657,"id":"a9i04mm91ujc","geo_precision":"city","state":"AZ"},"type":"Feature","geometry":{"type":"Point","coordinates":[-114.310294,34.500556]}},{"properties":{"city":"Lakewood","geo_score":0.714,"pop":141943,"id":"a9i04msa389a","geo_precision":"city","state":"CO"},"type":"Feature","geometry":{"type":"Point","coordinates":[-105.081373,39.70471]}},{"properties":{"city":"Layton","geo_score":0.714,"pop":66746,"id":"a9i04mpyps6y","geo_precision":"city","state":"UT"},"type":"Feature","geometry":{"type":"Point","coordinates":[-109.920982,40.389124]}},{"properties":{"city":"Loveland","geo_score":0.714,"pop":66215,"id":"a9i04milc9jc","geo_precision":"city","state":"CO"},"type":"Feature","geometry":{"type":"Point","coordinates":[-105.464163,40.389706]}},{"properties":{"city":"Ogden","geo_score":0.714,"pop":83296,"id":"a9i04mrpdqyf","geo_precision":"city","state":"UT"},"type":"Feature","geometry":{"type":"Point","coordinates":[-112.007924,41.244261]}},{"properties":{"city":"Orem","geo_score":0.714,"pop":95248,"id":"a9i04mtnbgcf","geo_precision":"city","state":"UT"},"type":"Feature","geometry":{"type":"Point","coordinates":[-111.72496,40.311353]}},{"properties":{"city":"Paradise","geo_score":0.714,"pop":245530,"id":"a9i04miotc7c","geo_precision":"city","state":"NV"},"type":"Feature","geometry":{"type":"Point","coordinates":[-115.136386,36.080358]}},{"properties":{"city":"Peoria","geo_score":0.714,"pop":162740,"id":"a9i04mtjsplq","geo_precision":"city","state":"AZ"},"type":"Feature","geometry":{"type":"Point","coordinates":[-112.18717,33.276539]}},{"properties":{"city":"Provo","geo_score":0.714,"pop":119775,"id":"a9i04misyv9w","geo_precision":"city","state":"UT"},"type":"Feature","geometry":{"type":"Point","coordinates":[-111.695558,40.235053]}},{"properties":{"city":"Pueblo","geo_score":0.714,"pop":104877,"id":"a9i04mkg5tau","geo_precision":"city","state":"CO"},"type":"Feature","geometry":{"type":"Point","coordinates":[-104.427776,38.344117]}},{"properties":{"city":"Rio Rancho","geo_score":0.714,"pop":82574,"id":"a9i04mj3sac0","geo_precision":"city","state":"NM"},"type":"Feature","geometry":{"type":"Point","coordinates":[-104.195805,35.93873]}},{"properties":{"city":"Sandy","geo_score":0.714,"pop":97177,"id":"a9i04mpkhj19","geo_precision":"city","state":"UT"},"type":"Feature","geometry":{"type":"Point","coordinates":[-111.859504,40.578597]}},{"properties":{"city":"South Jordan","geo_score":0.714,"pop":54631,"id":"a9i04mqidc6c","geo_precision":"city","state":"UT"},"type":"Feature","geometry":{"type":"Point","coordinates":[-111.929658,40.56217]}},{"properties":{"city":"Southwest Arapahoe","geo_score":0.714,"pop":201720,"id":"a9i04mrsnbws","geo_precision":"city","state":"CO"},"type":"Feature","geometry":{"type":"Point","coordinates":[-102.524932,38.847485]}},{"properties":{"city":"Sparks","geo_score":0.714,"pop":89346,"id":"a9i04muvjav6","geo_precision":"city","state":"NV"},"type":"Feature","geometry":{"type":"Point","coordinates":[-119.640601,40.039169]}},{"properties":{"city":"Spring Valley","geo_score":0.714,"pop":154903,"id":"a9i04mvg22ua","geo_precision":"city","state":"NV"},"type":"Feature","geometry":{"type":"Point","coordinates":[-115.585895,40.726593]}},{"properties":{"city":"St. George","geo_score":0.0,"pop":72555,"id":"a9i04mjuqay7","geo_precision":"unmatched","state":"UT"},"type":"Feature","geometry":null},{"properties":{"city":"Sunrise Manor","geo_score":0.714,"pop":206009,"id":"a9i04mn4ri48","geo_precision":"city","state":"NV"},"type":"Feature","geometry":{"type":"Point","coordinates":[-115.073056,36.211082]}},{"properties":{"city":"Surprise","geo_score":0.714,"pop":94899,"id":"a9i04mv7nved","geo_precision":"city","state":"AZ"},"type":"Feature","geometry":{"type":"Point","coordinates":[-112.18717,33.276539]}},{"properties":{"city":"Taylorsville","geo_score":0.714,"pop":59102,"id":"a9i04mtauxf8","geo_precision":"city","state":"UT"},"type":"Feature","geometry":{"type":"Point","coordinates":[-111.938826,40.667725]}},{"properties":{"city":"Tempe","geo_score":0.714,"pop":174255,"id":"a9i04ml6o0h8","geo_precision":"city","state":"AZ"},"type":"Feature","geometry":{"type":"Point","coordinates":[-111.931298,33.401395]}},{"properties":{"city":"West Adams","geo_score":0.0,"pop":310409,"id":"a9i04migd8ig","geo_precision":"unmatched","state":"CO"},"type":"Feature","geometry":null},{"properties":{"city":"West Jordan","geo_score":0.714,"pop":76024,"id":"a9i04mhnqoc8","geo_precision":"city","state":"UT"},"type":"Feature","geometry":{"type":"Point","coordinates":[-111.978898,40.606125]}},{"properties":{"city":"West Valley City","geo_score":0.714,"pop":125093,"id":"a9i04mqpbxx1","geo_precision":"city","state":"UT"},"type":"Feature","geometry":{"type":"Point","coordinates":[-112.00105,40.691613]}},{"properties":{"city":"Westminster","geo_score":0.714,"pop":108850,"id":"a9i04mjre2ol","geo_precision":"city","state":"CO"},"type":"Feature","geometry":{"type":"Point","coordinates":[-105.034487,39.872535]}},{"properties":{"city":"Yuma","geo_score":0.714,"pop":91105,"id":"a9i04mx8mge8","geo_precision":"city","state":"AZ"},"type":"Feature","geometry":{"type":"Point","coordinates":[-114.648722,32.615305]}}],"is_temporal":false,"author":{"url":"","metadata":"","contact_name":"","contact_address":"","source":"","contact_phone":""},"source":"","pagination":{"sort":null,"start":0,"total":35,"limit":1000000},"state":"complete","tags":"","published":"2014-08-14T22:40:28-04:00","id":285943}