{"type":"FeatureCollection","data_type":"Dataset","url_type":null,"permissions":[{"permissions":{"download":true,"view":true},"group_id":"everyone"}],"classification":null,"title":"BOOM Campus Map","count":61,"stream_id":286587,"contributor":{"url":"http://geocommons.com/users/54214","name":"boommovement"},"data_attributes":null,"calculation_params":null,"icon_link":null,"link":"http://geocommons.com/overlays/286587.json","extent":[-122.254,25.7619,-68.6334,46.8387],"geometry_types":["point"],"unique_name":null,"name":"BOOM Campus Map","feature_count":61,"description":"","next_feature":null,"is_raster":false,"short_classification":"Y","stats":{},"features":[{"properties":{"zip":"85281","geo_score":0.714,"college":"Arizona State University","id":"a9jm9f43k19r","geo_precision":"zip"},"type":"Feature","geometry":{"type":"Point","coordinates":[-111.927219,33.432844]}},{"properties":{"zip":"2215","geo_score":0.714,"college":"Boston University","id":"a9jm9f8y1lmu","geo_precision":"zip"},"type":"Feature","geometry":{"type":"Point","coordinates":[-71.107653,42.345079]}},{"properties":{"zip":"14222","geo_score":0.714,"college":"Buffalo State","id":"a9jm9f5d2wxv","geo_precision":"zip"},"type":"Feature","geometry":{"type":"Point","coordinates":[-78.875007,42.918207]}},{"properties":{"zip":"92096","geo_score":0.714,"college":"California  State University  San Marcos","id":"a9jm9f6adcty","geo_precision":"zip"},"type":"Feature","geometry":{"type":"Point","coordinates":[-116.846046,33.016928]}},{"properties":{"zip":"92831","geo_score":0.714,"college":"California State University Fullerton","id":"a9jm9f294cff","geo_precision":"zip"},"type":"Feature","geometry":{"type":"Point","coordinates":[-117.769442,33.640302]}},{"properties":{"zip":"90840","geo_score":0.714,"college":"California State University Long Beach","id":"a9jm9f8bgb1f","geo_precision":"zip"},"type":"Feature","geometry":{"type":"Point","coordinates":[-118.115698,33.784266]}},{"properties":{"zip":"80903","geo_score":0.714,"college":"Colorado College","id":"a9jm9fgvgfdv","geo_precision":"zip"},"type":"Feature","geometry":{"type":"Point","coordinates":[-104.809929,38.828893]}},{"properties":{"zip":"80309","geo_score":0.714,"college":"Colorado University at Boulder","id":"a9jm9fd29qsy","geo_precision":"zip"},"type":"Feature","geometry":{"type":"Point","coordinates":[-105.373507,40.087835]}},{"properties":{"zip":"19104","geo_score":0.714,"college":"Drexel University","id":"a9jm9f30ojr3","geo_precision":"zip"},"type":"Feature","geometry":{"type":"Point","coordinates":[-75.19668,39.960912]}},{"properties":{"zip":"27710","geo_score":0.714,"college":"Duke University","id":"a9jm9fbg1u8d","geo_precision":"zip"},"type":"Feature","geometry":{"type":"Point","coordinates":[-78.857651,36.051155]}},{"properties":{"zip":"27858","geo_score":0.714,"college":"East Carolina University","id":"a9jm9f2gcc10","geo_precision":"zip"},"type":"Feature","geometry":{"type":"Point","coordinates":[-77.402789,35.616949]}},{"properties":{"zip":"33174","geo_score":0.714,"college":"Florida International University","id":"a9jm9fbqf82z","geo_precision":"zip"},"type":"Feature","geometry":{"type":"Point","coordinates":[-80.360479,25.761868]}},{"properties":{"zip":"32306","geo_score":0.714,"college":"Florida State University","id":"a9jm9fgd7ue2","geo_precision":"zip"},"type":"Feature","geometry":{"type":"Point","coordinates":[-84.29855,30.442499]}},{"properties":{"zip":"32611","geo_score":0.714,"college":"Gainesville State","id":"a9jm9f862eqt","geo_precision":"zip"},"type":"Feature","geometry":{"type":"Point","coordinates":[-82.353862,29.681312]}},{"properties":{"zip":"30303","geo_score":0.714,"college":"Georgia State University","id":"a9jm9ffbjayq","geo_precision":"zip"},"type":"Feature","geometry":{"type":"Point","coordinates":[-84.392026,33.752456]}},{"properties":{"zip":"20059","geo_score":0.714,"college":"Howard University","id":"a9jm9fe23zso","geo_precision":"zip"},"type":"Feature","geometry":{"type":"Point","coordinates":[-77.014647,38.893311]}},{"properties":{"zip":"61761","geo_score":0.714,"college":"Illinois State University","id":"a9jm9f69vumb","geo_precision":"zip"},"type":"Feature","geometry":{"type":"Point","coordinates":[-88.7989,40.530375]}},{"properties":{"zip":"70803","geo_score":0.714,"college":"Louisiana State University","id":"a9jm9f5wa2jh","geo_precision":"zip"},"type":"Feature","geometry":{"type":"Point","coordinates":[-91.186834,30.405002]}},{"properties":{"zip":"25755","geo_score":0.714,"college":"Marshall University","id":"a9jm9fadi97d","geo_precision":"zip"},"type":"Feature","geometry":{"type":"Point","coordinates":[-82.431667,38.422115]}},{"properties":{"zip":"48824","geo_score":0.714,"college":"Michigan State University","id":"a9jm9fcat1mt","geo_precision":"zip"},"type":"Feature","geometry":{"type":"Point","coordinates":[-84.488226,42.728334]}},{"properties":{"zip":"10012","geo_score":0.714,"college":"New York University","id":"a9jm9fgynxgd","geo_precision":"zip"},"type":"Feature","geometry":{"type":"Point","coordinates":[-73.991582,40.729124]}},{"properties":{"zip":"02115","geo_score":0.714,"college":"Northeastern University","id":"a9jm9ff3d7s9","geo_precision":"zip"},"type":"Feature","geometry":{"type":"Point","coordinates":[-71.096848,42.342043]}},{"properties":{"zip":"92121","geo_score":0.714,"college":"Old Dominion University","id":"a9jm9f1qng0w","geo_precision":"zip"},"type":"Feature","geometry":{"type":"Point","coordinates":[-117.207828,32.90391]}},{"properties":{"zip":"16802","geo_score":0.714,"college":"Pennsylvania  State University","id":"a9jm9fd7wu60","geo_precision":"zip"},"type":"Feature","geometry":{"type":"Point","coordinates":[-77.862339,40.799672]}},{"properties":{"zip":"08542","geo_score":0.714,"college":"Princeton","id":"a9jm9fduivl9","geo_precision":"zip"},"type":"Feature","geometry":{"type":"Point","coordinates":[-74.658852,40.350456]}},{"properties":{"zip":"12222","geo_score":0.714,"college":"S.U.N.Y. AT ALBANY","id":"a9jm9fa3lqlz","geo_precision":"zip"},"type":"Feature","geometry":{"type":"Point","coordinates":[-73.838035,42.692909]}},{"properties":{"zip":"92182","geo_score":0.714,"college":"San Diego State University","id":"a9jm9f72uhsg","geo_precision":"zip"},"type":"Feature","geometry":{"type":"Point","coordinates":[-117.076176,32.775088]}},{"properties":{"zip":"77840","geo_score":0.714,"college":"Texas A&amp;M","id":"a9jm9fhfzz1z","geo_precision":"zip"},"type":"Feature","geometry":{"type":"Point","coordinates":[-96.289328,30.582241]}},{"properties":{"zip":"76129","geo_score":0.714,"college":"Texas Christian University","id":"a9jm9fgypdp4","geo_precision":"zip"},"type":"Feature","geometry":{"type":"Point","coordinates":[-97.291484,32.771419]}},{"properties":{"zip":"78666","geo_score":0.714,"college":"Texas State University","id":"a9jm9f3tc6a1","geo_precision":"zip"},"type":"Feature","geometry":{"type":"Point","coordinates":[-97.911393,29.810222]}},{"properties":{"zip":"32603","geo_score":0.714,"college":"University  of Florida","id":"a9jm9fbnyepl","geo_precision":"zip"},"type":"Feature","geometry":{"type":"Point","coordinates":[-82.353874,29.718807]}},{"properties":{"zip":"85721","geo_score":0.714,"college":"University of  Arizona","id":"a9jm9f1vij2n","geo_precision":"zip"},"type":"Feature","geometry":{"type":"Point","coordinates":[-110.949996,32.233761]}},{"properties":{"zip":"22904","geo_score":0.714,"college":"University of  Virginia","id":"a9jm9fc7v1k7","geo_precision":"zip"},"type":"Feature","geometry":{"type":"Point","coordinates":[-78.485066,38.040101]}},{"properties":{"zip":"94720","geo_score":0.714,"college":"University of California Berkley","id":"a9jm9f775o4p","geo_precision":"zip"},"type":"Feature","geometry":{"type":"Point","coordinates":[-122.253582,37.866825]}},{"properties":{"zip":"90024","geo_score":0.714,"college":"University of California Los Angeles","id":"a9jm9fevur55","geo_precision":"zip"},"type":"Feature","geometry":{"type":"Point","coordinates":[-118.298662,33.786594]}},{"properties":{"zip":"92521","geo_score":0.714,"college":"University of California Riverside","id":"a9jm9f2akg2v","geo_precision":"zip"},"type":"Feature","geometry":{"type":"Point","coordinates":[-116.055617,33.752886]}},{"properties":{"zip":"92093","geo_score":0.714,"college":"University of California San Diego","id":"a9jm9fdawbf4","geo_precision":"zip"},"type":"Feature","geometry":{"type":"Point","coordinates":[-116.846046,33.016928]}},{"properties":{"zip":"93106","geo_score":0.714,"college":"University of California Santa Barbara","id":"a9jm9fa07snc","geo_precision":"zip"},"type":"Feature","geometry":{"type":"Point","coordinates":[-119.837072,34.432896]}},{"properties":{"zip":"95060","geo_score":0.714,"college":"University of California Santa Cruz","id":"a9jm9fb89q0m","geo_precision":"zip"},"type":"Feature","geometry":{"type":"Point","coordinates":[-122.111126,37.052748]}},{"properties":{"zip":"32816","geo_score":0.714,"college":"University of Central Florida","id":"a9jm9fb670gj","geo_precision":"zip"},"type":"Feature","geometry":{"type":"Point","coordinates":[-81.260818,28.566338]}},{"properties":{"zip":"06269","geo_score":0.0,"college":"University of Connecticut","id":"a9jm9f9gxtyh","geo_precision":"unmatched"},"type":"Feature","geometry":null},{"properties":{"zip":"19716","geo_score":0.714,"college":"University of Delaware","id":"a9jm9f61avfq","geo_precision":"zip"},"type":"Feature","geometry":{"type":"Point","coordinates":[-75.597047,39.564499]}},{"properties":{"zip":"77004","geo_score":0.714,"college":"University of Houston","id":"a9jm9fi2i4ps","geo_precision":"zip"},"type":"Feature","geometry":{"type":"Point","coordinates":[-95.434241,29.83399]}},{"properties":{"zip":"66044","geo_score":0.714,"college":"University of Kansas","id":"a9jm9fbsxa9f","geo_precision":"zip"},"type":"Feature","geometry":{"type":"Point","coordinates":[-95.390531,38.91167]}},{"properties":{"zip":"04469","geo_score":0.714,"college":"University of Maine","id":"a9jm9f8jnzcp","geo_precision":"zip"},"type":"Feature","geometry":{"type":"Point","coordinates":[-68.63343,45.002798]}},{"properties":{"zip":"21201","geo_score":0.714,"college":"University of Maryland","id":"a9jm9f24ej7f","geo_precision":"zip"},"type":"Feature","geometry":{"type":"Point","coordinates":[-76.623489,39.296536]}},{"properties":{"zip":"48105","geo_score":0.714,"college":"University of Michigan","id":"a9jm9fad9iob","geo_precision":"zip"},"type":"Feature","geometry":{"type":"Point","coordinates":[-83.65605,42.31226]}},{"properties":{"zip":"55455","geo_score":0.714,"college":"University of Minnesota","id":"a9jm9ffqaheh","geo_precision":"zip"},"type":"Feature","geometry":{"type":"Point","coordinates":[-93.298376,45.038364]}},{"properties":{"zip":null,"geo_score":0.0,"college":"University of Minnesota","id":"a9jm9ffksca6","geo_precision":""},"type":"Feature","geometry":null},{"properties":{"zip":"65211","geo_score":0.714,"college":"University of Missouri","id":"a9jm9fd4haxe","geo_precision":"zip"},"type":"Feature","geometry":{"type":"Point","coordinates":[-92.102153,38.903318]}},{"properties":{"zip":"03824","geo_score":0.714,"college":"University of New Hampshire","id":"a9jm9fge06nd","geo_precision":"zip"},"type":"Feature","geometry":{"type":"Point","coordinates":[-71.01145,43.12314]}},{"properties":{"zip":"27517","geo_score":0.714,"college":"University of North Carolina","id":"a9jm9f83z5tg","geo_precision":"zip"},"type":"Feature","geometry":{"type":"Point","coordinates":[-78.906933,35.981803]}},{"properties":{"zip":"19104","geo_score":0.714,"college":"University of Pennsylvania","id":"a9jm9f57m0qa","geo_precision":"zip"},"type":"Feature","geometry":{"type":"Point","coordinates":[-75.19668,39.960912]}},{"properties":{"zip":"92110","geo_score":0.714,"college":"University of San Diego","id":"a9jm9f34a97r","geo_precision":"zip"},"type":"Feature","geometry":{"type":"Point","coordinates":[-117.207965,32.775849]}},{"properties":{"zip":"29208","geo_score":0.714,"college":"University of South Carolina","id":"a9jm9fbgmten","geo_precision":"zip"},"type":"Feature","geometry":{"type":"Point","coordinates":[-81.019913,33.993705]}},{"properties":{"zip":"37916","geo_score":0.714,"college":"University of Tennessee","id":"a9jm9fcgwjkk","geo_precision":"zip"},"type":"Feature","geometry":{"type":"Point","coordinates":[-83.973635,35.933783]}},{"properties":{"zip":"53706","geo_score":0.714,"college":"University of Wisconsin","id":"a9jm9fdxa78f","geo_precision":"zip"},"type":"Feature","geometry":{"type":"Point","coordinates":[-89.413326,43.077755]}},{"properties":{"zip":"31698","geo_score":0.714,"college":"Valdosta State University","id":"a9jm9fhzi3h1","geo_precision":"zip"},"type":"Feature","geometry":{"type":"Point","coordinates":[-83.287753,30.84848]}},{"properties":{"zip":"23220","geo_score":0.714,"college":"Virginia Commonwealth University","id":"a9jm9f3gzxcb","geo_precision":"zip"},"type":"Feature","geometry":{"type":"Point","coordinates":[-77.456602,37.552746]}},{"properties":{"zip":"24061","geo_score":0.714,"college":"Virginia Tech","id":"a9jm9facfhgw","geo_precision":"zip"},"type":"Feature","geometry":{"type":"Point","coordinates":[-80.351482,37.179115]}},{"properties":{"zip":"99164","geo_score":0.714,"college":"Washington State University","id":"a9jm9f71qw55","geo_precision":"zip"},"type":"Feature","geometry":{"type":"Point","coordinates":[-117.644337,46.838747]}}],"is_temporal":false,"author":{"url":"","metadata":"","contact_name":"","contact_address":"","source":"","contact_phone":""},"source":"","pagination":{"sort":null,"start":0,"total":61,"limit":1000000},"state":"complete","tags":"","published":"2014-08-14T23:25:52-04:00","id":286587}