{"type":"FeatureCollection","data_type":"Dataset","url_type":null,"permissions":[{"permissions":{"download":true,"view":true},"group_id":"everyone"}],"classification":null,"title":"Test","count":4,"stream_id":287240,"contributor":{"url":"http://geocommons.com/users/41494","name":"jamesrdangelo"},"data_attributes":null,"calculation_params":null,"icon_link":null,"link":"http://geocommons.com/overlays/287240.json","extent":[-87.8472,41.882,-87.6206,41.932],"geometry_types":["point"],"unique_name":null,"name":"Test","feature_count":4,"description":"","next_feature":null,"is_raster":false,"short_classification":"Y","stats":{"latitude":{"max":41.932029,"variance":0.000443102189666684,"mean":41.9026715,"stdev":0.021049992628661,"min":41.881957,"median":41.899058},"longitude":{"max":-87.620642,"variance":0.0116589321363329,"mean":-87.6856795,"stdev":0.107976535119131,"min":-87.847151,"median":-87.63399}},"features":[{"properties":{"city":"Chicago","zip":"60614","latitude":41.932029,"longitude":-87.640935,"id":"a9l5u8uo52u1","address":"2756 N. Pine Grove Ave","state":"IL"},"type":"Feature","geometry":{"type":"Point","coordinates":[-87.640935,41.932029]}},{"properties":{"city":"Chicago","zip":"60606","latitude":41.881957,"longitude":-87.63399,"id":"a9l5u95zmixo","address":"200 W. Madison","state":"IL"},"type":"Feature","geometry":{"type":"Point","coordinates":[-87.63399,41.881957]}},{"properties":{"city":"Chicago","zip":"60611","latitude":41.897642,"longitude":-87.620642,"id":"a9l5u93hcqap","address":"222 E. Pearson","state":"IL"},"type":"Feature","geometry":{"type":"Point","coordinates":[-87.620642,41.897642]}},{"properties":{"city":"Melrose Park","zip":"60160","latitude":41.899058,"longitude":-87.847151,"id":"a9l5u91dc761","address":"1315 N. 11th Ave","state":"IL"},"type":"Feature","geometry":{"type":"Point","coordinates":[-87.847151,41.899058]}}],"is_temporal":false,"author":{"url":"","metadata":"","contact_name":"","contact_address":"","source":"","contact_phone":""},"source":"","pagination":{"sort":null,"start":0,"total":4,"limit":1000000},"state":"complete","tags":"","published":"2014-08-15T00:11:15-04:00","id":287240}