{"type":"FeatureCollection","data_type":"Dataset","url_type":null,"permissions":[{"permissions":{"download":true,"view":true},"group_id":"everyone"}],"classification":null,"title":"NSLP Ineligible - No Programs","count":81,"stream_id":288535,"contributor":{"url":"http://geocommons.com/users/53425","name":"annanelsonNIFB"},"data_attributes":null,"calculation_params":null,"icon_link":null,"link":"http://geocommons.com/overlays/288535.json","extent":[-89.5724,41.1245,-87.8329,42.4961],"geometry_types":["point"],"unique_name":null,"name":"NSLP Ineligible - No Programs","feature_count":81,"description":"","next_feature":null,"is_raster":false,"short_classification":"Y","stats":{"co fip":{"max":201,"variance":3065.26012658228,"mean":92.925,"stdev":55.3647913983452,"min":7,"median":97},"site reduced\neligible":{"max":193,"variance":873.650308641976,"mean":33.2716049382716,"stdev":29.5575761631764,"min":1,"median":27},"site free\neligible":{"max":805,"variance":16644.5611111111,"mean":179.296296296296,"stdev":129.013802017889,"min":13,"median":154},"site \nenrollment":{"max":1926,"variance":117900.874382716,"mean":471.024691358025,"stdev":343.366967518304,"min":32,"median":398}},"features":[{"properties":{"city":"Creston","co fip":141,"geo_score":0.688,"zip code":"60113-0037","site reduced\neligible":3,"site % \neligible":"40.00%","site":"Creston Elem School","id":"a9pj5khh13rt","address":"202 W South St","geo_precision":"range","site \nenrollment":125,"site free\neligible":47},"type":"Feature","geometry":{"type":"Point","coordinates":[-88.964739,41.928846]}},{"properties":{"city":"Braidwood","co fip":197,"geo_score":0.619,"zip code":"60408-1948","site reduced\neligible":15,"site % \neligible":"40.04%","site":"Reed-Custer Intermediate School","id":"a9pj5kicwm2b","address":"162 S School St","geo_precision":"range","site \nenrollment":472,"site free\neligible":174},"type":"Feature","geometry":{"type":"Point","coordinates":[-88.413464,41.124917]}},{"properties":{"city":"Bourbonnais","co fip":91,"geo_score":0.707,"zip code":"60914-4970","site reduced\neligible":40,"site % \neligible":"40.10%","site":"Liberty Intermediate School","id":"a9pj5k6wk28l","address":"1690 Career Center Rd","geo_precision":"street","site \nenrollment":576,"site free\neligible":191},"type":"Feature","geometry":{"type":"Point","coordinates":[-87.894965,41.173542]}},{"properties":{"city":"McHenry","co fip":111,"geo_score":0.902,"zip code":"60050-5456","site reduced\neligible":47,"site % \neligible":"40.19%","site":"Riverwood Elem School","id":"a9pj5k4b0yjt","address":"300 S Driftwood Trl","geo_precision":"range","site \nenrollment":642,"site free\neligible":211},"type":"Feature","geometry":{"type":"Point","coordinates":[-88.295791,42.325188]}},{"properties":{"city":"Wood Dale","co fip":111,"geo_score":0.805,"zip code":"60191-1199","site reduced\neligible":20,"site % \neligible":"40.24%","site":"Wood Dale Jr High School","id":"a9pj5kakyqsv","address":"655 N Wood Dale Rd","geo_precision":"range","site \nenrollment":338,"site free\neligible":116},"type":"Feature","geometry":{"type":"Point","coordinates":[-87.979697,41.990372]}},{"properties":{"city":"Woodridge","co fip":43,"geo_score":0.902,"zip code":"60517-1623","site reduced\neligible":28,"site % \neligible":"40.28%","site":"Meadowview Elem School","id":"a9pj5k4q5d02","address":"2525 Mitchell Dr","geo_precision":"range","site \nenrollment":355,"site free\neligible":115},"type":"Feature","geometry":{"type":"Point","coordinates":[-88.04837,41.767733]}},{"properties":{"city":"Belvidere","co fip":7,"geo_score":0.902,"zip code":"61008-1701","site reduced\neligible":72,"site % \neligible":"40.41%","site":"Belvidere Central Middle School","id":"a9pj5k7jal5l","address":"8787 Beloit Rd","geo_precision":"range","site \nenrollment":1064,"site free\neligible":358},"type":"Feature","geometry":{"type":"Point","coordinates":[-88.864626,42.28768]}},{"properties":{"city":"Forreston","co fip":89,"geo_score":0.414,"zip code":"61030-0665","site reduced\neligible":16,"site % \neligible":"40.78%","site":"Forreston Grade School","id":"a9pj5kgfpk1n","address":"PO Box 665","geo_precision":"street","site \nenrollment":179,"site free\neligible":57},"type":"Feature","geometry":{"type":"Point","coordinates":[-89.004137,42.496051]}},{"properties":{"city":"Westmont","co fip":97,"geo_score":0.902,"zip code":"60559-1700","site reduced\neligible":18,"site % \neligible":"41.11%","site":"J T Manning Elem School","id":"a9pj5k9s1geb","address":"200 N Linden Ave","geo_precision":"range","site \nenrollment":377,"site free\neligible":137},"type":"Feature","geometry":{"type":"Point","coordinates":[-87.974189,41.802802]}},{"properties":{"city":"Joliet","co fip":97,"geo_score":0.902,"zip code":"60431-9018","site reduced\neligible":36,"site % \neligible":"41.13%","site":"Troy Heritage Trail School","id":"a9pj5kcvsddp","address":"3389 Longford Dr","geo_precision":"range","site \nenrollment":530,"site free\neligible":182},"type":"Feature","geometry":{"type":"Point","coordinates":[-88.163735,41.504948]}},{"properties":{"city":"Bourbonnais","co fip":91,"geo_score":0.902,"zip code":"60914-2015","site reduced\neligible":19,"site % \neligible":"41.35%","site":"Alan B Shepard Elem School","id":"a9pj5k9lngrp","address":"325 N Convent St","geo_precision":"range","site \nenrollment":532,"site free\neligible":201},"type":"Feature","geometry":{"type":"Point","coordinates":[-87.875303,41.160979]}},{"properties":{"city":"Woodstock","co fip":43,"geo_score":0.707,"zip code":"60098-6700","site reduced\neligible":25,"site % \neligible":"41.57%","site":"Prairiewood Elementary Sch","id":"a9pj5k4mxvfe","address":"3215 Hercules Rd","geo_precision":"street","site \nenrollment":356,"site free\neligible":123},"type":"Feature","geometry":{"type":"Point","coordinates":[-88.429639,42.280266]}},{"properties":{"city":"Woodstock","co fip":111,"geo_score":0.707,"zip code":"60098-6700","site reduced\neligible":68,"site % \neligible":"41.85%","site":"Creekside Middle School","id":"a9pj5k4lsaer","address":"3201 Hercules Rd","geo_precision":"street","site \nenrollment":791,"site free\neligible":263},"type":"Feature","geometry":{"type":"Point","coordinates":[-88.429639,42.280266]}},{"properties":{"city":"Woodridge","co fip":43,"geo_score":0.902,"zip code":"60517-2318","site reduced\neligible":68,"site % \neligible":"41.89%","site":"Thomas Jefferson Jr High School","id":"a9pj5kcvar2k","address":"7200 Janes Ave","geo_precision":"range","site \nenrollment":635,"site free\neligible":198},"type":"Feature","geometry":{"type":"Point","coordinates":[-88.040803,41.752302]}},{"properties":{"city":"Machesney Park","co fip":43,"geo_score":0.488,"zip code":"61115-1901","site reduced\neligible":193,"site % \neligible":"42.03%","site":"Harlem High School","id":"a9pj5k9tmc1l","address":"1 Huskie Cir","geo_precision":"zip","site \nenrollment":1725,"site free\neligible":532},"type":"Feature","geometry":{"type":"Point","coordinates":[-89.039675,42.354546]}},{"properties":{"city":"Wonder Lake","co fip":197,"geo_score":0.482,"zip code":"60097-9546","site reduced\neligible":29,"site % \neligible":"42.13%","site":"Harrison Elem School","id":"a9pj5kgvxofq","address":"6809 McCullom Lake Rd","geo_precision":"street","site \nenrollment":394,"site free\neligible":137},"type":"Feature","geometry":{"type":"Point","coordinates":[-88.07656,42.223364]}},{"properties":{"city":"Montgomery","co fip":111,"geo_score":0.805,"zip code":"60538-2305","site reduced\neligible":34,"site % \neligible":"42.33%","site":"Boulder Hill Elem School","id":"a9pj5k4kb03l","address":"163 Boulder Hill Pass","geo_precision":"street","site \nenrollment":515,"site free\neligible":184},"type":"Feature","geometry":{"type":"Point","coordinates":[-88.33877,41.70981]}},{"properties":{"city":"Hanover Park","co fip":43,"geo_score":0.902,"zip code":"60133-6230","site reduced\neligible":26,"site % \neligible":"42.41%","site":"Elsie C Johnson Elem Sch","id":"a9pj5k6dv3jj","address":"1380 Nautilus Ln","geo_precision":"range","site \nenrollment":382,"site free\neligible":136},"type":"Feature","geometry":{"type":"Point","coordinates":[-88.142332,41.943291]}},{"properties":{"city":"Crystal Lake","co fip":111,"geo_score":0.902,"zip code":"60014-7883","site reduced\neligible":36,"site % \neligible":"42.62%","site":"Coventry Elem School","id":"a9pj5khixbzc","address":"820 Darlington Ln","geo_precision":"range","site \nenrollment":413,"site free\neligible":140},"type":"Feature","geometry":{"type":"Point","coordinates":[-88.327314,42.219428]}},{"properties":{"city":"McHenry","co fip":111,"geo_score":0.902,"zip code":"60051-3639","site reduced\neligible":17,"site % \neligible":"42.67%","site":"Hilltop Elem School","id":"a9pj5k61hn4p","address":"2615 W Lincoln Rd","geo_precision":"range","site \nenrollment":375,"site free\neligible":143},"type":"Feature","geometry":{"type":"Point","coordinates":[-88.248979,42.350281]}},{"properties":{"city":"Morris","co fip":93,"geo_score":0.61,"zip code":"60450-1218","site reduced\neligible":21,"site % \neligible":"42.86%","site":"Shabbona Middle School","id":"a9pj5k7yvk66","address":"725 School St","geo_precision":"range","site \nenrollment":371,"site free\neligible":138},"type":"Feature","geometry":{"type":"Point","coordinates":[-88.427994,41.12446]}},{"properties":{"city":"Hebron","co fip":43,"geo_score":0.902,"zip code":"60034-9618","site reduced\neligible":6,"site % \neligible":"43.14%","site":"Alden-Hebron Middle School","id":"a9pj5kbzsa2u","address":"9604 Illinois St","geo_precision":"range","site \nenrollment":102,"site free\neligible":38},"type":"Feature","geometry":{"type":"Point","coordinates":[-88.431509,42.466215]}},{"properties":{"city":"Kirkland","co fip":197,"geo_score":0.329,"zip code":"60146-0428","site reduced\neligible":31,"site % \neligible":"43.46%","site":"Hiawatha Jr-Sr High School","id":"a9pj5kaiettd","address":"PO Box 428","geo_precision":"street","site \nenrollment":283,"site free\neligible":92},"type":"Feature","geometry":{"type":"Point","coordinates":[-88.13541,41.972753]}},{"properties":{"city":"Custer Park","co fip":197,"geo_score":0.701,"zip code":"60481-9115","site reduced\neligible":4,"site % \neligible":"43.55%","site":"Reed-Custer Primary School","id":"a9pj5khf0sub","address":"35445 Washington St","geo_precision":"range","site \nenrollment":124,"site free\neligible":50},"type":"Feature","geometry":{"type":"Point","coordinates":[-88.245185,41.238158]}},{"properties":{"city":"Wheaton","co fip":43,"geo_score":0.884,"zip code":"60187-3908","site reduced\neligible":6,"site % \neligible":"43.64%","site":"Visually Impaired Pgrms","id":"a9pj5kburn23","address":"420 N County Farm Rd","geo_precision":"range","site \nenrollment":55,"site free\neligible":18},"type":"Feature","geometry":{"type":"Point","coordinates":[-88.142614,41.859477]}},{"properties":{"city":"Elgin","co fip":null,"geo_score":0.0,"zip code":"60124-8532","site reduced\neligible":47,"site % \neligible":"43.71%","site":"Otter Creek Elem School","id":"a9pj5k8oy43y","address":"2701 Hopps Rd","geo_precision":"unmatched","site \nenrollment":684,"site free\neligible":252},"type":"Feature","geometry":null},{"properties":{"city":"Sandwich","co fip":197,"geo_score":0.844,"zip code":"60548-2449","site reduced\neligible":21,"site % \neligible":"43.81%","site":"Lynn G Haskin Elem School","id":"a9pj5ka5gw9e","address":"720 S Wells St","geo_precision":"range","site \nenrollment":226,"site free\neligible":78},"type":"Feature","geometry":{"type":"Point","coordinates":[-88.620153,41.639407]}},{"properties":{"city":"Aurora","co fip":43,"geo_score":0.0,"zip code":"60502-7086","site reduced\neligible":2,"site % \neligible":"43.86%","site":"Indian Plains Alt High School","id":"a9pj5kca565d","address":"1322 N Eola Rd","geo_precision":"unmatched","site \nenrollment":57,"site free\neligible":23},"type":"Feature","geometry":null},{"properties":{"city":"Rockford","co fip":141,"geo_score":0.902,"zip code":"61107-2459","site reduced\neligible":32,"site % \neligible":"44.00%","site":"Brookview Elem School","id":"a9pj5k9j8z9k","address":"1750 Madron Rd","geo_precision":"range","site \nenrollment":475,"site free\neligible":177},"type":"Feature","geometry":{"type":"Point","coordinates":[-89.014304,42.287685]}},{"properties":{"city":"Crystal Lake","co fip":111,"geo_score":0.902,"zip code":"60014-7871","site reduced\neligible":27,"site % \neligible":"44.29%","site":"Canterbury Elem School","id":"a9pj5kikfyaw","address":"875 Canterbury Dr","geo_precision":"range","site \nenrollment":420,"site free\neligible":159},"type":"Feature","geometry":{"type":"Point","coordinates":[-88.321065,42.216581]}},{"properties":{"city":"Poplar Grove","co fip":141,"geo_score":0.902,"zip code":"61065-8548","site reduced\neligible":23,"site % \neligible":"44.36%","site":"North Boone Upper Elem School","id":"a9pj5kjzltjp","address":"6200 N Boone School Rd","geo_precision":"range","site \nenrollment":275,"site free\neligible":99},"type":"Feature","geometry":{"type":"Point","coordinates":[-88.818145,42.407858]}},{"properties":{"city":"Wilmington","co fip":43,"geo_score":0.902,"zip code":"60481-1710","site reduced\neligible":10,"site % \neligible":"44.50%","site":"Bruning Elem School","id":"a9pj5k7oxg2s","address":"1910 Bruning Dr","geo_precision":"range","site \nenrollment":191,"site free\neligible":75},"type":"Feature","geometry":{"type":"Point","coordinates":[-88.142006,41.28303]}},{"properties":{"city":"Glendale Heights","co fip":97,"geo_score":0.902,"zip code":"60139-2734","site reduced\neligible":44,"site % \neligible":"44.61%","site":"Glenside Middle School","id":"a9pj5kh3dl6l","address":"1560 Bloomingdale Rd","geo_precision":"range","site \nenrollment":621,"site free\neligible":233},"type":"Feature","geometry":{"type":"Point","coordinates":[-88.08147,41.917472]}},{"properties":{"city":"Crest Hill","co fip":197,"geo_score":0.0,"zip code":"60403-1700","site reduced\neligible":102,"site % \neligible":"44.65%","site":"Richland Grade School","id":"a9pj5kdxxsd1","address":"1919 Caton Farm Rd","geo_precision":"unmatched","site \nenrollment":954,"site free\neligible":324},"type":"Feature","geometry":null},{"properties":{"city":"Kirkland","co fip":37,"geo_score":0.329,"zip code":"60146-0428","site reduced\neligible":15,"site % \neligible":"44.91%","site":"Hiawatha Elem School","id":"a9pj5kffwm9r","address":"PO Box 428","geo_precision":"street","site \nenrollment":285,"site free\neligible":113},"type":"Feature","geometry":{"type":"Point","coordinates":[-88.13541,41.972753]}},{"properties":{"city":"Wilmington","co fip":197,"geo_score":0.902,"zip code":"60481-1490","site reduced\neligible":28,"site % \neligible":"44.94%","site":"L J Stevens Intermediate School","id":"a9pj5k8f6dny","address":"221 Ryan St","geo_precision":"range","site \nenrollment":405,"site free\neligible":154},"type":"Feature","geometry":{"type":"Point","coordinates":[-88.141052,41.301441]}},{"properties":{"city":"Belvidere","co fip":7,"geo_score":0.671,"zip code":"61008-4563","site reduced\neligible":88,"site % \neligible":"45.00%","site":"Belvidere High School","id":"a9pj5kj4wim0","address":"1500 East Ave","geo_precision":"street","site \nenrollment":1209,"site free\neligible":456},"type":"Feature","geometry":{"type":"Point","coordinates":[-88.831873,42.245208]}},{"properties":{"city":"DeKalb","co fip":37,"geo_score":0.902,"zip code":"60115-8227","site reduced\neligible":129,"site % \neligible":"45.05%","site":"DeKalb High School","id":"a9pj5kg3mcim","address":"501 W Dresser Rd","geo_precision":"range","site \nenrollment":1789,"site free\neligible":677},"type":"Feature","geometry":{"type":"Point","coordinates":[-88.755085,41.952338]}},{"properties":{"city":"Cary","co fip":111,"geo_score":0.526,"zip code":"60013-6100","site reduced\neligible":26,"site % \neligible":"45.29%","site":"Three Oaks School","id":"a9pj5kk6vkbf","address":"1514 3 Oaks Rd","geo_precision":"street","site \nenrollment":563,"site free\neligible":229},"type":"Feature","geometry":{"type":"Point","coordinates":[-88.137082,42.255173]}},{"properties":{"city":"Wood Dale","co fip":43,"geo_score":0.902,"zip code":"60191-2271","site reduced\neligible":21,"site % \neligible":"45.61%","site":"Oakbrook Elem School","id":"a9pj5kbvlnxq","address":"170 S Wood Dale Rd","geo_precision":"range","site \nenrollment":239,"site free\neligible":88},"type":"Feature","geometry":{"type":"Point","coordinates":[-87.978811,41.956793]}},{"properties":{"city":"Poplar Grove","co fip":7,"geo_score":0.902,"zip code":"61065-9702","site reduced\neligible":24,"site % \neligible":"45.66%","site":"Poplar Grove Elem School","id":"a9pj5kd9lfee","address":"208 N State St","geo_precision":"range","site \nenrollment":311,"site free\neligible":118},"type":"Feature","geometry":{"type":"Point","coordinates":[-88.822177,42.371516]}},{"properties":{"city":"North Aurora","co fip":43,"geo_score":0.902,"zip code":"60542-1240","site reduced\neligible":17,"site % \neligible":"45.87%","site":"Schneider Elem School","id":"a9pj5kdm0pru","address":"304 Banbury Rd","geo_precision":"range","site \nenrollment":545,"site free\neligible":233},"type":"Feature","geometry":{"type":"Point","coordinates":[-88.312466,41.815]}},{"properties":{"city":"Beach Park","co fip":97,"geo_score":0.902,"zip code":"60099-3359","site reduced\neligible":43,"site % \neligible":"46.04%","site":"Kenneth Murphy School","id":"a9pj5kemzupq","address":"11315 W Wadsworth Rd","geo_precision":"range","site \nenrollment":480,"site free\neligible":178},"type":"Feature","geometry":{"type":"Point","coordinates":[-87.849068,42.429489]}},{"properties":{"city":"Vernon Hills","co fip":89,"geo_score":0.902,"zip code":"60061-1427","site reduced\neligible":34,"site % \neligible":"46.21%","site":"Hawthorn Sch Of Dual Language","id":"a9pj5kdjpaqi","address":"810 Aspen Dr","geo_precision":"range","site \nenrollment":435,"site free\neligible":167},"type":"Feature","geometry":{"type":"Point","coordinates":[-87.970163,42.238001]}},{"properties":{"city":"Woodstock","co fip":111,"geo_score":0.902,"zip code":"60098-3137","site reduced\neligible":44,"site % \neligible":"46.27%","site":"Olson Elementary School","id":"a9pj5k9fh2x7","address":"720 W Judd St","geo_precision":"range","site \nenrollment":482,"site free\neligible":179},"type":"Feature","geometry":{"type":"Point","coordinates":[-88.458427,42.315595]}},{"properties":{"city":"Woodridge","co fip":43,"geo_score":0.819,"zip code":"60517-4530","site reduced\neligible":23,"site % \neligible":"46.35%","site":"John L Sipley Elem School","id":"a9pj5kdsg11m","address":"2806 83rd St","geo_precision":"range","site \nenrollment":315,"site free\neligible":123},"type":"Feature","geometry":{"type":"Point","coordinates":[-88.048132,41.735825]}},{"properties":{"city":"Shorewood","co fip":37,"geo_score":0.0,"zip code":"60404-8500","site reduced\neligible":34,"site % \neligible":"46.39%","site":"Troy Crossroads Elem School","id":"a9pj5kkjuz5o","address":"210 E Black Rd","geo_precision":"unmatched","site \nenrollment":388,"site free\neligible":146},"type":"Feature","geometry":null},{"properties":{"city":"Polo","co fip":93,"geo_score":0.902,"zip code":"61064-1940","site reduced\neligible":23,"site % \neligible":"46.40%","site":"Centennial Elem School","id":"a9pj5kevq7c4","address":"308 S Pleasant Ave","geo_precision":"range","site \nenrollment":278,"site free\neligible":106},"type":"Feature","geometry":{"type":"Point","coordinates":[-89.572413,41.983943]}},{"properties":{"city":"Romeoville","co fip":201,"geo_score":0.488,"zip code":"60446-5269","site reduced\neligible":62,"site % \neligible":"46.46%","site":"Kenneth L Hermansen Elem School","id":"a9pj5kigzv0y","address":"101 Wesglen Pkwy","geo_precision":"zip","site \nenrollment":650,"site free\neligible":240},"type":"Feature","geometry":{"type":"Point","coordinates":[-88.069621,41.64038]}},{"properties":{"city":"Beach Park","co fip":97,"geo_score":0.902,"zip code":"60099-3308","site reduced\neligible":17,"site % \neligible":"46.50%","site":"Oak Crest School","id":"a9pj5khunl3k","address":"38550 N Lewis Ave","geo_precision":"range","site \nenrollment":314,"site free\neligible":129},"type":"Feature","geometry":{"type":"Point","coordinates":[-87.855076,42.421678]}},{"properties":{"city":"Marengo","co fip":201,"geo_score":0.902,"zip code":"60152-3400","site reduced\neligible":46,"site % \neligible":"46.53%","site":"Marengo Comm Middle School","id":"a9pj5kanvz11","address":"816 E Grant Hwy","geo_precision":"range","site \nenrollment":490,"site free\neligible":182},"type":"Feature","geometry":{"type":"Point","coordinates":[-88.596036,42.24385]}},{"properties":{"city":"Woodstock","co fip":111,"geo_score":0.708,"zip code":"60098-2641","site reduced\neligible":50,"site % \neligible":"46.54%","site":"Mary Endres Elem School","id":"a9pj5k6d16qq","address":"2181 N Seminary Ave","geo_precision":"street","site \nenrollment":492,"site free\neligible":179},"type":"Feature","geometry":{"type":"Point","coordinates":[-88.443163,42.33463]}},{"properties":{"city":"Woodstock","co fip":111,"geo_score":0.902,"zip code":"60098-3324","site reduced\neligible":5,"site % \neligible":"46.55%","site":"Clay Academy","id":"a9pj5kdfb7j3","address":"112 Grove St","geo_precision":"range","site \nenrollment":58,"site free\neligible":22},"type":"Feature","geometry":{"type":"Point","coordinates":[-88.444957,42.321437]}},{"properties":{"city":"DeKalb","co fip":37,"geo_score":0.707,"zip code":"60115-4656","site reduced\neligible":35,"site % \neligible":"46.58%","site":"Huntley Middle School","id":"a9pj5kaw35cx","address":"1515 S 4th St","geo_precision":"range","site \nenrollment":614,"site free\neligible":251},"type":"Feature","geometry":{"type":"Point","coordinates":[-88.753401,41.911903]}},{"properties":{"city":"Woodstock","co fip":111,"geo_score":0.708,"zip code":"60098-2643","site reduced\neligible":36,"site % \neligible":"46.82%","site":"Verda Dierzen Early Learning Center","id":"a9pj5kb94qcx","address":"2045 N Seminary Ave","geo_precision":"street","site \nenrollment":487,"site free\neligible":192},"type":"Feature","geometry":{"type":"Point","coordinates":[-88.443163,42.33463]}},{"properties":{"city":"Lockport","co fip":97,"geo_score":0.829,"zip code":"60441-3823","site reduced\neligible":2,"site % \neligible":"46.88%","site":"Lockport Area Spec Ed Coop","id":"a9pj5k8d2c30","address":"1343 E 7th St","geo_precision":"range","site \nenrollment":32,"site free\neligible":13},"type":"Feature","geometry":{"type":"Point","coordinates":[-88.027292,41.590437]}},{"properties":{"city":"Glendale Heights","co fip":43,"geo_score":0.902,"zip code":"60139-3088","site reduced\neligible":54,"site % \neligible":"47.07%","site":"Glen Hill Primary","id":"a9pj5kaf6pvt","address":"1324 Bloomingdale Rd","geo_precision":"range","site \nenrollment":461,"site free\neligible":163},"type":"Feature","geometry":{"type":"Point","coordinates":[-88.081533,41.90715]}},{"properties":{"city":"Naperville","co fip":63,"geo_score":0.514,"zip code":"60563-9081","site reduced\neligible":25,"site % \neligible":"47.10%","site":"Longwood Elem School","id":"a9pj5k4izjpx","address":"30W240 Bruce Ln","geo_precision":"street","site \nenrollment":518,"site free\neligible":219},"type":"Feature","geometry":{"type":"Point","coordinates":[-88.207732,41.791655]}},{"properties":{"city":"South Elgin","co fip":197,"geo_score":0.902,"zip code":"60177-1536","site reduced\neligible":33,"site % \neligible":"47.21%","site":"Willard Elem School","id":"a9pj5k4e7nip","address":"370 W Spring St","geo_precision":"range","site \nenrollment":394,"site free\neligible":153},"type":"Feature","geometry":{"type":"Point","coordinates":[-88.29949,41.995036]}},{"properties":{"city":"Glendale Heights","co fip":43,"geo_score":0.902,"zip code":"60139-2203","site reduced\neligible":34,"site % \neligible":"47.24%","site":"Winnebago Elem School","id":"a9pj5k4qxj2g","address":"1912 Glen Ellyn Rd","geo_precision":"range","site \nenrollment":398,"site free\neligible":154},"type":"Feature","geometry":{"type":"Point","coordinates":[-88.063411,41.930096]}},{"properties":{"city":"Addison","co fip":43,"geo_score":0.708,"zip code":"60101-1906","site reduced\neligible":105,"site % \neligible":"47.25%","site":"Addison Trail High School","id":"a9pj5ka4k93j","address":"213 N Lombard Rd","geo_precision":"street","site \nenrollment":1926,"site free\neligible":805},"type":"Feature","geometry":{"type":"Point","coordinates":[-88.022416,41.936966]}},{"properties":{"city":"DeKalb","co fip":37,"geo_score":0.557,"zip code":"60115-4702","site reduced\neligible":8,"site % \neligible":"47.35%","site":"Gwendolyn Brooks Elem School","id":"a9pj5kj308ig","address":"3225 Sangamon Dr","geo_precision":"street","site \nenrollment":302,"site free\neligible":135},"type":"Feature","geometry":{"type":"Point","coordinates":[-88.174931,41.955981]}},{"properties":{"city":"Westmont","co fip":43,"geo_score":0.902,"zip code":"60559-1038","site reduced\neligible":27,"site % \neligible":"47.85%","site":"Westmont Jr High School","id":"a9pj5kk92sg6","address":"944 Oakwood Dr","geo_precision":"range","site \nenrollment":372,"site free\neligible":151},"type":"Feature","geometry":{"type":"Point","coordinates":[-87.965802,41.819925]}},{"properties":{"city":"Wauconda","co fip":97,"geo_score":0.902,"zip code":"60084-1746","site reduced\neligible":16,"site % \neligible":"47.92%","site":"Wauconda Elem School","id":"a9pj5ki5em7t","address":"225 Osage St","geo_precision":"range","site \nenrollment":457,"site free\neligible":203},"type":"Feature","geometry":{"type":"Point","coordinates":[-88.145896,42.259015]}},{"properties":{"city":"Byron","co fip":141,"geo_score":0.414,"zip code":"61010-0582","site reduced\neligible":1,"site % \neligible":"48.57%","site":"Ogle Co Education Cooperative","id":"a9pj5ket4vdw","address":"PO Box 582","geo_precision":"street","site \nenrollment":35,"site free\neligible":16},"type":"Feature","geometry":{"type":"Point","coordinates":[-89.004137,42.496051]}},{"properties":{"city":"Morris","co fip":63,"geo_score":0.708,"zip code":"60450-3605","site reduced\neligible":44,"site % \neligible":"48.65%","site":"White Oaks Elem School","id":"a9pj5kfp6iby","address":"2001 DuPont Ave","geo_precision":"street","site \nenrollment":775,"site free\neligible":333},"type":"Feature","geometry":{"type":"Point","coordinates":[-88.447396,41.366873]}},{"properties":{"city":"Ingleside","co fip":111,"geo_score":0.805,"zip code":"60041-9587","site reduced\neligible":26,"site % \neligible":"48.68%","site":"Gavin South Jr High School","id":"a9pj5k6wg0wl","address":"25775 W IL Route 134","geo_precision":"range","site \nenrollment":304,"site free\neligible":122},"type":"Feature","geometry":{"type":"Point","coordinates":[-88.136545,42.368668]}},{"properties":{"city":"Woodstock","co fip":111,"geo_score":0.765,"zip code":"60098-8954","site reduced\neligible":31,"site % \neligible":"48.69%","site":"Westwood Elem School","id":"a9pj5kaa2lao","address":"14124 W South Street Rd","geo_precision":"range","site \nenrollment":382,"site free\neligible":155},"type":"Feature","geometry":{"type":"Point","coordinates":[-88.472887,42.303623]}},{"properties":{"city":"Fox Lake","co fip":141,"geo_score":0.902,"zip code":"60020-1883","site reduced\neligible":26,"site % \neligible":"48.70%","site":"Stanton School","id":"a9pj5k8fl88t","address":"101 Hawthorne Ln","geo_precision":"range","site \nenrollment":269,"site free\neligible":105},"type":"Feature","geometry":{"type":"Point","coordinates":[-88.162914,42.392219]}},{"properties":{"city":"Lake Forest","co fip":37,"geo_score":0.902,"zip code":"60045-2643","site reduced\neligible":1,"site % \neligible":"48.78%","site":"Sally Potter School/Lake Forest","id":"a9pj5kfwsxwc","address":"300 S Waukegan Rd","geo_precision":"range","site \nenrollment":82,"site free\neligible":39},"type":"Feature","geometry":{"type":"Point","coordinates":[-87.873441,42.234759]}},{"properties":{"city":"Zion","co fip":111,"geo_score":0.819,"zip code":"60099-2345","site reduced\neligible":33,"site % \neligible":"48.80%","site":"New Tech High- Zion Benton East","id":"a9pj5k88y0t3","address":"1634 23rd St","geo_precision":"range","site \nenrollment":332,"site free\neligible":129},"type":"Feature","geometry":{"type":"Point","coordinates":[-87.832879,42.454111]}},{"properties":{"city":"Oregon","co fip":89,"geo_score":0.902,"zip code":"61061-1531","site reduced\neligible":44,"site % \neligible":"48.93%","site":"Oregon Elem Sch","id":"a9pj5kggzryh","address":"1200 Jefferson St","geo_precision":"range","site \nenrollment":746,"site free\neligible":321},"type":"Feature","geometry":{"type":"Point","coordinates":[-89.344658,42.013396]}},{"properties":{"city":"Vernon Hills","co fip":97,"geo_score":0.902,"zip code":"60061-1461","site reduced\neligible":35,"site % \neligible":"48.98%","site":"Hawthorn Elem School-North","id":"a9pj5kjj5ov7","address":"301 W Hawthorn Pkwy","geo_precision":"range","site \nenrollment":492,"site free\neligible":206},"type":"Feature","geometry":{"type":"Point","coordinates":[-87.973106,42.242914]}},{"properties":{"city":"North Aurora","co fip":89,"geo_score":0.902,"zip code":"60542-1788","site reduced\neligible":34,"site % \neligible":"49.35%","site":"Jewel Middle School","id":"a9pj5k7ft8e9","address":"1501 Waterford Rd","geo_precision":"range","site \nenrollment":693,"site free\neligible":308},"type":"Feature","geometry":{"type":"Point","coordinates":[-88.361989,41.809368]}},{"properties":{"city":"Wheaton","co fip":43,"geo_score":0.902,"zip code":"60187-3666","site reduced\neligible":4,"site % \neligible":"49.39%","site":"Hawthorne Elem School","id":"a9pj5kkkx30s","address":"334 Wakeman Ave","geo_precision":"range","site \nenrollment":330,"site free\neligible":159},"type":"Feature","geometry":{"type":"Point","coordinates":[-88.101603,41.878765]}},{"properties":{"city":"Capron","co fip":7,"geo_score":0.902,"zip code":"61012-9550","site reduced\neligible":5,"site % \neligible":"49.49%","site":"Capron Elem School","id":"a9pj5khfwlvd","address":"200 N Wooster St","geo_precision":"range","site \nenrollment":198,"site free\neligible":93},"type":"Feature","geometry":{"type":"Point","coordinates":[-88.744959,42.404225]}},{"properties":{"city":"Carol Stream","co fip":43,"geo_score":0.525,"zip code":"60188-1522","site reduced\neligible":15,"site % \neligible":"49.49%","site":"Carol Stream Elem School","id":"a9pj5kjr8io0","address":"422 Sioux Ln","geo_precision":"street","site \nenrollment":297,"site free\neligible":132},"type":"Feature","geometry":{"type":"Point","coordinates":[-88.137317,41.930222]}},{"properties":{"city":"Rochelle","co fip":7,"geo_score":0.488,"zip code":"61068-9130","site reduced\neligible":39,"site % \neligible":"49.55%","site":"Rochelle Middle School","id":"a9pj5kakpddj","address":"111 School Ave","geo_precision":"zip","site \nenrollment":557,"site free\neligible":237},"type":"Feature","geometry":{"type":"Point","coordinates":[-89.100359,42.007405]}},{"properties":{"city":"Plano","co fip":141,"geo_score":0.488,"zip code":"60545-9001","site reduced\neligible":27,"site % \neligible":"49.73%","site":"Emily G Johns School","id":"a9pj5kil77yx","address":"430 Mitchell Ct","geo_precision":"zip","site \nenrollment":551,"site free\neligible":247},"type":"Feature","geometry":{"type":"Point","coordinates":[-88.552297,41.622808]}},{"properties":{"city":"Lombard","co fip":197,"geo_score":0.902,"zip code":"60148-3317","site reduced\neligible":21,"site % \neligible":"49.80%","site":"Madison Elem School","id":"a9pj5kgio5gr","address":"150 W Madison St","geo_precision":"range","site \nenrollment":504,"site free\neligible":230},"type":"Feature","geometry":{"type":"Point","coordinates":[-88.020791,41.874894]}},{"properties":{"city":"Bourbonnais","co fip":91,"geo_score":0.902,"zip code":"60914-2015","site reduced\neligible":19,"site % \neligible":"49.83%","site":"Shabbona Elem School","id":"a9pj5k9bt1f3","address":"321 N Convent St","geo_precision":"range","site \nenrollment":303,"site free\neligible":132},"type":"Feature","geometry":{"type":"Point","coordinates":[-87.875378,41.160994]}}],"is_temporal":false,"author":{"url":"","metadata":"","contact_name":"","contact_address":"","source":"","contact_phone":""},"source":"","pagination":{"sort":null,"start":0,"total":81,"limit":1000000},"state":"complete","tags":"","published":"2014-08-15T02:01:17-04:00","id":288535}