{"type":"FeatureCollection","data_type":"Dataset","url_type":null,"permissions":[{"permissions":{"download":true,"view":true},"group_id":"everyone"}],"classification":null,"title":"37 schools","count":37,"stream_id":289646,"contributor":{"url":"http://geocommons.com/users/39422","name":"rshek"},"data_attributes":null,"calculation_params":null,"icon_link":null,"link":"http://geocommons.com/overlays/289646.json","extent":[-74.6309,40.0906,-73.0147,41.0495],"geometry_types":["point"],"unique_name":null,"name":"37 schools","feature_count":37,"description":"","next_feature":null,"is_raster":false,"short_classification":"Y","stats":{},"features":[{"properties":{"city":"Baldwin","school name":"Baldwin High School","geo_score":0.427,"zip code":"11510","street":"841 Ethel Kolberg Drive","id":"a9tlznt78o2t","geo_precision":"street","state":"NY"},"type":"Feature","geometry":{"type":"Point","coordinates":[-73.714861,40.674486]}},{"properties":{"city":"Bayonne","school name":"Bayonne High School","geo_score":0.902,"zip code":"07002","street":"669 Avenue A","id":"a9tlzo5qgspx","geo_precision":"street","state":"NJ"},"type":"Feature","geometry":{"type":"Point","coordinates":[-74.120547,40.67243]}},{"properties":{"city":"Bay Shore","school name":"Bay Shore High School","geo_score":0.878,"zip code":"11706","street":"155 Third Avenue","id":"a9tlzo6ktq84","geo_precision":"range","state":"NY"},"type":"Feature","geometry":{"type":"Point","coordinates":[-73.25556,40.731221]}},{"properties":{"city":"Oradell","school name":"Bergen Catholic High School","geo_score":1.0,"zip code":"07649","street":"1040 Oradell Avenue","id":"a9tlznwso33x","geo_precision":"range","state":"NJ"},"type":"Feature","geometry":{"type":"Point","coordinates":[-74.050619,40.959286]}},{"properties":{"city":"Bethpage","school name":"Bethpage High School","geo_score":1.0,"zip code":"11714","street":"10 Cherry Avenue","id":"a9tlzo0p1ka3","geo_precision":"range","state":"NY"},"type":"Feature","geometry":{"type":"Point","coordinates":[-73.481282,40.755455]}},{"properties":{"city":"Bridgewater","school name":"Bridgewater Raritan High School","geo_score":1.0,"zip code":"08807","street":"600 Garretson Road","id":"a9tlznt26tqf","geo_precision":"range","state":"NJ"},"type":"Feature","geometry":{"type":"Point","coordinates":[-74.630922,40.593524]}},{"properties":{"city":"Mineola","school name":"Chaminade High School","geo_score":0.585,"zip code":"11501","street":"340 Jackson Ave.","id":"a9tlzo0a0tgj","geo_precision":"zip","state":"NY"},"type":"Feature","geometry":{"type":"Point","coordinates":[-73.638061,40.735901]}},{"properties":{"city":"Wayne","school name":"DePaul Catholic High School","geo_score":1.0,"zip code":"07470","street":"1512 Alps Road","id":"a9tlznwwtp0x","geo_precision":"range","state":"NJ"},"type":"Feature","geometry":{"type":"Point","coordinates":[-74.246378,40.957633]}},{"properties":{"city":"Ramsey","school name":"Don Bosco Preparatory High School","geo_score":0.61,"zip code":"07446","street":"492 N. Franklin Turnpike","id":"a9tlzo0767ww","geo_precision":"street","state":"NJ"},"type":"Feature","geometry":{"type":"Point","coordinates":[-74.157724,41.049065]}},{"properties":{"city":"Farmingdale","school name":"Farmingdale High School","geo_score":1.0,"zip code":"11735","street":"150 Lincoln Street","id":"a9tlzo89upjv","geo_precision":"range","state":"NY"},"type":"Feature","geometry":{"type":"Point","coordinates":[-73.444738,40.708819]}},{"properties":{"city":"Garden City","school name":"Garden City High School","geo_score":0.585,"zip code":"11530","street":"170 Rockaway Avenue","id":"a9tlznth1h5c","geo_precision":"zip","state":"NY"},"type":"Feature","geometry":{"type":"Point","coordinates":[-73.688464,40.719269]}},{"properties":{"city":"Franklin Square","school name":"H.Frank Carey High School","geo_score":0.91,"zip code":"11010","street":"230 Poppy Aveunue","id":"a9tlznv997jk","geo_precision":"range","state":"NY"},"type":"Feature","geometry":{"type":"Point","coordinates":[-73.668804,40.711887]}},{"properties":{"city":"Dix Hills","school name":"Half Hollow Hills East High School","geo_score":1.0,"zip code":"11746","street":"50 Vanderbilt Parkway","id":"a9tlzo1m081o","geo_precision":"range","state":"NY"},"type":"Feature","geometry":{"type":"Point","coordinates":[-73.359586,40.803582]}},{"properties":{"city":"Dix Hills","school name":"Half Hollow Hills West High School","geo_score":1.0,"zip code":"11746","street":"375 Wolf Hill Road","id":"a9tlznwt5r8j","geo_precision":"range","state":"NY"},"type":"Feature","geometry":{"type":"Point","coordinates":[-73.375301,40.809734]}},{"properties":{"city":"Washington Twp","school name":"Immaculate Heart Academy","geo_score":0.902,"zip code":"07676-4199","street":"500 Van Emburgh Avenue","id":"a9tlzo6ul0j5","geo_precision":"range","state":"NJ"},"type":"Feature","geometry":{"type":"Point","coordinates":[-74.075698,40.994607]}},{"properties":{"city":"Jackson","school name":"Jackson Liberty High School","geo_score":1.0,"zip code":"08527","street":"125 North Hope Chapel Road","id":"a9tlzny1ihck","geo_precision":"range","state":"NJ"},"type":"Feature","geometry":{"type":"Point","coordinates":[-74.266897,40.090574]}},{"properties":{"city":"Jackson","school name":"Jackson Memorial High School","geo_score":1.0,"zip code":"08527","street":"101 Don Connor Boulevard","id":"a9tlzo6k1iij","geo_precision":"range","state":"NJ"},"type":"Feature","geometry":{"type":"Point","coordinates":[-74.345036,40.104755]}},{"properties":{"city":"Kings Park","school name":"Kings Park High School","geo_score":1.0,"zip code":"11754","street":"180 Lawrence Road","id":"a9tlznvutako","geo_precision":"range","state":"NY"},"type":"Feature","geometry":{"type":"Point","coordinates":[-73.240905,40.888048]}},{"properties":{"city":"Long Beach","school name":"Long Beach High School","geo_score":0.947,"zip code":"11561","street":"322 Lagoon Drive","id":"a9tlzo8r2odk","geo_precision":"range","state":"NY"},"type":"Feature","geometry":{"type":"Point","coordinates":[-73.632853,40.592616]}},{"properties":{"city":"Noth Bergen","school name":"North Bergen High School","geo_score":0.992,"zip code":"07047","street":"7417 Kennedy Blvd","id":"a9tlznuuvpcl","geo_precision":"range","state":"NJ"},"type":"Feature","geometry":{"type":"Point","coordinates":[-74.012923,40.802077]}},{"properties":{"city":"Northport","school name":"Northport High School","geo_score":1.0,"zip code":"11768","street":"154 Laurel Hill Rd","id":"a9tlznvwrnc8","geo_precision":"range","state":"NY"},"type":"Feature","geometry":{"type":"Point","coordinates":[-73.343516,40.880385]}},{"properties":{"city":"Oceanside","school name":"Oceanside High School","geo_score":1.0,"zip code":"11572","street":"3160 Skillman Avenue","id":"a9tlznven0nn","geo_precision":"range","state":"NY"},"type":"Feature","geometry":{"type":"Point","coordinates":[-73.629098,40.636349]}},{"properties":{"city":"Matawan","school name":"Old Bridge High School","geo_score":0.865,"zip code":"07747","street":"4209 Route 516","id":"a9tlzo0nd7ko","geo_precision":"range","state":"NJ"},"type":"Feature","geometry":{"type":"Point","coordinates":[-74.291013,40.404136]}},{"properties":{"city":"Paramus","school name":"Paramus Catholic High School","geo_score":1.0,"zip code":"07652","street":"425 Paramus Road","id":"a9tlzo52fi4h","geo_precision":"range","state":"NJ"},"type":"Feature","geometry":{"type":"Point","coordinates":[-74.093734,40.956729]}},{"properties":{"city":"Little Falls","school name":"Passaic Valley High School","geo_score":0.902,"zip code":"07424","street":"100 East Main St","id":"a9tlznzfe8bl","geo_precision":"street","state":"NJ"},"type":"Feature","geometry":{"type":"Point","coordinates":[-74.219076,40.877939]}},{"properties":{"city":"Piscataway","school name":"Piscataway High School","geo_score":1.0,"zip code":"08854","street":"100 Behmer Road","id":"a9tlzo7rjvs7","geo_precision":"range","state":"NJ"},"type":"Feature","geometry":{"type":"Point","coordinates":[-74.475714,40.547757]}},{"properties":{"city":"Oakland","school name":"Ramapo High School (NJ)","geo_score":1.0,"zip code":"07436","street":"97 Yawpo Ave.","id":"a9tlznwf2sfn","geo_precision":"range","state":"NJ"},"type":"Feature","geometry":{"type":"Point","coordinates":[-74.233682,41.021104]}},{"properties":{"city":"Randolph","school name":"Randolph High School","geo_score":1.0,"zip code":"07869","street":"511 Millbrook Avenue","id":"a9tlzo229g4s","geo_precision":"range","state":"NJ"},"type":"Feature","geometry":{"type":"Point","coordinates":[-74.563978,40.846556]}},{"properties":{"city":"Basking Ridge","school name":"Ridge High School","geo_score":1.0,"zip code":"07920","street":"268 South Finley Ave.","id":"a9tlznzl2ms0","geo_precision":"range","state":"NJ"},"type":"Feature","geometry":{"type":"Point","coordinates":[-74.549315,40.694261]}},{"properties":{"city":"Farmingville","school name":"Sachem High School East","geo_score":1.0,"zip code":"11738","street":"177 Granny Road","id":"a9tlznyxn8b9","geo_precision":"range","state":"NY"},"type":"Feature","geometry":{"type":"Point","coordinates":[-73.014696,40.837688]}},{"properties":{"city":"Lake Ronkonkoma","school name":"Sachem High School North","geo_score":1.0,"zip code":"11779","street":"212 Smith Road","id":"a9tlzo6num9p","geo_precision":"range","state":"NY"},"type":"Feature","geometry":{"type":"Point","coordinates":[-73.106004,40.838912]}},{"properties":{"city":"West Sayville","school name":"Sayville High School","geo_score":1.0,"zip code":"11796","street":"20 Brook Street","id":"a9tlzo83h9jj","geo_precision":"range","state":"NY"},"type":"Feature","geometry":{"type":"Point","coordinates":[-73.094047,40.736006]}},{"properties":{"city":"South Huntington","school name":"St. Anthony's High School","geo_score":0.909,"zip code":"11747","street":"275 Wolf Hill Road","id":"a9tlzo7zo5z7","geo_precision":"range","state":"NY"},"type":"Feature","geometry":{"type":"Point","coordinates":[-73.391167,40.811461]}},{"properties":{"city":"Montvale","school name":"St. Joseph Regional High School (Montvale)","geo_score":1.0,"zip code":"07645","street":"40 Chestnut Ridge Rd","id":"a9tlzo2fmgkg","geo_precision":"range","state":"NJ"},"type":"Feature","geometry":{"type":"Point","coordinates":[-74.070031,41.049535]}},{"properties":{"city":"Wall","school name":"Wall High School","geo_score":0.856,"zip code":"07719","street":"1630 18th Avenue","id":"a9tlzo3nicwv","geo_precision":"range","state":"NJ"},"type":"Feature","geometry":{"type":"Point","coordinates":[-74.056818,40.167713]}},{"properties":{"city":"Wayne","school name":"Wayne Hills High School","geo_score":1.0,"zip code":"07470","street":"272 Berdan Avenue","id":"a9tlzo2ocaak","geo_precision":"range","state":"NJ"},"type":"Feature","geometry":{"type":"Point","coordinates":[-74.243279,40.966159]}},{"properties":{"city":"Wayne","school name":"Wayne Valley High School","geo_score":1.0,"zip code":"07470","street":"551 Valley Rd","id":"a9tlzntjzfan","geo_precision":"range","state":"NJ"},"type":"Feature","geometry":{"type":"Point","coordinates":[-74.229507,40.928908]}}],"is_temporal":false,"author":{"url":"","metadata":"","contact_name":"","contact_address":"","source":"","contact_phone":""},"source":"","pagination":{"sort":null,"start":0,"total":37,"limit":1000000},"state":"complete","tags":"","published":"2014-08-15T03:22:25-04:00","id":289646}