{"type":"FeatureCollection","data_type":"Dataset","url_type":null,"permissions":[{"permissions":{"download":true,"view":true},"group_id":"everyone"}],"classification":null,"title":"Waze Gas Report 2012-11-05 at 00:45","count":10,"stream_id":290072,"contributor":{"url":"http://geocommons.com/users/159","name":"ajturner"},"data_attributes":null,"calculation_params":null,"icon_link":null,"link":"http://geocommons.com/overlays/290072.json","extent":[-74.1579,40.6071,-73.0483,41.2798],"geometry_types":["point"],"unique_name":"","name":"Waze Gas Report 2012-11-05 at 00:45","feature_count":10,"description":"","next_feature":null,"is_raster":false,"short_classification":"Y","stats":{"lon":{"max":-73.048264,"variance":0.0852867299854326,"mean":-73.8369169,"stdev":0.292038918614339,"min":-74.157867,"median":-73.888618},"lat":{"max":41.279783,"variance":0.0347201144136003,"mean":40.7901984,"stdev":0.186333342195111,"min":40.607139,"median":40.742762}},"features":[{"properties":{"lon":-73.939717,"city":"Brooklyn","street":"Burnett St","id":"a9uio05zz32p","lat":40.607139,"column_3":"GAS ! Mobil ! Knapp Street &amp; Gerritsen Ave - new delivery now !","state":"NY"},"type":"Feature","geometry":{"type":"Point","coordinates":[-73.939717,40.607139]}},{"properties":{"lon":-73.905225,"city":"Brooklyn","street":"Eastern Pkwy","id":"a9uio06teas7","lat":40.680308,"column_3":"in line for gas! hope to find when at pump! LOL!","state":"NY"},"type":"Feature","geometry":{"type":"Point","coordinates":[-73.905225,40.680308]}},{"properties":{"lon":-73.867979,"city":"Queens","street":"Woodhaven Blvd","id":"a9uio0e3v6fv","lat":40.723134,"column_3":"any gas in queens?","state":"NY"},"type":"Feature","geometry":{"type":"Point","coordinates":[-73.867979,40.723134]}},{"properties":{"lon":-73.888618,"city":"Queens","street":"65th St","id":"a9uio044kzl2","lat":40.696769,"column_3":"attention everyone. gas is available at cooper avenue and cypress hills street. the container line is faster than the car fill up. seriously.","state":"NY"},"type":"Feature","geometry":{"type":"Point","coordinates":[-73.888618,40.696769]}},{"properties":{"lon":-73.917826,"city":"Queens","street":"47th St","id":"a9uio0h2b1z8","lat":40.742762,"column_3":"any gas in queens?","state":"NY"},"type":"Feature","geometry":{"type":"Point","coordinates":[-73.917826,40.742762]}},{"properties":{"lon":-73.882586,"city":"Queens","street":"Astoria Blvd","id":"a9uio0d24xta","lat":40.764245,"column_3":"hi... gas here...!!!","state":"NY"},"type":"Feature","geometry":{"type":"Point","coordinates":[-73.882586,40.764245]}},{"properties":{"lon":-73.805417,"city":null,"street":null,"id":"a9uio05tmi9i","lat":40.722744,"column_3":"I got gas for sale!! $6.00 a gallon.","state":null},"type":"Feature","geometry":{"type":"Point","coordinates":[-73.805417,40.722744]}},{"properties":{"lon":-74.157867,"city":"Nutley","street":"Warren St","id":"a9uio079hivw","lat":40.819974,"column_3":"early moring will have gas","state":"NJ"},"type":"Feature","geometry":{"type":"Point","coordinates":[-74.157867,40.819974]}},{"properties":{"lon":-73.95567,"city":"Englewood Cliffs","street":"Hudson Ter","id":"a9uio0ff09z8","lat":40.865126,"column_3":"palisade parkway headed to gwb has gas no lines","state":"NJ"},"type":"Feature","geometry":{"type":"Point","coordinates":[-73.95567,40.865126]}},{"properties":{"lon":-73.048264,"city":"Orange","street":"Wilbur Cross Pkwy N","id":"a9uio0jba7op","lat":41.279783,"column_3":"why is there a guy at this gas station and he is putting gas in a plastic barrel???? like is it that serious?????","state":"CT"},"type":"Feature","geometry":{"type":"Point","coordinates":[-73.048264,41.279783]}}],"is_temporal":false,"author":{"url":"","metadata":"","contact_name":"","contact_address":"","source":"Waze","contact_phone":""},"source":"","pagination":{"sort":null,"start":0,"total":10,"limit":1000000},"state":"complete","tags":"","published":"2012-11-05T17:00:00Z","id":290072}