{"type":"FeatureCollection","data_type":"Dataset","url_type":null,"permissions":[{"permissions":{"download":true,"view":true},"group_id":"everyone"}],"classification":null,"title":"CONVERTEDmschublatlon2","count":113,"stream_id":290473,"contributor":{"url":"http://geocommons.com/users/12008","name":"pantheon"},"data_attributes":null,"calculation_params":null,"icon_link":null,"link":"http://geocommons.com/overlays/290473.json","extent":[-100.045,36.6263,-78.3286,46.8725],"geometry_types":["point"],"unique_name":null,"name":"CONVERTEDmschublatlon2","feature_count":113,"description":"","next_feature":null,"is_raster":false,"short_classification":"Y","stats":{"lat":{"max":46.8725,"variance":6.57491524471777,"mean":41.0281587339623,"stdev":2.56415975413346,"min":36.62628611,"median":41.52777778},"long":{"max":-78.32861111,"variance":31.5249943721312,"mean":-89.3317278761947,"stdev":5.61471231428033,"min":-100.045372,"median":-89.15583333}},"features":[{"properties":{"city":"LAKE SAINT LOUIS","zip":"63367","county":"ST. CHARLES","country":"USA","site name":"KM DARDENNE MTSO","type":"MTSO","clli":"DRDNMOAD","id":"a9vgpyl6uhst","lat":38.77527778,"address":"1859 S HENKE RD","long":-90.77055556,"state":"MO"},"type":"Feature","geometry":{"type":"Point","coordinates":[-90.77055556,38.77527778]}},{"properties":{"city":"LENEXA","zip":"66210","county":"JOHNSON","country":"USA","site name":"KM LENEXA MTSO","type":"MTSO","clli":"LENYKSCJ","id":"a9vgpytcasg7","lat":38.952236,"address":"9725 PFLUMM RD","long":-94.742023,"state":"KS"},"type":"Feature","geometry":{"type":"Point","coordinates":[-94.742023,38.952236]}},{"properties":{"city":"MOUNDRIDGE","zip":"67107","county":"MCPHERSON","country":"USA","site name":"KM MOUNDRIDGE MTSO","type":"MTSO","clli":"MNRGKSAB","id":"a9vgpyoqh3en","lat":38.1913,"address":"901 INDUSTRIAL PARK DR","long":-97.5068,"state":"KS"},"type":"Feature","geometry":{"type":"Point","coordinates":[-97.5068,38.1913]}},{"properties":{"city":"CARBONDALE","zip":"62902","county":"JACKSON","country":"USA","site name":"KM NEW CARBONDALE MTSO","type":"MTSO","clli":"CRDLIL13","id":"a9vgpyjvxzr0","lat":37.73694444,"address":"1070 N REED STATION RD","long":-89.16333333,"state":"IL"},"type":"Feature","geometry":{"type":"Point","coordinates":[-89.16333333,37.73694444]}},{"properties":{"city":"SPRINGFIELD","zip":"65804","county":"GREENE","country":"USA","site name":"KM SPRINGFIELD MTSO","type":"MTSO","clli":"SPFDMOKC","id":"a9vgpyybv995","lat":37.156388,"address":"3330 E MONTCLAIR ST","long":-93.227427,"state":"MO"},"type":"Feature","geometry":{"type":"Point","coordinates":[-93.227427,37.156388]}},{"properties":{"city":"SAINT LOUIS","zip":"63106","county":"ST. LOUIS CITY","country":"USA","site name":"KM ST LOUIS MTSO","type":"MTSO","clli":"STLSMOYQ","id":"a9vgpytvtu2u","lat":38.63555556,"address":"1710 DR MARTIN LUTHER KING DR","long":-90.20361111,"state":"MO"},"type":"Feature","geometry":{"type":"Point","coordinates":[-90.20361111,38.63555556]}},{"properties":{"city":"BRIDGEVILLE","zip":"15017","county":"ALLEGHENY","country":"USA","site name":"PI MSC BRIDGEVILLE","type":"MTSO","clli":"BGVLPA01","id":"a9vgpynd57wt","lat":40.35166667,"address":"18 ABELE RD","long":-80.12722222,"state":"PA"},"type":"Feature","geometry":{"type":"Point","coordinates":[-80.12722222,40.35166667]}},{"properties":{"city":"BRIDGEVILLE","zip":"15017","county":"ALLEGHENY","country":"USA","site name":"PI MSC BRIDGEVILLE 2","type":"MTSO","clli":"SFTPPA01","id":"a9vgpyvwik2u","lat":40.35111111,"address":"18 ABELE RD, BLDG 2","long":-80.12638889,"state":"PA"},"type":"Feature","geometry":{"type":"Point","coordinates":[-80.12638889,40.35111111]}},{"properties":{"city":"JOHNSTOWN","zip":"15904","county":"CAMBRIA","country":"USA","site name":"PI MSC JOHNSTOWN","type":"MTSO","clli":"JHTWPADPCM2","id":"a9vgpyvc9n31","lat":40.28222222,"address":"107 GAPVAX LN","long":-78.84,"state":"PA"},"type":"Feature","geometry":{"type":"Point","coordinates":[-78.84,40.28222222]}},{"properties":{"city":"PITTSBURGH","zip":"15222","county":"ALLEGHENY","country":"USA","site name":"PI MSC PITTSBURGH","type":"MTSO","clli":"PITBPAMTCM2","id":"a9vgpyiuur4b","lat":40.44888889,"address":"207 16TH ST","long":-79.98694444,"state":"PA"},"type":"Feature","geometry":{"type":"Point","coordinates":[-79.98694444,40.44888889]}},{"properties":{"city":"SAINT CLAIRSVILLE","zip":"43950","county":"BELMONT","country":"USA","site name":"PI MSC ST CLAIRSVILLE","type":"MTSO","clli":"SCVIOHAG","id":"a9vgpys88xgu","lat":40.08222222,"address":"47400 WATSON RD","long":-80.93388889,"state":"OH"},"type":"Feature","geometry":{"type":"Point","coordinates":[-80.93388889,40.08222222]}},{"properties":{"city":"DES MOINES","zip":"50320","county":"POLK","country":"USA","site name":"GP ARMY POST MSC","type":"MTSO","clli":"DESMIAIECM1","id":"a9vgpyl6enu3","lat":41.52777778,"address":"1530 E ARMY POST RD","long":-93.59277778,"state":"IA"},"type":"Feature","geometry":{"type":"Point","coordinates":[-93.59277778,41.52777778]}},{"properties":{"city":"BLOOMINGTON","zip":"55438","county":"HENNEPIN","country":"USA","site name":"GP BLOOMINGTON MTSO","type":"MTSO","clli":"BLTNMN86","id":"a9vgpyxv43kr","lat":44.86024167,"address":"10801 BUSH LAKE RD","long":-93.23633333,"state":"MN"},"type":"Feature","geometry":{"type":"Point","coordinates":[-93.23633333,44.86024167]}},{"properties":{"city":"FARGO","zip":"58103","county":"CASS","country":"USA","site name":"GP FARGO MSC","type":"MTSO","clli":"FARGNDGV","id":"a9vgpyqc8qx0","lat":46.8725,"address":"4121 4TH AVE SW","long":-96.84944444,"state":"ND"},"type":"Feature","geometry":{"type":"Point","coordinates":[-96.84944444,46.8725]}},{"properties":{"city":"GOLDEN VALLEY","zip":"55427","county":"HENNEPIN","country":"USA","site name":"GP GOLDEN VALLEY MSC","type":"MTSO","clli":"GLVYMNNV","id":"a9vgpynkjegh","lat":45.00638889,"address":"2510 MENDELSSOHN AVE N","long":-93.39944444,"state":"MN"},"type":"Feature","geometry":{"type":"Point","coordinates":[-93.39944444,45.00638889]}},{"properties":{"city":"OMAHA","zip":"68114","county":"DOUGLAS","country":"USA","site name":"GP OMAHA MTSO BURT CIRCLE","type":"MTSO","clli":"OMAJNEBMCM5","id":"a9vgpyptz285","lat":41.267,"address":"10640 BURT CIR","long":-96.079,"state":"NE"},"type":"Feature","geometry":{"type":"Point","coordinates":[-96.079,41.267]}},{"properties":{"city":"OWATONNA","zip":"55060","county":"STEELE","country":"USA","site name":"GP OWATONNA MTSO (ALLTEL)","type":"MTSO","clli":"OWTNMNCC","id":"a9vgpyv8qcl6","lat":44.092,"address":"1015 26TH PLACE NW","long":-93.259,"state":"MN"},"type":"Feature","geometry":{"type":"Point","coordinates":[-93.259,44.092]}},{"properties":{"city":"SIOUX FALLS","zip":"57104","county":"MINNEHAHA","country":"USA","site name":"GP SIOUX FALLS MSC","type":"MTSO","clli":"SXFLSDTU","id":"a9vgpykyhyyn","lat":43.546057,"address":"2024 E 50TH ST N","long":-96.764518,"state":"SD"},"type":"Feature","geometry":{"type":"Point","coordinates":[-96.764518,43.546057]}},{"properties":{"city":"OMAHA","zip":"68137","county":"DOUGLAS","country":"USA","site name":"GP WEST OMAHA MSC","type":"MTSO","clli":"OMALNEXUCM1","id":"a9vgpywhtfps","lat":41.21888889,"address":"4002 S 149TH CIR","long":-96.14527778,"state":"NE"},"type":"Feature","geometry":{"type":"Point","coordinates":[-96.14527778,41.21888889]}},{"properties":{"city":"AKRON","zip":"44305","county":"SUMMIT","country":"USA","site name":"OH AKRON MTSO","type":"MTSO","clli":"AKROOH20","id":"a9vgpyt00kp7","lat":41.09666667,"address":"1250 ANNE MARIE PKWY","long":-81.47277778,"state":"OH"},"type":"Feature","geometry":{"type":"Point","coordinates":[-81.47277778,41.09666667]}},{"properties":{"city":"CINCINNATI","zip":"45202","county":"HAMILTON","country":"USA","site name":"OH CINCINNATI MTSO","type":"MTSO","clli":"CNCNOHSM","id":"a9vgpywj7bdy","lat":39.11166667,"address":"1522 CENTRAL PKWY","long":-84.52,"state":"OH"},"type":"Feature","geometry":{"type":"Point","coordinates":[-84.52,39.11166667]}},{"properties":{"city":"GARFIELD HEIGHTS","zip":"44128","county":"CUYAHOGA","country":"USA","site name":"OH CLEVELAND MTSO","type":"MTSO","clli":"GAHGOHBT","id":"a9vgpysojsoa","lat":41.42638889,"address":"4931 ORCHARD RD","long":-81.57722222,"state":"OH"},"type":"Feature","geometry":{"type":"Point","coordinates":[-81.57722222,41.42638889]}},{"properties":{"city":"CINCINNATI","zip":"45246","county":"HAMILTON","country":"USA","site name":"OH DUFF DRIVE MTSO","type":"MTSO","clli":"CNCQOH22","id":"a9vgpypglurp","lat":39.31,"address":"5400 DUFF DR","long":-84.44888889,"state":"OH"},"type":"Feature","geometry":{"type":"Point","coordinates":[-84.44888889,39.31]}},{"properties":{"city":"LEWIS CENTER","zip":"43035","county":"DELAWARE","country":"USA","site name":"OH LEWIS CENTER MTSO","type":"MTSO","clli":"LWCTOH02","id":"a9vgpyx2fsj7","lat":40.17888889,"address":"7575 COMMERCE CT","long":-83.01555556,"state":"OH"},"type":"Feature","geometry":{"type":"Point","coordinates":[-83.01555556,40.17888889]}},{"properties":{"city":"MAUMEE","zip":"43537","county":"LUCAS","country":"USA","site name":"OH MAUMEE MTSO [ALLTEL]","type":"MTSO","clli":"MNTPOHAE","id":"a9vgpyusrt8l","lat":41.57777778,"address":"3530 BRIARFIELD BLVD","long":-83.69527778,"state":"OH"},"type":"Feature","geometry":{"type":"Point","coordinates":[-83.69527778,41.57777778]}},{"properties":{"city":"SOUTHFIELD","zip":"48034","county":"OAKLAND","country":"USA","site name":"MC LAHSER ROAD MTSO6 / 0105 (DETROIT 10 &amp; 11)","type":"MTSO","clli":"SFLEMIFX","id":"a9vgpyrjv1ie","lat":42.44516667,"address":"21009 LAHSER RD","long":-83.26433333,"state":"MI"},"type":"Feature","geometry":{"type":"Point","coordinates":[-83.26433333,42.44516667]}},{"properties":{"city":"SOUTHFIELD","zip":"48034","county":"OAKLAND","country":"USA","site name":"MC LODGE MTSO7","type":"MTSO","clli":"SFLDMILRCM1","id":"a9vgpyszvt1t","lat":42.4675,"address":"24242 NORTHWESTERN HWY","long":-83.23361111,"state":"MI"},"type":"Feature","geometry":{"type":"Point","coordinates":[-83.23361111,42.4675]}},{"properties":{"city":"ROYAL OAK","zip":"48073","county":"OAKLAND","country":"USA","site name":"MC ROYAL OAK MTSO2 / 0101","type":"MTSO","clli":"RYLOMICB","id":"a9vgpysiepcg","lat":42.53027778,"address":"4550 DELEMERE BLVD.","long":-83.17666667,"state":"MI"},"type":"Feature","geometry":{"type":"Point","coordinates":[-83.17666667,42.53027778]}},{"properties":{"city":"WESTLAND","zip":"48185","county":"WAYNE","country":"USA","site name":"MC WESTLAND MTSO5 (DET5) / 0104","type":"MTSO","clli":"CTTPMIBG","id":"a9vgpyy0xm53","lat":42.32638889,"address":"39400 FORD ROAD","long":-83.42777778,"state":"MI"},"type":"Feature","geometry":{"type":"Point","coordinates":[-83.42777778,42.32638889]}},{"properties":{"city":"CHANDLER","zip":"47610","county":"WARRICK","country":"USA","site name":"IN EVANSVILLE MTSO","type":"MTSO","clli":"CHNDINAA","id":"a9vgpyiwoncb","lat":38.02388889,"address":"800 RUSSELL RD","long":-87.36888889,"state":"IN"},"type":"Feature","geometry":{"type":"Point","coordinates":[-87.36888889,38.02388889]}},{"properties":{"city":"INDIANAPOLIS","zip":"46254","county":"MARION","country":"USA","site name":"IN GUION ROAD MTSO","type":"MTSO","clli":"IPLTINQY","id":"a9vgpyqxpdmy","lat":39.82751,"address":"3965 INDUSTRIAL BLVD","long":-86.22706,"state":"IN"},"type":"Feature","geometry":{"type":"Point","coordinates":[-86.22706,39.82751]}},{"properties":{"city":"JEFFERSONTOWN","zip":"40299","county":"JEFFERSON","country":"USA","site name":"IN LOUISVILLE MTSO","type":"MTSO","clli":"LSVLKYWX","id":"a9vgpyrgyiin","lat":38.20972222,"address":"2441 HOLLOWAY RD","long":-85.55472222,"state":"KY"},"type":"Feature","geometry":{"type":"Point","coordinates":[-85.55472222,38.20972222]}},{"properties":{"city":"INDIANAPOLIS","zip":"46214","county":"MARION","country":"USA","site name":"IN WESTSIDE MTSO","type":"MTSO","clli":"IPLUINXI","id":"a9vgpynksorn","lat":39.7875,"address":"1645 MIDWEST BLVD","long":-86.29916667,"state":"IN"},"type":"Feature","geometry":{"type":"Point","coordinates":[-86.29916667,39.7875]}},{"properties":{"city":"ALEXANDRIA","zip":null,"county":null,"country":"USA","site name":"GP ALEXANDRIA MTSO","type":"MTSO\\Hub","clli":null,"id":"a9vgpywjp8fh","lat":45.853778,"address":"3905 DAKOTA ST SW","long":-95.392853,"state":"MN"},"type":"Feature","geometry":{"type":"Point","coordinates":[-95.392853,45.853778]}},{"properties":{"city":"SPRINGFIELD","zip":"62711","county":"SANGAMON","country":"USA","site name":"SP MTSO SPRINGFIELD","type":"MTSO","clli":"SPFDILUP","id":"a9vgpywn8ybh","lat":39.75055556,"address":"3420 CONSTITUTION DR","long":-89.71638889,"state":"IL"},"type":"Feature","geometry":{"type":"Point","coordinates":[-89.71638889,39.75055556]}},{"properties":{"city":"ROCKFORD","zip":"61101","county":"WINNEBAGO","country":"USA","site name":"RO MTSO ROCKFORD","type":"MTSO","clli":"RCFRILAJ","id":"a9vgpyq0t857","lat":42.28361111,"address":"1550 N MEMORIAL BLVD","long":-89.15583333,"state":"IL"},"type":"Feature","geometry":{"type":"Point","coordinates":[-89.15583333,42.28361111]}},{"properties":{"city":"ELGIN","zip":"60124","county":"KANE","country":"USA","site name":"CH MTSO ELGIN","type":"MTSO","clli":"ELGNIL32","id":"a9vgpyuxtgai","lat":42.0715,"address":"1700 BRITANNIA DR","long":-88.3447,"state":"IL"},"type":"Feature","geometry":{"type":"Point","coordinates":[-88.3447,42.0715]}},{"properties":{"city":"HICKORY HILLS","zip":"60457","county":"COOK","country":"USA","site name":"CH MTSO HICKORY HILLS","type":"MTSO","clli":"HCHLILMT","id":"a9vgpywhtj5j","lat":41.7332,"address":"8888 W 87TH ST","long":-87.83877,"state":"IL"},"type":"Feature","geometry":{"type":"Point","coordinates":[-87.83877,41.7332]}},{"properties":{"city":"MISHAWAKA","zip":"46544","county":"ST. JOSEPH","country":"USA","site name":"SB MTSO SOUTH BEND","type":"MTSO","clli":"MSHWINBW","id":"a9vgpyum2z4e","lat":41.65111111,"address":"1528 E 12TH ST","long":-86.15472222,"state":"IN"},"type":"Feature","geometry":{"type":"Point","coordinates":[-86.15472222,41.65111111]}},{"properties":{"city":"NEW BERLIN","zip":"53151","county":"WAUKESHA","country":"USA","site name":"MW MTSO NEW BERLIN","type":"MTSO","clli":"NWBLWICZ","id":"a9vgpyn6smik","lat":42.99583333,"address":"15725 W RYERSON RD","long":-88.10944444,"state":"WI"},"type":"Feature","geometry":{"type":"Point","coordinates":[-88.10944444,42.99583333]}},{"properties":{"city":"APPLETON","zip":"54913","county":"OUTAGAMIE","country":"USA","site name":"AP MTSO APPLETON","type":"MTSO","clli":"APPLWIEE","id":"a9vgpyq58dje","lat":44.26283,"address":"4600 W COLLEGE AVE","long":-88.47488,"state":"WI"},"type":"Feature","geometry":{"type":"Point","coordinates":[-88.47488,44.26283]}},{"properties":{"city":"DEXTER","zip":"67038","county":"COWLEY","country":"USA","site name":"KM DEXTER POP - 111 SOUTH MAIN","type":"Fiber POP","clli":"DXTRKSXA","id":"a9vgpyi8szy7","lat":37.179347,"address":"111 S MAIN ST","long":-96.717327,"state":"KS"},"type":"Feature","geometry":{"type":"Point","coordinates":[-96.717327,37.179347]}},{"properties":{"city":"DODGE CITY","zip":"67801","county":"FORD","country":"USA","site name":"KM DODGE CITY POP - 10582 110 RD","type":"Fiber POP","clli":"DDCYKSFKW00","id":"a9vgpynxep81","lat":37.828273,"address":"10582 110 RD","long":-100.045372,"state":"KS"},"type":"Feature","geometry":{"type":"Point","coordinates":[-100.045372,37.828273]}},{"properties":{"city":"DWIGHT","zip":"66849","county":"MORRIS","country":"USA","site name":"KM DWIGHT POP - 221 7TH STREET","type":"Fiber POP","clli":"DWGHKSXA","id":"a9vgpyy6oc6j","lat":38.842683,"address":"221 7TH ST","long":-96.593946,"state":"KS"},"type":"Feature","geometry":{"type":"Point","coordinates":[-96.593946,38.842683]}},{"properties":{"city":"EMPORIA","zip":"66801","county":"LYON","country":"USA","site name":"KM EMPORIA POP - 4200 W. HIGHWAY 50","type":"Fiber POP","clli":"EMPRKSDI","id":"a9vgpyxn06vp","lat":38.412694,"address":"4200 W HIGHWAY 50","long":-96.237391,"state":"KS"},"type":"Feature","geometry":{"type":"Point","coordinates":[-96.237391,38.412694]}},{"properties":{"city":"GREAT BEND","zip":"67503","county":"BARTON","country":"USA","site name":"KM GREAT BEND POP - 5416 8TH ST","type":"Fiber POP","clli":"GRTBKSFB","id":"a9vgpyv58z55","lat":38.35939,"address":"5416 8TH ST","long":-98.80591,"state":"KS"},"type":"Feature","geometry":{"type":"Point","coordinates":[-98.80591,38.35939]}},{"properties":{"city":"HARRISONVILLE","zip":"64701","county":"CASS","country":"USA","site name":"KM HARRISONVILLE POP - 14201 E. 271 ST","type":"Fiber POP","clli":"HNVLMOAT","id":"a9vgpyp9y4te","lat":38.626521,"address":"14201 E 271ST ST","long":-94.433779,"state":"MO"},"type":"Feature","geometry":{"type":"Point","coordinates":[-94.433779,38.626521]}},{"properties":{"city":"HAYS","zip":"67601","county":"ELLIS","country":"USA","site name":"KM HAYS POP - 600 PARK ST","type":"Fiber POP","clli":"HAYSKSLD","id":"a9vgpyifgzfm","lat":38.871226,"address":"600 PARK ST","long":-99.344028,"state":"KS"},"type":"Feature","geometry":{"type":"Point","coordinates":[-99.344028,38.871226]}},{"properties":{"city":"HOLTON","zip":"66436","county":"JACKSON","country":"USA","site name":"KM HOLTON POP - 19025 Q ROAD (ALLTEL)","type":"Fiber POP","clli":"HLTNKSAY","id":"a9vgpynz1sx1","lat":39.39076,"address":"19025 Q RD","long":-95.7387,"state":"KS"},"type":"Feature","geometry":{"type":"Point","coordinates":[-95.7387,39.39076]}},{"properties":{"city":"HUTCHINSON","zip":"67501","county":"RENO","country":"USA","site name":"KM HUTCHINSON POP - 3409 E 6TH AVE","type":"Fiber POP","clli":"HTSNKSAQ","id":"a9vgpyxdbhza","lat":38.05934,"address":"3409 E 6TH AVE","long":-97.86928,"state":"KS"},"type":"Feature","geometry":{"type":"Point","coordinates":[-97.86928,38.05934]}},{"properties":{"city":"INDEPENDENCE","zip":"67301","county":"MONTGOMERY","country":"USA","site name":"KM INDEPENDENCE POP - 3304 COUNTY ROAD 3200","type":"Fiber POP","clli":"INDPKSBF","id":"a9vgpyybzdjf","lat":37.13833,"address":"3304 COUNTY ROAD 3200","long":-95.764475,"state":"KS"},"type":"Feature","geometry":{"type":"Point","coordinates":[-95.764475,37.13833]}},{"properties":{"city":"JUNCTION CITY","zip":"66441","county":"GEARY","country":"USA","site name":"KM JUNCTION CITY POP - 9400 TULLY HILL RD","type":"Fiber POP","clli":"JNCYKSBQ","id":"a9vgpyi63aka","lat":39.04915,"address":"9400 TULLY HILL RD","long":-96.68583,"state":"KS"},"type":"Feature","geometry":{"type":"Point","coordinates":[-96.68583,39.04915]}},{"properties":{"city":"KANSAS CITY","zip":"64106","county":"JACKSON","country":"USA","site name":"KM KANSAS CITY REGIONAL / NNO POP - SUITE 1220","type":"Fiber POP","clli":"KSCYMOAV","id":"a9vgpyufn5xe","lat":39.10083333,"address":"1102 GRAND BLVD STE 1220","long":-94.58111111,"state":"MO"},"type":"Feature","geometry":{"type":"Point","coordinates":[-94.58111111,39.10083333]}},{"properties":{"city":"PARSONS","zip":"67357","county":"LABETTE","country":"USA","site name":"KM PARSONS POP - 1527 22,000 ROAD","type":"Fiber POP","clli":"PRSSKSBL","id":"a9vgpyqorlsm","lat":37.31055,"address":"1527 22,000 RD","long":-95.263181,"state":"KS"},"type":"Feature","geometry":{"type":"Point","coordinates":[-95.263181,37.31055]}},{"properties":{"city":"PITTSBURG","zip":"66762","county":"CRAWFORD","country":"USA","site name":"KM PITTSBURG REGIONAL / NNO POP- 1910 E ATKINSON AVE","type":"Fiber POP","clli":"PSBGKSCM","id":"a9vgpyjp6wg2","lat":37.440587,"address":"1910 E ATKINSON AVE","long":-94.682625,"state":"KS"},"type":"Feature","geometry":{"type":"Point","coordinates":[-94.682625,37.440587]}},{"properties":{"city":"SALINA","zip":"67402","county":"SALINE","country":"USA","site name":"KM SALINA POP - 167 E AVENUE A","type":"Fiber POP","clli":"SALNKSBI","id":"a9vgpyy7az4l","lat":38.779648,"address":"167 E AVENUE A","long":-97.611047,"state":"KS"},"type":"Feature","geometry":{"type":"Point","coordinates":[-97.611047,38.779648]}},{"properties":{"city":"TECUMSEH (EAST TOPEKA)","zip":"66542","county":"SHAWNEE","country":"USA","site name":"KM TECUMSEH POP - 4832 SE 21ST ST","type":"Fiber POP","clli":"TCMSKSAF","id":"a9vgpysk3tux","lat":39.030265,"address":"4832 SE 21ST ST","long":-95.583549,"state":"KS"},"type":"Feature","geometry":{"type":"Point","coordinates":[-95.583549,39.030265]}},{"properties":{"city":"WICHITA","zip":"67202","county":"SEDGWICK","country":"USA","site name":"KM WICHITA POP - 155 N MARKET ST SUITE LL130","type":"Fiber POP","clli":"WCHTKSMB","id":"a9vgpyxou0ky","lat":37.6881,"address":"155 N MARKET ST STE 130","long":-97.3372,"state":"KS"},"type":"Feature","geometry":{"type":"Point","coordinates":[-97.3372,37.6881]}},{"properties":{"city":"WINFIELD","zip":"67156","county":"COWLEY","country":"USA","site name":"KM WINFIELD POP - 22165 71ST ROAD","type":"Fiber POP","clli":"WNFDKSBH","id":"a9vgpyji6kos","lat":37.16939,"address":"22165 71ST RD","long":-97.02349,"state":"KS"},"type":"Feature","geometry":{"type":"Point","coordinates":[-97.02349,37.16939]}},{"properties":{"city":"MONTICELLO","zip":"55362","county":null,"country":"USA","site name":"Monticello","type":"Fiber POP","clli":null,"id":"a9vgpyi0pd69","lat":45.286663,"address":"3698 School Blvd","long":-93.789867,"state":"MN"},"type":"Feature","geometry":{"type":"Point","coordinates":[-93.789867,45.286663]}},{"properties":{"city":"ST CLOUD","zip":"56301","county":null,"country":"USA","site name":"St Cloud","type":"Fiber POP","clli":null,"id":"a9vgpyl2cqjb","lat":45.540714,"address":"3701 18th Street South","long":-94.202381,"state":"MN"},"type":"Feature","geometry":{"type":"Point","coordinates":[-94.202381,45.540714]}},{"properties":{"city":"FERGUS FALLS","zip":"56537","county":null,"country":"USA","site name":"Fergus Falls","type":"Fiber POP","clli":null,"id":"a9vgpyng0aqz","lat":46.283792,"address":"230 West Lincoln Avenue","long":-96.076923,"state":"MN"},"type":"Feature","geometry":{"type":"Point","coordinates":[-96.076923,46.283792]}},{"properties":{"city":"BELGRADE","zip":null,"county":null,"country":"USA","site name":"Belgrade","type":"Fiber POP","clli":null,"id":"a9vgpyxb3w4r","lat":45.442308,"address":"Hwy 55","long":-94.947676,"state":"MN"},"type":"Feature","geometry":{"type":"Point","coordinates":[-94.947676,45.442308]}},{"properties":{"city":"ATLANTIC","zip":null,"county":"CASS","country":"USA","site name":"Atlantic","type":"Fiber POP","clli":null,"id":"a9vgpyolpc7c","lat":41.3389,"address":"56639 570th Street","long":-95.0986,"state":"IA"},"type":"Feature","geometry":{"type":"Point","coordinates":[-95.0986,41.3389]}},{"properties":{"city":"HAMPTON","zip":null,"county":"FRANKLIN","country":"USA","site name":"Hampton","type":"Fiber POP","clli":null,"id":"a9vgpys4h4bz","lat":42.7418,"address":"Hwy 3 &amp; Central Avenue","long":-93.2218,"state":"IA"},"type":"Feature","geometry":{"type":"Point","coordinates":[-93.2218,42.7418]}},{"properties":{"city":"McCALLSBURG","zip":null,"county":"STORY","country":"USA","site name":"McCallsburg","type":"Fiber POP","clli":null,"id":"a9vgpyla1wr1","lat":42.16515,"address":"Hwy 221 &amp; Main Street","long":-93.39442,"state":"IA"},"type":"Feature","geometry":{"type":"Point","coordinates":[-93.39442,42.16515]}},{"properties":{"city":"NORTHWOOD","zip":null,"county":"WORTH","country":"USA","site name":"Northwood","type":"Fiber POP","clli":null,"id":"a9vgpylc5bwn","lat":43.45713,"address":"1111 8th Street North","long":-93.22095,"state":"IA"},"type":"Feature","geometry":{"type":"Point","coordinates":[-93.22095,43.45713]}},{"properties":{"city":"STUART","zip":null,"county":"ADAIR","country":"USA","site name":"Stuart","type":"Fiber POP","clli":null,"id":"a9vgpyndcx65","lat":41.5038,"address":"E Front St &amp; S Division St","long":-94.3185,"state":"IA"},"type":"Feature","geometry":{"type":"Point","coordinates":[-94.3185,41.5038]}},{"properties":{"city":"FARMINGTON","zip":"55024","county":null,"country":"USA","site name":"Eureka Center","type":"Fiber POP","clli":null,"id":"a9vgpyu9im5l","lat":44.58597,"address":"25070 Cedar Ave","long":-93.21801,"state":"MN"},"type":"Feature","geometry":{"type":"Point","coordinates":[-93.21801,44.58597]}},{"properties":{"city":"ANN ARBOR","zip":"48106","county":null,"country":"USA","site name":"MC ANN ARBOR POP (AT&amp;T colocation)","type":"Fiber POP","clli":"ANARMIMNH43","id":"a9vgpyl97m8c","lat":42.28147,"address":"324 EAST HURON","long":-83.74436,"state":"MI"},"type":"Feature","geometry":{"type":"Point","coordinates":[-83.74436,42.28147]}},{"properties":{"city":"BATTLE CREEK","zip":"49017","county":null,"country":"USA","site name":"MC BATTLE CREEK POP (AT&amp;T colocation)","type":"Fiber POP","clli":"BTCKMIMNH27","id":"a9vgpywweeit","lat":42.31567,"address":"94 EAST MICHIGAN","long":-85.17887,"state":"MI"},"type":"Feature","geometry":{"type":"Point","coordinates":[-85.17887,42.31567]}},{"properties":{"city":"GRAND RAPIDS","zip":"49053","county":null,"country":"USA","site name":"MC GRAND RAPIDS POP (AT&amp;T colocation)","type":"Fiber POP","clli":"GDRPMIBLH65","id":"a9vgpyxxh94a","lat":42.89694444,"address":"114 DIVISION AVE N","long":-85.81055556,"state":"MI"},"type":"Feature","geometry":{"type":"Point","coordinates":[-85.81055556,42.89694444]}},{"properties":{"city":"JACKSON","zip":"49201","county":null,"country":"USA","site name":"MC JACKSON POP (AT&amp;T colocation)","type":"Fiber POP","clli":"JCSNMIMNH41","id":"a9vgpyr5amnn","lat":42.24563,"address":"304 S JACKSON ST","long":-84.40919,"state":"MI"},"type":"Feature","geometry":{"type":"Point","coordinates":[-84.40919,42.24563]}},{"properties":{"city":"KALAMAZOO","zip":"49007","county":null,"country":"USA","site name":"MC KALAMAZOO POP (AT&amp;T colocation)","type":"Fiber POP","clli":"KLMZMIFAH48","id":"a9vgpyqnkt53","lat":42.28904,"address":"133 W LOVELL ST","long":-85.58365,"state":"MI"},"type":"Feature","geometry":{"type":"Point","coordinates":[-85.58365,42.28904]}},{"properties":{"city":"LANSING","zip":"48933","county":null,"country":"USA","site name":"MC LANSING POP (AT&amp;T colocation)","type":"Fiber POP","clli":"LNNGMIMNH43","id":"a9vgpyi13uhu","lat":42.73494444,"address":"221 N WASHINGTON SQ","long":-84.55245,"state":"MI"},"type":"Feature","geometry":{"type":"Point","coordinates":[-84.55245,42.73494444]}},{"properties":{"city":"MOUNT PLEASANT","zip":"48858","county":null,"country":"USA","site name":"MC MOUNT PLEASANT POP (Frontier colocation)","type":"Fiber POP","clli":"MNPLMIXGW09","id":"a9vgpywr0e1r","lat":43.602863,"address":"303 MAIN ST","long":-84.776669,"state":"MI"},"type":"Feature","geometry":{"type":"Point","coordinates":[-84.776669,43.602863]}},{"properties":{"city":"MUSKEGON","zip":"49440","county":null,"country":"USA","site name":"MC MUSKEGON POP (Frontier colocation)","type":"Fiber POP","clli":"MSKGMIXKW24","id":"a9vgpyo9cxq5","lat":43.237872,"address":"860 TERRACE ST","long":-86.247357,"state":"MI"},"type":"Feature","geometry":{"type":"Point","coordinates":[-86.247357,43.237872]}},{"properties":{"city":"PONTIAC","zip":"48342","county":null,"country":"USA","site name":"MC PONTIAC POP (AT&amp;T colocation)","type":"Fiber POP","clli":"PNTCMIMNH32","id":"a9vgpyrpyfo2","lat":42.63953,"address":"54 N MILL ST","long":-83.28901,"state":"MI"},"type":"Feature","geometry":{"type":"Point","coordinates":[-83.28901,42.63953]}},{"properties":{"city":"SAGINAW","zip":"48601","county":null,"country":"USA","site name":"MC SAGINAW POP (AT&amp;T colocation)","type":"Fiber POP","clli":"SGNWMIFAH18","id":"a9vgpyu0769n","lat":43.43064,"address":"309 S WASHINGTON RD","long":-83.939885,"state":"MI"},"type":"Feature","geometry":{"type":"Point","coordinates":[-83.939885,43.43064]}},{"properties":{"city":"TROY","zip":"48084","county":null,"country":"USA","site name":"MC TROY POP (AT&amp;T colocation)","type":"Fiber POP","clli":"TROYMIMNBJ","id":"a9vgpyjlba5q","lat":42.54434,"address":"1145 ROCHESTER RD","long":-83.13494,"state":"MI"},"type":"Feature","geometry":{"type":"Point","coordinates":[-83.13494,42.54434]}},{"properties":{"city":"WAYNE","zip":"48184","county":null,"country":"USA","site name":"MC WAYNE POP (AT&amp;T colocation)","type":"Fiber POP","clli":"WAYNMIMNH36","id":"a9vgpyxrq0g1","lat":42.28077,"address":"34656 E MICHIGAN AVE","long":-83.37967,"state":"MI"},"type":"Feature","geometry":{"type":"Point","coordinates":[-83.37967,42.28077]}},{"properties":{"city":"WEST BLOOMFIELD","zip":"48322","county":null,"country":"USA","site name":"MC WEST BLOOMFIELD POP (AT&amp;T colocation)","type":"Fiber POP","clli":"WBFDMIMNH84","id":"a9vgpymp439a","lat":42.53665,"address":"7020 MIDDLEBELT RD","long":-83.34134,"state":"MI"},"type":"Feature","geometry":{"type":"Point","coordinates":[-83.34134,42.53665]}},{"properties":{"city":"COLUMBIA","zip":"65201","county":"BOONE","country":"USA","site name":"KM OLD 63 PCS","type":"CELL","clli":"CLMAMO45","id":"a9vgpyi86fvo","lat":38.91583333,"address":"3104 OLD 63 HIGHWAY S","long":-92.30277778,"state":"MO"},"type":"Feature","geometry":{"type":"Point","coordinates":[-92.30277778,38.91583333]}},{"properties":{"city":"DESOTO","zip":"63020","county":"JEFFERSON","country":"USA","site name":"KM PERKINS","type":"CELL","clli":"DESTMO05","id":"a9vgpyoa93qz","lat":38.09162778,"address":"14253B STATE ROUTE 21","long":-90.62564722,"state":"MO"},"type":"Feature","geometry":{"type":"Point","coordinates":[-90.62564722,38.09162778]}},{"properties":{"city":"SAINT MARY","zip":"63673","county":"PERRY","country":"USA","site name":"KM N PERRYVILLE","type":"CELL","clli":"SYTSMO01","id":"a9vgpyvedn18","lat":37.82156667,"address":"1093 PCR 830","long":-89.95930833,"state":"MO"},"type":"Feature","geometry":{"type":"Point","coordinates":[-89.95930833,37.82156667]}},{"properties":{"city":"JACKSON","zip":"63755","county":"CAPE GIRARDEAU","country":"USA","site name":"KM DT JACKSON","type":"CELL","clli":"JCSNMOAN","id":"a9vgpymjt1rp","lat":37.37805556,"address":"525 S HOPE","long":-89.6675,"state":"MO"},"type":"Feature","geometry":{"type":"Point","coordinates":[-89.6675,37.37805556]}},{"properties":{"city":"CAPE GIRARDEAU","zip":"63703","county":"CAPE GIRARDEAU","country":"USA","site name":"KM WEST CAPE GIRARDEAU","type":"CELL","clli":"CPGRMO06","id":"a9vgpymqvnwu","lat":37.288724,"address":"352 S SILVER SPRINGS RD","long":-89.564875,"state":"MO"},"type":"Feature","geometry":{"type":"Point","coordinates":[-89.564875,37.288724]}},{"properties":{"city":"SIKESTON","zip":"63801","county":"SCOTT","country":"USA","site name":"KM SIKESTON II","type":"CELL","clli":"SKSTMOEQ","id":"a9vgpyxx05ax","lat":36.87888889,"address":"317 N WEST ST","long":-89.59972222,"state":"MO"},"type":"Feature","geometry":{"type":"Point","coordinates":[-89.59972222,36.87888889]}},{"properties":{"city":"DEXTER","zip":"63841","county":"STODDARD","country":"USA","site name":"KM DEXTER","type":"CELL","clli":"DXTRMO03","id":"a9vgpytzv7hp","lat":36.83027778,"address":"COUNTY ROAD 413/460","long":-89.97194444,"state":"MO"},"type":"Feature","geometry":{"type":"Point","coordinates":[-89.97194444,36.83027778]}},{"properties":{"city":"POPLAR BLUFF","zip":"63901","county":"BUTLER","country":"USA","site name":"KM POPLAR BLUFF NE","type":"CELL","clli":"PPBLMO09","id":"a9vgpyqbrpwd","lat":36.78083333,"address":"2305 GRAND AVE","long":-90.38666667,"state":"MO"},"type":"Feature","geometry":{"type":"Point","coordinates":[-90.38666667,36.78083333]}},{"properties":{"city":"DONIPHAN","zip":"63935","county":"RIPLEY","country":"USA","site name":"KM DONIPHAN PCS","type":"CELL","clli":"DNPHMO01","id":"a9vgpyw0vh82","lat":36.62628611,"address":"HIGHWAY 160","long":-90.83343611,"state":"MO"},"type":"Feature","geometry":{"type":"Point","coordinates":[-90.83343611,36.62628611]}},{"properties":{"city":"EVERETT","zip":"15537","county":"BEDFORD","country":"USA","site name":"PI MENCH","type":"CELL","clli":"EVRTPA03","id":"a9vgpyr6aa1s","lat":39.99444444,"address":"19880 RITCHEY RD","long":-78.32861111,"state":"PA"},"type":"Feature","geometry":{"type":"Point","coordinates":[-78.32861111,39.99444444]}},{"properties":{"city":"DECATUR","zip":"68020","county":null,"country":"USA","site name":"GP DECATUR","type":"CELL","clli":null,"id":"a9vgpypyw3xa","lat":42.0078,"address":"661 W 7TH ST - TELCO ADDR: 653 N 6TH AVE","long":-96.2568,"state":"NE"},"type":"Feature","geometry":{"type":"Point","coordinates":[-96.2568,42.0078]}},{"properties":{"city":"SIOUX CITY","zip":"51104","county":null,"country":"USA","site name":"GP HAMILTON","type":"CELL","clli":null,"id":"a9vgpylp6w91","lat":42.51142,"address":"510 W 20TH ST","long":-96.40493,"state":"IA"},"type":"Feature","geometry":{"type":"Point","coordinates":[-96.40493,42.51142]}},{"properties":{"city":"BERESFORD","zip":"57004","county":null,"country":"USA","site name":"GP BERESFORD II","type":"CELL","clli":null,"id":"a9vgpyii411e","lat":43.00983,"address":"30391 471st AVE","long":-96.78586,"state":"SD"},"type":"Feature","geometry":{"type":"Point","coordinates":[-96.78586,43.00983]}},{"properties":{"city":"ALBION","zip":"49224","county":"CALHOUN","country":"USA","site name":"MC ALBION/5864","type":"CELL","clli":"SHTCMIABH01","id":"a9vgpyjdh4ny","lat":43.54722222,"address":"26616 E DR","long":-83.93333333,"state":"MI"},"type":"Feature","geometry":{"type":"Point","coordinates":[-83.93333333,43.54722222]}},{"properties":{"city":"BAY CITY","zip":"48706","county":"BAY","country":"USA","site name":"MC BAY CITY /0255","type":"CELL","clli":"BYCYMIBN","id":"a9vgpyof7hcw","lat":42.39613889,"address":"6645 SOUTH 2-MILE RD","long":-85.96613889,"state":"MI"},"type":"Feature","geometry":{"type":"Point","coordinates":[-85.96613889,42.39613889]}},{"properties":{"city":"BLOOMINGDALE","zip":"49026","county":"VAN BUREN","country":"USA","site name":"MC BLOOMINGDALE/5815","type":"CELL","clli":"BLDLMI","id":"a9vgpyuzmcnj","lat":42.3656,"address":"42879 6TH AVE","long":-86.12310556,"state":"MI"},"type":"Feature","geometry":{"type":"Point","coordinates":[-86.12310556,42.3656]}},{"properties":{"city":"GRAND JUNCTION","zip":"49056","county":"VAN BUREN","country":"USA","site name":"MC BREEDSVILLE /5802","type":"CELL","clli":"BNGRMI","id":"a9vgpys84c08","lat":43.28611111,"address":"59420 16TH AVE","long":-83.94694444,"state":"MI"},"type":"Feature","geometry":{"type":"Point","coordinates":[-83.94694444,43.28611111]}},{"properties":{"city":"BURT","zip":"48417","county":"SAGINAW","country":"USA","site name":"MC BRIDGEPORT /0238","type":"CELL","clli":"BRPTMISO","id":"a9vgpyv3jmnb","lat":43.44919444,"address":"1686 W SLOAN RD","long":-83.92691667,"state":"MI"},"type":"Feature","geometry":{"type":"Point","coordinates":[-83.92691667,43.44919444]}},{"properties":{"city":"SAGINAW","zip":"48601","county":"SAGINAW","country":"USA","site name":"MC CARROLTON PCS/0247","type":"CELL","clli":"SGNWMICH00","id":"a9vgpyqkg8st","lat":43.2367,"address":"1701 NORTH 6TH AVE","long":-84.2108,"state":"MI"},"type":"Feature","geometry":{"type":"Point","coordinates":[-84.2108,43.2367]}},{"properties":{"city":"BRANT","zip":"48614","county":"SAGINAW","country":"USA","site name":"MC CHESANING BRANT /0231","type":"CELL","clli":"BRNTMI","id":"a9vgpyukqd27","lat":42.61111111,"address":"12560 RAUCHOLZ RD","long":-86.13194444,"state":"MI"},"type":"Feature","geometry":{"type":"Point","coordinates":[-86.13194444,42.61111111]}},{"properties":{"city":"FENNVILLE","zip":"49408","county":"ALLEGAN","country":"USA","site name":"MC FENNVILLE/5953","type":"CELL","clli":"FNVLMIABH01","id":"a9vgpywauqfl","lat":42.93333333,"address":"2633 60TH ST","long":-85.74194444,"state":"MI"},"type":"Feature","geometry":{"type":"Point","coordinates":[-85.74194444,42.93333333]}},{"properties":{"city":"WALKER","zip":"49544","county":"KENT","country":"USA","site name":"MC GRANDVILLE/1545","type":"CELL","clli":"GDRPMINUH02","id":"a9vgpymn517m","lat":43.37722222,"address":"3131 VETERANS MEM DR","long":-83.88833333,"state":"MI"},"type":"Feature","geometry":{"type":"Point","coordinates":[-83.88833333,43.37722222]}},{"properties":{"city":"SAGINAW","zip":"48601","county":"SAGINAW","country":"USA","site name":"MC KING ROAD/0243","type":"CELL","clli":"BRPTMIABH00","id":"a9vgpyquxe6a","lat":42.683361,"address":"3350 KING RD","long":-84.377222,"state":"MI"},"type":"Feature","geometry":{"type":"Point","coordinates":[-84.377222,42.683361]}},{"properties":{"city":"OKEMOS","zip":"48864","county":"INGHAM","country":"USA","site name":"MC MERIDIAN (Lansing mtso)/5411","type":"CELL","clli":"OKMSMIAR","id":"a9vgpyvz4pfi","lat":42.2675,"address":"820 JOLLY RD","long":-84.62194444,"state":"MI"},"type":"Feature","geometry":{"type":"Point","coordinates":[-84.62194444,42.2675]}},{"properties":{"city":"PARMA","zip":"49269","county":"JACKSON","country":"USA","site name":"MC PARMA/5703","type":"CELL","clli":"PARMMIAA","id":"a9vgpyi6kxal","lat":42.915,"address":"12280 MICHIGAN AVE","long":-85.00805556,"state":"MI"},"type":"Feature","geometry":{"type":"Point","coordinates":[-85.00805556,42.915]}},{"properties":{"city":"PORTLAND","zip":"48875","county":"IONIA","country":"USA","site name":"MC PORTLAND / 5402","type":"CELL","clli":"PTLDMIAE","id":"a9vgpymplkib","lat":42.89972305,"address":"3321 GOODWIN RD","long":-85.2444458,"state":"MI"},"type":"Feature","geometry":{"type":"Point","coordinates":[-85.2444458,42.89972305]}},{"properties":{"city":"LOWELL","zip":"49331","county":"IONIA","country":"USA","site name":"MC SARANAC 100406","type":"CELL","clli":"SRNCMIDC","id":"a9vgpywhrxwj","lat":43.405,"address":"8575 PECK LK RD","long":-84.13636111,"state":"MI"},"type":"Feature","geometry":{"type":"Point","coordinates":[-84.13636111,43.405]}},{"properties":{"city":"SAGINAW","zip":"48603","county":"SAGINAW","country":"USA","site name":"MC SHIELDS /0239","type":"CELL","clli":"SGNWMISH42","id":"a9vgpyxi09vj","lat":42.34472275,"address":"11275 SHOEMAKER RD","long":-85.55722046,"state":"MI"},"type":"Feature","geometry":{"type":"Point","coordinates":[-85.55722046,42.34472275]}},{"properties":{"city":"KALAMAZOO","zip":"49004","county":"KALAMAZOO","country":"USA","site name":"MC TRAVIS RD. /5826","type":"CELL","clli":"KLMZMIGOW70","id":"a9vgpyxasfxw","lat":42.30003,"address":"2958 TRAVIS RD","long":-84.320777,"state":"MI"},"type":"Feature","geometry":{"type":"Point","coordinates":[-84.320777,42.30003]}},{"properties":{"city":"JACKSON","zip":"49201","county":"JACKSON","country":"USA","site name":"MC TRUMBLA ROAD/5702","type":"CELL","clli":"MCHCMIAAH00","id":"a9vgpyvrq9hv","lat":42.78638,"address":"6358 TRUMBLE RD","long":-86.021388,"state":"MI"},"type":"Feature","geometry":{"type":"Point","coordinates":[-86.021388,42.78638]}},{"properties":{"city":"ZEELAND","zip":"49464","county":"OTTAWA","country":"USA","site name":"MC ZEELAND/1540","type":"CELL","clli":"ZELDMIANH00","id":"a9vgpyv1nsre","lat":42.7866,"address":"9717 ADAMS","long":-86.02145,"state":"MI"},"type":"Feature","geometry":{"type":"Point","coordinates":[-86.02145,42.7866]}}],"is_temporal":false,"author":{"url":"","metadata":"","contact_name":"","contact_address":"","source":"","contact_phone":""},"source":"","pagination":{"sort":null,"start":0,"total":113,"limit":1000000},"state":"complete","tags":"","published":"2014-08-14T15:55:23-04:00","id":290473}