{"type":"FeatureCollection","data_type":"Dataset","url_type":null,"permissions":[{"permissions":{"download":true,"view":true},"group_id":"everyone"}],"classification":null,"title":"Traveling Sales","count":80,"stream_id":292105,"contributor":{"url":"http://geocommons.com/users/55483","name":"rozburn"},"data_attributes":null,"calculation_params":null,"icon_link":null,"link":"http://geocommons.com/overlays/292105.json","extent":[-149.762,-37.6833,150.217,60.2667],"geometry_types":["point"],"unique_name":null,"name":"Traveling Sales","feature_count":80,"description":"","next_feature":null,"is_raster":false,"short_classification":"Y","stats":{"west":{"max":-5.67,"variance":1.26129844050633,"mean":-7.7627,"stdev":1.12307543847523,"min":-9.696,"median":-7.72},"north":{"max":55.136,"variance":0.98169787278481,"mean":53.354525,"stdev":0.990806677805923,"min":51.622,"median":53.382}},"features":[{"properties":{"county":"Limerick","geo_score":0.714,"town":"Abbeyfeale","west":-9.294,"id":"a9zem5g9uic3","north":52.386,"geo_precision":"zip"},"type":"Feature","geometry":{"type":"Point","coordinates":[-73.3528971,41.7270398]}},{"properties":{"county":"Limerick","geo_score":0.714,"town":"Adare","west":-8.79,"id":"a9zem5h94qkr","north":52.564,"geo_precision":"zip"},"type":"Feature","geometry":{"type":"Point","coordinates":[90.4833333,23.9833333]}},{"properties":{"county":"Wicklow","geo_score":0.714,"town":"Arklow","west":-6.165,"id":"a9zem5lauggq","north":52.794,"geo_precision":"zip"},"type":"Feature","geometry":{"type":"Point","coordinates":[-4.3166667,48.25]}},{"properties":{"county":"Armagh","geo_score":0.714,"town":"Armagh","west":-6.655,"id":"a9zem5prjpgh","north":54.35,"geo_precision":"zip"},"type":"Feature","geometry":{"type":"Point","coordinates":[39.816667,10.783333]}},{"properties":{"county":"Westmeath","geo_score":0.714,"town":"Athlone","west":-7.95,"id":"a9zem5juorw2","north":53.433,"geo_precision":"zip"},"type":"Feature","geometry":{"type":"Point","coordinates":[18.5,-33.9666667]}},{"properties":{"county":"Kildare","geo_score":0.714,"town":"Athy","west":-6.987,"id":"a9zem5h6jcqv","north":52.992,"geo_precision":"zip"},"type":"Feature","geometry":{"type":"Point","coordinates":[-1.3833333,60.2666667]}},{"properties":{"county":"Mayo","geo_score":0.714,"town":"Ballina","west":-9.167,"id":"a9zem5q9xbbq","north":54.117,"geo_precision":"zip"},"type":"Feature","geometry":{"type":"Point","coordinates":[7.85,47.8]}},{"properties":{"county":"Mayo","geo_score":0.714,"town":"Ballinrobe","west":-9.233,"id":"a9zem5i602d5","north":53.633,"geo_precision":"zip"},"type":"Feature","geometry":{"type":"Point","coordinates":[-9.2333333,53.6333333]}},{"properties":{"county":"Donegal","geo_score":0.714,"town":"Ballybofe","west":-7.79,"id":"a9zem5edrh54","north":54.8,"geo_precision":"zip"},"type":"Feature","geometry":{"type":"Point","coordinates":[1.1438,49.3893]}},{"properties":{"county":"Antrim","geo_score":0.714,"town":"Ballymena","west":-6.284,"id":"a9zem5r871fw","north":54.863,"geo_precision":"zip"},"type":"Feature","geometry":{"type":"Point","coordinates":[55.3,-21.0]}},{"properties":{"county":"Antrim","geo_score":0.714,"town":"Ballymoney","west":-6.508,"id":"a9zem5lpxrc9","north":55.071,"geo_precision":"zip"},"type":"Feature","geometry":{"type":"Point","coordinates":[55.3,-21.0]}},{"properties":{"county":"Sligo","geo_score":0.714,"town":"Ballymote","west":-8.517,"id":"a9zem5mzvxsq","north":54.09,"geo_precision":"zip"},"type":"Feature","geometry":{"type":"Point","coordinates":[39.34,54.94]}},{"properties":{"county":"Donegal","geo_score":0.714,"town":"Ballyshannon","west":-8.19,"id":"a9zem5p6lmgg","north":54.502,"geo_precision":"zip"},"type":"Feature","geometry":{"type":"Point","coordinates":[-7.0786111,52.1788889]}},{"properties":{"county":"Down","geo_score":0.714,"town":"Banbridge","west":-6.26,"id":"a9zem5kh2oil","north":54.343,"geo_precision":"zip"},"type":"Feature","geometry":{"type":"Point","coordinates":[-3.87366,56.00405]}},{"properties":{"county":"Cork","geo_score":0.714,"town":"Bandon","west":-8.735,"id":"a9zem5r6onem","north":51.746,"geo_precision":"zip"},"type":"Feature","geometry":{"type":"Point","coordinates":[30.7666667,-22.8833333]}},{"properties":{"county":"Down","geo_score":0.857,"town":"Bangor","west":-5.67,"id":"a9zem5nk2kbr","north":54.66,"geo_precision":"zip"},"type":"Feature","geometry":{"type":"Point","coordinates":[-58.5,44.5]}},{"properties":{"county":"Cork","geo_score":0.714,"town":"Bantry","west":-9.453,"id":"a9zem5mwgtvp","north":51.68,"geo_precision":"zip"},"type":"Feature","geometry":{"type":"Point","coordinates":[-62.2666667,-28.9]}},{"properties":{"county":"Offaly","geo_score":0.714,"town":"Birr","west":-7.913,"id":"a9zem5q6627z","north":53.091,"geo_precision":"zip"},"type":"Feature","geometry":{"type":"Point","coordinates":[15.8,4.7166667]}},{"properties":{"county":"Donegal","geo_score":0.714,"town":"Buncrana","west":-7.456,"id":"a9zem5mloumj","north":55.136,"geo_precision":"zip"},"type":"Feature","geometry":{"type":"Point","coordinates":[98.9833333,16.1833333]}},{"properties":{"county":"Monaghan","geo_score":0.714,"town":"Carrickmacross","west":-6.719,"id":"a9zem5cpxzpa","north":53.976,"geo_precision":"zip"},"type":"Feature","geometry":{"type":"Point","coordinates":[-53.3666667,3.6333333]}},{"properties":{"county":"Mayo","geo_score":0.857,"town":"Castlebar","west":-9.299,"id":"a9zem5fxl71u","north":53.861,"geo_precision":"zip"},"type":"Feature","geometry":{"type":"Point","coordinates":[-91.4166667,26.35]}},{"properties":{"county":"Roscommon","geo_score":0.857,"town":"Castlerea","west":-8.5,"id":"a9zem5kxdo0v","north":53.767,"geo_precision":"zip"},"type":"Feature","geometry":{"type":"Point","coordinates":[-51.35,36.2833333]}},{"properties":{"county":"Cavan","geo_score":0.714,"town":"Cavan","west":-7.36,"id":"a9zem5dwuc8c","north":53.991,"geo_precision":"zip"},"type":"Feature","geometry":{"type":"Point","coordinates":[17.9663889,43.7369444]}},{"properties":{"county":"Cork","geo_score":0.714,"town":"Clonakilty","west":-8.886,"id":"a9zem5i6k4wj","north":51.622,"geo_precision":"zip"},"type":"Feature","geometry":{"type":"Point","coordinates":[121.8950234,25.1098688]}},{"properties":{"county":"Tipperary","geo_score":0.714,"town":"Clonmel","west":-7.712,"id":"a9zem5jef2cp","north":52.354,"geo_precision":"zip"},"type":"Feature","geometry":{"type":"Point","coordinates":[-8.1072222,51.9936111]}},{"properties":{"county":"Cork","geo_score":0.714,"town":"Cork","west":-8.47,"id":"a9zem5qpngz1","north":51.897,"geo_precision":"zip"},"type":"Feature","geometry":{"type":"Point","coordinates":[-2.5253835,14.1400615]}},{"properties":{"county":"Derry","geo_score":0.714,"town":"Derry","west":-7.307,"id":"a9zem5opqo4n","north":54.996,"geo_precision":"zip"},"type":"Feature","geometry":{"type":"Point","coordinates":[66.76,32.4]}},{"properties":{"county":"Down","geo_score":0.714,"town":"Downpatrick","west":-5.703,"id":"a9zem5rz2h51","north":54.322,"geo_precision":"zip"},"type":"Feature","geometry":{"type":"Point","coordinates":[-79.8166667,9.1833333]}},{"properties":{"county":"Louth","geo_score":0.714,"town":"Drogheda","west":-6.35,"id":"a9zem5c21uol","north":53.714,"geo_precision":"zip"},"type":"Feature","geometry":{"type":"Point","coordinates":[74.9666667,33.0333333]}},{"properties":{"county":"Leitrim","geo_score":0.714,"town":"Drumshanbo","west":-8.033,"id":"a9zem5r52c6n","north":54.05,"geo_precision":"zip"},"type":"Feature","geometry":{"type":"Point","coordinates":[51.0258333,31.1175]}},{"properties":{"county":"Dublin","geo_score":0.714,"town":"Dublin","west":-6.26,"id":"a9zem5n93dmn","north":53.348,"geo_precision":"zip"},"type":"Feature","geometry":{"type":"Point","coordinates":[13.1166667,51.1166667]}},{"properties":{"county":"Louth","geo_score":0.714,"town":"Dundalk","west":-6.405,"id":"a9zem5n8kbm4","north":54.009,"geo_precision":"zip"},"type":"Feature","geometry":{"type":"Point","coordinates":[2.7333333,36.0833333]}},{"properties":{"county":"Tyrone","geo_score":0.857,"town":"Dungannon","west":-6.77,"id":"a9zem5mjcs9m","north":54.5,"geo_precision":"zip"},"type":"Feature","geometry":{"type":"Point","coordinates":[136.7,30.15]}},{"properties":{"county":"Waterford","geo_score":0.714,"town":"Dungarvan","west":-7.64,"id":"a9zem5irdkrx","north":52.085,"geo_precision":"zip"},"type":"Feature","geometry":{"type":"Point","coordinates":[-113.768610932,49.233261802]}},{"properties":{"county":"Clare","geo_score":0.714,"town":"Ennis","west":-8.981,"id":"a9zem5lk76lp","north":52.846,"geo_precision":"zip"},"type":"Feature","geometry":{"type":"Point","coordinates":[-1.25,47.8166667]}},{"properties":{"county":"Wexford","geo_score":0.714,"town":"Enniscorthy","west":-6.566,"id":"a9zem5qkkqvz","north":52.502,"geo_precision":"zip"},"type":"Feature","geometry":{"type":"Point","coordinates":[-119.119056869,50.794209488]}},{"properties":{"county":"Fermanagh","geo_score":0.714,"town":"Enniskillen","west":-7.64,"id":"a9zem5j2lqpq","north":54.345,"geo_precision":"zip"},"type":"Feature","geometry":{"type":"Point","coordinates":[-79.653213608,43.465912833]}},{"properties":{"county":"Cork","geo_score":0.714,"town":"Fermoy","west":-8.276,"id":"a9zem5imefek","north":52.141,"geo_precision":"zip"},"type":"Feature","geometry":{"type":"Point","coordinates":[10.0,56.4]}},{"properties":{"county":"Galway","geo_score":0.714,"town":"Galway","west":-9.049,"id":"a9zem5jpgip7","north":53.272,"geo_precision":"zip"},"type":"Feature","geometry":{"type":"Point","coordinates":[12.9166667,9.1666667]}},{"properties":{"county":"Wexford","geo_score":0.714,"town":"Gorey","west":-6.292,"id":"a9zem5h6tvs8","north":52.677,"geo_precision":"zip"},"type":"Feature","geometry":{"type":"Point","coordinates":[-99.5245277,33.4673183]}},{"properties":{"county":"Meath","geo_score":0.714,"town":"Kells","west":-6.878,"id":"a9zem5by3xmf","north":53.728,"geo_precision":"zip"},"type":"Feature","geometry":{"type":"Point","coordinates":[17.6427778,43.2811111]}},{"properties":{"county":"Kerry","geo_score":0.714,"town":"Kenmare","west":-9.584,"id":"a9zem5h03jhc","north":51.88,"geo_precision":"zip"},"type":"Feature","geometry":{"type":"Point","coordinates":[142.2833333,-24.2166667]}},{"properties":{"county":"Kildare","geo_score":0.714,"town":"Kildare","west":-6.911,"id":"a9zem5q42j1p","north":53.158,"geo_precision":"zip"},"type":"Feature","geometry":{"type":"Point","coordinates":[-1.31160279819014,41.5280185405448]}},{"properties":{"county":"Kilkenny","geo_score":0.714,"town":"Kilkenny","west":-7.256,"id":"a9zem5qdfcma","north":52.648,"geo_precision":"zip"},"type":"Feature","geometry":{"type":"Point","coordinates":[21.9075,43.6388889]}},{"properties":{"county":"Kerry","geo_score":0.714,"town":"Killarney","west":-9.507,"id":"a9zem5mdb5ut","north":52.059,"geo_precision":"zip"},"type":"Feature","geometry":{"type":"Point","coordinates":[15.9833333,48.2833333]}},{"properties":{"county":"Clare","geo_score":0.714,"town":"Kilrush","west":-9.486,"id":"a9zem5pvwb0s","north":52.64,"geo_precision":"zip"},"type":"Feature","geometry":{"type":"Point","coordinates":[2.8333333,49.45]}},{"properties":{"county":"Cork","geo_score":0.714,"town":"Kinsale","west":-8.531,"id":"a9zem5lwj7ql","north":51.708,"geo_precision":"zip"},"type":"Feature","geometry":{"type":"Point","coordinates":[-79.032881004,43.933420089]}},{"properties":{"county":"Mayo","geo_score":0.714,"town":"Knock","west":-8.917,"id":"a9zem5e4q31r","north":53.783,"geo_precision":"zip"},"type":"Feature","geometry":{"type":"Point","coordinates":[-1.0294444,10.6094444]}},{"properties":{"county":"Antrim","geo_score":0.714,"town":"Larne","west":-5.811,"id":"a9zem5d4zcua","north":54.851,"geo_precision":"zip"},"type":"Feature","geometry":{"type":"Point","coordinates":[9.640155,45.565677]}},{"properties":{"county":"Donegal","geo_score":0.714,"town":"Letterkenny","west":-7.72,"id":"a9zem5iolqv4","north":54.957,"geo_precision":"zip"},"type":"Feature","geometry":{"type":"Point","coordinates":[22.1997222,38.5238889]}},{"properties":{"county":"Derry","geo_score":0.714,"town":"Limavady","west":-6.946,"id":"a9zem5rwtp54","north":55.053,"geo_precision":"zip"},"type":"Feature","geometry":{"type":"Point","coordinates":[-58.0833333,-25.25]}},{"properties":{"county":"Waterford","geo_score":0.714,"town":"Lismore","west":-7.931,"id":"a9zem5q3bera","north":52.137,"geo_precision":"zip"},"type":"Feature","geometry":{"type":"Point","coordinates":[98.3458,3.6026]}},{"properties":{"county":"Kerry","geo_score":0.714,"town":"Listowel","west":-9.486,"id":"a9zem5jfy01b","north":52.447,"geo_precision":"zip"},"type":"Feature","geometry":{"type":"Point","coordinates":[-111.7793249,34.9289051]}},{"properties":{"county":"Longford","geo_score":0.857,"town":"Longford","west":-7.8,"id":"a9zem5ehsxsq","north":53.727,"geo_precision":"zip"},"type":"Feature","geometry":{"type":"Point","coordinates":[0.5,57.0]}},{"properties":{"county":"Galway","geo_score":0.714,"town":"Loughrea","west":-8.567,"id":"a9zem5rw77d5","north":53.197,"geo_precision":"zip"},"type":"Feature","geometry":{"type":"Point","coordinates":[150.2166667,-10.1166667]}},{"properties":{"county":"Cork","geo_score":0.714,"town":"Macroom","west":-8.957,"id":"a9zem5rohhih","north":51.904,"geo_precision":"zip"},"type":"Feature","geometry":{"type":"Point","coordinates":[30.0305556,-3.8533333]}},{"properties":{"county":"Derry","geo_score":0.714,"town":"Magherafelt","west":-6.61,"id":"a9zem5mgto95","north":54.75,"geo_precision":"zip"},"type":"Feature","geometry":{"type":"Point","coordinates":[38.0158333,47.6111111]}},{"properties":{"county":"Cork","geo_score":0.714,"town":"Mallow","west":-8.642,"id":"a9zem5e4wist","north":52.131,"geo_precision":"zip"},"type":"Feature","geometry":{"type":"Point","coordinates":[110.7833333,21.45]}},{"properties":{"county":"Kildare","geo_score":0.714,"town":"Maynooth","west":-6.591,"id":"a9zem5hfe3z0","north":53.382,"geo_precision":"zip"},"type":"Feature","geometry":{"type":"Point","coordinates":[-6.5936111,53.385]}},{"properties":{"county":"Monaghan","geo_score":0.714,"town":"Monaghan","west":-6.971,"id":"a9zem5m6rd4p","north":54.248,"geo_precision":"zip"},"type":"Feature","geometry":{"type":"Point","coordinates":[10.9,3.3333333]}},{"properties":{"county":"Westmeath","geo_score":0.714,"town":"Mullingar","west":-7.338,"id":"a9zem5lzfuag","north":53.522,"geo_precision":"zip"},"type":"Feature","geometry":{"type":"Point","coordinates":[11.45,51.3166667]}},{"properties":{"county":"Tipperary","geo_score":0.714,"town":"Nenagh","west":-8.2,"id":"a9zem5c3d94c","north":52.863,"geo_precision":"zip"},"type":"Feature","geometry":{"type":"Point","coordinates":[4.2,50.966667]}},{"properties":{"county":"Down","geo_score":0.714,"town":"Newcastle","west":-5.882,"id":"a9zem5jzg2q8","north":54.21,"geo_precision":"zip"},"type":"Feature","geometry":{"type":"Point","coordinates":[-1.622,55.0354]}},{"properties":{"county":"Tyrone","geo_score":0.714,"town":"Omagh","west":-7.29,"id":"a9zem5q4jd7i","north":54.59,"geo_precision":"zip"},"type":"Feature","geometry":{"type":"Point","coordinates":[147.3,-8.7166667]}},{"properties":{"county":"Laois","geo_score":0.857,"town":"Portlaoise","west":-7.301,"id":"a9zem5j6etri","north":53.031,"geo_precision":"zip"},"type":"Feature","geometry":{"type":"Point","coordinates":[-81.0,24.4166667]}},{"properties":{"county":"Roscommon","geo_score":0.714,"town":"Roscommon","west":-8.183,"id":"a9zem5matom7","north":53.633,"geo_precision":"zip"},"type":"Feature","geometry":{"type":"Point","coordinates":[-79.049425697,51.133484873]}},{"properties":{"county":"Clare","geo_score":0.714,"town":"Shannon","west":-8.869,"id":"a9zem5ffqhj7","north":52.714,"geo_precision":"zip"},"type":"Feature","geometry":{"type":"Point","coordinates":[69.0416667,27.775]}},{"properties":{"county":"Sligo","geo_score":0.714,"town":"Sligo","west":-8.483,"id":"a9zem5ilmmnc","north":54.267,"geo_precision":"zip"},"type":"Feature","geometry":{"type":"Point","coordinates":[125.1655556,10.5291667]}},{"properties":{"county":"Galway","geo_score":0.714,"town":"Spiddal","west":-9.306,"id":"a9zem5h1f0su","north":53.245,"geo_precision":"zip"},"type":"Feature","geometry":{"type":"Point","coordinates":[33.0041667,34.7666667]}},{"properties":{"county":"Kilkenny","geo_score":0.714,"town":"Thomastown","west":-7.137,"id":"a9zem5diukxd","north":52.526,"geo_precision":"zip"},"type":"Feature","geometry":{"type":"Point","coordinates":[145.0166667,-37.6833333]}},{"properties":{"county":"Tipperary","geo_score":0.714,"town":"Thurles","west":-7.814,"id":"a9zem5r25jc9","north":52.679,"geo_precision":"zip"},"type":"Feature","geometry":{"type":"Point","coordinates":[2.9,48.0166667]}},{"properties":{"county":"Tipperary","geo_score":0.714,"town":"Tipperary","west":-8.162,"id":"a9zem5c9fcxk","north":52.474,"geo_precision":"zip"},"type":"Feature","geometry":{"type":"Point","coordinates":[-92.7099194,40.1916955]}},{"properties":{"county":"Kerry","geo_score":0.714,"town":"Tralee","west":-9.696,"id":"a9zem5noti1s","north":52.268,"geo_precision":"zip"},"type":"Feature","geometry":{"type":"Point","coordinates":[-14.6333333,14.4166667]}},{"properties":{"county":"Waterford","geo_score":0.714,"town":"Tramore","west":-7.146,"id":"a9zem5nsavcb","north":52.158,"geo_precision":"zip"},"type":"Feature","geometry":{"type":"Point","coordinates":[143.85,-32.3]}},{"properties":{"county":"Meath","geo_score":0.714,"town":"Trim","west":-6.793,"id":"a9zem5dekvpf","north":53.552,"geo_precision":"zip"},"type":"Feature","geometry":{"type":"Point","coordinates":[144.9333333,-6.1833333]}},{"properties":{"county":"Galway","geo_score":0.857,"town":"Tuam","west":-8.851,"id":"a9zem5l3xqqo","north":53.515,"geo_precision":"zip"},"type":"Feature","geometry":{"type":"Point","coordinates":[-149.762020111084,-17.4887939648182]}},{"properties":{"county":"Offaly","geo_score":0.714,"town":"Tullamore","west":-7.5,"id":"a9zem5ch6to5","north":53.267,"geo_precision":"zip"},"type":"Feature","geometry":{"type":"Point","coordinates":[-112.951981436,54.000158195]}},{"properties":{"county":"Carlow","geo_score":0.714,"town":"Tullow","west":-6.737,"id":"a9zem5r6ltjs","north":52.8,"geo_precision":"zip"},"type":"Feature","geometry":{"type":"Point","coordinates":[120.1597,-5.1695]}},{"properties":{"county":"Mayo","geo_score":0.714,"town":"Westport","west":-9.533,"id":"a9zem5ov0cnr","north":53.8,"geo_precision":"zip"},"type":"Feature","geometry":{"type":"Point","coordinates":[-80.3628315,25.605939]}},{"properties":{"county":"Wexford","geo_score":0.714,"town":"Wexford","west":-6.458,"id":"a9zem5m3f5yo","north":52.334,"geo_precision":"zip"},"type":"Feature","geometry":{"type":"Point","coordinates":[10.0833333,50.4]}}],"is_temporal":false,"author":{"url":"","metadata":"","contact_name":"","contact_address":"","source":"","contact_phone":""},"source":"","pagination":{"sort":null,"start":0,"total":80,"limit":1000000},"state":"complete","tags":"","published":"2014-08-14T18:42:18-04:00","id":292105}