{"type":"FeatureCollection","data_type":"Dataset","url_type":null,"permissions":[{"permissions":{"download":true,"view":true},"group_id":"everyone"}],"classification":null,"title":"Sexual Offenses around UC","count":17,"stream_id":292651,"contributor":{"url":"http://geocommons.com/users/54675","name":"herzogam"},"data_attributes":null,"calculation_params":null,"icon_link":null,"link":"http://geocommons.com/overlays/292651.json","extent":[-84.7205,39.1285,-84.5152,39.1668],"geometry_types":["point"],"unique_name":null,"name":"Sexual Offenses around UC","feature_count":17,"description":"","next_feature":null,"is_raster":false,"short_classification":"Y","stats":{"date":{"max":"2012/10/23 01:00:00 -0400","variance":26016538277647.1,"mean":"2012/08/23 05:14:07 -0400","stdev":5100640.96733411,"min":"2012/04/30 01:00:00 -0400","median":"2012/09/21 01:00:00 -0400"}},"features":[{"properties":{"city":"Cincinnati","zip":"45221","time":"23:45","date":{"end_time":"2012/05/05 01:00:01 -0400","original":"Sat May 05 00:00:00 -0400 2012","granularity":"sec","time":"2012/05/05 01:00:00 -0400"},"geo_score":0.857,"crime":"Public Indecency","id":"a9zwynylyge7","address":"2900 Block Campus Green Dr","geo_precision":"zip","state":"Oh"},"type":"Feature","geometry":{"type":"Point","coordinates":[-84.53822,39.166759]}},{"properties":{"city":"Cincinnati","zip":"45221","time":"13:00","date":{"end_time":"2012/10/23 01:00:01 -0400","original":"Tue Oct 23 00:00:00 -0400 2012","granularity":"sec","time":"2012/10/23 01:00:00 -0400"},"geo_score":0.857,"crime":"Public Indecency","id":"a9zwynwvmzoq","address":"2900 Block Woodside Dr.","geo_precision":"zip","state":"OH"},"type":"Feature","geometry":{"type":"Point","coordinates":[-84.53822,39.166759]}},{"properties":{"city":"Cincinnati","zip":"45221","time":"14:58","date":{"end_time":"2012/09/24 01:00:01 -0400","original":"Mon Sep 24 00:00:00 -0400 2012","granularity":"sec","time":"2012/09/24 01:00:00 -0400"},"geo_score":0.857,"crime":"Sexual Imposition","id":"a9zwynqr2vbc","address":"2900 Block Woodside Dr.","geo_precision":"zip","state":"OH"},"type":"Feature","geometry":{"type":"Point","coordinates":[-84.53822,39.166759]}},{"properties":{"city":"Cincinnati","zip":"45221","time":"14:55","date":{"end_time":"2012/09/24 01:00:01 -0400","original":"Mon Sep 24 00:00:00 -0400 2012","granularity":"sec","time":"2012/09/24 01:00:00 -0400"},"geo_score":0.857,"crime":"Sexual Imposition","id":"a9zwynk1r7j8","address":"2900 Block Woodside Dr.","geo_precision":"zip","state":"OH"},"type":"Feature","geometry":{"type":"Point","coordinates":[-84.53822,39.166759]}},{"properties":{"city":"Cincinnati","zip":"45221","time":"15:50","date":{"end_time":"2012/10/09 01:00:01 -0400","original":"Tue Oct 09 00:00:00 -0400 2012","granularity":"sec","time":"2012/10/09 01:00:00 -0400"},"geo_score":0.857,"crime":"Sexual Imposition","id":"a9zwynphej12","address":"300 Block Clifton Ct.","geo_precision":"zip","state":"Oh"},"type":"Feature","geometry":{"type":"Point","coordinates":[-84.53822,39.166759]}},{"properties":{"city":"Cincinnati","zip":"45221","time":"16:30","date":{"end_time":"2012/10/09 01:00:01 -0400","original":"Tue Oct 09 00:00:00 -0400 2012","granularity":"sec","time":"2012/10/09 01:00:00 -0400"},"geo_score":0.857,"crime":"Public Indecency","id":"a9zwynsdg5rw","address":"2600 Block McMicken Circle","geo_precision":"zip","state":"OH"},"type":"Feature","geometry":{"type":"Point","coordinates":[-84.53822,39.166759]}},{"properties":{"city":"Cincinnati","zip":"45219","time":"11:25","date":{"end_time":"2012/09/24 01:00:01 -0400","original":"Mon Sep 24 00:00:00 -0400 2012","granularity":"sec","time":"2012/09/24 01:00:00 -0400"},"geo_score":0.857,"crime":"Sexual Imposition","id":"a9zwynw58vrc","address":"200 Block Calhoun St","geo_precision":"zip","state":"OH"},"type":"Feature","geometry":{"type":"Point","coordinates":[-84.515191,39.12851]}},{"properties":{"city":"Cincinnati","zip":"45219","time":"16:10","date":{"end_time":"2012/09/12 01:00:01 -0400","original":"Wed Sep 12 00:00:00 -0400 2012","granularity":"sec","time":"2012/09/12 01:00:00 -0400"},"geo_score":0.857,"crime":"Sexual Imposition (forcible)","id":"a9zwynmpuqh8","address":"200 Block Calhoun St","geo_precision":"zip","state":"OH"},"type":"Feature","geometry":{"type":"Point","coordinates":[-84.515191,39.12851]}},{"properties":{"city":"Cincinnati","zip":"45219","time":"16:00","date":{"end_time":"2012/09/12 01:00:01 -0400","original":"Wed Sep 12 00:00:00 -0400 2012","granularity":"sec","time":"2012/09/12 01:00:00 -0400"},"geo_score":0.857,"crime":"Sexual Imposition (forcible)","id":"a9zwynstxpm9","address":"200 Block Calhoun St","geo_precision":"zip","state":"OH"},"type":"Feature","geometry":{"type":"Point","coordinates":[-84.515191,39.12851]}},{"properties":{"city":"Cincinnati","zip":"45219","time":"7:52","date":{"end_time":"2012/06/10 01:00:01 -0400","original":"Sun Jun 10 00:00:00 -0400 2012","granularity":"sec","time":"2012/06/10 01:00:00 -0400"},"geo_score":0.857,"crime":"Sexual Imposition","id":"a9zwynmf0hvg","address":"200 Block Lyon Street","geo_precision":"zip","state":"OH"},"type":"Feature","geometry":{"type":"Point","coordinates":[-84.515191,39.12851]}},{"properties":{"city":"Cincinnati","zip":"45219","time":"14:44","date":{"end_time":"2012/04/30 01:00:01 -0400","original":"Mon Apr 30 00:00:00 -0400 2012","granularity":"sec","time":"2012/04/30 01:00:00 -0400"},"geo_score":0.857,"crime":"Sexual Impostion","id":"a9zwyns7b2dj","address":"2400 Block Ohio Ave","geo_precision":"zip","state":"OH"},"type":"Feature","geometry":{"type":"Point","coordinates":[-84.515191,39.12851]}},{"properties":{"city":"Cincinnati","zip":"45220","time":"2:23","date":{"end_time":"2012/06/11 01:00:01 -0400","original":"Mon Jun 11 00:00:00 -0400 2012","granularity":"sec","time":"2012/06/11 01:00:00 -0400"},"geo_score":0.857,"crime":"Forcible Rape","id":"a9zwynx2wy1z","address":"600 Block Riddle Rd","geo_precision":"zip","state":"OH"},"type":"Feature","geometry":{"type":"Point","coordinates":[-84.520093,39.145559]}},{"properties":{"city":"Cincinnati","zip":"45219","time":"19:13","date":{"end_time":"2012/10/14 01:00:01 -0400","original":"Sun Oct 14 00:00:00 -0400 2012","granularity":"sec","time":"2012/10/14 01:00:00 -0400"},"geo_score":0.857,"crime":"Forcible Rape","id":"a9zwyny4qkfh","address":"2500 Block Highland Av","geo_precision":"zip","state":"OH"},"type":"Feature","geometry":{"type":"Point","coordinates":[-84.515191,39.12851]}},{"properties":{"city":"Cincinnati","zip":"45219","time":"9:40","date":{"end_time":"2012/09/21 01:00:01 -0400","original":"Fri Sep 21 00:00:00 -0400 2012","granularity":"sec","time":"2012/09/21 01:00:00 -0400"},"geo_score":0.857,"crime":"Public Indecency","id":"a9zwynzmevml","address":"300 Block Goodman St.","geo_precision":"zip","state":"Oh"},"type":"Feature","geometry":{"type":"Point","coordinates":[-84.515191,39.12851]}},{"properties":{"city":"Cincinnati","zip":"45219","time":"10:00","date":{"end_time":"2012/10/15 01:00:01 -0400","original":"Mon Oct 15 00:00:00 -0400 2012","granularity":"sec","time":"2012/10/15 01:00:00 -0400"},"geo_score":0.857,"crime":"Sexual Imposition","id":"a9zwynxc21nd","address":"200 Block Goodman St.","geo_precision":"zip","state":"OH"},"type":"Feature","geometry":{"type":"Point","coordinates":[-84.515191,39.12851]}},{"properties":{"city":"Cincinnati","zip":"45219","time":"0:00","date":{"end_time":"2012/07/26 01:00:01 -0400","original":"Thu Jul 26 00:00:00 -0400 2012","granularity":"sec","time":"2012/07/26 01:00:00 -0400"},"geo_score":0.857,"crime":"Rape by Force","id":"a9zwynxe7fiv","address":"200 Block Goodman St.","geo_precision":"zip","state":"OH"},"type":"Feature","geometry":{"type":"Point","coordinates":[-84.515191,39.12851]}},{"properties":{"city":"Cincinnati","zip":"45229","time":"16:30","date":{"end_time":"2012/08/01 01:00:01 -0400","original":"Wed Aug 01 00:00:00 -0400 2012","granularity":"sec","time":"2012/08/01 01:00:00 -0400"},"geo_score":0.857,"crime":"Sexual Imposition (forcible fondling)","id":"a9zwynqsdxxh","address":"200 Block Albert Sabin Way","geo_precision":"zip","state":"OH"},"type":"Feature","geometry":{"type":"Point","coordinates":[-84.720503,39.165058]}}],"is_temporal":true,"author":{"url":"https://www.crimereports.com/","metadata":"","contact_name":"","contact_address":"","source":"","contact_phone":""},"source":"https://www.crimereports.com/","pagination":{"sort":null,"start":0,"total":17,"limit":1000000},"state":"complete","tags":"","published":"2014-08-14T19:10:32-04:00","id":292651}