{"type":"FeatureCollection","data_type":"Dataset","url_type":null,"permissions":[{"permissions":{"download":true,"view":true},"group_id":"everyone"}],"classification":null,"title":"sexual_offenses_11_12_12","count":17,"stream_id":292714,"contributor":{"url":"http://geocommons.com/users/54675","name":"herzogam"},"data_attributes":null,"calculation_params":null,"icon_link":null,"link":"http://geocommons.com/overlays/292714.json","extent":[-84.5481,39.0917,-84.389,39.1368],"geometry_types":["point"],"unique_name":null,"name":"sexual_offenses_11_12_12","feature_count":17,"description":"","next_feature":null,"is_raster":false,"short_classification":"Y","stats":{"latitude":{"max":39.136801,"variance":0.000128680852678667,"mean":39.12842395,"stdev":0.0113437583136572,"min":39.091727,"median":39.1302611},"date":{"max":"2012/10/23 01:00:00 -0400","variance":26016538277647.1,"mean":"2012/08/23 05:14:07 -0400","stdev":5100640.96733411,"min":"2012/04/30 01:00:00 -0400","median":"2012/09/21 01:00:00 -0400"},"longitude":{"max":-84.388961,"variance":0.00123913933219587,"mean":-84.5111120625,"stdev":0.0352014109404136,"min":-84.548104,"median":-84.515132}},"features":[{"properties":{"city":"Cincinnati","zip":"45221","latitude":39.091727,"time":"23:45","date":{"end_time":"2012/05/05 01:00:01 -0400","original":"Sat May 05 00:00:00 -0400 2012","granularity":"sec","time":"2012/05/05 01:00:00 -0400"},"crime":"Public Indecency","longitude":-84.388961,"id":"aa02f7iw0s4c","address":"2900 Block Campus Green Dr","state":"Oh"},"type":"Feature","geometry":{"type":"Point","coordinates":[-84.388961,39.091727]}},{"properties":{"city":"Cincinnati","zip":"45221","latitude":39.135723,"time":"13:00","date":{"end_time":"2012/10/23 01:00:01 -0400","original":"Tue Oct 23 00:00:00 -0400 2012","granularity":"sec","time":"2012/10/23 01:00:00 -0400"},"crime":"Public Indecency","longitude":-84.514793,"id":"aa02f7ja97w3","address":"2900 Block Woodside Dr.","state":"OH"},"type":"Feature","geometry":{"type":"Point","coordinates":[-84.514793,39.135723]}},{"properties":{"city":"Cincinnati","zip":"45221","latitude":39.135723,"time":"14:58","date":{"end_time":"2012/09/24 01:00:01 -0400","original":"Mon Sep 24 00:00:00 -0400 2012","granularity":"sec","time":"2012/09/24 01:00:00 -0400"},"crime":"Sexual Imposition","longitude":-84.514793,"id":"aa02f7iz8soj","address":"2900 Block Woodside Dr.","state":"OH"},"type":"Feature","geometry":{"type":"Point","coordinates":[-84.514793,39.135723]}},{"properties":{"city":"Cincinnati","zip":"45221","latitude":39.135723,"time":"14:55","date":{"end_time":"2012/09/24 01:00:01 -0400","original":"Mon Sep 24 00:00:00 -0400 2012","granularity":"sec","time":"2012/09/24 01:00:00 -0400"},"crime":"Sexual Imposition","longitude":-84.514793,"id":"aa02f7hn7wyt","address":"2900 Block Woodside Dr.","state":"OH"},"type":"Feature","geometry":{"type":"Point","coordinates":[-84.514793,39.135723]}},{"properties":{"city":"Cincinnati","zip":"45221","latitude":null,"time":"15:50","date":{"end_time":"2012/10/09 01:00:01 -0400","original":"Tue Oct 09 00:00:00 -0400 2012","granularity":"sec","time":"2012/10/09 01:00:00 -0400"},"crime":"Sexual Imposition","longitude":null,"id":"aa02f7iomi2h","address":"300 Block College Ct.","state":"Oh"},"type":"Feature","geometry":null},{"properties":{"city":"Cincinnati","zip":"45221","latitude":39.1233531,"time":"16:30","date":{"end_time":"2012/10/09 01:00:01 -0400","original":"Tue Oct 09 00:00:00 -0400 2012","granularity":"sec","time":"2012/10/09 01:00:00 -0400"},"crime":"Public Indecency","longitude":-84.548104,"id":"aa02f7cuwiye","address":"2600 Block McMicken Circle","state":"OH"},"type":"Feature","geometry":{"type":"Point","coordinates":[-84.548104,39.1233531]}},{"properties":{"city":"Cincinnati","zip":"45219","latitude":39.128218,"time":"11:25","date":{"end_time":"2012/09/24 01:00:01 -0400","original":"Mon Sep 24 00:00:00 -0400 2012","granularity":"sec","time":"2012/09/24 01:00:00 -0400"},"crime":"Sexual Imposition","longitude":-84.515226,"id":"aa02f778cwln","address":"200 Block Calhoun St","state":"OH"},"type":"Feature","geometry":{"type":"Point","coordinates":[-84.515226,39.128218]}},{"properties":{"city":"Cincinnati","zip":"45219","latitude":39.128218,"time":"16:10","date":{"end_time":"2012/09/12 01:00:01 -0400","original":"Wed Sep 12 00:00:00 -0400 2012","granularity":"sec","time":"2012/09/12 01:00:00 -0400"},"crime":"Sexual Imposition (forcible)","longitude":-84.515226,"id":"aa02f7afj2od","address":"200 Block Calhoun St","state":"OH"},"type":"Feature","geometry":{"type":"Point","coordinates":[-84.515226,39.128218]}},{"properties":{"city":"Cincinnati","zip":"45219","latitude":39.128218,"time":"16:00","date":{"end_time":"2012/09/12 01:00:01 -0400","original":"Wed Sep 12 00:00:00 -0400 2012","granularity":"sec","time":"2012/09/12 01:00:00 -0400"},"crime":"Sexual Imposition (forcible)","longitude":-84.515226,"id":"aa02f78w87ip","address":"200 Block Calhoun St","state":"OH"},"type":"Feature","geometry":{"type":"Point","coordinates":[-84.515226,39.128218]}},{"properties":{"city":"Cincinnati","zip":"45219","latitude":39.127013,"time":"7:52","date":{"end_time":"2012/06/10 01:00:01 -0400","original":"Sun Jun 10 00:00:00 -0400 2012","granularity":"sec","time":"2012/06/10 01:00:00 -0400"},"crime":"Sexual Imposition","longitude":-84.519432,"id":"aa02f75t06ke","address":"200 Block Lyon Street","state":"OH"},"type":"Feature","geometry":{"type":"Point","coordinates":[-84.519432,39.127013]}},{"properties":{"city":"Cincinnati","zip":"45219","latitude":39.126754,"time":"14:44","date":{"end_time":"2012/04/30 01:00:01 -0400","original":"Mon Apr 30 00:00:00 -0400 2012","granularity":"sec","time":"2012/04/30 01:00:00 -0400"},"crime":"Sexual Impostion","longitude":-84.515132,"id":"aa02f7evt0fq","address":"2400 Block Ohio Ave","state":"OH"},"type":"Feature","geometry":{"type":"Point","coordinates":[-84.515132,39.126754]}},{"properties":{"city":"Cincinnati","zip":"45220","latitude":39.13611,"time":"2:23","date":{"end_time":"2012/06/11 01:00:01 -0400","original":"Mon Jun 11 00:00:00 -0400 2012","granularity":"sec","time":"2012/06/11 01:00:00 -0400"},"crime":"Forcible Rape","longitude":-84.529314,"id":"aa02f7eud90b","address":"600 Block Riddle Rd","state":"OH"},"type":"Feature","geometry":{"type":"Point","coordinates":[-84.529314,39.13611]}},{"properties":{"city":"Cincinnati","zip":"45219","latitude":39.1302611,"time":"19:13","date":{"end_time":"2012/10/14 01:00:01 -0400","original":"Sun Oct 14 00:00:00 -0400 2012","granularity":"sec","time":"2012/10/14 01:00:00 -0400"},"crime":"Forcible Rape","longitude":-84.534707,"id":"aa02f758ym64","address":"2500 Block Highland Av","state":"OH"},"type":"Feature","geometry":{"type":"Point","coordinates":[-84.534707,39.1302611]}},{"properties":{"city":"Cincinnati","zip":"45219","latitude":39.13673,"time":"9:40","date":{"end_time":"2012/09/21 01:00:01 -0400","original":"Fri Sep 21 00:00:00 -0400 2012","granularity":"sec","time":"2012/09/21 01:00:00 -0400"},"crime":"Public Indecency","longitude":-84.501316,"id":"aa02f7gj1gv0","address":"300 Block Goodman St.","state":"Oh"},"type":"Feature","geometry":{"type":"Point","coordinates":[-84.501316,39.13673]}},{"properties":{"city":"Cincinnati","zip":"45219","latitude":39.136801,"time":"10:00","date":{"end_time":"2012/10/15 01:00:01 -0400","original":"Mon Oct 15 00:00:00 -0400 2012","granularity":"sec","time":"2012/10/15 01:00:00 -0400"},"crime":"Sexual Imposition","longitude":-84.503785,"id":"aa02f79zikmy","address":"200 Block Goodman St.","state":"OH"},"type":"Feature","geometry":{"type":"Point","coordinates":[-84.503785,39.136801]}},{"properties":{"city":"Cincinnati","zip":"45219","latitude":39.136801,"time":"0:00","date":{"end_time":"2012/07/26 01:00:01 -0400","original":"Thu Jul 26 00:00:00 -0400 2012","granularity":"sec","time":"2012/07/26 01:00:00 -0400"},"crime":"Rape by Force","longitude":-84.503785,"id":"aa02f7adxqln","address":"200 Block Goodman St.","state":"OH"},"type":"Feature","geometry":{"type":"Point","coordinates":[-84.503785,39.136801]}},{"properties":{"city":"Cincinnati","zip":"45229","latitude":39.11741,"time":"16:30","date":{"end_time":"2012/08/01 01:00:01 -0400","original":"Wed Aug 01 00:00:00 -0400 2012","granularity":"sec","time":"2012/08/01 01:00:00 -0400"},"crime":"Sexual Imposition (forcible fondling)","longitude":-84.5432,"id":"aa02f76p8f9b","address":"200 Block Albert Sabin Way","state":"OH"},"type":"Feature","geometry":{"type":"Point","coordinates":[-84.5432,39.11741]}}],"is_temporal":true,"author":{"url":"","metadata":null,"contact_name":null,"contact_address":null,"source":null,"contact_phone":null},"source":"","pagination":{"sort":null,"start":0,"total":17,"limit":1000000},"state":"complete","tags":"","published":"2014-08-14T19:19:05-04:00","id":292714}