{"type":"FeatureCollection","data_type":"Dataset","url_type":null,"permissions":[{"permissions":{"download":true,"view":true},"group_id":"everyone"}],"classification":null,"title":"CSV_Version_Linzess_Targets_with_Address_-_Nov_13_2012","count":143,"stream_id":293062,"contributor":{"url":"http://geocommons.com/users/55862","name":"jmizzo"},"data_attributes":null,"calculation_params":null,"icon_link":null,"link":"http://geocommons.com/overlays/293062.json","extent":[-80.4948,40.4344,-77.9567,42.1827],"geometry_types":["point"],"unique_name":null,"name":"CSV_Version_Linzess_Targets_with_Address_-_Nov_13_2012","feature_count":143,"description":"Linzess Targets","next_feature":null,"is_raster":false,"short_classification":"Y","stats":{"phone":{"max":8149383310,"variance":2.51131405443753e+18,"mean":6632875227.38793,"stdev":1584712609.41457,"min":4122351020,"median":7247736840}},"features":[{"properties":{"name":"SIMONS, BERNIE","city":"ALIQUIPPA","zip":"15001","geo_score":0.714,"address line 1":"99 BUSS RD","phone":7243786640,"id":"aa0g90xn64av","geo_precision":"zip"},"type":"Feature","geometry":{"type":"Point","coordinates":[-80.246172,40.617845]}},{"properties":{"name":"JAHDI, NASROLLAH","city":"AMBRIDGE","zip":"15003","geo_score":0.714,"address line 1":"751 MERCHANT ST","phone":null,"id":"aa0g90samabb","geo_precision":"zip"},"type":"Feature","geometry":{"type":"Point","coordinates":[-80.224782,40.600067]}},{"properties":{"name":"FARLAND, MONICA","city":"BEAVER","zip":"15009","geo_score":0.714,"address line 1":"1211 3RD ST","phone":7247700990,"id":"aa0g90lclcrf","geo_precision":"zip"},"type":"Feature","geometry":{"type":"Point","coordinates":[-80.328952,40.68451]}},{"properties":{"name":"EVERHART, BRIAN","city":"BEAVER","zip":"15009","geo_score":0.714,"address line 1":"500 SHARON RD","phone":null,"id":"aa0g90riog18","geo_precision":"zip"},"type":"Feature","geometry":{"type":"Point","coordinates":[-80.328952,40.68451]}},{"properties":{"name":"WRIGHT, MATTHEW","city":"BEAVER","zip":"15009","geo_score":0.714,"address line 1":"701 5TH ST","phone":7247740232,"id":"aa0g90plqjln","geo_precision":"zip"},"type":"Feature","geometry":{"type":"Point","coordinates":[-80.328952,40.68451]}},{"properties":{"name":"HERRMANN, SAMANTHA","city":"BEAVER FALLS","zip":"15010","geo_score":0.714,"address line 1":"100 KNOWLSON AVE","phone":7248912100,"id":"aa0g90miagcy","geo_precision":"zip"},"type":"Feature","geometry":{"type":"Point","coordinates":[-80.325619,40.760621]}},{"properties":{"name":"VENTURA, DOMINIC","city":"BEAVER FALLS","zip":"15010","geo_score":0.714,"address line 1":"100 KNOWLSON AVE","phone":7248912100,"id":"aa0g90pxl63j","geo_precision":"zip"},"type":"Feature","geometry":{"type":"Point","coordinates":[-80.325619,40.760621]}},{"properties":{"name":"MOSKOVITZ, MORRY","city":"BEAVER FALLS","zip":"15010","geo_score":0.714,"address line 1":"100 KNOWLSON AVE","phone":7248912100,"id":"aa0g90pn27v7","geo_precision":"zip"},"type":"Feature","geometry":{"type":"Point","coordinates":[-80.325619,40.760621]}},{"properties":{"name":"MC CLURE, JONATHAN","city":"BEAVER FALLS","zip":"15010","geo_score":0.714,"address line 1":"100 KNOWLSON AVE","phone":7248912100,"id":"aa0g90qi0prm","geo_precision":"zip"},"type":"Feature","geometry":{"type":"Point","coordinates":[-80.325619,40.760621]}},{"properties":{"name":"DAMAZO, ELPIDIO I","city":"BEAVER FALLS","zip":"15010","geo_score":0.714,"address line 1":"619 15TH ST","phone":7248469150,"id":"aa0g90ydsmis","geo_precision":"zip"},"type":"Feature","geometry":{"type":"Point","coordinates":[-80.325619,40.760621]}},{"properties":{"name":"GRIECO, ROBERT","city":"BEAVER FALLS","zip":"15010","geo_score":0.714,"address line 1":"2620 CONSTITUTION BLVD","phone":7248431498,"id":"aa0g90qz1d22","geo_precision":"zip"},"type":"Feature","geometry":{"type":"Point","coordinates":[-80.325619,40.760621]}},{"properties":{"name":"RODRIGUEZ, JASON","city":"BEAVER FALLS","zip":"15010","geo_score":0.714,"address line 1":"2620 CONSTITUTION BLVD","phone":null,"id":"aa0g90shjkt7","geo_precision":"zip"},"type":"Feature","geometry":{"type":"Point","coordinates":[-80.325619,40.760621]}},{"properties":{"name":"VINOPAL, APRIL","city":"BEAVER FALLS","zip":"15010","geo_score":0.714,"address line 1":"100 KNOWLSON AVE","phone":7248912100,"id":"aa0g90jhdixd","geo_precision":"zip"},"type":"Feature","geometry":{"type":"Point","coordinates":[-80.325619,40.760621]}},{"properties":{"name":"FADDEN, ROBERT","city":"BEAVER FALLS","zip":"15010","geo_score":0.714,"address line 1":"100 KNOWLSON AVE","phone":7248912100,"id":"aa0g90rg85wl","geo_precision":"zip"},"type":"Feature","geometry":{"type":"Point","coordinates":[-80.325619,40.760621]}},{"properties":{"name":"JEROME-ZAPADKA, KAREN","city":"BEAVER FALLS","zip":"15010","geo_score":0.714,"address line 1":"100 KNOWLSON AVE","phone":null,"id":"aa0g90xzm3aa","geo_precision":"zip"},"type":"Feature","geometry":{"type":"Point","coordinates":[-80.325619,40.760621]}},{"properties":{"name":"INGLESE, ROBERTO","city":"BEAVER FALLS","zip":"15010","geo_score":0.714,"address line 1":"100 KNOWLSON AVE","phone":7246525505,"id":"aa0g90k6qc0v","geo_precision":"zip"},"type":"Feature","geometry":{"type":"Point","coordinates":[-80.325619,40.760621]}},{"properties":{"name":"CONNELLY, SEAN","city":"BEAVER FALLS","zip":"15010","geo_score":0.714,"address line 1":"100 KNOWLSON AVE","phone":7248912100,"id":"aa0g90ytl5dc","geo_precision":"zip"},"type":"Feature","geometry":{"type":"Point","coordinates":[-80.325619,40.760621]}},{"properties":{"name":"KALENAK, ALEXANDER","city":"BEAVER FALLS","zip":"15010","geo_score":0.714,"address line 1":"2580 CONSTITUTION BLVD","phone":7247736840,"id":"aa0g90yccu8j","geo_precision":"zip"},"type":"Feature","geometry":{"type":"Point","coordinates":[-80.325619,40.760621]}},{"properties":{"name":"PENCE, DAVID","city":"BEAVER FALLS","zip":"15010","geo_score":0.714,"address line 1":"100 KNOWLSON AVE","phone":7248912100,"id":"aa0g90r6zmmw","geo_precision":"zip"},"type":"Feature","geometry":{"type":"Point","coordinates":[-80.325619,40.760621]}},{"properties":{"name":"DE JESUS, MICHAEL","city":"BEAVER FALLS","zip":"15010","geo_score":0.714,"address line 1":"100 KNOWLSON AVE","phone":null,"id":"aa0g90tbfpk7","geo_precision":"zip"},"type":"Feature","geometry":{"type":"Point","coordinates":[-80.325619,40.760621]}},{"properties":{"name":"VICTAIN, MICHELLE","city":"BEAVER FALLS","zip":"15010","geo_score":0.714,"address line 1":"100 KNOWLSON AVE","phone":7248912100,"id":"aa0g90wpjqh9","geo_precision":"zip"},"type":"Feature","geometry":{"type":"Point","coordinates":[-80.325619,40.760621]}},{"properties":{"name":"DEAKIN, SUSAN","city":"GIBSONIA","zip":"15044","geo_score":0.714,"address line 1":"5375 WILLIAM FLYNN HWY","phone":null,"id":"aa0g90xyn18r","geo_precision":"zip"},"type":"Feature","geometry":{"type":"Point","coordinates":[-80.024817,40.434436]}},{"properties":{"name":"ZDUNEK, JAY","city":"MIDLAND","zip":"15059","geo_score":0.714,"address line 1":"21 7TH ST","phone":7246434852,"id":"aa0g90lv240b","geo_precision":"zip"},"type":"Feature","geometry":{"type":"Point","coordinates":[-80.494789,40.679231]}},{"properties":{"name":"ZERNICH, GREGG","city":"MONACA","zip":"15061","geo_score":0.714,"address line 1":"3950 BRODHEAD RD","phone":7247755833,"id":"aa0g90lrgndj","geo_precision":"zip"},"type":"Feature","geometry":{"type":"Point","coordinates":[-80.327814,40.656366]}},{"properties":{"name":"HANZLIK, HEATHER","city":"NATRONA HEIGHTS","zip":"15065","geo_score":0.714,"address line 1":"1719 UNION AVE","phone":7242262128,"id":"aa0g90os0irt","geo_precision":"zip"},"type":"Feature","geometry":{"type":"Point","coordinates":[-79.719492,40.614511]}},{"properties":{"name":"FUNKHOUSER, JAY","city":"NEW BRIGHTON","zip":"15066","geo_score":0.714,"address line 1":"721 5TH AVE","phone":7248465250,"id":"aa0g90lp508y","geo_precision":"zip"},"type":"Feature","geometry":{"type":"Point","coordinates":[-80.315618,40.725621]}},{"properties":{"name":"BAJWA, SURINDER","city":"NEW KENSINGTON","zip":"15068","geo_score":0.714,"address line 1":"305 7TH ST","phone":7243393900,"id":"aa0g90qgrup6","geo_precision":"zip"},"type":"Feature","geometry":{"type":"Point","coordinates":[-79.723659,40.599789]}},{"properties":{"name":"KICHLER, JOEL","city":"NEW KENSINGTON","zip":"15068","geo_score":0.714,"address line 1":"1 KENSINGTON SQ","phone":7243373531,"id":"aa0g90t3siu6","geo_precision":"zip"},"type":"Feature","geometry":{"type":"Point","coordinates":[-79.723659,40.599789]}},{"properties":{"name":"FIROZ, HADI","city":"NEW KENSINGTON","zip":"15068","geo_score":0.714,"address line 1":"305 7TH ST","phone":7243393900,"id":"aa0g90vn8zio","geo_precision":"zip"},"type":"Feature","geometry":{"type":"Point","coordinates":[-79.723659,40.599789]}},{"properties":{"name":"STEINER, DANIEL","city":"LOWER BURRELL","zip":"15068","geo_score":0.714,"address line 1":"1600 WILDLIFE LODGE RD","phone":4128280240,"id":"aa0g90katx5t","geo_precision":"zip"},"type":"Feature","geometry":{"type":"Point","coordinates":[-79.723659,40.599789]}},{"properties":{"name":"DUNN, ROBERT","city":"NEW KENSINGTON","zip":"15068","geo_score":0.714,"address line 1":"1600 WILDLIFE LODGE RD","phone":7243342000,"id":"aa0g90jzuyc3","geo_precision":"zip"},"type":"Feature","geometry":{"type":"Point","coordinates":[-79.723659,40.599789]}},{"properties":{"name":"LIPSITZ, H","city":"TARENTUM","zip":"15084","geo_score":0.714,"address line 1":"301 E 1ST AVE","phone":7242243113,"id":"aa0g90slyruz","geo_precision":"zip"},"type":"Feature","geometry":{"type":"Point","coordinates":[-79.770327,40.596456]}},{"properties":{"name":"GLICK, KENNETH","city":"TARENTUM","zip":"15084","geo_score":0.714,"address line 1":"301 E 1ST AVE","phone":7242243113,"id":"aa0g90x8q0o9","geo_precision":"zip"},"type":"Feature","geometry":{"type":"Point","coordinates":[-79.770327,40.596456]}},{"properties":{"name":"FERLAN, LAWRENCE","city":"TARENTUM","zip":"15084","geo_score":0.714,"address line 1":"317 E 1ST AVE","phone":7242262900,"id":"aa0g90klxlnu","geo_precision":"zip"},"type":"Feature","geometry":{"type":"Point","coordinates":[-79.770327,40.596456]}},{"properties":{"name":"SIVAKUMAR, USHA","city":"TARENTUM","zip":"15084","geo_score":0.714,"address line 1":"415 E 4TH AVE","phone":7242243530,"id":"aa0g90tjgklm","geo_precision":"zip"},"type":"Feature","geometry":{"type":"Point","coordinates":[-79.770327,40.596456]}},{"properties":{"name":"ASHOK, PUDUCHERI","city":"WEXFORD","zip":"15090","geo_score":0.714,"address line 1":"5500 BROOKTREE RD","phone":7249331420,"id":"aa0g90njmfth","geo_precision":"zip"},"type":"Feature","geometry":{"type":"Point","coordinates":[-80.024817,40.434436]}},{"properties":{"name":"PHILLIPS, WILLIAM","city":"WEXFORD","zip":"15090","geo_score":0.714,"address line 1":"5500 BROOKTREE RD","phone":7249331420,"id":"aa0g90xj48x4","geo_precision":"zip"},"type":"Feature","geometry":{"type":"Point","coordinates":[-80.024817,40.434436]}},{"properties":{"name":"MLECKO, MICHAEL","city":"WEXFORD","zip":"15090","geo_score":0.714,"address line 1":"5500 BROOKTREE RD","phone":7249331420,"id":"aa0g90o7msrd","geo_precision":"zip"},"type":"Feature","geometry":{"type":"Point","coordinates":[-80.024817,40.434436]}},{"properties":{"name":"CINCALA, ROBERT","city":"WEXFORD","zip":"15090","geo_score":0.714,"address line 1":"5500 BROOKTREE RD","phone":7249331420,"id":"aa0g90pt2e8p","geo_precision":"zip"},"type":"Feature","geometry":{"type":"Point","coordinates":[-80.024817,40.434436]}},{"properties":{"name":"PILLA, JAMES","city":"CORAOPOLIS","zip":"15108","geo_score":0.714,"address line 1":"725 CHERRINGTON PKWY","phone":4122621000,"id":"aa0g90khv1uf","geo_precision":"zip"},"type":"Feature","geometry":{"type":"Point","coordinates":[-80.239226,40.508957]}},{"properties":{"name":"KIM, FRANK","city":"CORAOPOLIS","zip":"15108","geo_score":0.714,"address line 1":"725 CHERRINGTON PKWY","phone":null,"id":"aa0g90x37wlw","geo_precision":"zip"},"type":"Feature","geometry":{"type":"Point","coordinates":[-80.239226,40.508957]}},{"properties":{"name":"STINE, LESTER JR","city":"CORAOPOLIS","zip":"15108","geo_score":0.714,"address line 1":"725 CHERRINGTON PKWY","phone":4122621000,"id":"aa0g90owx4ae","geo_precision":"zip"},"type":"Feature","geometry":{"type":"Point","coordinates":[-80.239226,40.508957]}},{"properties":{"name":"STANLEY, ERNEST","city":"CORAOPOLIS","zip":"15108","geo_score":0.714,"address line 1":"725 CHERRINGTON PKWY","phone":null,"id":"aa0g90r680wk","geo_precision":"zip"},"type":"Feature","geometry":{"type":"Point","coordinates":[-80.239226,40.508957]}},{"properties":{"name":"FUSCO, ROBERT","city":"CORAOPOLIS","zip":"15108","geo_score":0.714,"address line 1":"725 CHERRINGTON PKWY","phone":4122621000,"id":"aa0g90xzdplo","geo_precision":"zip"},"type":"Feature","geometry":{"type":"Point","coordinates":[-80.239226,40.508957]}},{"properties":{"name":"KIM, RICHARD","city":"CORAOPOLIS","zip":"15108","geo_score":0.714,"address line 1":"725 CHERRINGTON PKWY","phone":null,"id":"aa0g90m6krug","geo_precision":"zip"},"type":"Feature","geometry":{"type":"Point","coordinates":[-80.239226,40.508957]}},{"properties":{"name":"FLANNAGAN, RENEE","city":"CORAOPOLIS","zip":"15108","geo_score":0.714,"address line 1":"725 CHERRINGTON PKWY","phone":null,"id":"aa0g90qv5xz2","geo_precision":"zip"},"type":"Feature","geometry":{"type":"Point","coordinates":[-80.239226,40.508957]}},{"properties":{"name":"MCPARLANE, KATHRYN","city":"MOON TOWNSHIP","zip":"15108","geo_score":0.714,"address line 1":"725 CHERRINGTON PKWY","phone":4122621000,"id":"aa0g90rrhjlb","geo_precision":"zip"},"type":"Feature","geometry":{"type":"Point","coordinates":[-80.239226,40.508957]}},{"properties":{"name":"BUBENHEIM, DANIEL","city":"MC KEES ROCKS","zip":"15136","geo_score":0.714,"address line 1":"1800 PINE HOLLOW RD","phone":null,"id":"aa0g90kc27kd","geo_precision":"zip"},"type":"Feature","geometry":{"type":"Point","coordinates":[-80.065611,40.465624]}},{"properties":{"name":"ROSEMAN, SHARON","city":"SEWICKLEY","zip":"15143","geo_score":0.714,"address line 1":"701 BROAD ST","phone":null,"id":"aa0g90p623xn","geo_precision":"zip"},"type":"Feature","geometry":{"type":"Point","coordinates":[-80.158947,40.526457]}},{"properties":{"name":"SHINN, SARAH","city":"SEWICKLEY","zip":"15143","geo_score":0.714,"address line 1":"2591 WEXFORD BAYNE RD","phone":7249352620,"id":"aa0g90oonwsl","geo_precision":"zip"},"type":"Feature","geometry":{"type":"Point","coordinates":[-80.158947,40.526457]}},{"properties":{"name":"WOOD, JOHN","city":"PITTSBURGH","zip":"15215","geo_score":0.714,"address line 1":"100 DELAFIELD RD","phone":4127841110,"id":"aa0g90z5ppwn","geo_precision":"zip"},"type":"Feature","geometry":{"type":"Point","coordinates":[-79.904773,40.491458]}},{"properties":{"name":"KELLY, THOMAS","city":"PITTSBURGH","zip":"15215","geo_score":0.714,"address line 1":"100 DELAFIELD RD","phone":4127841110,"id":"aa0g90s90ei1","geo_precision":"zip"},"type":"Feature","geometry":{"type":"Point","coordinates":[-79.904773,40.491458]}},{"properties":{"name":"MULOCK, DAVID","city":"PITTSBURGH","zip":"15215","geo_score":0.714,"address line 1":"100 DELAFIELD RD","phone":4127841110,"id":"aa0g90qgok1y","geo_precision":"zip"},"type":"Feature","geometry":{"type":"Point","coordinates":[-79.904773,40.491458]}},{"properties":{"name":"TRELLIS, DAN","city":"PITTSBURGH","zip":"15215","geo_score":0.714,"address line 1":"100 DELAFIELD RD","phone":4127841110,"id":"aa0g90l8gnie","geo_precision":"zip"},"type":"Feature","geometry":{"type":"Point","coordinates":[-79.904773,40.491458]}},{"properties":{"name":"KONDAVEETI, KOTAYYA","city":"PITTSBURGH","zip":"15224","geo_score":0.714,"address line 1":"4815 LIBERTY AVE","phone":4126210220,"id":"aa0g90rahgby","geo_precision":"zip"},"type":"Feature","geometry":{"type":"Point","coordinates":[-80.024817,40.434436]}},{"properties":{"name":"SINGH, DALJIT","city":"PITTSBURGH","zip":"15224","geo_score":0.714,"address line 1":"4800 FRIENDSHIP AVE","phone":null,"id":"aa0g90kxgscs","geo_precision":"zip"},"type":"Feature","geometry":{"type":"Point","coordinates":[-80.024817,40.434436]}},{"properties":{"name":"KANIA, ROBERT","city":"PITTSBURGH","zip":"15224","geo_score":0.714,"address line 1":"4815 LIBERTY AVE","phone":4126811616,"id":"aa0g90pt8cq0","geo_precision":"zip"},"type":"Feature","geometry":{"type":"Point","coordinates":[-80.024817,40.434436]}},{"properties":{"name":"KANAKAMEDALA, SATISH","city":"PITTSBURGH","zip":"15224","geo_score":0.714,"address line 1":"4506 PENN AVE","phone":4126832488,"id":"aa0g90lbr0d4","geo_precision":"zip"},"type":"Feature","geometry":{"type":"Point","coordinates":[-80.024817,40.434436]}},{"properties":{"name":"AHMAD, SARFRAZ","city":"PITTSBURGH","zip":"15224","geo_score":0.714,"address line 1":"4815 LIBERTY AVE","phone":4126811616,"id":"aa0g90mjyj0i","geo_precision":"zip"},"type":"Feature","geometry":{"type":"Point","coordinates":[-80.024817,40.434436]}},{"properties":{"name":"SHOENTHAL, DONALD JR","city":"PITTSBURGH","zip":"15229","geo_score":0.714,"address line 1":"1020 CENTER AVE","phone":4129313066,"id":"aa0g90zczf6z","geo_precision":"zip"},"type":"Feature","geometry":{"type":"Point","coordinates":[-80.050333,40.526735]}},{"properties":{"name":"HEYL, LOUIS","city":"PITTSBURGH","zip":"15229","geo_score":0.714,"address line 1":"1020 CENTER AVE","phone":4129313066,"id":"aa0g90pgqa86","geo_precision":"zip"},"type":"Feature","geometry":{"type":"Point","coordinates":[-80.050333,40.526735]}},{"properties":{"name":"PATTERSON, CHERYL","city":"PITTSBURGH","zip":"15232","geo_score":0.714,"address line 1":"5115 CENTRE AVE","phone":4122351020,"id":"aa0g90qp0g70","geo_precision":"zip"},"type":"Feature","geometry":{"type":"Point","coordinates":[-79.940885,40.451458]}},{"properties":{"name":"ARNOLD, GEORGE","city":"PITTSBURGH","zip":"15232","geo_score":0.714,"address line 1":"5200 CENTRE AVE","phone":4126212334,"id":"aa0g90xosd50","geo_precision":"zip"},"type":"Feature","geometry":{"type":"Point","coordinates":[-79.940885,40.451458]}},{"properties":{"name":"DI CROCE, JOSEPH","city":"PITTSBURGH","zip":"15232","geo_score":0.714,"address line 1":"5438 CENTRE AVE","phone":4126823209,"id":"aa0g90lnuyje","geo_precision":"zip"},"type":"Feature","geometry":{"type":"Point","coordinates":[-79.940885,40.451458]}},{"properties":{"name":"BENDER, HELENE","city":"PITTSBURGH","zip":"15232","geo_score":0.714,"address line 1":"5200 CENTRE AVE","phone":4126212334,"id":"aa0g90t5waal","geo_precision":"zip"},"type":"Feature","geometry":{"type":"Point","coordinates":[-79.940885,40.451458]}},{"properties":{"name":"WEINBERG, LEE","city":"PITTSBURGH","zip":"15232","geo_score":0.714,"address line 1":"5200 CENTRE AVE","phone":4126233105,"id":"aa0g90szh53v","geo_precision":"zip"},"type":"Feature","geometry":{"type":"Point","coordinates":[-79.940885,40.451458]}},{"properties":{"name":"MIKULSKI, WENDY","city":"PITTSBURGH","zip":"15232","geo_score":0.714,"address line 1":"5200 CENTRE AVE","phone":4126217777,"id":"aa0g90n4yq4k","geo_precision":"zip"},"type":"Feature","geometry":{"type":"Point","coordinates":[-79.940885,40.451458]}},{"properties":{"name":"BRAND, RANDALL","city":"PITTSBURGH","zip":"15232","geo_score":0.714,"address line 1":"5200 CENTRE AVE","phone":null,"id":"aa0g90jfq3sb","geo_precision":"zip"},"type":"Feature","geometry":{"type":"Point","coordinates":[-79.940885,40.451458]}},{"properties":{"name":"DUBNER, HOWARD","city":"PITTSBURGH","zip":"15232","geo_score":0.714,"address line 1":"5200 CENTRE AVE","phone":4126235379,"id":"aa0g90odkdzy","geo_precision":"zip"},"type":"Feature","geometry":{"type":"Point","coordinates":[-79.940885,40.451458]}},{"properties":{"name":"PATEL, HITENDRA","city":"PITTSBURGH","zip":"15232","geo_score":0.714,"address line 1":"5200 CENTRE AVE","phone":4126217777,"id":"aa0g90jzf6vu","geo_precision":"zip"},"type":"Feature","geometry":{"type":"Point","coordinates":[-79.940885,40.451458]}},{"properties":{"name":"MUSAHL, TINA","city":"PITTSBURGH","zip":"15232","geo_score":0.714,"address line 1":"5200 CENTRE AVE","phone":4126235379,"id":"aa0g90jhxnnm","geo_precision":"zip"},"type":"Feature","geometry":{"type":"Point","coordinates":[-79.940885,40.451458]}},{"properties":{"name":"JANARDHANAN, RAVI","city":"PITTSBURGH","zip":"15237","geo_score":0.714,"address line 1":"3285 BABCOCK BLVD","phone":null,"id":"aa0g90v35ajw","geo_precision":"zip"},"type":"Feature","geometry":{"type":"Point","coordinates":[-80.003666,40.531735]}},{"properties":{"name":"SOTOODEHFAR, RAHIM","city":"PITTSBURGH","zip":"15237","geo_score":0.714,"address line 1":"9104 BABCOCK BLVD","phone":4123664402,"id":"aa0g90nwp9wj","geo_precision":"zip"},"type":"Feature","geometry":{"type":"Point","coordinates":[-80.003666,40.531735]}},{"properties":{"name":"POTTER, ROBERT JR","city":"PITTSBURGH","zip":"15237","geo_score":0.714,"address line 1":"5700 CORPORATE DR","phone":4126302670,"id":"aa0g90tqwfgp","geo_precision":"zip"},"type":"Feature","geometry":{"type":"Point","coordinates":[-80.003666,40.531735]}},{"properties":{"name":"FAGHFOORY, KATIE","city":"PITTSBURGH","zip":"15237","geo_score":0.714,"address line 1":"9335 MCKNIGHT RD","phone":null,"id":"aa0g90sq6i2q","geo_precision":"zip"},"type":"Feature","geometry":{"type":"Point","coordinates":[-80.003666,40.531735]}},{"properties":{"name":"THOMAS, ANDREW","city":"PITTSBURGH","zip":"15237","geo_score":0.714,"address line 1":"3285 BABCOCK BLVD","phone":4123180075,"id":"aa0g90kk41qf","geo_precision":"zip"},"type":"Feature","geometry":{"type":"Point","coordinates":[-80.003666,40.531735]}},{"properties":{"name":"LEMLEY, DIANA","city":"PITTSBURGH","zip":"15238","geo_score":0.714,"address line 1":"207 GLEN HAVEN LN","phone":4125521122,"id":"aa0g90yl4cth","geo_precision":"zip"},"type":"Feature","geometry":{"type":"Point","coordinates":[-79.888663,40.577012]}},{"properties":{"name":"VARINDANI, MAHESH","city":"BLAWNOX","zip":"15238","geo_score":0.714,"address line 1":"307 FREEPORT RD","phone":4128280100,"id":"aa0g90trldl5","geo_precision":"zip"},"type":"Feature","geometry":{"type":"Point","coordinates":[-79.888663,40.577012]}},{"properties":{"name":"KERNICH, JOSEPH","city":"PUNXSUTAWNEY","zip":"15767","geo_score":0.714,"address line 1":"83 HILLCREST DR","phone":8149383310,"id":"aa0g90xxib2u","geo_precision":"zip"},"type":"Feature","geometry":{"type":"Point","coordinates":[-78.850032,40.904786]}},{"properties":{"name":"WITHERITE-RIEG, LISA","city":"PUNXSUTAWNEY","zip":"15767","geo_score":0.714,"address line 1":"83 HILLCREST DR","phone":8149383310,"id":"aa0g90muy2bq","geo_precision":"zip"},"type":"Feature","geometry":{"type":"Point","coordinates":[-78.850032,40.904786]}},{"properties":{"name":"CHAMBERS, DEBORAH","city":"BROOKVILLE","zip":"15825","geo_score":0.714,"address line 1":"298 MAIN ST","phone":8148495288,"id":"aa0g90wwqveb","geo_precision":"zip"},"type":"Feature","geometry":{"type":"Point","coordinates":[-79.14615,41.177842]}},{"properties":{"name":"SNEERINGER, THOMAS","city":"BROOKVILLE","zip":"15825","geo_score":0.714,"address line 1":"477 ROUTE 28","phone":8148493035,"id":"aa0g90v1z7dz","geo_precision":"zip"},"type":"Feature","geometry":{"type":"Point","coordinates":[-79.14615,41.177842]}},{"properties":{"name":"KAKABADZE, SHALVA","city":"REYNOLDSVILLE","zip":"15851","geo_score":0.714,"address line 1":"5 N 3RD ST","phone":8146538222,"id":"aa0g90x8slkj","geo_precision":"zip"},"type":"Feature","geometry":{"type":"Point","coordinates":[-78.890311,41.025341]}},{"properties":{"name":"TORRE, HENRY","city":"REYNOLDSVILLE","zip":"15851","geo_score":0.714,"address line 1":"5 N 3RD ST","phone":8146539373,"id":"aa0g90nfuj4p","geo_precision":"zip"},"type":"Feature","geometry":{"type":"Point","coordinates":[-78.890311,41.025341]}},{"properties":{"name":"GORDON, DANIEL","city":"REYNOLDSVILLE","zip":"15851","geo_score":0.714,"address line 1":"674 WISHAW RD","phone":8146537687,"id":"aa0g90qrn941","geo_precision":"zip"},"type":"Feature","geometry":{"type":"Point","coordinates":[-78.890311,41.025341]}},{"properties":{"name":"SORG, MAURUS","city":"SAINT MARYS","zip":"15857","geo_score":0.714,"address line 1":"136 STATE ST","phone":null,"id":"aa0g90m64g6t","geo_precision":"zip"},"type":"Feature","geometry":{"type":"Point","coordinates":[-78.563356,41.437284]}},{"properties":{"name":"CIENCIVA, ROSEMARIA","city":"SAINT MARYS","zip":"15857","geo_score":0.714,"address line 1":"136 STATE ST","phone":8147816758,"id":"aa0g90w56be1","geo_precision":"zip"},"type":"Feature","geometry":{"type":"Point","coordinates":[-78.563356,41.437284]}},{"properties":{"name":"CHANNAPATI, THIPPESWAMY","city":"BUTLER","zip":"16001","geo_score":0.714,"address line 1":"342 N MAIN ST","phone":7242828011,"id":"aa0g90taqu8o","geo_precision":"zip"},"type":"Feature","geometry":{"type":"Point","coordinates":[-79.906999,40.904231]}},{"properties":{"name":"LATUSKA, RICHARD","city":"BUTLER","zip":"16001","geo_score":0.714,"address line 1":"102 TECHNOLOGY DR","phone":7244820095,"id":"aa0g90yi13ou","geo_precision":"zip"},"type":"Feature","geometry":{"type":"Point","coordinates":[-79.906999,40.904231]}},{"properties":{"name":"WALTERS, DONALD","city":"BUTLER","zip":"16001","geo_score":0.714,"address line 1":"104 TECHNOLOGY DR","phone":7244826062,"id":"aa0g90obz7y8","geo_precision":"zip"},"type":"Feature","geometry":{"type":"Point","coordinates":[-79.906999,40.904231]}},{"properties":{"name":"SARGENT, STEPHEN","city":"BUTLER","zip":"16001","geo_score":0.714,"address line 1":"480 E JEFFERSON ST","phone":7242822668,"id":"aa0g90u5shtz","geo_precision":"zip"},"type":"Feature","geometry":{"type":"Point","coordinates":[-79.906999,40.904231]}},{"properties":{"name":"SHETTER, THOMAS","city":"BUTLER","zip":"16001","geo_score":0.714,"address line 1":"480 E JEFFERSON ST","phone":4195223372,"id":"aa0g90uo6q4r","geo_precision":"zip"},"type":"Feature","geometry":{"type":"Point","coordinates":[-79.906999,40.904231]}},{"properties":{"name":"MOLLOY, PETER","city":"BUTLER","zip":"16001","geo_score":0.714,"address line 1":"102 TECHNOLOGY DR","phone":4126811616,"id":"aa0g90x106p1","geo_precision":"zip"},"type":"Feature","geometry":{"type":"Point","coordinates":[-79.906999,40.904231]}},{"properties":{"name":"TROTTA, MICHAEL","city":"BUTLER","zip":"16001","geo_score":0.714,"address line 1":"480 E JEFFERSON ST","phone":4809697311,"id":"aa0g90y5dwl5","geo_precision":"zip"},"type":"Feature","geometry":{"type":"Point","coordinates":[-79.906999,40.904231]}},{"properties":{"name":"ROCCHI, JOHN","city":"BUTLER","zip":"16001","geo_score":0.714,"address line 1":"480 E JEFFERSON ST","phone":7242824504,"id":"aa0g90rj5lwp","geo_precision":"zip"},"type":"Feature","geometry":{"type":"Point","coordinates":[-79.906999,40.904231]}},{"properties":{"name":"STEPANOW, SAMUEL","city":"CRANBERRY TWP","zip":"16066","geo_score":0.714,"address line 1":"213 EXECUTIVE DR","phone":7247729797,"id":"aa0g90ivrwzc","geo_precision":"zip"},"type":"Feature","geometry":{"type":"Point","coordinates":[-80.104597,40.709713]}},{"properties":{"name":"BURICK, SHEILA","city":"NEW CASTLE","zip":"16101","geo_score":0.714,"address line 1":"1112 S MILL ST","phone":7246584564,"id":"aa0g90j6dztv","geo_precision":"zip"},"type":"Feature","geometry":{"type":"Point","coordinates":[-80.382843,40.953395]}},{"properties":{"name":"MAGDA, JERZY","city":"NEW CASTLE","zip":"16105","geo_score":0.714,"address line 1":"125 ENCLAVE DR","phone":7246586656,"id":"aa0g90pec9dv","geo_precision":"zip"},"type":"Feature","geometry":{"type":"Point","coordinates":[-80.312286,41.087282]}},{"properties":{"name":"MEDRANO-COLEMAN, SILVIA","city":"NEW CASTLE","zip":"16105","geo_score":0.714,"address line 1":"125 ENCLAVE DR","phone":null,"id":"aa0g90muf7qc","geo_precision":"zip"},"type":"Feature","geometry":{"type":"Point","coordinates":[-80.312286,41.087282]}},{"properties":{"name":"MULTARI, ROBERT","city":"FARRELL","zip":"16121","geo_score":0.714,"address line 1":"2120 LIKENS LN","phone":7249813731,"id":"aa0g90r0x13m","geo_precision":"zip"},"type":"Feature","geometry":{"type":"Point","coordinates":[-80.487821,41.210606]}},{"properties":{"name":"WORKS, KIRK","city":"GREENVILLE","zip":"16125","geo_score":0.714,"address line 1":"125 N MAIN ST","phone":7245888089,"id":"aa0g90lxaryf","geo_precision":"zip"},"type":"Feature","geometry":{"type":"Point","coordinates":[-80.398957,41.379777]}},{"properties":{"name":"HOYT, DAVID","city":"MERCER","zip":"16137","geo_score":0.714,"address line 1":"400 W BUTLER ST","phone":7244588754,"id":"aa0g90ugkdx2","geo_precision":"zip"},"type":"Feature","geometry":{"type":"Point","coordinates":[-80.173395,41.166726]}},{"properties":{"name":"KALIK, JOSEPH","city":"HERMITAGE","zip":"16148","geo_score":0.714,"address line 1":"295 N KERRWOOD DR","phone":null,"id":"aa0g90s4vb4t","geo_precision":"zip"},"type":"Feature","geometry":{"type":"Point","coordinates":[-80.438887,41.221984]}},{"properties":{"name":"VALLABH, SAGAR","city":"HERMITAGE","zip":"16148","geo_score":0.714,"address line 1":"2501 SHENANGO VALLEY FWY","phone":7249830223,"id":"aa0g90snz62t","geo_precision":"zip"},"type":"Feature","geometry":{"type":"Point","coordinates":[-80.438887,41.221984]}},{"properties":{"name":"D'AURIA, CHARLES","city":"HERMITAGE","zip":"16148","geo_score":0.714,"address line 1":"480 N KERRWOOD DR","phone":7249810823,"id":"aa0g90osmmdd","geo_precision":"zip"},"type":"Feature","geometry":{"type":"Point","coordinates":[-80.438887,41.221984]}},{"properties":{"name":"PUCHARICH, FRANCES","city":"HERMITAGE","zip":"16148","geo_score":0.714,"address line 1":"2151 SHENANGO VALLEY FWY","phone":7249815613,"id":"aa0g90kza3kt","geo_precision":"zip"},"type":"Feature","geometry":{"type":"Point","coordinates":[-80.438887,41.221984]}},{"properties":{"name":"CONTE HARPER, LAURA","city":"HERMITAGE","zip":"16148","geo_score":0.714,"address line 1":"752 BROOKSHIRE DR","phone":7249818883,"id":"aa0g90rqytwy","geo_precision":"zip"},"type":"Feature","geometry":{"type":"Point","coordinates":[-80.438887,41.221984]}},{"properties":{"name":"MILLER, SHARON","city":"HERMITAGE","zip":"16148","geo_score":0.714,"address line 1":"752 BROOKSHIRE DR","phone":7249818883,"id":"aa0g90z2lhcf","geo_precision":"zip"},"type":"Feature","geometry":{"type":"Point","coordinates":[-80.438887,41.221984]}},{"properties":{"name":"EZIASHI, JAMES","city":"HERMITAGE","zip":"16148","geo_score":0.714,"address line 1":"2501 SHENANGO VALLEY FWY","phone":7249830223,"id":"aa0g90tc87i1","geo_precision":"zip"},"type":"Feature","geometry":{"type":"Point","coordinates":[-80.438887,41.221984]}},{"properties":{"name":"MERCURIO, RICHARD","city":"KITTANNING","zip":"16201","geo_score":0.714,"address line 1":"198 WEST GATE DR","phone":7245431735,"id":"aa0g90k2r4jo","geo_precision":"zip"},"type":"Feature","geometry":{"type":"Point","coordinates":[-79.371153,40.780342]}},{"properties":{"name":"VOGAN, CLIFFORD","city":"COWANSVILLE","zip":"16218","geo_score":0.714,"address line 1":"882 EAST BRADY RD","phone":7245485605,"id":"aa0g90rel0cc","geo_precision":"zip"},"type":"Feature","geometry":{"type":"Point","coordinates":[-79.64227,40.941175]}},{"properties":{"name":"MCCANN, WILLIAM JR","city":"FORD CITY","zip":"16226","geo_score":0.714,"address line 1":"432 3RD AVE","phone":7247639200,"id":"aa0g90v769ma","geo_precision":"zip"},"type":"Feature","geometry":{"type":"Point","coordinates":[-79.458098,40.670065]}},{"properties":{"name":"DRATLER, MARVIN","city":"MEADVILLE","zip":"16335","geo_score":0.714,"address line 1":"1012 WATER ST","phone":8143366157,"id":"aa0g90w3pdgx","geo_precision":"zip"},"type":"Feature","geometry":{"type":"Point","coordinates":[-80.04089,41.681167]}},{"properties":{"name":"PATEL, NITIN","city":"MEADVILLE","zip":"16335","geo_score":0.714,"address line 1":"1012 WATER ST","phone":8143366157,"id":"aa0g90nifvpi","geo_precision":"zip"},"type":"Feature","geometry":{"type":"Point","coordinates":[-80.04089,41.681167]}},{"properties":{"name":"WIMER, BETH","city":"MEADVILLE","zip":"16335","geo_score":0.714,"address line 1":"1012 WATER ST","phone":8143366157,"id":"aa0g90v56uso","geo_precision":"zip"},"type":"Feature","geometry":{"type":"Point","coordinates":[-80.04089,41.681167]}},{"properties":{"name":"DECKER, MARTIN","city":"MEADVILLE","zip":"16335","geo_score":0.714,"address line 1":"105 MEAD AVE","phone":8143371144,"id":"aa0g90t9nk9z","geo_precision":"zip"},"type":"Feature","geometry":{"type":"Point","coordinates":[-80.04089,41.681167]}},{"properties":{"name":"ANDRES, DAVID","city":"SENECA","zip":"16346","geo_score":0.714,"address line 1":"3742 STATE ROUTE 257","phone":null,"id":"aa0g90kbt1es","geo_precision":"zip"},"type":"Feature","geometry":{"type":"Point","coordinates":[-79.707212,41.378581]}},{"properties":{"name":"KENNEY, GERARD","city":"SENECA","zip":"16346","geo_score":0.714,"address line 1":"3744 STATE ROUTE 257","phone":8146778922,"id":"aa0g90z2lo7h","geo_precision":"zip"},"type":"Feature","geometry":{"type":"Point","coordinates":[-79.707212,41.378581]}},{"properties":{"name":"PADALINO, MICHAEL","city":"SENECA","zip":"16346","geo_score":0.714,"address line 1":"3744 STATE ROUTE 257","phone":8146776700,"id":"aa0g90kpy4fn","geo_precision":"zip"},"type":"Feature","geometry":{"type":"Point","coordinates":[-79.707212,41.378581]}},{"properties":{"name":"CHESAR, THOMAS JR","city":"TITUSVILLE","zip":"16354","geo_score":0.714,"address line 1":"335 W OAK ST","phone":8148273814,"id":"aa0g90utarfc","geo_precision":"zip"},"type":"Feature","geometry":{"type":"Point","coordinates":[-79.720068,41.661775]}},{"properties":{"name":"PROY, BERNARD","city":"CORRY","zip":"16407","geo_score":0.714,"address line 1":"315 YORK ST","phone":8146644661,"id":"aa0g90og2h7s","geo_precision":"zip"},"type":"Feature","geometry":{"type":"Point","coordinates":[-79.569495,41.845613]}},{"properties":{"name":"DUDZINSKI, JOHN","city":"NORTH EAST","zip":"16428","geo_score":0.714,"address line 1":"115 E MAIN ST","phone":null,"id":"aa0g90xlm80l","geo_precision":"zip"},"type":"Feature","geometry":{"type":"Point","coordinates":[-79.862829,42.116167]}},{"properties":{"name":"BALMER, JOHN","city":"SPARTANSBURG","zip":"16434","geo_score":0.714,"address line 1":"132 MECHANIC ST","phone":null,"id":"aa0g90kh64vy","geo_precision":"zip"},"type":"Feature","geometry":{"type":"Point","coordinates":[-79.565329,41.798669]}},{"properties":{"name":"PHELPS, JENNIFER","city":"SPARTANSBURG","zip":"16434","geo_score":0.714,"address line 1":"132 MECHANIC ST","phone":8146547334,"id":"aa0g90leho01","geo_precision":"zip"},"type":"Feature","geometry":{"type":"Point","coordinates":[-79.565329,41.798669]}},{"properties":{"name":"KHERA, DINESH","city":"ERIE","zip":"16502","geo_score":0.714,"address line 1":"2315 MYRTLE ST","phone":8144522767,"id":"aa0g90ud5uqt","geo_precision":"zip"},"type":"Feature","geometry":{"type":"Point","coordinates":[-80.100931,42.110357]}},{"properties":{"name":"ABOGUNDE, SEGUN","city":"ERIE","zip":"16502","geo_score":0.714,"address line 1":"2315 MYRTLE ST","phone":null,"id":"aa0g90ypt5ka","geo_precision":"zip"},"type":"Feature","geometry":{"type":"Point","coordinates":[-80.100931,42.110357]}},{"properties":{"name":"DELL, CHELSIE","city":"ERIE","zip":"16502","geo_score":0.714,"address line 1":"2315 MYRTLE ST","phone":8144522767,"id":"aa0g90ta7k3q","geo_precision":"zip"},"type":"Feature","geometry":{"type":"Point","coordinates":[-80.100931,42.110357]}},{"properties":{"name":"PATEL, VINOD","city":"ERIE","zip":"16505","geo_score":0.714,"address line 1":"2501 W 12TH ST","phone":null,"id":"aa0g90n2rz3f","geo_precision":"zip"},"type":"Feature","geometry":{"type":"Point","coordinates":[-80.173673,42.092002]}},{"properties":{"name":"NEER, GARY","city":"ERIE","zip":"16505","geo_score":0.714,"address line 1":"1600 PENINSULA DR","phone":8148777035,"id":"aa0g90xyns90","geo_precision":"zip"},"type":"Feature","geometry":{"type":"Point","coordinates":[-80.173673,42.092002]}},{"properties":{"name":"MASTERS, THOMAS","city":"ERIE","zip":"16506","geo_score":0.714,"address line 1":"2828 STERRETTANIA RD","phone":8148339700,"id":"aa0g90syzh20","geo_precision":"zip"},"type":"Feature","geometry":{"type":"Point","coordinates":[-80.140894,42.08089]}},{"properties":{"name":"LEVY, DAVID","city":"ERIE","zip":"16507","geo_score":0.714,"address line 1":"100 PEACH ST","phone":8144567733,"id":"aa0g90ppp3s5","geo_precision":"zip"},"type":"Feature","geometry":{"type":"Point","coordinates":[-80.084042,42.134257]}},{"properties":{"name":"SCHWARTZ, ROBERT","city":"ERIE","zip":"16507","geo_score":0.714,"address line 1":"100 PEACH ST","phone":8144567733,"id":"aa0g90x8dp09","geo_precision":"zip"},"type":"Feature","geometry":{"type":"Point","coordinates":[-80.084042,42.134257]}},{"properties":{"name":"SALEH, NEAM","city":"ERIE","zip":"16507","geo_score":0.714,"address line 1":"215 HOLLAND ST","phone":8148775510,"id":"aa0g90y7xcdp","geo_precision":"zip"},"type":"Feature","geometry":{"type":"Point","coordinates":[-80.084042,42.134257]}},{"properties":{"name":"HENRY, SCOTT","city":"ERIE","zip":"16507","geo_score":0.714,"address line 1":"100 PEACH ST","phone":8144567733,"id":"aa0g90m0b2wx","geo_precision":"zip"},"type":"Feature","geometry":{"type":"Point","coordinates":[-80.084042,42.134257]}},{"properties":{"name":"WISMER, WILLIAM","city":"ERIE","zip":"16508","geo_score":0.714,"address line 1":"2010 W 38TH ST","phone":null,"id":"aa0g90o7awpc","geo_precision":"zip"},"type":"Feature","geometry":{"type":"Point","coordinates":[-80.09283,42.097156]}},{"properties":{"name":"MC ALLISTER, RAYMOND","city":"ERIE","zip":"16508","geo_score":0.714,"address line 1":"3330 PEACH ST","phone":8148775570,"id":"aa0g90pjc0if","geo_precision":"zip"},"type":"Feature","geometry":{"type":"Point","coordinates":[-80.09283,42.097156]}},{"properties":{"name":"FIERRO, VINCENT JR","city":"ERIE","zip":"16509","geo_score":0.714,"address line 1":"5451 PEACH ST","phone":8148663986,"id":"aa0g90p7nzop","geo_precision":"zip"},"type":"Feature","geometry":{"type":"Point","coordinates":[-80.201452,42.068391]}},{"properties":{"name":"KIEL, ROBERT","city":"ERIE","zip":"16509","geo_score":0.714,"address line 1":"4906 RICHMOND ST","phone":8148642949,"id":"aa0g90ug1ba8","geo_precision":"zip"},"type":"Feature","geometry":{"type":"Point","coordinates":[-80.201452,42.068391]}},{"properties":{"name":"HELMS, JARED","city":"ERIE","zip":"16509","geo_score":0.714,"address line 1":"5515 PEACH ST","phone":8148688252,"id":"aa0g90og4thx","geo_precision":"zip"},"type":"Feature","geometry":{"type":"Point","coordinates":[-80.201452,42.068391]}},{"properties":{"name":"BUNTIC, VLADISLAVA","city":"ERIE","zip":"16544","geo_score":0.714,"address line 1":"232 W 25TH ST","phone":null,"id":"aa0g90v3nsmb","geo_precision":"zip"},"type":"Feature","geometry":{"type":"Point","coordinates":[-80.064915,42.182748]}},{"properties":{"name":"SALEH, KAMRAN","city":"BRADFORD","zip":"16701","geo_score":0.714,"address line 1":"24 W WASHINGTON ST","phone":8143681000,"id":"aa0g90leondp","geo_precision":"zip"},"type":"Feature","geometry":{"type":"Point","coordinates":[-78.617249,41.975063]}},{"properties":{"name":"TRONETTI, JASON","city":"PORT ALLEGANY","zip":"16743","geo_score":0.714,"address line 1":"45 N PINE ST","phone":8146429655,"id":"aa0g90qlbyls","geo_precision":"zip"},"type":"Feature","geometry":{"type":"Point","coordinates":[-78.20501,41.788954]}},{"properties":{"name":"PRASAD, SAKET","city":"COUDERSPORT","zip":"16915","geo_score":0.714,"address line 1":"1001 E 2ND ST","phone":null,"id":"aa0g90q2sjmc","geo_precision":"zip"},"type":"Feature","geometry":{"type":"Point","coordinates":[-77.956692,41.776165]}}],"is_temporal":false,"author":{"url":"","metadata":null,"contact_name":null,"contact_address":null,"source":null,"contact_phone":null},"source":"","pagination":{"sort":null,"start":0,"total":143,"limit":1000000},"state":"complete","tags":"","published":"2014-08-14T19:39:24-04:00","id":293062}