{"type":"FeatureCollection","data_type":"Dataset","url_type":null,"permissions":[{"permissions":{"download":true,"edit":true,"view":true},"group_id":42518},{"permissions":{"download":true,"view":true},"group_id":"everyone"}],"classification":null,"title":"REO Dist FNMA MTD Nov 13","count":37,"stream_id":293360,"contributor":{"url":"http://geocommons.com/users/39447","name":"sam.felipe"},"data_attributes":null,"calculation_params":null,"icon_link":null,"link":"http://geocommons.com/overlays/293360.json","extent":[-121.942,32.6824,-115.508,40.8872],"geometry_types":["point"],"unique_name":null,"name":"REO Dist FNMA MTD Nov 13","feature_count":37,"description":"","next_feature":null,"is_raster":false,"short_classification":"Y","stats":{},"features":[{"properties":{"city":"Modesto","zip":"95355","region":"South Northern California","geo_score":0.902,"filenumber":"01180-2801","branchoffice":"Modesto","id":"aa0ickvf0eek","address":"1213 Blue Daisy Way","geo_precision":"range"},"type":"Feature","geometry":{"type":"Point","coordinates":[-120.949355,37.66126]}},{"properties":{"city":"Riverside","zip":"92504","region":"Inland Empire","geo_score":0.902,"filenumber":"01180-2857","branchoffice":"Riverside","id":"aa0ickzhaq50","address":"4608 Granada Avenue","geo_precision":"range"},"type":"Feature","geometry":{"type":"Point","coordinates":[-117.403317,33.947943]}},{"properties":{"city":"Woodland","zip":"95695","region":"South Northern California","geo_score":0.902,"filenumber":"01180-2860","branchoffice":"Turlock","id":"aa0ickzuaj2w","address":"258 Arlington Circle","geo_precision":"range"},"type":"Feature","geometry":{"type":"Point","coordinates":[-121.767869,38.689681]}},{"properties":{"city":"Woodland","zip":"95695","region":"South Northern California","geo_score":0.61,"filenumber":"01180-2861","branchoffice":"Turlock","id":"aa0ickncgszg","address":"315 North Cottonwood Street #7","geo_precision":"range"},"type":"Feature","geometry":{"type":"Point","coordinates":[-121.79357,38.688362]}},{"properties":{"city":"Palmdale","zip":"93552","region":"Los Angeles - Ventura California","geo_score":0.707,"filenumber":"01180-3106","branchoffice":"City of Industry","id":"aa0ickrki0d1","address":"5026 Bell Avenue","geo_precision":"street"},"type":"Feature","geometry":{"type":"Point","coordinates":[-117.654697,35.610783]}},{"properties":{"city":"Madera","zip":"93637","region":"Central California","geo_score":0.417,"filenumber":"01180-3495","branchoffice":"Fresno","id":"aa0ickp7bfsf","address":"9644 Road 28 1/2","geo_precision":"street"},"type":"Feature","geometry":{"type":"Point","coordinates":[-120.065288,36.965803]}},{"properties":{"city":"Modesto","zip":"95350","region":"South Northern California","geo_score":0.902,"filenumber":"01180-4597","branchoffice":"Modesto","id":"aa0ickr7w83e","address":"2021 Robbie Avenue","geo_precision":"range"},"type":"Feature","geometry":{"type":"Point","coordinates":[-121.028123,37.679783]}},{"properties":{"city":"West Sacramento","zip":"95691","region":"South Northern California","geo_score":0.902,"filenumber":"01180-5805","branchoffice":"Modesto","id":"aa0ickr4m6ao","address":"130 Touchstone Place","geo_precision":"range"},"type":"Feature","geometry":{"type":"Point","coordinates":[-121.542127,38.5502]}},{"properties":{"city":"Bakersfield","zip":"93309","region":"Central California","geo_score":0.902,"filenumber":"416985","branchoffice":"Bakersfield","id":"aa0ickse9gb2","address":"3600 Actis St","geo_precision":"range"},"type":"Feature","geometry":{"type":"Point","coordinates":[-119.052349,35.32315]}},{"properties":{"city":"Sacramento","zip":"95819","region":"South Northern California","geo_score":0.902,"filenumber":"467113","branchoffice":"Turlock","id":"aa0ickvxxi2h","address":"1736 Berkeley Way","geo_precision":"range"},"type":"Feature","geometry":{"type":"Point","coordinates":[-121.454647,38.561985]}},{"properties":{"city":"Burney","zip":"96013","region":"South Northern California","geo_score":0.902,"filenumber":"472637","branchoffice":"Modesto","id":"aa0icknxka2e","address":"20592 Roff Way","geo_precision":"range"},"type":"Feature","geometry":{"type":"Point","coordinates":[-121.65574,40.887197]}},{"properties":{"city":"Strathmore","zip":"93267","region":"Central California","geo_score":0.902,"filenumber":"474200","branchoffice":"Porterville","id":"aa0ickxxzxtf","address":"22730 Avenue 196","geo_precision":"range"},"type":"Feature","geometry":{"type":"Point","coordinates":[-119.064356,36.145633]}},{"properties":{"city":"Sacramento","zip":"95820","region":"South Northern California","geo_score":0.81,"filenumber":"474553","branchoffice":"Turlock","id":"aa0icl0znre6","address":"4758 8th Avenue","geo_precision":"range"},"type":"Feature","geometry":{"type":"Point","coordinates":[-121.448645,38.54443]}},{"properties":{"city":"Fresno","zip":"0","region":"Central California","geo_score":0.805,"filenumber":"475255","branchoffice":"Fresno","id":"aa0ickzhqy6a","address":"1103 West Vassar Avenue","geo_precision":"range"},"type":"Feature","geometry":{"type":"Point","coordinates":[-119.826623,36.770994]}},{"properties":{"city":"Pollock Pince","zip":"95726","region":"South Northern California","geo_score":0.602,"filenumber":"476283","branchoffice":"Turlock","id":"aa0ickms3p4v","address":"6291 Topaz","geo_precision":"street"},"type":"Feature","geometry":{"type":"Point","coordinates":[-120.56776,38.750792]}},{"properties":{"city":"BORREGO SPRINGS","zip":"92004","region":"So. California","geo_score":0.902,"filenumber":"478296","branchoffice":"Carlsbad","id":"aa0ickrl2hz8","address":"3184 Club Circle East","geo_precision":"range"},"type":"Feature","geometry":{"type":"Point","coordinates":[-116.355528,33.232014]}},{"properties":{"city":"Murrieta","zip":"92563","region":"Inland Empire","geo_score":0.819,"filenumber":"478788","branchoffice":"Murrieta","id":"aa0icl12vzg6","address":"39497 Tangletree","geo_precision":"range"},"type":"Feature","geometry":{"type":"Point","coordinates":[-117.131343,33.547332]}},{"properties":{"city":"La Mirada","zip":"90638","region":"Los Angeles - Ventura California","geo_score":0.902,"filenumber":"480555","branchoffice":"Glendale","id":"aa0ickoi0uud","address":"11909 Courser Avenue","geo_precision":"range"},"type":"Feature","geometry":{"type":"Point","coordinates":[-118.007032,33.921478]}},{"properties":{"city":"LINCOLN","zip":"95648","region":"South Northern California","geo_score":0.902,"filenumber":"480556","branchoffice":"Modesto","id":"aa0icl0t0wd4","address":"707 Violet Lane","geo_precision":"range"},"type":"Feature","geometry":{"type":"Point","coordinates":[-121.941968,38.34127]}},{"properties":{"city":"POMONA","zip":"91767","region":"Los Angeles - Ventura California","geo_score":0.889,"filenumber":"482772","branchoffice":"Glendale","id":"aa0ickqwiznp","address":"891 Bradford Street","geo_precision":"range"},"type":"Feature","geometry":{"type":"Point","coordinates":[-117.749952,34.065878]}},{"properties":{"city":"Modesto","zip":"95354","region":"South Northern California","geo_score":0.902,"filenumber":"483473","branchoffice":"Modesto","id":"aa0ickuxbyss","address":"2024 Lance Street","geo_precision":"range"},"type":"Feature","geometry":{"type":"Point","coordinates":[-120.959707,37.648513]}},{"properties":{"city":"CITRUS HEIGHTS","zip":"95610","region":"South Northern California","geo_score":0.429,"filenumber":"484816","branchoffice":"Turlock","id":"aa0icknv6nnb","address":"7956 Arcade Lake  Lane 43","geo_precision":"street"},"type":"Feature","geometry":{"type":"Point","coordinates":[-120.06562,39.236703]}},{"properties":{"city":"Fresno","zip":"93703","region":"Central California","geo_score":0.902,"filenumber":"485803","branchoffice":"Fresno","id":"aa0ickqxmkd3","address":"1935 E Cornell Ave","geo_precision":"range"},"type":"Feature","geometry":{"type":"Point","coordinates":[-119.786338,36.777797]}},{"properties":{"city":"Chatsworth","zip":"91311","region":"Los Angeles - Ventura California","geo_score":0.902,"filenumber":"487551","branchoffice":"Glendale","id":"aa0icl100lh1","address":"9711 Oso Ave","geo_precision":"range"},"type":"Feature","geometry":{"type":"Point","coordinates":[-118.575468,34.246968]}},{"properties":{"city":"Fresno","zip":"93722","region":"Central California","geo_score":0.711,"filenumber":"489694","branchoffice":"Fresno","id":"aa0ickuonx71","address":"6148 North Delbert Avenue","geo_precision":"street"},"type":"Feature","geometry":{"type":"Point","coordinates":[-119.887858,36.824296]}},{"properties":{"city":"Crestline","zip":"92325","region":"Inland Empire","geo_score":0.683,"filenumber":"489860","branchoffice":"Victorville","id":"aa0ickn2in44","address":"24603 Bernard Drive","geo_precision":"range"},"type":"Feature","geometry":{"type":"Point","coordinates":[-117.264921,34.233254]}},{"properties":{"city":"Morongo Valley","zip":"92256","region":"Inland Empire","geo_score":0.902,"filenumber":"491248","branchoffice":"Palm Desert","id":"aa0ickna1c9f","address":"11001 San Jacinto Street","geo_precision":"range"},"type":"Feature","geometry":{"type":"Point","coordinates":[-116.580793,34.052571]}},{"properties":{"city":"Long Beach","zip":"90802","region":"Los Angeles - Ventura California","geo_score":0.61,"filenumber":"491249","branchoffice":"City of Industry","id":"aa0ickuunbzg","address":"720 West 4th Street #216","geo_precision":"range"},"type":"Feature","geometry":{"type":"Point","coordinates":[-118.19399,33.77163]}},{"properties":{"city":"LA PUENTE","zip":"91746","region":"Los Angeles - Ventura California","geo_score":0.716,"filenumber":"492090","branchoffice":"City of Industry","id":"aa0ickohmptu","address":"13721 Las Vecinas Drive","geo_precision":"street"},"type":"Feature","geometry":{"type":"Point","coordinates":[-117.986654,34.049175]}},{"properties":{"city":"Riverside","zip":"92507","region":"Inland Empire","geo_score":0.488,"filenumber":"492824","branchoffice":"Riverside","id":"aa0ickmek1n0","address":"4520 Filson Street","geo_precision":"zip"},"type":"Feature","geometry":{"type":"Point","coordinates":[-117.296431,33.946683]}},{"properties":{"city":"Harbor City","zip":"90710","region":"Los Angeles - Ventura California","geo_score":0.61,"filenumber":"492904","branchoffice":"City of Industry","id":"aa0ickppbkoz","address":"1435 Lomita Boulevard #209","geo_precision":"range"},"type":"Feature","geometry":{"type":"Point","coordinates":[-118.278665,33.798538]}},{"properties":{"city":"Harbor City","zip":"90710","region":"Los Angeles - Ventura California","geo_score":0.429,"filenumber":"494352","branchoffice":"City of Industry","id":"aa0ickv7g371","address":"23612 Western Avenue #B","geo_precision":"street"},"type":"Feature","geometry":{"type":"Point","coordinates":[-118.308806,33.812715]}},{"properties":{"city":"San Bernardino","zip":"92407","region":"Inland Empire","geo_score":0.902,"filenumber":"496121","branchoffice":"Riverside","id":"aa0icl18zlq1","address":"18535 Grandview Avenue","geo_precision":"range"},"type":"Feature","geometry":{"type":"Point","coordinates":[-117.399877,34.224736]}},{"properties":{"city":"Modesto","zip":"95358","region":"Central California","geo_score":0.902,"filenumber":"496540","branchoffice":"Fresno","id":"aa0ickpvdoo1","address":"1614 Eureka Street","geo_precision":"range"},"type":"Feature","geometry":{"type":"Point","coordinates":[-120.995216,37.605981]}},{"properties":{"city":"Calexico","zip":"92231","region":"Inland Empire","geo_score":0.902,"filenumber":"497036","branchoffice":"Palm Desert","id":"aa0icks829s7","address":"549 C Quiroz Street","geo_precision":"range"},"type":"Feature","geometry":{"type":"Point","coordinates":[-115.508438,32.682376]}},{"properties":{"city":"Oceanside","zip":"92056","region":"So. California","geo_score":0.902,"filenumber":"498599","branchoffice":"Carlsbad","id":"aa0icklq1p3c","address":"408 Sea Cliff Way","geo_precision":"range"},"type":"Feature","geometry":{"type":"Point","coordinates":[-117.308673,33.20046]}},{"properties":{"city":"Rocklin","zip":"95677","region":"South Northern California","geo_score":0.902,"filenumber":"01180-9707","branchoffice":"Turlock","id":"aa0icksqjdq4","address":"4485 Circuit Court","geo_precision":"range"},"type":"Feature","geometry":{"type":"Point","coordinates":[-121.225217,38.797954]}}],"is_temporal":false,"author":{"url":"","metadata":"","contact_name":"","contact_address":"","source":"","contact_phone":""},"source":"","pagination":{"sort":null,"start":0,"total":37,"limit":1000000},"state":"complete","tags":"stca","published":"2014-08-14T20:00:40-04:00","id":293360}