{"type":"FeatureCollection","data_type":"Dataset","url_type":null,"permissions":[{"permissions":{"download":true,"view":true},"group_id":"everyone"}],"classification":null,"title":"Dart-Solo Sales 2011 per County per 11-09-2012","count":619,"stream_id":294576,"contributor":{"url":"http://geocommons.com/users/56086","name":"KPoag"},"data_attributes":null,"calculation_params":null,"icon_link":null,"link":"http://geocommons.com/overlays/294576.json","extent":[0.0,0.0,0.0,0.0],"geometry_types":null,"unique_name":null,"name":"Dart-Solo Sales 2011 per County per 11-09-2012","feature_count":619,"description":"","next_feature":null,"is_raster":false,"short_classification":"Y","features":[{"properties":{"region":"1","county":"Alameda","id":"aa1hiewf70iq","state":"CA"},"type":"Feature","geometry":null},{"properties":{"region":"1","county":"Butte","id":"aa1hif1q4chl","state":"CA"},"type":"Feature","geometry":null},{"properties":{"region":"1","county":"Contra Costa","id":"aa1hiezt9whp","state":"CA"},"type":"Feature","geometry":null},{"properties":{"region":"1","county":"Fresno","id":"aa1hiepu96vg","state":"CA"},"type":"Feature","geometry":null},{"properties":{"region":"1","county":"Kings","id":"aa1hif0enlyq","state":"CA"},"type":"Feature","geometry":null},{"properties":{"region":"1","county":"Merced","id":"aa1hienvygg2","state":"CA"},"type":"Feature","geometry":null},{"properties":{"region":"1","county":"Monterey","id":"aa1hiex75ia4","state":"CA"},"type":"Feature","geometry":null},{"properties":{"region":"1","county":"Placer","id":"aa1hieto395g","state":"CA"},"type":"Feature","geometry":null},{"properties":{"region":"1","county":"Sacramento","id":"aa1hiewg9gyk","state":"CA"},"type":"Feature","geometry":null},{"properties":{"region":"1","county":"San Francisco","id":"aa1hiet2j5zs","state":"CA"},"type":"Feature","geometry":null},{"properties":{"region":"1","county":"San Joaquin","id":"aa1hievlgqxh","state":"CA"},"type":"Feature","geometry":null},{"properties":{"region":"1","county":"San Mateo","id":"aa1hieshlea7","state":"CA"},"type":"Feature","geometry":null},{"properties":{"region":"1","county":"Santa Clara","id":"aa1hieswtunx","state":"CA"},"type":"Feature","geometry":null},{"properties":{"region":"1","county":"Santa Cruz","id":"aa1hiezrh7i8","state":"CA"},"type":"Feature","geometry":null},{"properties":{"region":"1","county":"Shasta","id":"aa1hiepraopr","state":"CA"},"type":"Feature","geometry":null},{"properties":{"region":"1","county":"Solano","id":"aa1hiexe5kqg","state":"CA"},"type":"Feature","geometry":null},{"properties":{"region":"1","county":"Sonoma","id":"aa1hiep2zrij","state":"CA"},"type":"Feature","geometry":null},{"properties":{"region":"1","county":"Stanislaus","id":"aa1hieyp1y85","state":"CA"},"type":"Feature","geometry":null},{"properties":{"region":"1","county":"Sutter","id":"aa1hif0zq1j7","state":"CA"},"type":"Feature","geometry":null},{"properties":{"region":"1","county":"Tulare","id":"aa1hieya9x60","state":"CA"},"type":"Feature","geometry":null},{"properties":{"region":"1","county":"Yolo","id":"aa1hieqid6vr","state":"CA"},"type":"Feature","geometry":null},{"properties":{"region":"1","county":"Adams","id":"aa1hiewu1dja","state":"CO"},"type":"Feature","geometry":null},{"properties":{"region":"1","county":"Arapahoe","id":"aa1hiezu7wi2","state":"CO"},"type":"Feature","geometry":null},{"properties":{"region":"1","county":"Denver","id":"aa1hiex8ide1","state":"CO"},"type":"Feature","geometry":null},{"properties":{"region":"1","county":"El Paso","id":"aa1hierstphs","state":"CO"},"type":"Feature","geometry":null},{"properties":{"region":"1","county":"Garfield","id":"aa1hiewlhdbe","state":"CO"},"type":"Feature","geometry":null},{"properties":{"region":"1","county":"Larimer","id":"aa1hiey5vk5n","state":"CO"},"type":"Feature","geometry":null},{"properties":{"region":"1","county":"Weld","id":"aa1hieu8epwg","state":"CO"},"type":"Feature","geometry":null},{"properties":{"region":"1","county":"Ada","id":"aa1hif0g154i","state":"ID"},"type":"Feature","geometry":null},{"properties":{"region":"1","county":"Kootenai","id":"aa1hienkp885","state":"ID"},"type":"Feature","geometry":null},{"properties":{"region":"1","county":"Twin Falls","id":"aa1hietucgye","state":"ID"},"type":"Feature","geometry":null},{"properties":{"region":"1","county":"Gallatin","id":"aa1hieoh3a1y","state":"MT"},"type":"Feature","geometry":null},{"properties":{"region":"1","county":"Missoula","id":"aa1hiepjsqbz","state":"MT"},"type":"Feature","geometry":null},{"properties":{"region":"1","county":"Silver Bow","id":"aa1hieuj1l4c","state":"MT"},"type":"Feature","geometry":null},{"properties":{"region":"1","county":"Yellowstone","id":"aa1hievr45wu","state":"MT"},"type":"Feature","geometry":null},{"properties":{"region":"1","county":"Washoe","id":"aa1hiewd0sce","state":"NV"},"type":"Feature","geometry":null},{"properties":{"region":"1","county":"Clackamas","id":"aa1hielvzy3u","state":"OR"},"type":"Feature","geometry":null},{"properties":{"region":"1","county":"Josephine","id":"aa1hiexca4sb","state":"OR"},"type":"Feature","geometry":null},{"properties":{"region":"1","county":"Lane","id":"aa1hiewune3o","state":"OR"},"type":"Feature","geometry":null},{"properties":{"region":"1","county":"Marion","id":"aa1hif1sg5aq","state":"OR"},"type":"Feature","geometry":null},{"properties":{"region":"1","county":"Multnomah","id":"aa1hif1jb8yl","state":"OR"},"type":"Feature","geometry":null},{"properties":{"region":"1","county":"Umatilla","id":"aa1hif0wvg79","state":"OR"},"type":"Feature","geometry":null},{"properties":{"region":"1","county":"Davis","id":"aa1hieunjhi6","state":"UT"},"type":"Feature","geometry":null},{"properties":{"region":"1","county":"Salt Lake","id":"aa1hiesa5d7x","state":"UT"},"type":"Feature","geometry":null},{"properties":{"region":"1","county":"Weber","id":"aa1hieq1im46","state":"UT"},"type":"Feature","geometry":null},{"properties":{"region":"1","county":"Benton","id":"aa1hievit5h2","state":"WA"},"type":"Feature","geometry":null},{"properties":{"region":"1","county":"Chelan","id":"aa1hieoi4895","state":"WA"},"type":"Feature","geometry":null},{"properties":{"region":"1","county":"Franklin","id":"aa1hieud7e7o","state":"WA"},"type":"Feature","geometry":null},{"properties":{"region":"1","county":"King","id":"aa1hif0p1jx3","state":"WA"},"type":"Feature","geometry":null},{"properties":{"region":"1","county":"Pierce","id":"aa1hieoskihw","state":"WA"},"type":"Feature","geometry":null},{"properties":{"region":"1","county":"Spokane","id":"aa1hieyn5s97","state":"WA"},"type":"Feature","geometry":null},{"properties":{"region":"1","county":"Thurston","id":"aa1hif06okgg","state":"WA"},"type":"Feature","geometry":null},{"properties":{"region":"1","county":"Yakima","id":"aa1hier60s12","state":"WA"},"type":"Feature","geometry":null},{"properties":{"region":"1","county":"Fremont","id":"aa1hif1atauf","state":"WY"},"type":"Feature","geometry":null},{"properties":{"region":"2","county":"Maricopa","id":"aa1hietkfcny","state":"AZ"},"type":"Feature","geometry":null},{"properties":{"region":"2","county":"Mohave","id":"aa1hiey5zmho","state":"AZ"},"type":"Feature","geometry":null},{"properties":{"region":"2","county":"Pima","id":"aa1hiet86a4s","state":"AZ"},"type":"Feature","geometry":null},{"properties":{"region":"2","county":"Imperial","id":"aa1hienra4p2","state":"CA"},"type":"Feature","geometry":null},{"properties":{"region":"2","county":"Kern","id":"aa1hiese1upm","state":"CA"},"type":"Feature","geometry":null},{"properties":{"region":"2","county":"Los Angeles","id":"aa1hieye2b7y","state":"CA"},"type":"Feature","geometry":null},{"properties":{"region":"2","county":"Orange","id":"aa1hielwfppq","state":"CA"},"type":"Feature","geometry":null},{"properties":{"region":"2","county":"Riverside","id":"aa1hiemzkekx","state":"CA"},"type":"Feature","geometry":null},{"properties":{"region":"2","county":"San Bernardino","id":"aa1hif02y86w","state":"CA"},"type":"Feature","geometry":null},{"properties":{"region":"2","county":"San Diego","id":"aa1hierpxwap","state":"CA"},"type":"Feature","geometry":null},{"properties":{"region":"2","county":"San Luis Obispo","id":"aa1hif1e6b1s","state":"CA"},"type":"Feature","geometry":null},{"properties":{"region":"2","county":"Santa Barbara","id":"aa1hiepnrjkw","state":"CA"},"type":"Feature","geometry":null},{"properties":{"region":"2","county":"Ventura","id":"aa1hif1cat2f","state":"CA"},"type":"Feature","geometry":null},{"properties":{"region":"2","county":"Clark","id":"aa1hies2pp69","state":"NV"},"type":"Feature","geometry":null},{"properties":{"region":"3","county":"Bernalillo","id":"aa1hievyyrej","state":"NM"},"type":"Feature","geometry":null},{"properties":{"region":"3","county":"Lea","id":"aa1hieobxrnz","state":"NM"},"type":"Feature","geometry":null},{"properties":{"region":"3","county":"San Juan","id":"aa1hiezp7ln7","state":"NM"},"type":"Feature","geometry":null},{"properties":{"region":"3","county":"Angelina","id":"aa1hiepv8rp9","state":"TX"},"type":"Feature","geometry":null},{"properties":{"region":"3","county":"Bell","id":"aa1hieslr1pm","state":"TX"},"type":"Feature","geometry":null},{"properties":{"region":"3","county":"Bexar","id":"aa1hieoio730","state":"TX"},"type":"Feature","geometry":null},{"properties":{"region":"3","county":"Bowie","id":"aa1hiezavy47","state":"TX"},"type":"Feature","geometry":null},{"properties":{"region":"3","county":"Brazoria","id":"aa1hier272s1","state":"TX"},"type":"Feature","geometry":null},{"properties":{"region":"3","county":"Brazos","id":"aa1hieu5j8iu","state":"TX"},"type":"Feature","geometry":null},{"properties":{"region":"3","county":"Brown","id":"aa1hiezgi6x1","state":"TX"},"type":"Feature","geometry":null},{"properties":{"region":"3","county":"Cameron","id":"aa1hif150d8s","state":"TX"},"type":"Feature","geometry":null},{"properties":{"region":"3","county":"Comal","id":"aa1hiey7l1d8","state":"TX"},"type":"Feature","geometry":null},{"properties":{"region":"3","county":"Dallas","id":"aa1hif1a6n18","state":"TX"},"type":"Feature","geometry":null},{"properties":{"region":"3","county":"Denton","id":"aa1hiepubt7z","state":"TX"},"type":"Feature","geometry":null},{"properties":{"region":"3","county":"Ector","id":"aa1hietrph03","state":"TX"},"type":"Feature","geometry":null},{"properties":{"region":"3","county":"El Paso","id":"aa1hiexvt811","state":"TX"},"type":"Feature","geometry":null},{"properties":{"region":"3","county":"Galveston","id":"aa1hiet3exfr","state":"TX"},"type":"Feature","geometry":null},{"properties":{"region":"3","county":"Grayson","id":"aa1hif1xnp0t","state":"TX"},"type":"Feature","geometry":null},{"properties":{"region":"3","county":"Harris","id":"aa1hiez5x9d5","state":"TX"},"type":"Feature","geometry":null},{"properties":{"region":"3","county":"Hidalgo","id":"aa1hieq1iyqw","state":"TX"},"type":"Feature","geometry":null},{"properties":{"region":"3","county":"Hopkins","id":"aa1hiewie0gu","state":"TX"},"type":"Feature","geometry":null},{"properties":{"region":"3","county":"Jefferson","id":"aa1hielyh25v","state":"TX"},"type":"Feature","geometry":null},{"properties":{"region":"3","county":"Lamar","id":"aa1hiexubm3l","state":"TX"},"type":"Feature","geometry":null},{"properties":{"region":"3","county":"Lubbock","id":"aa1hiet1bdwb","state":"TX"},"type":"Feature","geometry":null},{"properties":{"region":"3","county":"Mclennan","id":"aa1hiewco1gt","state":"TX"},"type":"Feature","geometry":null},{"properties":{"region":"3","county":"Midland","id":"aa1hiexug3as","state":"TX"},"type":"Feature","geometry":null},{"properties":{"region":"3","county":"Nacogdoches","id":"aa1hif1v60hk","state":"TX"},"type":"Feature","geometry":null},{"properties":{"region":"3","county":"Nueces","id":"aa1hien8z2bv","state":"TX"},"type":"Feature","geometry":null},{"properties":{"region":"3","county":"Potter","id":"aa1hievcmydv","state":"TX"},"type":"Feature","geometry":null},{"properties":{"region":"3","county":"Randall","id":"aa1hiez1mwpn","state":"TX"},"type":"Feature","geometry":null},{"properties":{"region":"3","county":"Smith","id":"aa1hiewg3a18","state":"TX"},"type":"Feature","geometry":null},{"properties":{"region":"3","county":"Tarrant","id":"aa1hienk05j0","state":"TX"},"type":"Feature","geometry":null},{"properties":{"region":"3","county":"Travis","id":"aa1hienuyjrs","state":"TX"},"type":"Feature","geometry":null},{"properties":{"region":"3","county":"Victoria","id":"aa1hif18cyac","state":"TX"},"type":"Feature","geometry":null},{"properties":{"region":"3","county":"Walker","id":"aa1hieyrujkv","state":"TX"},"type":"Feature","geometry":null},{"properties":{"region":"3","county":"Washington","id":"aa1hieydmuz8","state":"TX"},"type":"Feature","geometry":null},{"properties":{"region":"3","county":"Wichita","id":"aa1hiesabjjp","state":"TX"},"type":"Feature","geometry":null},{"properties":{"region":"3","county":"Wilbarger","id":"aa1hieu3gr9t","state":"TX"},"type":"Feature","geometry":null},{"properties":{"region":"3","county":"Williamson","id":"aa1hiew718oy","state":"TX"},"type":"Feature","geometry":null},{"properties":{"region":"4","county":"Benton","id":"aa1hievfgqt5","state":"IA"},"type":"Feature","geometry":null},{"properties":{"region":"4","county":"Black Hawk","id":"aa1hif0x4uai","state":"IA"},"type":"Feature","geometry":null},{"properties":{"region":"4","county":"Boone","id":"aa1hiensbeyk","state":"IA"},"type":"Feature","geometry":null},{"properties":{"region":"4","county":"Carroll","id":"aa1hieujfps1","state":"IA"},"type":"Feature","geometry":null},{"properties":{"region":"4","county":"Cerro Gordo","id":"aa1hiep3bh6u","state":"IA"},"type":"Feature","geometry":null},{"properties":{"region":"4","county":"Dubuque","id":"aa1hif27eqmc","state":"IA"},"type":"Feature","geometry":null},{"properties":{"region":"4","county":"Johnson","id":"aa1hif12t5cl","state":"IA"},"type":"Feature","geometry":null},{"properties":{"region":"4","county":"Linn","id":"aa1hiext1mby","state":"IA"},"type":"Feature","geometry":null},{"properties":{"region":"4","county":"Polk","id":"aa1hiesnhf4y","state":"IA"},"type":"Feature","geometry":null},{"properties":{"region":"4","county":"Scott","id":"aa1hieqp2a0k","state":"IA"},"type":"Feature","geometry":null},{"properties":{"region":"4","county":"Sioux","id":"aa1hif0mptid","state":"IA"},"type":"Feature","geometry":null},{"properties":{"region":"4","county":"Webster","id":"aa1hieswjwi2","state":"IA"},"type":"Feature","geometry":null},{"properties":{"region":"4","county":"Woodbury","id":"aa1hiert46fh","state":"IA"},"type":"Feature","geometry":null},{"properties":{"region":"4","county":"Cloud","id":"aa1hiet00rs9","state":"KS"},"type":"Feature","geometry":null},{"properties":{"region":"4","county":"Crawford","id":"aa1hiet9amnf","state":"KS"},"type":"Feature","geometry":null},{"properties":{"region":"4","county":"Johnson","id":"aa1hienvsyuu","state":"KS"},"type":"Feature","geometry":null},{"properties":{"region":"4","county":"Lyon","id":"aa1hieqk3y8a","state":"KS"},"type":"Feature","geometry":null},{"properties":{"region":"4","county":"Sedgwick","id":"aa1hiev0vwou","state":"KS"},"type":"Feature","geometry":null},{"properties":{"region":"4","county":"Seward","id":"aa1hiexej7y4","state":"KS"},"type":"Feature","geometry":null},{"properties":{"region":"4","county":"Shawnee","id":"aa1hienbcqsd","state":"KS"},"type":"Feature","geometry":null},{"properties":{"region":"4","county":"Wyandotte","id":"aa1hif298jxg","state":"KS"},"type":"Feature","geometry":null},{"properties":{"region":"4","county":"Anoka","id":"aa1hiesnvzzu","state":"MN"},"type":"Feature","geometry":null},{"properties":{"region":"4","county":"Brown","id":"aa1hies4y6yf","state":"MN"},"type":"Feature","geometry":null},{"properties":{"region":"4","county":"Carlton","id":"aa1hiep1x5rs","state":"MN"},"type":"Feature","geometry":null},{"properties":{"region":"4","county":"Dakota","id":"aa1hier2t0b9","state":"MN"},"type":"Feature","geometry":null},{"properties":{"region":"4","county":"Douglas","id":"aa1hiey1ha9y","state":"MN"},"type":"Feature","geometry":null},{"properties":{"region":"4","county":"Hennepin","id":"aa1hif2dze2u","state":"MN"},"type":"Feature","geometry":null},{"properties":{"region":"4","county":"Lyon","id":"aa1hiep8ezxz","state":"MN"},"type":"Feature","geometry":null},{"properties":{"region":"4","county":"Olmsted","id":"aa1hiesj2ioi","state":"MN"},"type":"Feature","geometry":null},{"properties":{"region":"4","county":"Ramsey","id":"aa1hiets1b6m","state":"MN"},"type":"Feature","geometry":null},{"properties":{"region":"4","county":"Rice","id":"aa1hif2dmxbb","state":"MN"},"type":"Feature","geometry":null},{"properties":{"region":"4","county":"Roseau","id":"aa1hieu53tpb","state":"MN"},"type":"Feature","geometry":null},{"properties":{"region":"4","county":"Saint Louis","id":"aa1hieuwlxwm","state":"MN"},"type":"Feature","geometry":null},{"properties":{"region":"4","county":"Washington","id":"aa1hievjuatm","state":"MN"},"type":"Feature","geometry":null},{"properties":{"region":"4","county":"Wright","id":"aa1hiepcw3hu","state":"MN"},"type":"Feature","geometry":null},{"properties":{"region":"4","county":"Buchanan","id":"aa1hievvjcho","state":"MO"},"type":"Feature","geometry":null},{"properties":{"region":"4","county":"Cape Girardeau","id":"aa1hiemn02fr","state":"MO"},"type":"Feature","geometry":null},{"properties":{"region":"4","county":"Cole","id":"aa1hiesv4xub","state":"MO"},"type":"Feature","geometry":null},{"properties":{"region":"4","county":"Dent","id":"aa1hiexagp0b","state":"MO"},"type":"Feature","geometry":null},{"properties":{"region":"4","county":"Franklin","id":"aa1hietf5yah","state":"MO"},"type":"Feature","geometry":null},{"properties":{"region":"4","county":"Greene","id":"aa1hieromza8","state":"MO"},"type":"Feature","geometry":null},{"properties":{"region":"4","county":"Jackson","id":"aa1hiernytks","state":"MO"},"type":"Feature","geometry":null},{"properties":{"region":"4","county":"Jefferson","id":"aa1hiepfw28r","state":"MO"},"type":"Feature","geometry":null},{"properties":{"region":"4","county":"Lafayette","id":"aa1hiemo8ips","state":"MO"},"type":"Feature","geometry":null},{"properties":{"region":"4","county":"Miller","id":"aa1hiezw97cd","state":"MO"},"type":"Feature","geometry":null},{"properties":{"region":"4","county":"Platte","id":"aa1hiep3e7z9","state":"MO"},"type":"Feature","geometry":null},{"properties":{"region":"4","county":"Saint Charles","id":"aa1hif00yh2p","state":"MO"},"type":"Feature","geometry":null},{"properties":{"region":"4","county":"Saint Louis","id":"aa1hies207lt","state":"MO"},"type":"Feature","geometry":null},{"properties":{"region":"4","county":"Saint Louis City","id":"aa1hif1phvr2","state":"MO"},"type":"Feature","geometry":null},{"properties":{"region":"4","county":"Stoddard","id":"aa1hieotwn7d","state":"MO"},"type":"Feature","geometry":null},{"properties":{"region":"4","county":"Vernon","id":"aa1hieudo1he","state":"MO"},"type":"Feature","geometry":null},{"properties":{"region":"4","county":"Cass","id":"aa1hiezu13k2","state":"ND"},"type":"Feature","geometry":null},{"properties":{"region":"4","county":"Grand Forks","id":"aa1hiez6at13","state":"ND"},"type":"Feature","geometry":null},{"properties":{"region":"4","county":"Ward","id":"aa1hif23olnd","state":"ND"},"type":"Feature","geometry":null},{"properties":{"region":"4","county":"Buffalo","id":"aa1hiez4qz7z","state":"NE"},"type":"Feature","geometry":null},{"properties":{"region":"4","county":"Douglas","id":"aa1hif14a758","state":"NE"},"type":"Feature","geometry":null},{"properties":{"region":"4","county":"Hall","id":"aa1hieng32gz","state":"NE"},"type":"Feature","geometry":null},{"properties":{"region":"4","county":"Lancaster","id":"aa1hif1la1hd","state":"NE"},"type":"Feature","geometry":null},{"properties":{"region":"4","county":"Sarpy","id":"aa1hif1nbyg6","state":"NE"},"type":"Feature","geometry":null},{"properties":{"region":"4","county":"Washington","id":"aa1hif1sdrj2","state":"NE"},"type":"Feature","geometry":null},{"properties":{"region":"4","county":"Bryan","id":"aa1hieusz8l6","state":"OK"},"type":"Feature","geometry":null},{"properties":{"region":"4","county":"Canadian","id":"aa1hiep243ey","state":"OK"},"type":"Feature","geometry":null},{"properties":{"region":"4","county":"Carter","id":"aa1hiez0xmn6","state":"OK"},"type":"Feature","geometry":null},{"properties":{"region":"4","county":"Cleveland","id":"aa1hiengp9m1","state":"OK"},"type":"Feature","geometry":null},{"properties":{"region":"4","county":"Garfield","id":"aa1hiexd6mmj","state":"OK"},"type":"Feature","geometry":null},{"properties":{"region":"4","county":"Grady","id":"aa1hiepym17q","state":"OK"},"type":"Feature","geometry":null},{"properties":{"region":"4","county":"Kay","id":"aa1hieviwer7","state":"OK"},"type":"Feature","geometry":null},{"properties":{"region":"4","county":"Mccurtain","id":"aa1hiem2m4r0","state":"OK"},"type":"Feature","geometry":null},{"properties":{"region":"4","county":"Muskogee","id":"aa1hieytjwky","state":"OK"},"type":"Feature","geometry":null},{"properties":{"region":"4","county":"Oklahoma","id":"aa1hiez116c3","state":"OK"},"type":"Feature","geometry":null},{"properties":{"region":"4","county":"Payne","id":"aa1hiex2j073","state":"OK"},"type":"Feature","geometry":null},{"properties":{"region":"4","county":"Pontotoc","id":"aa1hies9xie3","state":"OK"},"type":"Feature","geometry":null},{"properties":{"region":"4","county":"Tulsa","id":"aa1hif18u2bl","state":"OK"},"type":"Feature","geometry":null},{"properties":{"region":"4","county":"Hamlin","id":"aa1hiemhtaeb","state":"SD"},"type":"Feature","geometry":null},{"properties":{"region":"4","county":"Minnehaha","id":"aa1hif1q1tu3","state":"SD"},"type":"Feature","geometry":null},{"properties":{"region":"5","county":"Adams","id":"aa1hiexulz4m","state":"IL"},"type":"Feature","geometry":null},{"properties":{"region":"5","county":"Brown","id":"aa1hien73ys1","state":"IL"},"type":"Feature","geometry":null},{"properties":{"region":"5","county":"Clinton","id":"aa1hien8cjsa","state":"IL"},"type":"Feature","geometry":null},{"properties":{"region":"5","county":"Coles","id":"aa1hiesnlqaf","state":"IL"},"type":"Feature","geometry":null},{"properties":{"region":"5","county":"Cook","id":"aa1hiexd0907","state":"IL"},"type":"Feature","geometry":null},{"properties":{"region":"5","county":"Dupage","id":"aa1hiep97oos","state":"IL"},"type":"Feature","geometry":null},{"properties":{"region":"5","county":"Henry","id":"aa1hieu94621","state":"IL"},"type":"Feature","geometry":null},{"properties":{"region":"5","county":"Jersey","id":"aa1hieoez7ev","state":"IL"},"type":"Feature","geometry":null},{"properties":{"region":"5","county":"Kane","id":"aa1hiesvikui","state":"IL"},"type":"Feature","geometry":null},{"properties":{"region":"5","county":"Kendall","id":"aa1hieyssgkt","state":"IL"},"type":"Feature","geometry":null},{"properties":{"region":"5","county":"La Salle","id":"aa1hiez23zop","state":"IL"},"type":"Feature","geometry":null},{"properties":{"region":"5","county":"Lake","id":"aa1hieluz7o0","state":"IL"},"type":"Feature","geometry":null},{"properties":{"region":"5","county":"Logan","id":"aa1hiepn6aji","state":"IL"},"type":"Feature","geometry":null},{"properties":{"region":"5","county":"Marion","id":"aa1hiem6cph1","state":"IL"},"type":"Feature","geometry":null},{"properties":{"region":"5","county":"Mclean","id":"aa1hielzkb0e","state":"IL"},"type":"Feature","geometry":null},{"properties":{"region":"5","county":"Peoria","id":"aa1hieuigj78","state":"IL"},"type":"Feature","geometry":null},{"properties":{"region":"5","county":"Rock Island","id":"aa1hievm7o00","state":"IL"},"type":"Feature","geometry":null},{"properties":{"region":"5","county":"Saint Clair","id":"aa1hiexutp1j","state":"IL"},"type":"Feature","geometry":null},{"properties":{"region":"5","county":"Sangamon","id":"aa1hiem60l12","state":"IL"},"type":"Feature","geometry":null},{"properties":{"region":"5","county":"Tazewell","id":"aa1hiez2y024","state":"IL"},"type":"Feature","geometry":null},{"properties":{"region":"5","county":"Vermilion","id":"aa1hiemnw7ke","state":"IL"},"type":"Feature","geometry":null},{"properties":{"region":"5","county":"White","id":"aa1hiexsyped","state":"IL"},"type":"Feature","geometry":null},{"properties":{"region":"5","county":"Will","id":"aa1hieroc6kb","state":"IL"},"type":"Feature","geometry":null},{"properties":{"region":"5","county":"Allen","id":"aa1hiexbb3xs","state":"IN"},"type":"Feature","geometry":null},{"properties":{"region":"5","county":"Clark","id":"aa1hieoeq5wd","state":"IN"},"type":"Feature","geometry":null},{"properties":{"region":"5","county":"Delaware","id":"aa1hiezija63","state":"IN"},"type":"Feature","geometry":null},{"properties":{"region":"5","county":"Fayette","id":"aa1hiervib4s","state":"IN"},"type":"Feature","geometry":null},{"properties":{"region":"5","county":"Floyd","id":"aa1hiexobtdp","state":"IN"},"type":"Feature","geometry":null},{"properties":{"region":"5","county":"Hamilton","id":"aa1hiepw97n3","state":"IN"},"type":"Feature","geometry":null},{"properties":{"region":"5","county":"Hancock","id":"aa1hievvh214","state":"IN"},"type":"Feature","geometry":null},{"properties":{"region":"5","county":"Hendricks","id":"aa1hiesg6mwe","state":"IN"},"type":"Feature","geometry":null},{"properties":{"region":"5","county":"Knox","id":"aa1hienb4a4r","state":"IN"},"type":"Feature","geometry":null},{"properties":{"region":"5","county":"Kosciusko","id":"aa1hierj48f7","state":"IN"},"type":"Feature","geometry":null},{"properties":{"region":"5","county":"La Porte","id":"aa1hiesoreqp","state":"IN"},"type":"Feature","geometry":null},{"properties":{"region":"5","county":"Lake","id":"aa1hieqjevsr","state":"IN"},"type":"Feature","geometry":null},{"properties":{"region":"5","county":"Marion","id":"aa1hieo4wlra","state":"IN"},"type":"Feature","geometry":null},{"properties":{"region":"5","county":"Monroe","id":"aa1hiemfl6jc","state":"IN"},"type":"Feature","geometry":null},{"properties":{"region":"5","county":"Noble","id":"aa1hiem0rkz9","state":"IN"},"type":"Feature","geometry":null},{"properties":{"region":"5","county":"Porter","id":"aa1hiey70eeo","state":"IN"},"type":"Feature","geometry":null},{"properties":{"region":"5","county":"St Joseph","id":"aa1hif16wpi1","state":"IN"},"type":"Feature","geometry":null},{"properties":{"region":"5","county":"Vanderburgh","id":"aa1hier4b9zu","state":"IN"},"type":"Feature","geometry":null},{"properties":{"region":"5","county":"Vigo","id":"aa1hiesfb565","state":"IN"},"type":"Feature","geometry":null},{"properties":{"region":"5","county":"Iron","id":"aa1hiesfczls","state":"MI"},"type":"Feature","geometry":null},{"properties":{"region":"5","county":"Marquette","id":"aa1hieyuhyfa","state":"MI"},"type":"Feature","geometry":null},{"properties":{"region":"5","county":"Brown","id":"aa1hiep7hqy8","state":"WI"},"type":"Feature","geometry":null},{"properties":{"region":"5","county":"Columbia","id":"aa1hif0daude","state":"WI"},"type":"Feature","geometry":null},{"properties":{"region":"5","county":"Dane","id":"aa1hif22wnel","state":"WI"},"type":"Feature","geometry":null},{"properties":{"region":"5","county":"Dodge","id":"aa1hiexr9rhv","state":"WI"},"type":"Feature","geometry":null},{"properties":{"region":"5","county":"Eau Claire","id":"aa1hier1x10k","state":"WI"},"type":"Feature","geometry":null},{"properties":{"region":"5","county":"Kenosha","id":"aa1hieyu7d5d","state":"WI"},"type":"Feature","geometry":null},{"properties":{"region":"5","county":"La Crosse","id":"aa1hiey0p1cf","state":"WI"},"type":"Feature","geometry":null},{"properties":{"region":"5","county":"Lincoln","id":"aa1hieomuwut","state":"WI"},"type":"Feature","geometry":null},{"properties":{"region":"5","county":"Milwaukee","id":"aa1hieomyjx7","state":"WI"},"type":"Feature","geometry":null},{"properties":{"region":"5","county":"Racine","id":"aa1hieted8y2","state":"WI"},"type":"Feature","geometry":null},{"properties":{"region":"5","county":"Rock","id":"aa1hieyik1oz","state":"WI"},"type":"Feature","geometry":null},{"properties":{"region":"5","county":"Saint Croix","id":"aa1hiewqfbe5","state":"WI"},"type":"Feature","geometry":null},{"properties":{"region":"5","county":"Sauk","id":"aa1hieu392lh","state":"WI"},"type":"Feature","geometry":null},{"properties":{"region":"5","county":"Shawano","id":"aa1hierodq4l","state":"WI"},"type":"Feature","geometry":null},{"properties":{"region":"5","county":"Sheboygan","id":"aa1hievo9rht","state":"WI"},"type":"Feature","geometry":null},{"properties":{"region":"5","county":"Washington","id":"aa1hiezsrp86","state":"WI"},"type":"Feature","geometry":null},{"properties":{"region":"5","county":"Waukesha","id":"aa1hiero90fo","state":"WI"},"type":"Feature","geometry":null},{"properties":{"region":"6","county":"Baldwin","id":"aa1hif03jo9e","state":"AL"},"type":"Feature","geometry":null},{"properties":{"region":"6","county":"Chilton","id":"aa1hif1n3lg3","state":"AL"},"type":"Feature","geometry":null},{"properties":{"region":"6","county":"Coffee","id":"aa1hiezfzuoe","state":"AL"},"type":"Feature","geometry":null},{"properties":{"region":"6","county":"Colbert","id":"aa1hiep8ezhe","state":"AL"},"type":"Feature","geometry":null},{"properties":{"region":"6","county":"Covington","id":"aa1hies8yzn2","state":"AL"},"type":"Feature","geometry":null},{"properties":{"region":"6","county":"Crenshaw","id":"aa1hiezvjgev","state":"AL"},"type":"Feature","geometry":null},{"properties":{"region":"6","county":"Dallas","id":"aa1hieqdrfzs","state":"AL"},"type":"Feature","geometry":null},{"properties":{"region":"6","county":"Etowah","id":"aa1hif2arzwu","state":"AL"},"type":"Feature","geometry":null},{"properties":{"region":"6","county":"Geneva","id":"aa1hievxzrn1","state":"AL"},"type":"Feature","geometry":null},{"properties":{"region":"6","county":"Houston","id":"aa1hiescd4fj","state":"AL"},"type":"Feature","geometry":null},{"properties":{"region":"6","county":"Jefferson","id":"aa1hieocdptw","state":"AL"},"type":"Feature","geometry":null},{"properties":{"region":"6","county":"Lauderdale","id":"aa1hiemjb2ef","state":"AL"},"type":"Feature","geometry":null},{"properties":{"region":"6","county":"Madison","id":"aa1hienyi7ge","state":"AL"},"type":"Feature","geometry":null},{"properties":{"region":"6","county":"Mobile","id":"aa1hies8w1cx","state":"AL"},"type":"Feature","geometry":null},{"properties":{"region":"6","county":"Montgomery","id":"aa1hiermrnfd","state":"AL"},"type":"Feature","geometry":null},{"properties":{"region":"6","county":"Saint Clair","id":"aa1hiezvrok6","state":"AL"},"type":"Feature","geometry":null},{"properties":{"region":"6","county":"Shelby","id":"aa1hiep16qr7","state":"AL"},"type":"Feature","geometry":null},{"properties":{"region":"6","county":"Boone","id":"aa1hies94uuo","state":"AR"},"type":"Feature","geometry":null},{"properties":{"region":"6","county":"Crawford","id":"aa1hier6bmd4","state":"AR"},"type":"Feature","geometry":null},{"properties":{"region":"6","county":"Garland","id":"aa1hif0kmjp3","state":"AR"},"type":"Feature","geometry":null},{"properties":{"region":"6","county":"Jefferson","id":"aa1hiexkm6xq","state":"AR"},"type":"Feature","geometry":null},{"properties":{"region":"6","county":"Mississippi","id":"aa1hiezd1qhq","state":"AR"},"type":"Feature","geometry":null},{"properties":{"region":"6","county":"Pulaski","id":"aa1hieyozny3","state":"AR"},"type":"Feature","geometry":null},{"properties":{"region":"6","county":"Sebastian","id":"aa1hiensmfoz","state":"AR"},"type":"Feature","geometry":null},{"properties":{"region":"6","county":"Bibb","id":"aa1hieq4901p","state":"GA"},"type":"Feature","geometry":null},{"properties":{"region":"6","county":"Chatham","id":"aa1hiesjcel4","state":"GA"},"type":"Feature","geometry":null},{"properties":{"region":"6","county":"Clarke","id":"aa1hieylvj2m","state":"GA"},"type":"Feature","geometry":null},{"properties":{"region":"6","county":"Clayton","id":"aa1hieo20hrn","state":"GA"},"type":"Feature","geometry":null},{"properties":{"region":"6","county":"Cobb","id":"aa1hiewqby30","state":"GA"},"type":"Feature","geometry":null},{"properties":{"region":"6","county":"Coffee","id":"aa1hiep89im8","state":"GA"},"type":"Feature","geometry":null},{"properties":{"region":"6","county":"Coweta","id":"aa1hiev50kpf","state":"GA"},"type":"Feature","geometry":null},{"properties":{"region":"6","county":"Crisp","id":"aa1hiem5vnx1","state":"GA"},"type":"Feature","geometry":null},{"properties":{"region":"6","county":"Dekalb","id":"aa1hif1uay0j","state":"GA"},"type":"Feature","geometry":null},{"properties":{"region":"6","county":"Dougherty","id":"aa1hiezopx2n","state":"GA"},"type":"Feature","geometry":null},{"properties":{"region":"6","county":"Douglas","id":"aa1hieso64pq","state":"GA"},"type":"Feature","geometry":null},{"properties":{"region":"6","county":"Floyd","id":"aa1hiexdxcn0","state":"GA"},"type":"Feature","geometry":null},{"properties":{"region":"6","county":"Fulton","id":"aa1hieorohvx","state":"GA"},"type":"Feature","geometry":null},{"properties":{"region":"6","county":"Glynn","id":"aa1hieot2xwi","state":"GA"},"type":"Feature","geometry":null},{"properties":{"region":"6","county":"Grady","id":"aa1hieo5dg8m","state":"GA"},"type":"Feature","geometry":null},{"properties":{"region":"6","county":"Gwinnett","id":"aa1hiem0bskp","state":"GA"},"type":"Feature","geometry":null},{"properties":{"region":"6","county":"Hall","id":"aa1hiev7n9vh","state":"GA"},"type":"Feature","geometry":null},{"properties":{"region":"6","county":"Laurens","id":"aa1hiengj3ex","state":"GA"},"type":"Feature","geometry":null},{"properties":{"region":"6","county":"Lee","id":"aa1hievgxzgy","state":"GA"},"type":"Feature","geometry":null},{"properties":{"region":"6","county":"Lowndes","id":"aa1hiet9oxoo","state":"GA"},"type":"Feature","geometry":null},{"properties":{"region":"6","county":"Muscogee","id":"aa1hif1g9q5a","state":"GA"},"type":"Feature","geometry":null},{"properties":{"region":"6","county":"Polk","id":"aa1hieylm5l1","state":"GA"},"type":"Feature","geometry":null},{"properties":{"region":"6","county":"Rockdale","id":"aa1hierz3zs1","state":"GA"},"type":"Feature","geometry":null},{"properties":{"region":"6","county":"Thomas","id":"aa1hiev7uawr","state":"GA"},"type":"Feature","geometry":null},{"properties":{"region":"6","county":"Tift","id":"aa1hieq0o0st","state":"GA"},"type":"Feature","geometry":null},{"properties":{"region":"6","county":"Toombs","id":"aa1hievucg0j","state":"GA"},"type":"Feature","geometry":null},{"properties":{"region":"6","county":"Acadia","id":"aa1hiemz1nc4","state":"LA"},"type":"Feature","geometry":null},{"properties":{"region":"6","county":"Ascension","id":"aa1hieyaa1ug","state":"LA"},"type":"Feature","geometry":null},{"properties":{"region":"6","county":"Assumption","id":"aa1hiew1m3uk","state":"LA"},"type":"Feature","geometry":null},{"properties":{"region":"6","county":"Caddo","id":"aa1hiew5o2k5","state":"LA"},"type":"Feature","geometry":null},{"properties":{"region":"6","county":"East Baton Rouge","id":"aa1hif12rt3n","state":"LA"},"type":"Feature","geometry":null},{"properties":{"region":"6","county":"Jefferson","id":"aa1hif1c2nv9","state":"LA"},"type":"Feature","geometry":null},{"properties":{"region":"6","county":"Lafayette","id":"aa1hif2580vd","state":"LA"},"type":"Feature","geometry":null},{"properties":{"region":"6","county":"Lincoln","id":"aa1hif28mgyp","state":"LA"},"type":"Feature","geometry":null},{"properties":{"region":"6","county":"Morehouse","id":"aa1hieprdi6h","state":"LA"},"type":"Feature","geometry":null},{"properties":{"region":"6","county":"Orleans","id":"aa1hieufphuf","state":"LA"},"type":"Feature","geometry":null},{"properties":{"region":"6","county":"Ouachita","id":"aa1hiezi1ihr","state":"LA"},"type":"Feature","geometry":null},{"properties":{"region":"6","county":"Plaquemines","id":"aa1hievf6tqb","state":"LA"},"type":"Feature","geometry":null},{"properties":{"region":"6","county":"Rapides","id":"aa1hiey5toye","state":"LA"},"type":"Feature","geometry":null},{"properties":{"region":"6","county":"Saint Bernard","id":"aa1hien18h7u","state":"LA"},"type":"Feature","geometry":null},{"properties":{"region":"6","county":"Saint Charles","id":"aa1hievfz4pr","state":"LA"},"type":"Feature","geometry":null},{"properties":{"region":"6","county":"Saint Landry","id":"aa1hiey7goe3","state":"LA"},"type":"Feature","geometry":null},{"properties":{"region":"6","county":"Tangipahoa","id":"aa1hier7h762","state":"LA"},"type":"Feature","geometry":null},{"properties":{"region":"6","county":"Terrebonne","id":"aa1hieybh1x9","state":"LA"},"type":"Feature","geometry":null},{"properties":{"region":"6","county":"Washington","id":"aa1hieob7iar","state":"LA"},"type":"Feature","geometry":null},{"properties":{"region":"6","county":"Webster","id":"aa1hievcxyb8","state":"LA"},"type":"Feature","geometry":null},{"properties":{"region":"6","county":"Adams","id":"aa1hieq133hl","state":"MS"},"type":"Feature","geometry":null},{"properties":{"region":"6","county":"Alcorn","id":"aa1hier4g4lu","state":"MS"},"type":"Feature","geometry":null},{"properties":{"region":"6","county":"Desoto","id":"aa1hietpz5rk","state":"MS"},"type":"Feature","geometry":null},{"properties":{"region":"6","county":"Forrest","id":"aa1hif1llp3e","state":"MS"},"type":"Feature","geometry":null},{"properties":{"region":"6","county":"Grenada","id":"aa1hieveeexg","state":"MS"},"type":"Feature","geometry":null},{"properties":{"region":"6","county":"Harrison","id":"aa1hieu8asyd","state":"MS"},"type":"Feature","geometry":null},{"properties":{"region":"6","county":"Hinds","id":"aa1hiewyffvp","state":"MS"},"type":"Feature","geometry":null},{"properties":{"region":"6","county":"Jones","id":"aa1hierselb1","state":"MS"},"type":"Feature","geometry":null},{"properties":{"region":"6","county":"Lauderdale","id":"aa1hiem1qiu3","state":"MS"},"type":"Feature","geometry":null},{"properties":{"region":"6","county":"Lee","id":"aa1hiewzzzrh","state":"MS"},"type":"Feature","geometry":null},{"properties":{"region":"6","county":"Lincoln","id":"aa1hiemfs1n5","state":"MS"},"type":"Feature","geometry":null},{"properties":{"region":"6","county":"Lowndes","id":"aa1hietx36xy","state":"MS"},"type":"Feature","geometry":null},{"properties":{"region":"6","county":"Marion","id":"aa1hif1gng19","state":"MS"},"type":"Feature","geometry":null},{"properties":{"region":"6","county":"Panola","id":"aa1hiezxpnyn","state":"MS"},"type":"Feature","geometry":null},{"properties":{"region":"6","county":"Rankin","id":"aa1hiere3gv4","state":"MS"},"type":"Feature","geometry":null},{"properties":{"region":"6","county":"Washington","id":"aa1hieoenlok","state":"MS"},"type":"Feature","geometry":null},{"properties":{"region":"9","county":"Allegan","id":"aa1hielwfazf","state":"MI"},"type":"Feature","geometry":null},{"properties":{"region":"9","county":"Alpena","id":"aa1hieuwbvvm","state":"MI"},"type":"Feature","geometry":null},{"properties":{"region":"9","county":"Bay","id":"aa1hieyrd8z7","state":"MI"},"type":"Feature","geometry":null},{"properties":{"region":"9","county":"Calhoun","id":"aa1hif1jg9yu","state":"MI"},"type":"Feature","geometry":null},{"properties":{"region":"9","county":"Emmet","id":"aa1hiesklyjf","state":"MI"},"type":"Feature","geometry":null},{"properties":{"region":"9","county":"Genesee","id":"aa1hieuo7h57","state":"MI"},"type":"Feature","geometry":null},{"properties":{"region":"9","county":"Ingham","id":"aa1hif0pxajj","state":"MI"},"type":"Feature","geometry":null},{"properties":{"region":"9","county":"Jackson","id":"aa1hiez1c7dh","state":"MI"},"type":"Feature","geometry":null},{"properties":{"region":"9","county":"Kent","id":"aa1hieqtd56j","state":"MI"},"type":"Feature","geometry":null},{"properties":{"region":"9","county":"Livingston","id":"aa1hiexk3lyh","state":"MI"},"type":"Feature","geometry":null},{"properties":{"region":"9","county":"Macomb","id":"aa1hietp9d3u","state":"MI"},"type":"Feature","geometry":null},{"properties":{"region":"9","county":"Midland","id":"aa1hieq7p756","state":"MI"},"type":"Feature","geometry":null},{"properties":{"region":"9","county":"Oakland","id":"aa1hierlypa1","state":"MI"},"type":"Feature","geometry":null},{"properties":{"region":"9","county":"Ottawa","id":"aa1hif26x4vl","state":"MI"},"type":"Feature","geometry":null},{"properties":{"region":"9","county":"Saginaw","id":"aa1hiexfflpp","state":"MI"},"type":"Feature","geometry":null},{"properties":{"region":"9","county":"Washtenaw","id":"aa1hieyqahrf","state":"MI"},"type":"Feature","geometry":null},{"properties":{"region":"9","county":"Wayne","id":"aa1hiet6kcy5","state":"MI"},"type":"Feature","geometry":null},{"properties":{"region":"10","county":"Fairfield","id":"aa1hif24ggv4","state":"CT"},"type":"Feature","geometry":null},{"properties":{"region":"10","county":"Hartford","id":"aa1hievg1knw","state":"CT"},"type":"Feature","geometry":null},{"properties":{"region":"10","county":"New Haven","id":"aa1hierx9oys","state":"CT"},"type":"Feature","geometry":null},{"properties":{"region":"10","county":"New London","id":"aa1hienkvag1","state":"CT"},"type":"Feature","geometry":null},{"properties":{"region":"10","county":"New Castle","id":"aa1hienpfgsm","state":"DE"},"type":"Feature","geometry":null},{"properties":{"region":"10","county":"Sussex","id":"aa1hieq4ozls","state":"DE"},"type":"Feature","geometry":null},{"properties":{"region":"10","county":"Alachua","id":"aa1hieusn5ku","state":"FL"},"type":"Feature","geometry":null},{"properties":{"region":"10","county":"Brevard","id":"aa1hievaqh3w","state":"FL"},"type":"Feature","geometry":null},{"properties":{"region":"10","county":"Broward","id":"aa1hiev5zjic","state":"FL"},"type":"Feature","geometry":null},{"properties":{"region":"10","county":"Duval","id":"aa1hievp6d6p","state":"FL"},"type":"Feature","geometry":null},{"properties":{"region":"10","county":"Escambia","id":"aa1hieowrrcz","state":"FL"},"type":"Feature","geometry":null},{"properties":{"region":"10","county":"Hillsborough","id":"aa1hiexck6e9","state":"FL"},"type":"Feature","geometry":null},{"properties":{"region":"10","county":"Jackson","id":"aa1hiev56thx","state":"FL"},"type":"Feature","geometry":null},{"properties":{"region":"10","county":"Lee","id":"aa1hierrcsc5","state":"FL"},"type":"Feature","geometry":null},{"properties":{"region":"10","county":"Leon","id":"aa1hiemjex9p","state":"FL"},"type":"Feature","geometry":null},{"properties":{"region":"10","county":"Manatee","id":"aa1hietj2q6f","state":"FL"},"type":"Feature","geometry":null},{"properties":{"region":"10","county":"Marion","id":"aa1hiey8ktqw","state":"FL"},"type":"Feature","geometry":null},{"properties":{"region":"10","county":"Miami-dade","id":"aa1hiepph011","state":"FL"},"type":"Feature","geometry":null},{"properties":{"region":"10","county":"Okaloosa","id":"aa1hiesrl81e","state":"FL"},"type":"Feature","geometry":null},{"properties":{"region":"10","county":"Orange","id":"aa1hif150ws8","state":"FL"},"type":"Feature","geometry":null},{"properties":{"region":"10","county":"Osceola","id":"aa1hiety9sio","state":"FL"},"type":"Feature","geometry":null},{"properties":{"region":"10","county":"Palm Beach","id":"aa1hiet0b5vq","state":"FL"},"type":"Feature","geometry":null},{"properties":{"region":"10","county":"Pasco","id":"aa1hien1nqlu","state":"FL"},"type":"Feature","geometry":null},{"properties":{"region":"10","county":"Pinellas","id":"aa1hif051l2p","state":"FL"},"type":"Feature","geometry":null},{"properties":{"region":"10","county":"Polk","id":"aa1hielxspr5","state":"FL"},"type":"Feature","geometry":null},{"properties":{"region":"10","county":"Sarasota","id":"aa1hif2cuscq","state":"FL"},"type":"Feature","geometry":null},{"properties":{"region":"10","county":"Volusia","id":"aa1hieorm0o4","state":"FL"},"type":"Feature","geometry":null},{"properties":{"region":"10","county":"Hawaii","id":"aa1hieo54f04","state":"HI"},"type":"Feature","geometry":null},{"properties":{"region":"10","county":"Honolulu","id":"aa1hier7jv19","state":"HI"},"type":"Feature","geometry":null},{"properties":{"region":"10","county":"Kauai","id":"aa1hiez4a3rx","state":"HI"},"type":"Feature","geometry":null},{"properties":{"region":"10","county":"Maui","id":"aa1hietkb3g4","state":"HI"},"type":"Feature","geometry":null},{"properties":{"region":"10","county":"Boone","id":"aa1hif0rk0iq","state":"KY"},"type":"Feature","geometry":null},{"properties":{"region":"10","county":"Breathitt","id":"aa1hiesihgj5","state":"KY"},"type":"Feature","geometry":null},{"properties":{"region":"10","county":"Bullitt","id":"aa1hif0ypio0","state":"KY"},"type":"Feature","geometry":null},{"properties":{"region":"10","county":"Carter","id":"aa1hieyjh9pq","state":"KY"},"type":"Feature","geometry":null},{"properties":{"region":"10","county":"Daviess","id":"aa1hiet229cg","state":"KY"},"type":"Feature","geometry":null},{"properties":{"region":"10","county":"Fayette","id":"aa1hieutxl1p","state":"KY"},"type":"Feature","geometry":null},{"properties":{"region":"10","county":"Grayson","id":"aa1hienjmff4","state":"KY"},"type":"Feature","geometry":null},{"properties":{"region":"10","county":"Jefferson","id":"aa1hiemdkw9u","state":"KY"},"type":"Feature","geometry":null},{"properties":{"region":"10","county":"Jessamine","id":"aa1hiexslav5","state":"KY"},"type":"Feature","geometry":null},{"properties":{"region":"10","county":"Lawrence","id":"aa1hiezc0ajc","state":"KY"},"type":"Feature","geometry":null},{"properties":{"region":"10","county":"Madison","id":"aa1hieoty09l","state":"KY"},"type":"Feature","geometry":null},{"properties":{"region":"10","county":"Mccracken","id":"aa1hiex9ms5l","state":"KY"},"type":"Feature","geometry":null},{"properties":{"region":"10","county":"Pulaski","id":"aa1hif1x0zq3","state":"KY"},"type":"Feature","geometry":null},{"properties":{"region":"10","county":"Scott","id":"aa1hiextopm4","state":"KY"},"type":"Feature","geometry":null},{"properties":{"region":"10","county":"Warren","id":"aa1hiexqfsa8","state":"KY"},"type":"Feature","geometry":null},{"properties":{"region":"10","county":"Barnstable","id":"aa1hiepw4tlt","state":"MA"},"type":"Feature","geometry":null},{"properties":{"region":"10","county":"Berkshire","id":"aa1hif047lw1","state":"MA"},"type":"Feature","geometry":null},{"properties":{"region":"10","county":"Bristol","id":"aa1hiez9am24","state":"MA"},"type":"Feature","geometry":null},{"properties":{"region":"10","county":"Essex","id":"aa1hieo5iq5x","state":"MA"},"type":"Feature","geometry":null},{"properties":{"region":"10","county":"Hampden","id":"aa1hieokqqwi","state":"MA"},"type":"Feature","geometry":null},{"properties":{"region":"10","county":"Middlesex","id":"aa1hietfzf4q","state":"MA"},"type":"Feature","geometry":null},{"properties":{"region":"10","county":"Norfolk","id":"aa1hieox677r","state":"MA"},"type":"Feature","geometry":null},{"properties":{"region":"10","county":"Plymouth","id":"aa1hiez9ohab","state":"MA"},"type":"Feature","geometry":null},{"properties":{"region":"10","county":"Suffolk","id":"aa1hiet1ryzi","state":"MA"},"type":"Feature","geometry":null},{"properties":{"region":"10","county":"Worcester","id":"aa1hieu1kjhi","state":"MA"},"type":"Feature","geometry":null},{"properties":{"region":"10","county":"Anne Arundel","id":"aa1hif03rqck","state":"MD"},"type":"Feature","geometry":null},{"properties":{"region":"10","county":"Baltimore","id":"aa1hieuyrnbx","state":"MD"},"type":"Feature","geometry":null},{"properties":{"region":"10","county":"Baltimore City","id":"aa1hiepij1k1","state":"MD"},"type":"Feature","geometry":null},{"properties":{"region":"10","county":"Carroll","id":"aa1hif0uh3w0","state":"MD"},"type":"Feature","geometry":null},{"properties":{"region":"10","county":"Frederick","id":"aa1hieut5ai6","state":"MD"},"type":"Feature","geometry":null},{"properties":{"region":"10","county":"Harford","id":"aa1hieqy08hp","state":"MD"},"type":"Feature","geometry":null},{"properties":{"region":"10","county":"Howard","id":"aa1hif0urjki","state":"MD"},"type":"Feature","geometry":null},{"properties":{"region":"10","county":"Prince Georges","id":"aa1hiewupmds","state":"MD"},"type":"Feature","geometry":null},{"properties":{"region":"10","county":"Washington","id":"aa1hiesszeb3","state":"MD"},"type":"Feature","geometry":null},{"properties":{"region":"10","county":"Wicomico","id":"aa1hien72e8a","state":"MD"},"type":"Feature","geometry":null},{"properties":{"region":"10","county":"Worcester","id":"aa1hieuk47k1","state":"MD"},"type":"Feature","geometry":null},{"properties":{"region":"10","county":"Cumberland","id":"aa1hiezqgmk7","state":"ME"},"type":"Feature","geometry":null},{"properties":{"region":"10","county":"Kennebec","id":"aa1hieohsywx","state":"ME"},"type":"Feature","geometry":null},{"properties":{"region":"10","county":"Penobscot","id":"aa1hies860m7","state":"ME"},"type":"Feature","geometry":null},{"properties":{"region":"10","county":"Alamance","id":"aa1hif1u2pd0","state":"NC"},"type":"Feature","geometry":null},{"properties":{"region":"10","county":"Cabarrus","id":"aa1hieyoemhh","state":"NC"},"type":"Feature","geometry":null},{"properties":{"region":"10","county":"Catawba","id":"aa1hif1aiou4","state":"NC"},"type":"Feature","geometry":null},{"properties":{"region":"10","county":"Cleveland","id":"aa1hif05g80f","state":"NC"},"type":"Feature","geometry":null},{"properties":{"region":"10","county":"Davidson","id":"aa1hiev02jzf","state":"NC"},"type":"Feature","geometry":null},{"properties":{"region":"10","county":"Durham","id":"aa1hiewvj0jz","state":"NC"},"type":"Feature","geometry":null},{"properties":{"region":"10","county":"Edgecombe","id":"aa1hiewjryfa","state":"NC"},"type":"Feature","geometry":null},{"properties":{"region":"10","county":"Forsyth","id":"aa1hiep3yh9a","state":"NC"},"type":"Feature","geometry":null},{"properties":{"region":"10","county":"Gaston","id":"aa1hietp77ry","state":"NC"},"type":"Feature","geometry":null},{"properties":{"region":"10","county":"Guilford","id":"aa1hiensks47","state":"NC"},"type":"Feature","geometry":null},{"properties":{"region":"10","county":"Johnston","id":"aa1hieutjtvx","state":"NC"},"type":"Feature","geometry":null},{"properties":{"region":"10","county":"Lee","id":"aa1hieqqzsfd","state":"NC"},"type":"Feature","geometry":null},{"properties":{"region":"10","county":"Lenoir","id":"aa1hierpu9fb","state":"NC"},"type":"Feature","geometry":null},{"properties":{"region":"10","county":"Mecklenburg","id":"aa1hietm1icn","state":"NC"},"type":"Feature","geometry":null},{"properties":{"region":"10","county":"Moore","id":"aa1hiesar5q6","state":"NC"},"type":"Feature","geometry":null},{"properties":{"region":"10","county":"Nash","id":"aa1hieyupm61","state":"NC"},"type":"Feature","geometry":null},{"properties":{"region":"10","county":"Pasquotank","id":"aa1hieob6gxp","state":"NC"},"type":"Feature","geometry":null},{"properties":{"region":"10","county":"Perquimans","id":"aa1hiexe1qy3","state":"NC"},"type":"Feature","geometry":null},{"properties":{"region":"10","county":"Rowan","id":"aa1hietigd9b","state":"NC"},"type":"Feature","geometry":null},{"properties":{"region":"10","county":"Vance","id":"aa1hieni0qoo","state":"NC"},"type":"Feature","geometry":null},{"properties":{"region":"10","county":"Wake","id":"aa1hif28i1de","state":"NC"},"type":"Feature","geometry":null},{"properties":{"region":"10","county":"Wayne","id":"aa1hieqziss2","state":"NC"},"type":"Feature","geometry":null},{"properties":{"region":"10","county":"Hillsborough","id":"aa1hiet4vbbo","state":"NH"},"type":"Feature","geometry":null},{"properties":{"region":"10","county":"Merrimack","id":"aa1hietuxv1h","state":"NH"},"type":"Feature","geometry":null},{"properties":{"region":"10","county":"Rockingham","id":"aa1hieneub5t","state":"NH"},"type":"Feature","geometry":null},{"properties":{"region":"10","county":"Strafford","id":"aa1hietfc24w","state":"NH"},"type":"Feature","geometry":null},{"properties":{"region":"10","county":"Atlantic","id":"aa1hiesyjxau","state":"NJ"},"type":"Feature","geometry":null},{"properties":{"region":"10","county":"Bergen","id":"aa1hienlm89q","state":"NJ"},"type":"Feature","geometry":null},{"properties":{"region":"10","county":"Burlington","id":"aa1hiewkkitb","state":"NJ"},"type":"Feature","geometry":null},{"properties":{"region":"10","county":"Camden","id":"aa1hieszpfli","state":"NJ"},"type":"Feature","geometry":null},{"properties":{"region":"10","county":"Cumberland","id":"aa1hiepcg3g6","state":"NJ"},"type":"Feature","geometry":null},{"properties":{"region":"10","county":"Essex","id":"aa1hieyqd0zd","state":"NJ"},"type":"Feature","geometry":null},{"properties":{"region":"10","county":"Gloucester","id":"aa1hienpcbfw","state":"NJ"},"type":"Feature","geometry":null},{"properties":{"region":"10","county":"Hudson","id":"aa1hietxqeny","state":"NJ"},"type":"Feature","geometry":null},{"properties":{"region":"10","county":"Mercer","id":"aa1hiem7y88z","state":"NJ"},"type":"Feature","geometry":null},{"properties":{"region":"10","county":"Middlesex","id":"aa1hif1t7nej","state":"NJ"},"type":"Feature","geometry":null},{"properties":{"region":"10","county":"Monmouth","id":"aa1hiesbfvo3","state":"NJ"},"type":"Feature","geometry":null},{"properties":{"region":"10","county":"Morris","id":"aa1hiepss406","state":"NJ"},"type":"Feature","geometry":null},{"properties":{"region":"10","county":"Ocean","id":"aa1hiesajg2b","state":"NJ"},"type":"Feature","geometry":null},{"properties":{"region":"10","county":"Passaic","id":"aa1hiepjfwcr","state":"NJ"},"type":"Feature","geometry":null},{"properties":{"region":"10","county":"Salem","id":"aa1hiewgh1pp","state":"NJ"},"type":"Feature","geometry":null},{"properties":{"region":"10","county":"Union","id":"aa1hieq4966f","state":"NJ"},"type":"Feature","geometry":null},{"properties":{"region":"10","county":"Albany","id":"aa1hiezh4o61","state":"NY"},"type":"Feature","geometry":null},{"properties":{"region":"10","county":"Bronx","id":"aa1hietu8tm1","state":"NY"},"type":"Feature","geometry":null},{"properties":{"region":"10","county":"Broome","id":"aa1hiemaaxpn","state":"NY"},"type":"Feature","geometry":null},{"properties":{"region":"10","county":"Cayuga","id":"aa1hieygxq8k","state":"NY"},"type":"Feature","geometry":null},{"properties":{"region":"10","county":"Chautauqua","id":"aa1hiey30ft3","state":"NY"},"type":"Feature","geometry":null},{"properties":{"region":"10","county":"Chemung","id":"aa1hieuaos7q","state":"NY"},"type":"Feature","geometry":null},{"properties":{"region":"10","county":"Clinton","id":"aa1hiex3r41w","state":"NY"},"type":"Feature","geometry":null},{"properties":{"region":"10","county":"Columbia","id":"aa1hif1oiypo","state":"NY"},"type":"Feature","geometry":null},{"properties":{"region":"10","county":"Erie","id":"aa1hietooz2k","state":"NY"},"type":"Feature","geometry":null},{"properties":{"region":"10","county":"Jefferson","id":"aa1hiemwgqgs","state":"NY"},"type":"Feature","geometry":null},{"properties":{"region":"10","county":"Kings","id":"aa1hiet097wo","state":"NY"},"type":"Feature","geometry":null},{"properties":{"region":"10","county":"Livingston","id":"aa1hif0joc4b","state":"NY"},"type":"Feature","geometry":null},{"properties":{"region":"10","county":"Monroe","id":"aa1hiet4hekb","state":"NY"},"type":"Feature","geometry":null},{"properties":{"region":"10","county":"Montgomery","id":"aa1hienil0m7","state":"NY"},"type":"Feature","geometry":null},{"properties":{"region":"10","county":"Nassau","id":"aa1hif1ddi1w","state":"NY"},"type":"Feature","geometry":null},{"properties":{"region":"10","county":"Niagara","id":"aa1hiepjjw9h","state":"NY"},"type":"Feature","geometry":null},{"properties":{"region":"10","county":"Oneida","id":"aa1hiez9wono","state":"NY"},"type":"Feature","geometry":null},{"properties":{"region":"10","county":"Onondaga","id":"aa1hieroa2bc","state":"NY"},"type":"Feature","geometry":null},{"properties":{"region":"10","county":"Orange","id":"aa1hif2062v1","state":"NY"},"type":"Feature","geometry":null},{"properties":{"region":"10","county":"Putnam","id":"aa1hies2eu3w","state":"NY"},"type":"Feature","geometry":null},{"properties":{"region":"10","county":"Queens","id":"aa1hif1rcqwh","state":"NY"},"type":"Feature","geometry":null},{"properties":{"region":"10","county":"Richmond","id":"aa1hierfk10l","state":"NY"},"type":"Feature","geometry":null},{"properties":{"region":"10","county":"Rockland","id":"aa1hievhpmqb","state":"NY"},"type":"Feature","geometry":null},{"properties":{"region":"10","county":"Saint Lawrence","id":"aa1hiep4hhoq","state":"NY"},"type":"Feature","geometry":null},{"properties":{"region":"10","county":"Saratoga","id":"aa1hieyyjcaq","state":"NY"},"type":"Feature","geometry":null},{"properties":{"region":"10","county":"Schenectady","id":"aa1hieusj1vf","state":"NY"},"type":"Feature","geometry":null},{"properties":{"region":"10","county":"Suffolk","id":"aa1hiezad9ag","state":"NY"},"type":"Feature","geometry":null},{"properties":{"region":"10","county":"Sullivan","id":"aa1hif0b52nl","state":"NY"},"type":"Feature","geometry":null},{"properties":{"region":"10","county":"Tompkins","id":"aa1hieo49q8t","state":"NY"},"type":"Feature","geometry":null},{"properties":{"region":"10","county":"Ulster","id":"aa1hieoyxs0y","state":"NY"},"type":"Feature","geometry":null},{"properties":{"region":"10","county":"Warren","id":"aa1hiesfdbwd","state":"NY"},"type":"Feature","geometry":null},{"properties":{"region":"10","county":"Washington","id":"aa1hiemufrsv","state":"NY"},"type":"Feature","geometry":null},{"properties":{"region":"10","county":"Westchester","id":"aa1hies8csdt","state":"NY"},"type":"Feature","geometry":null},{"properties":{"region":"10","county":"Allen","id":"aa1hiexbmhkx","state":"OH"},"type":"Feature","geometry":null},{"properties":{"region":"10","county":"Belmont","id":"aa1hieqzidp3","state":"OH"},"type":"Feature","geometry":null},{"properties":{"region":"10","county":"Butler","id":"aa1hiem7m4au","state":"OH"},"type":"Feature","geometry":null},{"properties":{"region":"10","county":"Clark","id":"aa1hiepo3k00","state":"OH"},"type":"Feature","geometry":null},{"properties":{"region":"10","county":"Clinton","id":"aa1hierz2g3g","state":"OH"},"type":"Feature","geometry":null},{"properties":{"region":"10","county":"Columbiana","id":"aa1hierx7w6v","state":"OH"},"type":"Feature","geometry":null},{"properties":{"region":"10","county":"Cuyahoga","id":"aa1hiev5axph","state":"OH"},"type":"Feature","geometry":null},{"properties":{"region":"10","county":"Darke","id":"aa1hieszkvw2","state":"OH"},"type":"Feature","geometry":null},{"properties":{"region":"10","county":"Franklin","id":"aa1hieqzx0ou","state":"OH"},"type":"Feature","geometry":null},{"properties":{"region":"10","county":"Greene","id":"aa1hiemhckvr","state":"OH"},"type":"Feature","geometry":null},{"properties":{"region":"10","county":"Hamilton","id":"aa1hieudnopc","state":"OH"},"type":"Feature","geometry":null},{"properties":{"region":"10","county":"Hancock","id":"aa1hien4aw77","state":"OH"},"type":"Feature","geometry":null},{"properties":{"region":"10","county":"Henry","id":"aa1hiem34y4m","state":"OH"},"type":"Feature","geometry":null},{"properties":{"region":"10","county":"Licking","id":"aa1hieygzwdc","state":"OH"},"type":"Feature","geometry":null},{"properties":{"region":"10","county":"Lucas","id":"aa1hiexzzttd","state":"OH"},"type":"Feature","geometry":null},{"properties":{"region":"10","county":"Mahoning","id":"aa1hien9kz7y","state":"OH"},"type":"Feature","geometry":null},{"properties":{"region":"10","county":"Mercer","id":"aa1hienehpmm","state":"OH"},"type":"Feature","geometry":null},{"properties":{"region":"10","county":"Montgomery","id":"aa1hiem2uj37","state":"OH"},"type":"Feature","geometry":null},{"properties":{"region":"10","county":"Muskingum","id":"aa1hif10tfvg","state":"OH"},"type":"Feature","geometry":null},{"properties":{"region":"10","county":"Pike","id":"aa1hiezz2c1w","state":"OH"},"type":"Feature","geometry":null},{"properties":{"region":"10","county":"Scioto","id":"aa1hieq7s9ch","state":"OH"},"type":"Feature","geometry":null},{"properties":{"region":"10","county":"Seneca","id":"aa1hiet24w3u","state":"OH"},"type":"Feature","geometry":null},{"properties":{"region":"10","county":"Stark","id":"aa1hiemwv51x","state":"OH"},"type":"Feature","geometry":null},{"properties":{"region":"10","county":"Summit","id":"aa1hielv96em","state":"OH"},"type":"Feature","geometry":null},{"properties":{"region":"10","county":"Tuscarawas","id":"aa1hiexq4okk","state":"OH"},"type":"Feature","geometry":null},{"properties":{"region":"10","county":"Wayne","id":"aa1hien7dn36","state":"OH"},"type":"Feature","geometry":null},{"properties":{"region":"10","county":"Wood","id":"aa1hiemd0jia","state":"OH"},"type":"Feature","geometry":null},{"properties":{"region":"10","county":"Allegheny","id":"aa1hiem0rvgd","state":"PA"},"type":"Feature","geometry":null},{"properties":{"region":"10","county":"Beaver","id":"aa1hiendskld","state":"PA"},"type":"Feature","geometry":null},{"properties":{"region":"10","county":"Bedford","id":"aa1hif0ob82t","state":"PA"},"type":"Feature","geometry":null},{"properties":{"region":"10","county":"Berks","id":"aa1hietctlo8","state":"PA"},"type":"Feature","geometry":null},{"properties":{"region":"10","county":"Blair","id":"aa1hies4j98b","state":"PA"},"type":"Feature","geometry":null},{"properties":{"region":"10","county":"Bucks","id":"aa1hietp17ch","state":"PA"},"type":"Feature","geometry":null},{"properties":{"region":"10","county":"Butler","id":"aa1hiep6x19i","state":"PA"},"type":"Feature","geometry":null},{"properties":{"region":"10","county":"Cambria","id":"aa1hieua7wv7","state":"PA"},"type":"Feature","geometry":null},{"properties":{"region":"10","county":"Centre","id":"aa1hiesd3t8k","state":"PA"},"type":"Feature","geometry":null},{"properties":{"region":"10","county":"Chester","id":"aa1hieoqrpbe","state":"PA"},"type":"Feature","geometry":null},{"properties":{"region":"10","county":"Clearfield","id":"aa1hiev831xi","state":"PA"},"type":"Feature","geometry":null},{"properties":{"region":"10","county":"Cumberland","id":"aa1hieyilg0i","state":"PA"},"type":"Feature","geometry":null},{"properties":{"region":"10","county":"Dauphin","id":"aa1hieqv3c6v","state":"PA"},"type":"Feature","geometry":null},{"properties":{"region":"10","county":"Delaware","id":"aa1hieslfda6","state":"PA"},"type":"Feature","geometry":null},{"properties":{"region":"10","county":"Elk","id":"aa1hif2328js","state":"PA"},"type":"Feature","geometry":null},{"properties":{"region":"10","county":"Erie","id":"aa1hif0n7kid","state":"PA"},"type":"Feature","geometry":null},{"properties":{"region":"10","county":"Fayette","id":"aa1hiewa5svz","state":"PA"},"type":"Feature","geometry":null},{"properties":{"region":"10","county":"Franklin","id":"aa1hif1toono","state":"PA"},"type":"Feature","geometry":null},{"properties":{"region":"10","county":"Greene","id":"aa1hievfs2n9","state":"PA"},"type":"Feature","geometry":null},{"properties":{"region":"10","county":"Lackawanna","id":"aa1hieni2tmj","state":"PA"},"type":"Feature","geometry":null},{"properties":{"region":"10","county":"Lancaster","id":"aa1hiemdja1y","state":"PA"},"type":"Feature","geometry":null},{"properties":{"region":"10","county":"Lawrence","id":"aa1hiep2f54u","state":"PA"},"type":"Feature","geometry":null},{"properties":{"region":"10","county":"Lehigh","id":"aa1hienlj8zo","state":"PA"},"type":"Feature","geometry":null},{"properties":{"region":"10","county":"Luzerne","id":"aa1hierdx0fz","state":"PA"},"type":"Feature","geometry":null},{"properties":{"region":"10","county":"Mercer","id":"aa1hieuvx780","state":"PA"},"type":"Feature","geometry":null},{"properties":{"region":"10","county":"Mifflin","id":"aa1hif0buw9o","state":"PA"},"type":"Feature","geometry":null},{"properties":{"region":"10","county":"Monroe","id":"aa1hietsge6r","state":"PA"},"type":"Feature","geometry":null},{"properties":{"region":"10","county":"Montgomery","id":"aa1hieo6t5q2","state":"PA"},"type":"Feature","geometry":null},{"properties":{"region":"10","county":"Northumberland","id":"aa1hiexix36f","state":"PA"},"type":"Feature","geometry":null},{"properties":{"region":"10","county":"Philadelphia","id":"aa1hif1hcamc","state":"PA"},"type":"Feature","geometry":null},{"properties":{"region":"10","county":"Schuylkill","id":"aa1hierrij77","state":"PA"},"type":"Feature","geometry":null},{"properties":{"region":"10","county":"Somerset","id":"aa1hif12mfhb","state":"PA"},"type":"Feature","geometry":null},{"properties":{"region":"10","county":"Tioga","id":"aa1hif1xlhkl","state":"PA"},"type":"Feature","geometry":null},{"properties":{"region":"10","county":"Union","id":"aa1hieu5tvqm","state":"PA"},"type":"Feature","geometry":null},{"properties":{"region":"10","county":"Westmoreland","id":"aa1hiew0l7t0","state":"PA"},"type":"Feature","geometry":null},{"properties":{"region":"10","county":"York","id":"aa1hiep43fj8","state":"PA"},"type":"Feature","geometry":null},{"properties":{"region":"10","county":"Puerto Rico","id":"aa1hiexsgjyr","state":"PR"},"type":"Feature","geometry":null},{"properties":{"region":"10","county":"Newport","id":"aa1hieupag22","state":"RI"},"type":"Feature","geometry":null},{"properties":{"region":"10","county":"Providence","id":"aa1hieq87s9i","state":"RI"},"type":"Feature","geometry":null},{"properties":{"region":"10","county":"Washington","id":"aa1hien2iibt","state":"RI"},"type":"Feature","geometry":null},{"properties":{"region":"10","county":"Darlington","id":"aa1hieuc6hpk","state":"SC"},"type":"Feature","geometry":null},{"properties":{"region":"10","county":"Dorchester","id":"aa1hif0x26mp","state":"SC"},"type":"Feature","geometry":null},{"properties":{"region":"10","county":"Florence","id":"aa1hiewsht33","state":"SC"},"type":"Feature","geometry":null},{"properties":{"region":"10","county":"Greenville","id":"aa1hiet8tz30","state":"SC"},"type":"Feature","geometry":null},{"properties":{"region":"10","county":"Laurens","id":"aa1hiexhau32","state":"SC"},"type":"Feature","geometry":null},{"properties":{"region":"10","county":"Lexington","id":"aa1hierfqq5r","state":"SC"},"type":"Feature","geometry":null},{"properties":{"region":"10","county":"Newberry","id":"aa1hier41tbb","state":"SC"},"type":"Feature","geometry":null},{"properties":{"region":"10","county":"Orangeburg","id":"aa1hif09j3j4","state":"SC"},"type":"Feature","geometry":null},{"properties":{"region":"10","county":"Richland","id":"aa1hieswzrxm","state":"SC"},"type":"Feature","geometry":null},{"properties":{"region":"10","county":"Spartanburg","id":"aa1hieov8bti","state":"SC"},"type":"Feature","geometry":null},{"properties":{"region":"10","county":"York","id":"aa1hiem6xtc3","state":"SC"},"type":"Feature","geometry":null},{"properties":{"region":"10","county":"Bedford","id":"aa1hieyslk3q","state":"TN"},"type":"Feature","geometry":null},{"properties":{"region":"10","county":"Blount","id":"aa1hienbg82c","state":"TN"},"type":"Feature","geometry":null},{"properties":{"region":"10","county":"Bradley","id":"aa1hif1rj4tm","state":"TN"},"type":"Feature","geometry":null},{"properties":{"region":"10","county":"Davidson","id":"aa1hieqok62w","state":"TN"},"type":"Feature","geometry":null},{"properties":{"region":"10","county":"Hamblen","id":"aa1hiet74hke","state":"TN"},"type":"Feature","geometry":null},{"properties":{"region":"10","county":"Hamilton","id":"aa1hievfdvzm","state":"TN"},"type":"Feature","geometry":null},{"properties":{"region":"10","county":"Knox","id":"aa1hierwwt9e","state":"TN"},"type":"Feature","geometry":null},{"properties":{"region":"10","county":"Loudon","id":"aa1hiezmde5j","state":"TN"},"type":"Feature","geometry":null},{"properties":{"region":"10","county":"Mcnairy","id":"aa1hieqomh8i","state":"TN"},"type":"Feature","geometry":null},{"properties":{"region":"10","county":"Putnam","id":"aa1hif0kisue","state":"TN"},"type":"Feature","geometry":null},{"properties":{"region":"10","county":"Rutherford","id":"aa1hietebitq","state":"TN"},"type":"Feature","geometry":null},{"properties":{"region":"10","county":"Shelby","id":"aa1hies9gk09","state":"TN"},"type":"Feature","geometry":null},{"properties":{"region":"10","county":"Sullivan","id":"aa1hiexjv6mb","state":"TN"},"type":"Feature","geometry":null},{"properties":{"region":"10","county":"Sumner","id":"aa1hietmnlv1","state":"TN"},"type":"Feature","geometry":null},{"properties":{"region":"10","county":"Washington","id":"aa1hiepclpdb","state":"TN"},"type":"Feature","geometry":null},{"properties":{"region":"10","county":"Wilson","id":"aa1hiewyh2ui","state":"TN"},"type":"Feature","geometry":null},{"properties":{"region":"10","county":"Alexandria City","id":"aa1hiey4vz6s","state":"VA"},"type":"Feature","geometry":null},{"properties":{"region":"10","county":"Cabell","id":"aa1hietkmd3f","state":"VA"},"type":"Feature","geometry":null},{"properties":{"region":"10","county":"Danville City","id":"aa1hiem3gp88","state":"VA"},"type":"Feature","geometry":null},{"properties":{"region":"10","county":"Frederick","id":"aa1hieu99tlu","state":"VA"},"type":"Feature","geometry":null},{"properties":{"region":"10","county":"Hancock","id":"aa1hiexhdoq3","state":"VA"},"type":"Feature","geometry":null},{"properties":{"region":"10","county":"Hanover","id":"aa1hiewpnkem","state":"VA"},"type":"Feature","geometry":null},{"properties":{"region":"10","county":"Harrison","id":"aa1hierc6dw6","state":"VA"},"type":"Feature","geometry":null},{"properties":{"region":"10","county":"Harrisonburg City","id":"aa1hieweuh47","state":"VA"},"type":"Feature","geometry":null},{"properties":{"region":"10","county":"Henrico","id":"aa1hieomajdr","state":"VA"},"type":"Feature","geometry":null},{"properties":{"region":"10","county":"Jackson","id":"aa1hien1p5g4","state":"VA"},"type":"Feature","geometry":null},{"properties":{"region":"10","county":"Lynchburg City","id":"aa1hiezf1pj5","state":"VA"},"type":"Feature","geometry":null},{"properties":{"region":"10","county":"Mercer","id":"aa1hif286bf9","state":"VA"},"type":"Feature","geometry":null},{"properties":{"region":"10","county":"Mineral","id":"aa1hiemlrot0","state":"VA"},"type":"Feature","geometry":null},{"properties":{"region":"10","county":"Newport News City","id":"aa1hierl9j15","state":"VA"},"type":"Feature","geometry":null},{"properties":{"region":"10","county":"Norfolk City","id":"aa1hien1gmls","state":"VA"},"type":"Feature","geometry":null},{"properties":{"region":"10","county":"Portsmouth City","id":"aa1hiez2gqwi","state":"VA"},"type":"Feature","geometry":null},{"properties":{"region":"10","county":"Prince George","id":"aa1hieqvj1bf","state":"VA"},"type":"Feature","geometry":null},{"properties":{"region":"10","county":"Prince William","id":"aa1hievm3gl5","state":"VA"},"type":"Feature","geometry":null},{"properties":{"region":"10","county":"Pulaski","id":"aa1hiey7fc6m","state":"VA"},"type":"Feature","geometry":null},{"properties":{"region":"10","county":"Putnam","id":"aa1hielziojy","state":"VA"},"type":"Feature","geometry":null},{"properties":{"region":"10","county":"Richmond City","id":"aa1hiepdqy6h","state":"VA"},"type":"Feature","geometry":null},{"properties":{"region":"10","county":"Roanoke City","id":"aa1hies53576","state":"VA"},"type":"Feature","geometry":null},{"properties":{"region":"10","county":"Salem","id":"aa1hievjk0ex","state":"VA"},"type":"Feature","geometry":null},{"properties":{"region":"10","county":"Stafford","id":"aa1hif1u1p5s","state":"VA"},"type":"Feature","geometry":null},{"properties":{"region":"10","county":"Staunton City","id":"aa1hif1948bf","state":"VA"},"type":"Feature","geometry":null},{"properties":{"region":"10","county":"Suffolk City","id":"aa1hiev2ri91","state":"VA"},"type":"Feature","geometry":null},{"properties":{"region":"10","county":"Upshur","id":"aa1hierkbxev","state":"VA"},"type":"Feature","geometry":null},{"properties":{"region":"10","county":"Virginia Beach City","id":"aa1hiewnnfx8","state":"VA"},"type":"Feature","geometry":null},{"properties":{"region":"10","county":"Washington","id":"aa1hienohx4a","state":"VA"},"type":"Feature","geometry":null},{"properties":{"region":"10","county":"Waynesboro City","id":"aa1hierj9vh1","state":"VA"},"type":"Feature","geometry":null},{"properties":{"region":"10","county":"Chittenden","id":"aa1hiem482hx","state":"VT"},"type":"Feature","geometry":null},{"properties":{"region":"10","county":"Rutland","id":"aa1hieou5kcr","state":"VT"},"type":"Feature","geometry":null},{"properties":{"region":"10","county":"Washington","id":"aa1hienhjgji","state":"VT"},"type":"Feature","geometry":null},{"properties":{"region":"10","county":"Windsor","id":"aa1hieq60mql","state":"VT"},"type":"Feature","geometry":null}],"is_temporal":false,"author":{"url":null,"metadata":null,"contact_name":null,"contact_address":null,"source":null,"contact_phone":null},"source":null,"pagination":{"sort":null,"start":0,"total":619,"limit":1000000},"state":"processing","tags":"","published":"2014-08-14T21:12:05-04:00","id":294576}