{"type":"FeatureCollection","data_type":"Dataset","url_type":null,"permissions":[{"permissions":{"download":true,"view":true},"group_id":"everyone"}],"classification":null,"title":"Dart-Solo_Sales_2011_per_County_per_11-09-2012","count":619,"stream_id":294581,"contributor":{"url":"http://geocommons.com/users/56086","name":"KPoag"},"data_attributes":null,"calculation_params":null,"icon_link":null,"link":"http://geocommons.com/overlays/294581.json","extent":[0.0,0.0,0.0,0.0],"geometry_types":null,"unique_name":null,"name":"Dart-Solo_Sales_2011_per_County_per_11-09-2012","feature_count":619,"description":"","next_feature":null,"is_raster":false,"short_classification":"Y","features":[{"properties":{"county":"Alameda","territory":"1","id":"aa1hjv2p6p41","state":"CA"},"type":"Feature","geometry":null},{"properties":{"county":"Butte","territory":"1","id":"aa1hjvf6dblg","state":"CA"},"type":"Feature","geometry":null},{"properties":{"county":"Contra Costa","territory":"1","id":"aa1hjvdpa51b","state":"CA"},"type":"Feature","geometry":null},{"properties":{"county":"Fresno","territory":"1","id":"aa1hjv5ktbmp","state":"CA"},"type":"Feature","geometry":null},{"properties":{"county":"Kings","territory":"1","id":"aa1hjv3i98up","state":"CA"},"type":"Feature","geometry":null},{"properties":{"county":"Merced","territory":"1","id":"aa1hjv8dmbk7","state":"CA"},"type":"Feature","geometry":null},{"properties":{"county":"Monterey","territory":"1","id":"aa1hjv3urqm5","state":"CA"},"type":"Feature","geometry":null},{"properties":{"county":"Placer","territory":"1","id":"aa1hjv3kucun","state":"CA"},"type":"Feature","geometry":null},{"properties":{"county":"Sacramento","territory":"1","id":"aa1hjv7z5415","state":"CA"},"type":"Feature","geometry":null},{"properties":{"county":"San Francisco","territory":"1","id":"aa1hjv2p50ah","state":"CA"},"type":"Feature","geometry":null},{"properties":{"county":"San Joaquin","territory":"1","id":"aa1hjvcznmi0","state":"CA"},"type":"Feature","geometry":null},{"properties":{"county":"San Mateo","territory":"1","id":"aa1hjve97qj5","state":"CA"},"type":"Feature","geometry":null},{"properties":{"county":"Santa Clara","territory":"1","id":"aa1hjv7d7mvw","state":"CA"},"type":"Feature","geometry":null},{"properties":{"county":"Santa Cruz","territory":"1","id":"aa1hjvfpuvf1","state":"CA"},"type":"Feature","geometry":null},{"properties":{"county":"Shasta","territory":"1","id":"aa1hjve6bluj","state":"CA"},"type":"Feature","geometry":null},{"properties":{"county":"Solano","territory":"1","id":"aa1hjvblqwik","state":"CA"},"type":"Feature","geometry":null},{"properties":{"county":"Sonoma","territory":"1","id":"aa1hjvbvn8hd","state":"CA"},"type":"Feature","geometry":null},{"properties":{"county":"Stanislaus","territory":"1","id":"aa1hjv10unz1","state":"CA"},"type":"Feature","geometry":null},{"properties":{"county":"Sutter","territory":"1","id":"aa1hjv7h6wxf","state":"CA"},"type":"Feature","geometry":null},{"properties":{"county":"Tulare","territory":"1","id":"aa1hjv2jy1tp","state":"CA"},"type":"Feature","geometry":null},{"properties":{"county":"Yolo","territory":"1","id":"aa1hjv8x960h","state":"CA"},"type":"Feature","geometry":null},{"properties":{"county":"Adams","territory":"1","id":"aa1hjv8zby9e","state":"CO"},"type":"Feature","geometry":null},{"properties":{"county":"Arapahoe","territory":"1","id":"aa1hjv5mn12s","state":"CO"},"type":"Feature","geometry":null},{"properties":{"county":"Denver","territory":"1","id":"aa1hjv5n05d4","state":"CO"},"type":"Feature","geometry":null},{"properties":{"county":"El Paso","territory":"1","id":"aa1hjv9ief73","state":"CO"},"type":"Feature","geometry":null},{"properties":{"county":"Garfield","territory":"1","id":"aa1hjv5zs54q","state":"CO"},"type":"Feature","geometry":null},{"properties":{"county":"Larimer","territory":"1","id":"aa1hjvbg9tve","state":"CO"},"type":"Feature","geometry":null},{"properties":{"county":"Weld","territory":"1","id":"aa1hjv7fz96w","state":"CO"},"type":"Feature","geometry":null},{"properties":{"county":"Ada","territory":"1","id":"aa1hjv1rjtkx","state":"ID"},"type":"Feature","geometry":null},{"properties":{"county":"Kootenai","territory":"1","id":"aa1hjvb6xkfl","state":"ID"},"type":"Feature","geometry":null},{"properties":{"county":"Twin Falls","territory":"1","id":"aa1hjv0264s7","state":"ID"},"type":"Feature","geometry":null},{"properties":{"county":"Gallatin","territory":"1","id":"aa1hjvbc6qf3","state":"MT"},"type":"Feature","geometry":null},{"properties":{"county":"Missoula","territory":"1","id":"aa1hjv0pikhv","state":"MT"},"type":"Feature","geometry":null},{"properties":{"county":"Silver Bow","territory":"1","id":"aa1hjv0qlbq9","state":"MT"},"type":"Feature","geometry":null},{"properties":{"county":"Yellowstone","territory":"1","id":"aa1hjvcxtfbt","state":"MT"},"type":"Feature","geometry":null},{"properties":{"county":"Washoe","territory":"1","id":"aa1hjvbddngj","state":"NV"},"type":"Feature","geometry":null},{"properties":{"county":"Clackamas","territory":"1","id":"aa1hjv00p1s3","state":"OR"},"type":"Feature","geometry":null},{"properties":{"county":"Josephine","territory":"1","id":"aa1hjv876dxs","state":"OR"},"type":"Feature","geometry":null},{"properties":{"county":"Lane","territory":"1","id":"aa1hjv9go9b7","state":"OR"},"type":"Feature","geometry":null},{"properties":{"county":"Marion","territory":"1","id":"aa1hjvb9donx","state":"OR"},"type":"Feature","geometry":null},{"properties":{"county":"Multnomah","territory":"1","id":"aa1hjv0td15p","state":"OR"},"type":"Feature","geometry":null},{"properties":{"county":"Umatilla","territory":"1","id":"aa1hjv9z9sog","state":"OR"},"type":"Feature","geometry":null},{"properties":{"county":"Davis","territory":"1","id":"aa1hjvewlhwo","state":"UT"},"type":"Feature","geometry":null},{"properties":{"county":"Salt Lake","territory":"1","id":"aa1hjvcryttn","state":"UT"},"type":"Feature","geometry":null},{"properties":{"county":"Weber","territory":"1","id":"aa1hjv7moijd","state":"UT"},"type":"Feature","geometry":null},{"properties":{"county":"Benton","territory":"1","id":"aa1hjv72117c","state":"WA"},"type":"Feature","geometry":null},{"properties":{"county":"Chelan","territory":"1","id":"aa1hjv6u0cte","state":"WA"},"type":"Feature","geometry":null},{"properties":{"county":"Franklin","territory":"1","id":"aa1hjvcyjpdm","state":"WA"},"type":"Feature","geometry":null},{"properties":{"county":"King","territory":"1","id":"aa1hjv6d6cwo","state":"WA"},"type":"Feature","geometry":null},{"properties":{"county":"Pierce","territory":"1","id":"aa1hjv6sh7eq","state":"WA"},"type":"Feature","geometry":null},{"properties":{"county":"Spokane","territory":"1","id":"aa1hjv605bso","state":"WA"},"type":"Feature","geometry":null},{"properties":{"county":"Thurston","territory":"1","id":"aa1hjv9ka9ab","state":"WA"},"type":"Feature","geometry":null},{"properties":{"county":"Yakima","territory":"1","id":"aa1hjvb74q1q","state":"WA"},"type":"Feature","geometry":null},{"properties":{"county":"Fremont","territory":"1","id":"aa1hjv291r81","state":"WY"},"type":"Feature","geometry":null},{"properties":{"county":"Maricopa","territory":"2","id":"aa1hjv6ns2vb","state":"AZ"},"type":"Feature","geometry":null},{"properties":{"county":"Mohave","territory":"2","id":"aa1hjv2v7c0g","state":"AZ"},"type":"Feature","geometry":null},{"properties":{"county":"Pima","territory":"2","id":"aa1hjv4vzlpb","state":"AZ"},"type":"Feature","geometry":null},{"properties":{"county":"Imperial","territory":"2","id":"aa1hjv8r9a8l","state":"CA"},"type":"Feature","geometry":null},{"properties":{"county":"Kern","territory":"2","id":"aa1hjvcv6ihl","state":"CA"},"type":"Feature","geometry":null},{"properties":{"county":"Los Angeles","territory":"2","id":"aa1hjv0nft43","state":"CA"},"type":"Feature","geometry":null},{"properties":{"county":"Orange","territory":"2","id":"aa1hjveo38o9","state":"CA"},"type":"Feature","geometry":null},{"properties":{"county":"Riverside","territory":"2","id":"aa1hjv7ak52b","state":"CA"},"type":"Feature","geometry":null},{"properties":{"county":"San Bernardino","territory":"2","id":"aa1hjv1ugczn","state":"CA"},"type":"Feature","geometry":null},{"properties":{"county":"San Diego","territory":"2","id":"aa1hjv5b8z2w","state":"CA"},"type":"Feature","geometry":null},{"properties":{"county":"San Luis Obispo","territory":"2","id":"aa1hjv2gizuw","state":"CA"},"type":"Feature","geometry":null},{"properties":{"county":"Santa Barbara","territory":"2","id":"aa1hjve88lp6","state":"CA"},"type":"Feature","geometry":null},{"properties":{"county":"Ventura","territory":"2","id":"aa1hjvep93wk","state":"CA"},"type":"Feature","geometry":null},{"properties":{"county":"Clark","territory":"2","id":"aa1hjv74jtur","state":"NV"},"type":"Feature","geometry":null},{"properties":{"county":"Bernalillo","territory":"3","id":"aa1hjvdjjpiu","state":"NM"},"type":"Feature","geometry":null},{"properties":{"county":"Lea","territory":"3","id":"aa1hjv4vwpod","state":"NM"},"type":"Feature","geometry":null},{"properties":{"county":"San Juan","territory":"3","id":"aa1hjv8o5rn2","state":"NM"},"type":"Feature","geometry":null},{"properties":{"county":"Angelina","territory":"3","id":"aa1hjv9usykp","state":"TX"},"type":"Feature","geometry":null},{"properties":{"county":"Bell","territory":"3","id":"aa1hjv88zhtp","state":"TX"},"type":"Feature","geometry":null},{"properties":{"county":"Bexar","territory":"3","id":"aa1hjv0837wg","state":"TX"},"type":"Feature","geometry":null},{"properties":{"county":"Bowie","territory":"3","id":"aa1hjvcoj6fc","state":"TX"},"type":"Feature","geometry":null},{"properties":{"county":"Brazoria","territory":"3","id":"aa1hjv44jve8","state":"TX"},"type":"Feature","geometry":null},{"properties":{"county":"Brazos","territory":"3","id":"aa1hjv8ktm5m","state":"TX"},"type":"Feature","geometry":null},{"properties":{"county":"Brown","territory":"3","id":"aa1hjv5gxh8h","state":"TX"},"type":"Feature","geometry":null},{"properties":{"county":"Cameron","territory":"3","id":"aa1hjuzyys0n","state":"TX"},"type":"Feature","geometry":null},{"properties":{"county":"Comal","territory":"3","id":"aa1hjvec5i81","state":"TX"},"type":"Feature","geometry":null},{"properties":{"county":"Dallas","territory":"3","id":"aa1hjv5rbd5e","state":"TX"},"type":"Feature","geometry":null},{"properties":{"county":"Denton","territory":"3","id":"aa1hjv3m3jti","state":"TX"},"type":"Feature","geometry":null},{"properties":{"county":"Ector","territory":"3","id":"aa1hjv7df54p","state":"TX"},"type":"Feature","geometry":null},{"properties":{"county":"El Paso","territory":"3","id":"aa1hjv5npvgx","state":"TX"},"type":"Feature","geometry":null},{"properties":{"county":"Galveston","territory":"3","id":"aa1hjv48nrlh","state":"TX"},"type":"Feature","geometry":null},{"properties":{"county":"Grayson","territory":"3","id":"aa1hjv02p15u","state":"TX"},"type":"Feature","geometry":null},{"properties":{"county":"Harris","territory":"3","id":"aa1hjve51p39","state":"TX"},"type":"Feature","geometry":null},{"properties":{"county":"Hidalgo","territory":"3","id":"aa1hjv4ae0x8","state":"TX"},"type":"Feature","geometry":null},{"properties":{"county":"Hopkins","territory":"3","id":"aa1hjvej6jna","state":"TX"},"type":"Feature","geometry":null},{"properties":{"county":"Jefferson","territory":"3","id":"aa1hjv7ss5iy","state":"TX"},"type":"Feature","geometry":null},{"properties":{"county":"Lamar","territory":"3","id":"aa1hjvcai2hh","state":"TX"},"type":"Feature","geometry":null},{"properties":{"county":"Lubbock","territory":"3","id":"aa1hjv3k1gt4","state":"TX"},"type":"Feature","geometry":null},{"properties":{"county":"Mclennan","territory":"3","id":"aa1hjv11j2zd","state":"TX"},"type":"Feature","geometry":null},{"properties":{"county":"Midland","territory":"3","id":"aa1hjvfknkap","state":"TX"},"type":"Feature","geometry":null},{"properties":{"county":"Nacogdoches","territory":"3","id":"aa1hjv75b79v","state":"TX"},"type":"Feature","geometry":null},{"properties":{"county":"Nueces","territory":"3","id":"aa1hjv12dkzg","state":"TX"},"type":"Feature","geometry":null},{"properties":{"county":"Potter","territory":"3","id":"aa1hjv9abjiw","state":"TX"},"type":"Feature","geometry":null},{"properties":{"county":"Randall","territory":"3","id":"aa1hjvcmtztw","state":"TX"},"type":"Feature","geometry":null},{"properties":{"county":"Smith","territory":"3","id":"aa1hjv7a6v3t","state":"TX"},"type":"Feature","geometry":null},{"properties":{"county":"Tarrant","territory":"3","id":"aa1hjv8moqe5","state":"TX"},"type":"Feature","geometry":null},{"properties":{"county":"Travis","territory":"3","id":"aa1hjvdv021p","state":"TX"},"type":"Feature","geometry":null},{"properties":{"county":"Victoria","territory":"3","id":"aa1hjv66osag","state":"TX"},"type":"Feature","geometry":null},{"properties":{"county":"Walker","territory":"3","id":"aa1hjvejo8rg","state":"TX"},"type":"Feature","geometry":null},{"properties":{"county":"Washington","territory":"3","id":"aa1hjv2047p0","state":"TX"},"type":"Feature","geometry":null},{"properties":{"county":"Wichita","territory":"3","id":"aa1hjv0pjt7c","state":"TX"},"type":"Feature","geometry":null},{"properties":{"county":"Wilbarger","territory":"3","id":"aa1hjvd2fs8r","state":"TX"},"type":"Feature","geometry":null},{"properties":{"county":"Williamson","territory":"3","id":"aa1hjvamixf2","state":"TX"},"type":"Feature","geometry":null},{"properties":{"county":"Benton","territory":"4","id":"aa1hjv1xyng8","state":"IA"},"type":"Feature","geometry":null},{"properties":{"county":"Black Hawk","territory":"4","id":"aa1hjv94z8a2","state":"IA"},"type":"Feature","geometry":null},{"properties":{"county":"Boone","territory":"4","id":"aa1hjv0flnpd","state":"IA"},"type":"Feature","geometry":null},{"properties":{"county":"Carroll","territory":"4","id":"aa1hjv8zax8t","state":"IA"},"type":"Feature","geometry":null},{"properties":{"county":"Cerro Gordo","territory":"4","id":"aa1hjvb1jwu3","state":"IA"},"type":"Feature","geometry":null},{"properties":{"county":"Dubuque","territory":"4","id":"aa1hjv8ytixw","state":"IA"},"type":"Feature","geometry":null},{"properties":{"county":"Johnson","territory":"4","id":"aa1hjvevoxae","state":"IA"},"type":"Feature","geometry":null},{"properties":{"county":"Linn","territory":"4","id":"aa1hjv34rheh","state":"IA"},"type":"Feature","geometry":null},{"properties":{"county":"Polk","territory":"4","id":"aa1hjvfhfit2","state":"IA"},"type":"Feature","geometry":null},{"properties":{"county":"Scott","territory":"4","id":"aa1hjv9xv3ej","state":"IA"},"type":"Feature","geometry":null},{"properties":{"county":"Sioux","territory":"4","id":"aa1hjvf39p2a","state":"IA"},"type":"Feature","geometry":null},{"properties":{"county":"Webster","territory":"4","id":"aa1hjv8y1bl5","state":"IA"},"type":"Feature","geometry":null},{"properties":{"county":"Woodbury","territory":"4","id":"aa1hjv9ose8h","state":"IA"},"type":"Feature","geometry":null},{"properties":{"county":"Cloud","territory":"4","id":"aa1hjv4clpeb","state":"KS"},"type":"Feature","geometry":null},{"properties":{"county":"Crawford","territory":"4","id":"aa1hjvelbv75","state":"KS"},"type":"Feature","geometry":null},{"properties":{"county":"Johnson","territory":"4","id":"aa1hjv3rieva","state":"KS"},"type":"Feature","geometry":null},{"properties":{"county":"Lyon","territory":"4","id":"aa1hjve08up9","state":"KS"},"type":"Feature","geometry":null},{"properties":{"county":"Sedgwick","territory":"4","id":"aa1hjvdngdia","state":"KS"},"type":"Feature","geometry":null},{"properties":{"county":"Seward","territory":"4","id":"aa1hjv8bz3fr","state":"KS"},"type":"Feature","geometry":null},{"properties":{"county":"Shawnee","territory":"4","id":"aa1hjv1bn33q","state":"KS"},"type":"Feature","geometry":null},{"properties":{"county":"Wyandotte","territory":"4","id":"aa1hjv3cp45b","state":"KS"},"type":"Feature","geometry":null},{"properties":{"county":"Anoka","territory":"4","id":"aa1hjv0zs2ui","state":"MN"},"type":"Feature","geometry":null},{"properties":{"county":"Brown","territory":"4","id":"aa1hjv3p294c","state":"MN"},"type":"Feature","geometry":null},{"properties":{"county":"Carlton","territory":"4","id":"aa1hjvaqze7d","state":"MN"},"type":"Feature","geometry":null},{"properties":{"county":"Dakota","territory":"4","id":"aa1hjvea255i","state":"MN"},"type":"Feature","geometry":null},{"properties":{"county":"Douglas","territory":"4","id":"aa1hjvezckq5","state":"MN"},"type":"Feature","geometry":null},{"properties":{"county":"Hennepin","territory":"4","id":"aa1hjvel8bed","state":"MN"},"type":"Feature","geometry":null},{"properties":{"county":"Lyon","territory":"4","id":"aa1hjv197wx2","state":"MN"},"type":"Feature","geometry":null},{"properties":{"county":"Olmsted","territory":"4","id":"aa1hjv9olruh","state":"MN"},"type":"Feature","geometry":null},{"properties":{"county":"Ramsey","territory":"4","id":"aa1hjvdax1b2","state":"MN"},"type":"Feature","geometry":null},{"properties":{"county":"Rice","territory":"4","id":"aa1hjveyvpew","state":"MN"},"type":"Feature","geometry":null},{"properties":{"county":"Roseau","territory":"4","id":"aa1hjv8vgfcp","state":"MN"},"type":"Feature","geometry":null},{"properties":{"county":"Saint Louis","territory":"4","id":"aa1hjvec52kp","state":"MN"},"type":"Feature","geometry":null},{"properties":{"county":"Washington","territory":"4","id":"aa1hjv50dphw","state":"MN"},"type":"Feature","geometry":null},{"properties":{"county":"Wright","territory":"4","id":"aa1hjv9uu3kx","state":"MN"},"type":"Feature","geometry":null},{"properties":{"county":"Buchanan","territory":"4","id":"aa1hjvclz1fr","state":"MO"},"type":"Feature","geometry":null},{"properties":{"county":"Cape Girardeau","territory":"4","id":"aa1hjv1rkxtu","state":"MO"},"type":"Feature","geometry":null},{"properties":{"county":"Cole","territory":"4","id":"aa1hjv73cpvj","state":"MO"},"type":"Feature","geometry":null},{"properties":{"county":"Dent","territory":"4","id":"aa1hjv2zckdq","state":"MO"},"type":"Feature","geometry":null},{"properties":{"county":"Franklin","territory":"4","id":"aa1hjvexvd38","state":"MO"},"type":"Feature","geometry":null},{"properties":{"county":"Greene","territory":"4","id":"aa1hjv4q1m5d","state":"MO"},"type":"Feature","geometry":null},{"properties":{"county":"Jackson","territory":"4","id":"aa1hjv6723yr","state":"MO"},"type":"Feature","geometry":null},{"properties":{"county":"Jefferson","territory":"4","id":"aa1hjv7n5pvd","state":"MO"},"type":"Feature","geometry":null},{"properties":{"county":"Lafayette","territory":"4","id":"aa1hjvf9u5yq","state":"MO"},"type":"Feature","geometry":null},{"properties":{"county":"Miller","territory":"4","id":"aa1hjv2xjkm5","state":"MO"},"type":"Feature","geometry":null},{"properties":{"county":"Platte","territory":"4","id":"aa1hjv23pyuv","state":"MO"},"type":"Feature","geometry":null},{"properties":{"county":"Saint Charles","territory":"4","id":"aa1hjuze6p2f","state":"MO"},"type":"Feature","geometry":null},{"properties":{"county":"Saint Louis","territory":"4","id":"aa1hjva59c6m","state":"MO"},"type":"Feature","geometry":null},{"properties":{"county":"Saint Louis City","territory":"4","id":"aa1hjvf5b2p7","state":"MO"},"type":"Feature","geometry":null},{"properties":{"county":"Stoddard","territory":"4","id":"aa1hjv6cmrdp","state":"MO"},"type":"Feature","geometry":null},{"properties":{"county":"Vernon","territory":"4","id":"aa1hjvfg3or2","state":"MO"},"type":"Feature","geometry":null},{"properties":{"county":"Cass","territory":"4","id":"aa1hjv40l5li","state":"ND"},"type":"Feature","geometry":null},{"properties":{"county":"Grand Forks","territory":"4","id":"aa1hjv1qsef7","state":"ND"},"type":"Feature","geometry":null},{"properties":{"county":"Ward","territory":"4","id":"aa1hjvf08apd","state":"ND"},"type":"Feature","geometry":null},{"properties":{"county":"Buffalo","territory":"4","id":"aa1hjv1bpubm","state":"NE"},"type":"Feature","geometry":null},{"properties":{"county":"Douglas","territory":"4","id":"aa1hjv9o14zq","state":"NE"},"type":"Feature","geometry":null},{"properties":{"county":"Hall","territory":"4","id":"aa1hjv49tx86","state":"NE"},"type":"Feature","geometry":null},{"properties":{"county":"Lancaster","territory":"4","id":"aa1hjv7cr6h4","state":"NE"},"type":"Feature","geometry":null},{"properties":{"county":"Sarpy","territory":"4","id":"aa1hjv294f08","state":"NE"},"type":"Feature","geometry":null},{"properties":{"county":"Washington","territory":"4","id":"aa1hjv0i70lt","state":"NE"},"type":"Feature","geometry":null},{"properties":{"county":"Bryan","territory":"4","id":"aa1hjvelkusl","state":"OK"},"type":"Feature","geometry":null},{"properties":{"county":"Canadian","territory":"4","id":"aa1hjvdege3g","state":"OK"},"type":"Feature","geometry":null},{"properties":{"county":"Carter","territory":"4","id":"aa1hjv226g7j","state":"OK"},"type":"Feature","geometry":null},{"properties":{"county":"Cleveland","territory":"4","id":"aa1hjveghv9j","state":"OK"},"type":"Feature","geometry":null},{"properties":{"county":"Garfield","territory":"4","id":"aa1hjvcls7ip","state":"OK"},"type":"Feature","geometry":null},{"properties":{"county":"Grady","territory":"4","id":"aa1hjve6njo5","state":"OK"},"type":"Feature","geometry":null},{"properties":{"county":"Kay","territory":"4","id":"aa1hjvc9cud2","state":"OK"},"type":"Feature","geometry":null},{"properties":{"county":"Mccurtain","territory":"4","id":"aa1hjv5ek1q6","state":"OK"},"type":"Feature","geometry":null},{"properties":{"county":"Muskogee","territory":"4","id":"aa1hjv3n0c6x","state":"OK"},"type":"Feature","geometry":null},{"properties":{"county":"Oklahoma","territory":"4","id":"aa1hjv29i90r","state":"OK"},"type":"Feature","geometry":null},{"properties":{"county":"Payne","territory":"4","id":"aa1hjv5bk1kw","state":"OK"},"type":"Feature","geometry":null},{"properties":{"county":"Pontotoc","territory":"4","id":"aa1hjvdsp7tw","state":"OK"},"type":"Feature","geometry":null},{"properties":{"county":"Tulsa","territory":"4","id":"aa1hjv2neyal","state":"OK"},"type":"Feature","geometry":null},{"properties":{"county":"Hamlin","territory":"4","id":"aa1hjvdtfemc","state":"SD"},"type":"Feature","geometry":null},{"properties":{"county":"Minnehaha","territory":"4","id":"aa1hjv7xgrsr","state":"SD"},"type":"Feature","geometry":null},{"properties":{"county":"Adams","territory":"5","id":"aa1hjv9echdh","state":"IL"},"type":"Feature","geometry":null},{"properties":{"county":"Brown","territory":"5","id":"aa1hjv8v67iv","state":"IL"},"type":"Feature","geometry":null},{"properties":{"county":"Clinton","territory":"5","id":"aa1hjuzrqj58","state":"IL"},"type":"Feature","geometry":null},{"properties":{"county":"Coles","territory":"5","id":"aa1hjvbxi955","state":"IL"},"type":"Feature","geometry":null},{"properties":{"county":"Cook","territory":"5","id":"aa1hjv6knv0e","state":"IL"},"type":"Feature","geometry":null},{"properties":{"county":"Dupage","territory":"5","id":"aa1hjv8zp070","state":"IL"},"type":"Feature","geometry":null},{"properties":{"county":"Henry","territory":"5","id":"aa1hjvfds4ex","state":"IL"},"type":"Feature","geometry":null},{"properties":{"county":"Jersey","territory":"5","id":"aa1hjv98ixds","state":"IL"},"type":"Feature","geometry":null},{"properties":{"county":"Kane","territory":"5","id":"aa1hjv16k2xc","state":"IL"},"type":"Feature","geometry":null},{"properties":{"county":"Kendall","territory":"5","id":"aa1hjuzmn3b8","state":"IL"},"type":"Feature","geometry":null},{"properties":{"county":"La Salle","territory":"5","id":"aa1hjv3iiq9f","state":"IL"},"type":"Feature","geometry":null},{"properties":{"county":"Lake","territory":"5","id":"aa1hjv4crwqa","state":"IL"},"type":"Feature","geometry":null},{"properties":{"county":"Logan","territory":"5","id":"aa1hjvakcil4","state":"IL"},"type":"Feature","geometry":null},{"properties":{"county":"Marion","territory":"5","id":"aa1hjvazqlpj","state":"IL"},"type":"Feature","geometry":null},{"properties":{"county":"Mclean","territory":"5","id":"aa1hjv2ir8tp","state":"IL"},"type":"Feature","geometry":null},{"properties":{"county":"Peoria","territory":"5","id":"aa1hjuzxihqk","state":"IL"},"type":"Feature","geometry":null},{"properties":{"county":"Rock Island","territory":"5","id":"aa1hjvayne5r","state":"IL"},"type":"Feature","geometry":null},{"properties":{"county":"Saint Clair","territory":"5","id":"aa1hjvbfo3bc","state":"IL"},"type":"Feature","geometry":null},{"properties":{"county":"Sangamon","territory":"5","id":"aa1hjv67u6tk","state":"IL"},"type":"Feature","geometry":null},{"properties":{"county":"Tazewell","territory":"5","id":"aa1hjv26ra6p","state":"IL"},"type":"Feature","geometry":null},{"properties":{"county":"Vermilion","territory":"5","id":"aa1hjv5hsra7","state":"IL"},"type":"Feature","geometry":null},{"properties":{"county":"White","territory":"5","id":"aa1hjv51he6i","state":"IL"},"type":"Feature","geometry":null},{"properties":{"county":"Will","territory":"5","id":"aa1hjv1jywx3","state":"IL"},"type":"Feature","geometry":null},{"properties":{"county":"Allen","territory":"5","id":"aa1hjv90a8c8","state":"IN"},"type":"Feature","geometry":null},{"properties":{"county":"Clark","territory":"5","id":"aa1hjv0imme1","state":"IN"},"type":"Feature","geometry":null},{"properties":{"county":"Delaware","territory":"5","id":"aa1hjv2m2j2l","state":"IN"},"type":"Feature","geometry":null},{"properties":{"county":"Fayette","territory":"5","id":"aa1hjvcj6hxy","state":"IN"},"type":"Feature","geometry":null},{"properties":{"county":"Floyd","territory":"5","id":"aa1hjv87hns9","state":"IN"},"type":"Feature","geometry":null},{"properties":{"county":"Hamilton","territory":"5","id":"aa1hjvbpjk11","state":"IN"},"type":"Feature","geometry":null},{"properties":{"county":"Hancock","territory":"5","id":"aa1hjvcsfvvo","state":"IN"},"type":"Feature","geometry":null},{"properties":{"county":"Hendricks","territory":"5","id":"aa1hjv9szv54","state":"IN"},"type":"Feature","geometry":null},{"properties":{"county":"Knox","territory":"5","id":"aa1hjuzb7mii","state":"IN"},"type":"Feature","geometry":null},{"properties":{"county":"Kosciusko","territory":"5","id":"aa1hjvb641nz","state":"IN"},"type":"Feature","geometry":null},{"properties":{"county":"La Porte","territory":"5","id":"aa1hjvapryrb","state":"IN"},"type":"Feature","geometry":null},{"properties":{"county":"Lake","territory":"5","id":"aa1hjvehl05t","state":"IN"},"type":"Feature","geometry":null},{"properties":{"county":"Marion","territory":"5","id":"aa1hjv0hngcp","state":"IN"},"type":"Feature","geometry":null},{"properties":{"county":"Monroe","territory":"5","id":"aa1hjvcyn4vm","state":"IN"},"type":"Feature","geometry":null},{"properties":{"county":"Noble","territory":"5","id":"aa1hjv1s4faj","state":"IN"},"type":"Feature","geometry":null},{"properties":{"county":"Porter","territory":"5","id":"aa1hjv681n4a","state":"IN"},"type":"Feature","geometry":null},{"properties":{"county":"St Joseph","territory":"5","id":"aa1hjvast5ek","state":"IN"},"type":"Feature","geometry":null},{"properties":{"county":"Vanderburgh","territory":"5","id":"aa1hjvc1yr0p","state":"IN"},"type":"Feature","geometry":null},{"properties":{"county":"Vigo","territory":"5","id":"aa1hjv8jus9b","state":"IN"},"type":"Feature","geometry":null},{"properties":{"county":"Iron","territory":"5","id":"aa1hjv5adloe","state":"MI"},"type":"Feature","geometry":null},{"properties":{"county":"Marquette","territory":"5","id":"aa1hjuzt6p0r","state":"MI"},"type":"Feature","geometry":null},{"properties":{"county":"Brown","territory":"5","id":"aa1hjveirndm","state":"WI"},"type":"Feature","geometry":null},{"properties":{"county":"Columbia","territory":"5","id":"aa1hjv7v8jyi","state":"WI"},"type":"Feature","geometry":null},{"properties":{"county":"Dane","territory":"5","id":"aa1hjv4w34ac","state":"WI"},"type":"Feature","geometry":null},{"properties":{"county":"Dodge","territory":"5","id":"aa1hjv1klj6k","state":"WI"},"type":"Feature","geometry":null},{"properties":{"county":"Eau Claire","territory":"5","id":"aa1hjvc04m5l","state":"WI"},"type":"Feature","geometry":null},{"properties":{"county":"Kenosha","territory":"5","id":"aa1hjuzt8lae","state":"WI"},"type":"Feature","geometry":null},{"properties":{"county":"La Crosse","territory":"5","id":"aa1hjv4ab06n","state":"WI"},"type":"Feature","geometry":null},{"properties":{"county":"Lincoln","territory":"5","id":"aa1hjvbvnelb","state":"WI"},"type":"Feature","geometry":null},{"properties":{"county":"Milwaukee","territory":"5","id":"aa1hjv4f69kz","state":"WI"},"type":"Feature","geometry":null},{"properties":{"county":"Racine","territory":"5","id":"aa1hjv59um4j","state":"WI"},"type":"Feature","geometry":null},{"properties":{"county":"Rock","territory":"5","id":"aa1hjvb9wpau","state":"WI"},"type":"Feature","geometry":null},{"properties":{"county":"Saint Croix","territory":"5","id":"aa1hjv5qj7c2","state":"WI"},"type":"Feature","geometry":null},{"properties":{"county":"Sauk","territory":"5","id":"aa1hjv0abtq2","state":"WI"},"type":"Feature","geometry":null},{"properties":{"county":"Shawano","territory":"5","id":"aa1hjv8ccxrk","state":"WI"},"type":"Feature","geometry":null},{"properties":{"county":"Sheboygan","territory":"5","id":"aa1hjv4mnpbb","state":"WI"},"type":"Feature","geometry":null},{"properties":{"county":"Washington","territory":"5","id":"aa1hjv86u9jm","state":"WI"},"type":"Feature","geometry":null},{"properties":{"county":"Waukesha","territory":"5","id":"aa1hjva6rez6","state":"WI"},"type":"Feature","geometry":null},{"properties":{"county":"Baldwin","territory":"6","id":"aa1hjv6iizbo","state":"AL"},"type":"Feature","geometry":null},{"properties":{"county":"Chilton","territory":"6","id":"aa1hjv5mabg1","state":"AL"},"type":"Feature","geometry":null},{"properties":{"county":"Coffee","territory":"6","id":"aa1hjv2gha33","state":"AL"},"type":"Feature","geometry":null},{"properties":{"county":"Colbert","territory":"6","id":"aa1hjvdetp9g","state":"AL"},"type":"Feature","geometry":null},{"properties":{"county":"Covington","territory":"6","id":"aa1hjv1hhhq1","state":"AL"},"type":"Feature","geometry":null},{"properties":{"county":"Crenshaw","territory":"6","id":"aa1hjv8rj8fi","state":"AL"},"type":"Feature","geometry":null},{"properties":{"county":"Dallas","territory":"6","id":"aa1hjvdv6g9g","state":"AL"},"type":"Feature","geometry":null},{"properties":{"county":"Etowah","territory":"6","id":"aa1hjvf69gv7","state":"AL"},"type":"Feature","geometry":null},{"properties":{"county":"Geneva","territory":"6","id":"aa1hjv9n3qmk","state":"AL"},"type":"Feature","geometry":null},{"properties":{"county":"Houston","territory":"6","id":"aa1hjv730lem","state":"AL"},"type":"Feature","geometry":null},{"properties":{"county":"Jefferson","territory":"6","id":"aa1hjv8fjzqu","state":"AL"},"type":"Feature","geometry":null},{"properties":{"county":"Lauderdale","territory":"6","id":"aa1hjvazzt1n","state":"AL"},"type":"Feature","geometry":null},{"properties":{"county":"Madison","territory":"6","id":"aa1hjv46a7uw","state":"AL"},"type":"Feature","geometry":null},{"properties":{"county":"Mobile","territory":"6","id":"aa1hjva5qrsp","state":"AL"},"type":"Feature","geometry":null},{"properties":{"county":"Montgomery","territory":"6","id":"aa1hjv24xb94","state":"AL"},"type":"Feature","geometry":null},{"properties":{"county":"Saint Clair","territory":"6","id":"aa1hjv2mqp3o","state":"AL"},"type":"Feature","geometry":null},{"properties":{"county":"Shelby","territory":"6","id":"aa1hjv4vnm1k","state":"AL"},"type":"Feature","geometry":null},{"properties":{"county":"Boone","territory":"6","id":"aa1hjv8gee7u","state":"AR"},"type":"Feature","geometry":null},{"properties":{"county":"Crawford","territory":"6","id":"aa1hjv6lgwow","state":"AR"},"type":"Feature","geometry":null},{"properties":{"county":"Garland","territory":"6","id":"aa1hjv2gxkci","state":"AR"},"type":"Feature","geometry":null},{"properties":{"county":"Jefferson","territory":"6","id":"aa1hjv1gd8e6","state":"AR"},"type":"Feature","geometry":null},{"properties":{"county":"Mississippi","territory":"6","id":"aa1hjv787xkw","state":"AR"},"type":"Feature","geometry":null},{"properties":{"county":"Pulaski","territory":"6","id":"aa1hjv2aa98d","state":"AR"},"type":"Feature","geometry":null},{"properties":{"county":"Sebastian","territory":"6","id":"aa1hjv28q2sv","state":"AR"},"type":"Feature","geometry":null},{"properties":{"county":"Bibb","territory":"6","id":"aa1hjva48n9i","state":"GA"},"type":"Feature","geometry":null},{"properties":{"county":"Chatham","territory":"6","id":"aa1hjv3omai2","state":"GA"},"type":"Feature","geometry":null},{"properties":{"county":"Clarke","territory":"6","id":"aa1hjv6u1sac","state":"GA"},"type":"Feature","geometry":null},{"properties":{"county":"Clayton","territory":"6","id":"aa1hjvdg7l3s","state":"GA"},"type":"Feature","geometry":null},{"properties":{"county":"Cobb","territory":"6","id":"aa1hjvf971eb","state":"GA"},"type":"Feature","geometry":null},{"properties":{"county":"Coffee","territory":"6","id":"aa1hjv3dzqjl","state":"GA"},"type":"Feature","geometry":null},{"properties":{"county":"Coweta","territory":"6","id":"aa1hjv8n7atp","state":"GA"},"type":"Feature","geometry":null},{"properties":{"county":"Crisp","territory":"6","id":"aa1hjv1aetpi","state":"GA"},"type":"Feature","geometry":null},{"properties":{"county":"Dekalb","territory":"6","id":"aa1hjv8qxsq7","state":"GA"},"type":"Feature","geometry":null},{"properties":{"county":"Dougherty","territory":"6","id":"aa1hjuzvlyti","state":"GA"},"type":"Feature","geometry":null},{"properties":{"county":"Douglas","territory":"6","id":"aa1hjvfj5vag","state":"GA"},"type":"Feature","geometry":null},{"properties":{"county":"Floyd","territory":"6","id":"aa1hjv18ynb5","state":"GA"},"type":"Feature","geometry":null},{"properties":{"county":"Fulton","territory":"6","id":"aa1hjv5i6nug","state":"GA"},"type":"Feature","geometry":null},{"properties":{"county":"Glynn","territory":"6","id":"aa1hjv8pflkp","state":"GA"},"type":"Feature","geometry":null},{"properties":{"county":"Grady","territory":"6","id":"aa1hjuz7mt46","state":"GA"},"type":"Feature","geometry":null},{"properties":{"county":"Gwinnett","territory":"6","id":"aa1hjv795cbq","state":"GA"},"type":"Feature","geometry":null},{"properties":{"county":"Hall","territory":"6","id":"aa1hjv2pjfsv","state":"GA"},"type":"Feature","geometry":null},{"properties":{"county":"Laurens","territory":"6","id":"aa1hjv5mj597","state":"GA"},"type":"Feature","geometry":null},{"properties":{"county":"Lee","territory":"6","id":"aa1hjvbawopz","state":"GA"},"type":"Feature","geometry":null},{"properties":{"county":"Lowndes","territory":"6","id":"aa1hjv4eqaae","state":"GA"},"type":"Feature","geometry":null},{"properties":{"county":"Muscogee","territory":"6","id":"aa1hjv5bei27","state":"GA"},"type":"Feature","geometry":null},{"properties":{"county":"Polk","territory":"6","id":"aa1hjv41qaxm","state":"GA"},"type":"Feature","geometry":null},{"properties":{"county":"Rockdale","territory":"6","id":"aa1hjv8h5jq5","state":"GA"},"type":"Feature","geometry":null},{"properties":{"county":"Thomas","territory":"6","id":"aa1hjva5qi1k","state":"GA"},"type":"Feature","geometry":null},{"properties":{"county":"Tift","territory":"6","id":"aa1hjv80temm","state":"GA"},"type":"Feature","geometry":null},{"properties":{"county":"Toombs","territory":"6","id":"aa1hjv5epwjp","state":"GA"},"type":"Feature","geometry":null},{"properties":{"county":"Acadia","territory":"6","id":"aa1hjv6g0cds","state":"LA"},"type":"Feature","geometry":null},{"properties":{"county":"Ascension","territory":"6","id":"aa1hjvc9wxen","state":"LA"},"type":"Feature","geometry":null},{"properties":{"county":"Assumption","territory":"6","id":"aa1hjv29dzx9","state":"LA"},"type":"Feature","geometry":null},{"properties":{"county":"Caddo","territory":"6","id":"aa1hjvexmi96","state":"LA"},"type":"Feature","geometry":null},{"properties":{"county":"East Baton Rouge","territory":"6","id":"aa1hjv8d9zpy","state":"LA"},"type":"Feature","geometry":null},{"properties":{"county":"Jefferson","territory":"6","id":"aa1hjv20vru7","state":"LA"},"type":"Feature","geometry":null},{"properties":{"county":"Lafayette","territory":"6","id":"aa1hjv2y0jt8","state":"LA"},"type":"Feature","geometry":null},{"properties":{"county":"Lincoln","territory":"6","id":"aa1hjv1s3nh1","state":"LA"},"type":"Feature","geometry":null},{"properties":{"county":"Morehouse","territory":"6","id":"aa1hjv8lmesf","state":"LA"},"type":"Feature","geometry":null},{"properties":{"county":"Orleans","territory":"6","id":"aa1hjvfasmfe","state":"LA"},"type":"Feature","geometry":null},{"properties":{"county":"Ouachita","territory":"6","id":"aa1hjvbjir5t","state":"LA"},"type":"Feature","geometry":null},{"properties":{"county":"Plaquemines","territory":"6","id":"aa1hjv61ffek","state":"LA"},"type":"Feature","geometry":null},{"properties":{"county":"Rapides","territory":"6","id":"aa1hjvds6ibq","state":"LA"},"type":"Feature","geometry":null},{"properties":{"county":"Saint Bernard","territory":"6","id":"aa1hjve0v0u5","state":"LA"},"type":"Feature","geometry":null},{"properties":{"county":"Saint Charles","territory":"6","id":"aa1hjv9cgm1l","state":"LA"},"type":"Feature","geometry":null},{"properties":{"county":"Saint Landry","territory":"6","id":"aa1hjvenka9r","state":"LA"},"type":"Feature","geometry":null},{"properties":{"county":"Tangipahoa","territory":"6","id":"aa1hjvf4krfi","state":"LA"},"type":"Feature","geometry":null},{"properties":{"county":"Terrebonne","territory":"6","id":"aa1hjv438to0","state":"LA"},"type":"Feature","geometry":null},{"properties":{"county":"Washington","territory":"6","id":"aa1hjv2fspta","state":"LA"},"type":"Feature","geometry":null},{"properties":{"county":"Webster","territory":"6","id":"aa1hjv6hb8dz","state":"LA"},"type":"Feature","geometry":null},{"properties":{"county":"Adams","territory":"6","id":"aa1hjv6tnjxh","state":"MS"},"type":"Feature","geometry":null},{"properties":{"county":"Alcorn","territory":"6","id":"aa1hjv0z5wy9","state":"MS"},"type":"Feature","geometry":null},{"properties":{"county":"Desoto","territory":"6","id":"aa1hjv6iyptv","state":"MS"},"type":"Feature","geometry":null},{"properties":{"county":"Forrest","territory":"6","id":"aa1hjv5x5aqb","state":"MS"},"type":"Feature","geometry":null},{"properties":{"county":"Grenada","territory":"6","id":"aa1hjv23j5jt","state":"MS"},"type":"Feature","geometry":null},{"properties":{"county":"Harrison","territory":"6","id":"aa1hjv7nga6p","state":"MS"},"type":"Feature","geometry":null},{"properties":{"county":"Hinds","territory":"6","id":"aa1hjv613ti2","state":"MS"},"type":"Feature","geometry":null},{"properties":{"county":"Jones","territory":"6","id":"aa1hjv7l55w6","state":"MS"},"type":"Feature","geometry":null},{"properties":{"county":"Lauderdale","territory":"6","id":"aa1hjv17yh2k","state":"MS"},"type":"Feature","geometry":null},{"properties":{"county":"Lee","territory":"6","id":"aa1hjv4p857i","state":"MS"},"type":"Feature","geometry":null},{"properties":{"county":"Lincoln","territory":"6","id":"aa1hjvdazdtc","state":"MS"},"type":"Feature","geometry":null},{"properties":{"county":"Lowndes","territory":"6","id":"aa1hjv40za5w","state":"MS"},"type":"Feature","geometry":null},{"properties":{"county":"Marion","territory":"6","id":"aa1hjv93oufy","state":"MS"},"type":"Feature","geometry":null},{"properties":{"county":"Panola","territory":"6","id":"aa1hjv57cdlu","state":"MS"},"type":"Feature","geometry":null},{"properties":{"county":"Rankin","territory":"6","id":"aa1hjvfg530v","state":"MS"},"type":"Feature","geometry":null},{"properties":{"county":"Washington","territory":"6","id":"aa1hjvbnrvwj","state":"MS"},"type":"Feature","geometry":null},{"properties":{"county":"Allegan","territory":"9","id":"aa1hjvavz3uy","state":"MI"},"type":"Feature","geometry":null},{"properties":{"county":"Alpena","territory":"9","id":"aa1hjv4zhb8e","state":"MI"},"type":"Feature","geometry":null},{"properties":{"county":"Bay","territory":"9","id":"aa1hjv6cnah9","state":"MI"},"type":"Feature","geometry":null},{"properties":{"county":"Calhoun","territory":"9","id":"aa1hjv5lagpv","state":"MI"},"type":"Feature","geometry":null},{"properties":{"county":"Emmet","territory":"9","id":"aa1hjv9uimcn","state":"MI"},"type":"Feature","geometry":null},{"properties":{"county":"Genesee","territory":"9","id":"aa1hjv7bj2l2","state":"MI"},"type":"Feature","geometry":null},{"properties":{"county":"Ingham","territory":"9","id":"aa1hjvexlziw","state":"MI"},"type":"Feature","geometry":null},{"properties":{"county":"Jackson","territory":"9","id":"aa1hjuzo6b8l","state":"MI"},"type":"Feature","geometry":null},{"properties":{"county":"Kent","territory":"9","id":"aa1hjvfcg65d","state":"MI"},"type":"Feature","geometry":null},{"properties":{"county":"Livingston","territory":"9","id":"aa1hjvhw14tk","state":"MI"},"type":"Feature","geometry":null},{"properties":{"county":"Macomb","territory":"9","id":"aa1hjvuf5sbi","state":"MI"},"type":"Feature","geometry":null},{"properties":{"county":"Midland","territory":"9","id":"aa1hjvhwgtrw","state":"MI"},"type":"Feature","geometry":null},{"properties":{"county":"Oakland","territory":"9","id":"aa1hjvs8sby7","state":"MI"},"type":"Feature","geometry":null},{"properties":{"county":"Ottawa","territory":"9","id":"aa1hjvh3azuz","state":"MI"},"type":"Feature","geometry":null},{"properties":{"county":"Saginaw","territory":"9","id":"aa1hjvo65lsl","state":"MI"},"type":"Feature","geometry":null},{"properties":{"county":"Washtenaw","territory":"9","id":"aa1hjvtai9lx","state":"MI"},"type":"Feature","geometry":null},{"properties":{"county":"Wayne","territory":"9","id":"aa1hjvh4btvf","state":"MI"},"type":"Feature","geometry":null},{"properties":{"county":"Fairfield","territory":"10","id":"aa1hjvs10htu","state":"CT"},"type":"Feature","geometry":null},{"properties":{"county":"Hartford","territory":"10","id":"aa1hjvleqner","state":"CT"},"type":"Feature","geometry":null},{"properties":{"county":"New Haven","territory":"10","id":"aa1hjvobd0ep","state":"CT"},"type":"Feature","geometry":null},{"properties":{"county":"New London","territory":"10","id":"aa1hjvi2kgng","state":"CT"},"type":"Feature","geometry":null},{"properties":{"county":"New Castle","territory":"10","id":"aa1hjvhh1vzd","state":"DE"},"type":"Feature","geometry":null},{"properties":{"county":"Sussex","territory":"10","id":"aa1hjvp0pale","state":"DE"},"type":"Feature","geometry":null},{"properties":{"county":"Alachua","territory":"10","id":"aa1hjvlj7wm6","state":"FL"},"type":"Feature","geometry":null},{"properties":{"county":"Brevard","territory":"10","id":"aa1hjvoyyhi5","state":"FL"},"type":"Feature","geometry":null},{"properties":{"county":"Broward","territory":"10","id":"aa1hjvmqvubw","state":"FL"},"type":"Feature","geometry":null},{"properties":{"county":"Duval","territory":"10","id":"aa1hjvkzxvw9","state":"FL"},"type":"Feature","geometry":null},{"properties":{"county":"Escambia","territory":"10","id":"aa1hjvic5krv","state":"FL"},"type":"Feature","geometry":null},{"properties":{"county":"Hillsborough","territory":"10","id":"aa1hjvw18syt","state":"FL"},"type":"Feature","geometry":null},{"properties":{"county":"Jackson","territory":"10","id":"aa1hjvga6kou","state":"FL"},"type":"Feature","geometry":null},{"properties":{"county":"Lee","territory":"10","id":"aa1hjvlz1ayx","state":"FL"},"type":"Feature","geometry":null},{"properties":{"county":"Leon","territory":"10","id":"aa1hjvo97bts","state":"FL"},"type":"Feature","geometry":null},{"properties":{"county":"Manatee","territory":"10","id":"aa1hjvkpd3gx","state":"FL"},"type":"Feature","geometry":null},{"properties":{"county":"Marion","territory":"10","id":"aa1hjvoc8ueb","state":"FL"},"type":"Feature","geometry":null},{"properties":{"county":"Miami-dade","territory":"10","id":"aa1hjvrgz3sh","state":"FL"},"type":"Feature","geometry":null},{"properties":{"county":"Okaloosa","territory":"10","id":"aa1hjvlj79nd","state":"FL"},"type":"Feature","geometry":null},{"properties":{"county":"Orange","territory":"10","id":"aa1hjvm8pp5w","state":"FL"},"type":"Feature","geometry":null},{"properties":{"county":"Osceola","territory":"10","id":"aa1hjvtlfc4j","state":"FL"},"type":"Feature","geometry":null},{"properties":{"county":"Palm Beach","territory":"10","id":"aa1hjvjixivw","state":"FL"},"type":"Feature","geometry":null},{"properties":{"county":"Pasco","territory":"10","id":"aa1hjvr2hl50","state":"FL"},"type":"Feature","geometry":null},{"properties":{"county":"Pinellas","territory":"10","id":"aa1hjvsa5kjg","state":"FL"},"type":"Feature","geometry":null},{"properties":{"county":"Polk","territory":"10","id":"aa1hjvmorx1t","state":"FL"},"type":"Feature","geometry":null},{"properties":{"county":"Sarasota","territory":"10","id":"aa1hjvnq52dd","state":"FL"},"type":"Feature","geometry":null},{"properties":{"county":"Volusia","territory":"10","id":"aa1hjvt0cgzb","state":"FL"},"type":"Feature","geometry":null},{"properties":{"county":"Hawaii","territory":"10","id":"aa1hjvqvvfwp","state":"HI"},"type":"Feature","geometry":null},{"properties":{"county":"Honolulu","territory":"10","id":"aa1hjvluq1vy","state":"HI"},"type":"Feature","geometry":null},{"properties":{"county":"Kauai","territory":"10","id":"aa1hjvji10nz","state":"HI"},"type":"Feature","geometry":null},{"properties":{"county":"Maui","territory":"10","id":"aa1hjvqrl74g","state":"HI"},"type":"Feature","geometry":null},{"properties":{"county":"Boone","territory":"10","id":"aa1hjvr2k07t","state":"KY"},"type":"Feature","geometry":null},{"properties":{"county":"Breathitt","territory":"10","id":"aa1hjvuxesmq","state":"KY"},"type":"Feature","geometry":null},{"properties":{"county":"Bullitt","territory":"10","id":"aa1hjvlwqoqg","state":"KY"},"type":"Feature","geometry":null},{"properties":{"county":"Carter","territory":"10","id":"aa1hjvgz6bft","state":"KY"},"type":"Feature","geometry":null},{"properties":{"county":"Daviess","territory":"10","id":"aa1hjvt3mziq","state":"KY"},"type":"Feature","geometry":null},{"properties":{"county":"Fayette","territory":"10","id":"aa1hjvhqtu92","state":"KY"},"type":"Feature","geometry":null},{"properties":{"county":"Grayson","territory":"10","id":"aa1hjvoszt3l","state":"KY"},"type":"Feature","geometry":null},{"properties":{"county":"Jefferson","territory":"10","id":"aa1hjvjjcvkj","state":"KY"},"type":"Feature","geometry":null},{"properties":{"county":"Jessamine","territory":"10","id":"aa1hjvm8cuec","state":"KY"},"type":"Feature","geometry":null},{"properties":{"county":"Lawrence","territory":"10","id":"aa1hjvhrf2qj","state":"KY"},"type":"Feature","geometry":null},{"properties":{"county":"Madison","territory":"10","id":"aa1hjvrsaw1u","state":"KY"},"type":"Feature","geometry":null},{"properties":{"county":"Mccracken","territory":"10","id":"aa1hjvmuowsh","state":"KY"},"type":"Feature","geometry":null},{"properties":{"county":"Pulaski","territory":"10","id":"aa1hjvv04d8k","state":"KY"},"type":"Feature","geometry":null},{"properties":{"county":"Scott","territory":"10","id":"aa1hjvlhy884","state":"KY"},"type":"Feature","geometry":null},{"properties":{"county":"Warren","territory":"10","id":"aa1hjvukdplj","state":"KY"},"type":"Feature","geometry":null},{"properties":{"county":"Barnstable","territory":"10","id":"aa1hjvj2ei3q","state":"MA"},"type":"Feature","geometry":null},{"properties":{"county":"Berkshire","territory":"10","id":"aa1hjvum15b0","state":"MA"},"type":"Feature","geometry":null},{"properties":{"county":"Bristol","territory":"10","id":"aa1hjvuo69gb","state":"MA"},"type":"Feature","geometry":null},{"properties":{"county":"Essex","territory":"10","id":"aa1hjvo1oar2","state":"MA"},"type":"Feature","geometry":null},{"properties":{"county":"Hampden","territory":"10","id":"aa1hjvrbrxr5","state":"MA"},"type":"Feature","geometry":null},{"properties":{"county":"Middlesex","territory":"10","id":"aa1hjvueyfmp","state":"MA"},"type":"Feature","geometry":null},{"properties":{"county":"Norfolk","territory":"10","id":"aa1hjvjirm06","state":"MA"},"type":"Feature","geometry":null},{"properties":{"county":"Plymouth","territory":"10","id":"aa1hjvnkthni","state":"MA"},"type":"Feature","geometry":null},{"properties":{"county":"Suffolk","territory":"10","id":"aa1hjvw4a1dn","state":"MA"},"type":"Feature","geometry":null},{"properties":{"county":"Worcester","territory":"10","id":"aa1hjvrxp4ul","state":"MA"},"type":"Feature","geometry":null},{"properties":{"county":"Anne Arundel","territory":"10","id":"aa1hjvkfkemw","state":"MD"},"type":"Feature","geometry":null},{"properties":{"county":"Baltimore","territory":"10","id":"aa1hjvi1jmdl","state":"MD"},"type":"Feature","geometry":null},{"properties":{"county":"Baltimore City","territory":"10","id":"aa1hjvv73pdb","state":"MD"},"type":"Feature","geometry":null},{"properties":{"county":"Carroll","territory":"10","id":"aa1hjvupxqkl","state":"MD"},"type":"Feature","geometry":null},{"properties":{"county":"Frederick","territory":"10","id":"aa1hjvsxxsgy","state":"MD"},"type":"Feature","geometry":null},{"properties":{"county":"Harford","territory":"10","id":"aa1hjvgt63qy","state":"MD"},"type":"Feature","geometry":null},{"properties":{"county":"Howard","territory":"10","id":"aa1hjvmtt1vn","state":"MD"},"type":"Feature","geometry":null},{"properties":{"county":"Prince Georges","territory":"10","id":"aa1hjvk6j2za","state":"MD"},"type":"Feature","geometry":null},{"properties":{"county":"Washington","territory":"10","id":"aa1hjvqcd4hh","state":"MD"},"type":"Feature","geometry":null},{"properties":{"county":"Wicomico","territory":"10","id":"aa1hjvm1hexe","state":"MD"},"type":"Feature","geometry":null},{"properties":{"county":"Worcester","territory":"10","id":"aa1hjvi7isas","state":"MD"},"type":"Feature","geometry":null},{"properties":{"county":"Cumberland","territory":"10","id":"aa1hjvg6u131","state":"ME"},"type":"Feature","geometry":null},{"properties":{"county":"Kennebec","territory":"10","id":"aa1hjvogsyup","state":"ME"},"type":"Feature","geometry":null},{"properties":{"county":"Penobscot","territory":"10","id":"aa1hjvjtcf60","state":"ME"},"type":"Feature","geometry":null},{"properties":{"county":"Alamance","territory":"10","id":"aa1hjvt644m4","state":"NC"},"type":"Feature","geometry":null},{"properties":{"county":"Cabarrus","territory":"10","id":"aa1hjvlthjiz","state":"NC"},"type":"Feature","geometry":null},{"properties":{"county":"Catawba","territory":"10","id":"aa1hjvjosnld","state":"NC"},"type":"Feature","geometry":null},{"properties":{"county":"Cleveland","territory":"10","id":"aa1hjvkvk0pc","state":"NC"},"type":"Feature","geometry":null},{"properties":{"county":"Davidson","territory":"10","id":"aa1hjvhjo4xz","state":"NC"},"type":"Feature","geometry":null},{"properties":{"county":"Durham","territory":"10","id":"aa1hjvt7dx80","state":"NC"},"type":"Feature","geometry":null},{"properties":{"county":"Edgecombe","territory":"10","id":"aa1hjvsmiflz","state":"NC"},"type":"Feature","geometry":null},{"properties":{"county":"Forsyth","territory":"10","id":"aa1hjvlnln29","state":"NC"},"type":"Feature","geometry":null},{"properties":{"county":"Gaston","territory":"10","id":"aa1hjvh8nzp9","state":"NC"},"type":"Feature","geometry":null},{"properties":{"county":"Guilford","territory":"10","id":"aa1hjvoh6fpo","state":"NC"},"type":"Feature","geometry":null},{"properties":{"county":"Johnston","territory":"10","id":"aa1hjvgwy9ys","state":"NC"},"type":"Feature","geometry":null},{"properties":{"county":"Lee","territory":"10","id":"aa1hjvhv3vty","state":"NC"},"type":"Feature","geometry":null},{"properties":{"county":"Lenoir","territory":"10","id":"aa1hjvu2ea43","state":"NC"},"type":"Feature","geometry":null},{"properties":{"county":"Mecklenburg","territory":"10","id":"aa1hjvfzyusk","state":"NC"},"type":"Feature","geometry":null},{"properties":{"county":"Moore","territory":"10","id":"aa1hjvq9qq27","state":"NC"},"type":"Feature","geometry":null},{"properties":{"county":"Nash","territory":"10","id":"aa1hjvpnj9xw","state":"NC"},"type":"Feature","geometry":null},{"properties":{"county":"Pasquotank","territory":"10","id":"aa1hjvw0gokz","state":"NC"},"type":"Feature","geometry":null},{"properties":{"county":"Perquimans","territory":"10","id":"aa1hjvv3ftbi","state":"NC"},"type":"Feature","geometry":null},{"properties":{"county":"Rowan","territory":"10","id":"aa1hjvp7hyr3","state":"NC"},"type":"Feature","geometry":null},{"properties":{"county":"Vance","territory":"10","id":"aa1hjvqqqrpp","state":"NC"},"type":"Feature","geometry":null},{"properties":{"county":"Wake","territory":"10","id":"aa1hjvlilvaq","state":"NC"},"type":"Feature","geometry":null},{"properties":{"county":"Wayne","territory":"10","id":"aa1hjvt5upe0","state":"NC"},"type":"Feature","geometry":null},{"properties":{"county":"Hillsborough","territory":"10","id":"aa1hjvkd8csu","state":"NH"},"type":"Feature","geometry":null},{"properties":{"county":"Merrimack","territory":"10","id":"aa1hjvu1p2x4","state":"NH"},"type":"Feature","geometry":null},{"properties":{"county":"Rockingham","territory":"10","id":"aa1hjvw7eqll","state":"NH"},"type":"Feature","geometry":null},{"properties":{"county":"Strafford","territory":"10","id":"aa1hjvgy1ac2","state":"NH"},"type":"Feature","geometry":null},{"properties":{"county":"Atlantic","territory":"10","id":"aa1hjvghgt8z","state":"NJ"},"type":"Feature","geometry":null},{"properties":{"county":"Bergen","territory":"10","id":"aa1hjvsh28m1","state":"NJ"},"type":"Feature","geometry":null},{"properties":{"county":"Burlington","territory":"10","id":"aa1hjvlz6dnt","state":"NJ"},"type":"Feature","geometry":null},{"properties":{"county":"Camden","territory":"10","id":"aa1hjvv69z5g","state":"NJ"},"type":"Feature","geometry":null},{"properties":{"county":"Cumberland","territory":"10","id":"aa1hjvjg1kqc","state":"NJ"},"type":"Feature","geometry":null},{"properties":{"county":"Essex","territory":"10","id":"aa1hjvnuzmc0","state":"NJ"},"type":"Feature","geometry":null},{"properties":{"county":"Gloucester","territory":"10","id":"aa1hjvrzeq8i","state":"NJ"},"type":"Feature","geometry":null},{"properties":{"county":"Hudson","territory":"10","id":"aa1hjvw16090","state":"NJ"},"type":"Feature","geometry":null},{"properties":{"county":"Mercer","territory":"10","id":"aa1hjvndd7ti","state":"NJ"},"type":"Feature","geometry":null},{"properties":{"county":"Middlesex","territory":"10","id":"aa1hjvk5falc","state":"NJ"},"type":"Feature","geometry":null},{"properties":{"county":"Monmouth","territory":"10","id":"aa1hjvi20gso","state":"NJ"},"type":"Feature","geometry":null},{"properties":{"county":"Morris","territory":"10","id":"aa1hjvp2cyx6","state":"NJ"},"type":"Feature","geometry":null},{"properties":{"county":"Ocean","territory":"10","id":"aa1hjvqsle4o","state":"NJ"},"type":"Feature","geometry":null},{"properties":{"county":"Passaic","territory":"10","id":"aa1hjviulh34","state":"NJ"},"type":"Feature","geometry":null},{"properties":{"county":"Salem","territory":"10","id":"aa1hjviqey43","state":"NJ"},"type":"Feature","geometry":null},{"properties":{"county":"Union","territory":"10","id":"aa1hjvvtiuim","state":"NJ"},"type":"Feature","geometry":null},{"properties":{"county":"Albany","territory":"10","id":"aa1hjvkjfqk1","state":"NY"},"type":"Feature","geometry":null},{"properties":{"county":"Bronx","territory":"10","id":"aa1hjvn2rv7p","state":"NY"},"type":"Feature","geometry":null},{"properties":{"county":"Broome","territory":"10","id":"aa1hjvq95voy","state":"NY"},"type":"Feature","geometry":null},{"properties":{"county":"Cayuga","territory":"10","id":"aa1hjvs9vmfv","state":"NY"},"type":"Feature","geometry":null},{"properties":{"county":"Chautauqua","territory":"10","id":"aa1hjvlvde4m","state":"NY"},"type":"Feature","geometry":null},{"properties":{"county":"Chemung","territory":"10","id":"aa1hjvq0wa8b","state":"NY"},"type":"Feature","geometry":null},{"properties":{"county":"Clinton","territory":"10","id":"aa1hjvttwyuc","state":"NY"},"type":"Feature","geometry":null},{"properties":{"county":"Columbia","territory":"10","id":"aa1hjvlesjit","state":"NY"},"type":"Feature","geometry":null},{"properties":{"county":"Erie","territory":"10","id":"aa1hjvm7l23e","state":"NY"},"type":"Feature","geometry":null},{"properties":{"county":"Jefferson","territory":"10","id":"aa1hjvvoi6qo","state":"NY"},"type":"Feature","geometry":null},{"properties":{"county":"Kings","territory":"10","id":"aa1hjvtszeaz","state":"NY"},"type":"Feature","geometry":null},{"properties":{"county":"Livingston","territory":"10","id":"aa1hjvjbe7lu","state":"NY"},"type":"Feature","geometry":null},{"properties":{"county":"Monroe","territory":"10","id":"aa1hjvlehotq","state":"NY"},"type":"Feature","geometry":null},{"properties":{"county":"Montgomery","territory":"10","id":"aa1hjvw7cxfx","state":"NY"},"type":"Feature","geometry":null},{"properties":{"county":"Nassau","territory":"10","id":"aa1hjvqg7e6h","state":"NY"},"type":"Feature","geometry":null},{"properties":{"county":"Niagara","territory":"10","id":"aa1hjvki1a5c","state":"NY"},"type":"Feature","geometry":null},{"properties":{"county":"Oneida","territory":"10","id":"aa1hjvvh6dew","state":"NY"},"type":"Feature","geometry":null},{"properties":{"county":"Onondaga","territory":"10","id":"aa1hjvu146c6","state":"NY"},"type":"Feature","geometry":null},{"properties":{"county":"Orange","territory":"10","id":"aa1hjvh35mr2","state":"NY"},"type":"Feature","geometry":null},{"properties":{"county":"Putnam","territory":"10","id":"aa1hjvguh9ty","state":"NY"},"type":"Feature","geometry":null},{"properties":{"county":"Queens","territory":"10","id":"aa1hjvw87oke","state":"NY"},"type":"Feature","geometry":null},{"properties":{"county":"Richmond","territory":"10","id":"aa1hjvv5rk3o","state":"NY"},"type":"Feature","geometry":null},{"properties":{"county":"Rockland","territory":"10","id":"aa1hjvkejl6t","state":"NY"},"type":"Feature","geometry":null},{"properties":{"county":"Saint Lawrence","territory":"10","id":"aa1hjvozu2in","state":"NY"},"type":"Feature","geometry":null},{"properties":{"county":"Saratoga","territory":"10","id":"aa1hjvn77q6r","state":"NY"},"type":"Feature","geometry":null},{"properties":{"county":"Schenectady","territory":"10","id":"aa1hjvh342ba","state":"NY"},"type":"Feature","geometry":null},{"properties":{"county":"Suffolk","territory":"10","id":"aa1hjvknpqyv","state":"NY"},"type":"Feature","geometry":null},{"properties":{"county":"Sullivan","territory":"10","id":"aa1hjvs7l7g8","state":"NY"},"type":"Feature","geometry":null},{"properties":{"county":"Tompkins","territory":"10","id":"aa1hjvrz58sb","state":"NY"},"type":"Feature","geometry":null},{"properties":{"county":"Ulster","territory":"10","id":"aa1hjvkpp9lq","state":"NY"},"type":"Feature","geometry":null},{"properties":{"county":"Warren","territory":"10","id":"aa1hjvu5ebyg","state":"NY"},"type":"Feature","geometry":null},{"properties":{"county":"Washington","territory":"10","id":"aa1hjvw1rpxr","state":"NY"},"type":"Feature","geometry":null},{"properties":{"county":"Westchester","territory":"10","id":"aa1hjvq0wmn6","state":"NY"},"type":"Feature","geometry":null},{"properties":{"county":"Allen","territory":"10","id":"aa1hjvw2ifms","state":"OH"},"type":"Feature","geometry":null},{"properties":{"county":"Belmont","territory":"10","id":"aa1hjvlptnog","state":"OH"},"type":"Feature","geometry":null},{"properties":{"county":"Butler","territory":"10","id":"aa1hjvl2ckia","state":"OH"},"type":"Feature","geometry":null},{"properties":{"county":"Clark","territory":"10","id":"aa1hjvvt469a","state":"OH"},"type":"Feature","geometry":null},{"properties":{"county":"Clinton","territory":"10","id":"aa1hjvl1bzb6","state":"OH"},"type":"Feature","geometry":null},{"properties":{"county":"Columbiana","territory":"10","id":"aa1hjvpn7n39","state":"OH"},"type":"Feature","geometry":null},{"properties":{"county":"Cuyahoga","territory":"10","id":"aa1hjvn7dzzy","state":"OH"},"type":"Feature","geometry":null},{"properties":{"county":"Darke","territory":"10","id":"aa1hjvo1hxey","state":"OH"},"type":"Feature","geometry":null},{"properties":{"county":"Franklin","territory":"10","id":"aa1hjvhpjy0x","state":"OH"},"type":"Feature","geometry":null},{"properties":{"county":"Greene","territory":"10","id":"aa1hjvqo5i44","state":"OH"},"type":"Feature","geometry":null},{"properties":{"county":"Hamilton","territory":"10","id":"aa1hjvjmcrii","state":"OH"},"type":"Feature","geometry":null},{"properties":{"county":"Hancock","territory":"10","id":"aa1hjvogaagv","state":"OH"},"type":"Feature","geometry":null},{"properties":{"county":"Henry","territory":"10","id":"aa1hjvp33phw","state":"OH"},"type":"Feature","geometry":null},{"properties":{"county":"Licking","territory":"10","id":"aa1hjvm6vv22","state":"OH"},"type":"Feature","geometry":null},{"properties":{"county":"Lucas","territory":"10","id":"aa1hjvipok3s","state":"OH"},"type":"Feature","geometry":null},{"properties":{"county":"Mahoning","territory":"10","id":"aa1hjvgcbuh0","state":"OH"},"type":"Feature","geometry":null},{"properties":{"county":"Mercer","territory":"10","id":"aa1hjvojelza","state":"OH"},"type":"Feature","geometry":null},{"properties":{"county":"Montgomery","territory":"10","id":"aa1hjvs88ijo","state":"OH"},"type":"Feature","geometry":null},{"properties":{"county":"Muskingum","territory":"10","id":"aa1hjvr2kam8","state":"OH"},"type":"Feature","geometry":null},{"properties":{"county":"Pike","territory":"10","id":"aa1hjvv3t7c9","state":"OH"},"type":"Feature","geometry":null},{"properties":{"county":"Scioto","territory":"10","id":"aa1hjvr9ujrc","state":"OH"},"type":"Feature","geometry":null},{"properties":{"county":"Seneca","territory":"10","id":"aa1hjvkjvkd8","state":"OH"},"type":"Feature","geometry":null},{"properties":{"county":"Stark","territory":"10","id":"aa1hjvo37kjc","state":"OH"},"type":"Feature","geometry":null},{"properties":{"county":"Summit","territory":"10","id":"aa1hjvv4juhh","state":"OH"},"type":"Feature","geometry":null},{"properties":{"county":"Tuscarawas","territory":"10","id":"aa1hjvhqy2yp","state":"OH"},"type":"Feature","geometry":null},{"properties":{"county":"Wayne","territory":"10","id":"aa1hjvum6p27","state":"OH"},"type":"Feature","geometry":null},{"properties":{"county":"Wood","territory":"10","id":"aa1hjvug8vnu","state":"OH"},"type":"Feature","geometry":null},{"properties":{"county":"Allegheny","territory":"10","id":"aa1hjvjro0ui","state":"PA"},"type":"Feature","geometry":null},{"properties":{"county":"Beaver","territory":"10","id":"aa1hjvir0gh2","state":"PA"},"type":"Feature","geometry":null},{"properties":{"county":"Bedford","territory":"10","id":"aa1hjvuir8up","state":"PA"},"type":"Feature","geometry":null},{"properties":{"county":"Berks","territory":"10","id":"aa1hjvvra0g6","state":"PA"},"type":"Feature","geometry":null},{"properties":{"county":"Blair","territory":"10","id":"aa1hjvnwpeuq","state":"PA"},"type":"Feature","geometry":null},{"properties":{"county":"Bucks","territory":"10","id":"aa1hjvnm7vg7","state":"PA"},"type":"Feature","geometry":null},{"properties":{"county":"Butler","territory":"10","id":"aa1hjvk0xyrv","state":"PA"},"type":"Feature","geometry":null},{"properties":{"county":"Cambria","territory":"10","id":"aa1hjvjalmus","state":"PA"},"type":"Feature","geometry":null},{"properties":{"county":"Centre","territory":"10","id":"aa1hjvk7nyhe","state":"PA"},"type":"Feature","geometry":null},{"properties":{"county":"Chester","territory":"10","id":"aa1hjvo2kf06","state":"PA"},"type":"Feature","geometry":null},{"properties":{"county":"Clearfield","territory":"10","id":"aa1hjvw34swh","state":"PA"},"type":"Feature","geometry":null},{"properties":{"county":"Cumberland","territory":"10","id":"aa1hjvmb276f","state":"PA"},"type":"Feature","geometry":null},{"properties":{"county":"Dauphin","territory":"10","id":"aa1hjvuox2z3","state":"PA"},"type":"Feature","geometry":null},{"properties":{"county":"Delaware","territory":"10","id":"aa1hjvryxpau","state":"PA"},"type":"Feature","geometry":null},{"properties":{"county":"Elk","territory":"10","id":"aa1hjvkp7ijx","state":"PA"},"type":"Feature","geometry":null},{"properties":{"county":"Erie","territory":"10","id":"aa1hjvp9rh23","state":"PA"},"type":"Feature","geometry":null},{"properties":{"county":"Fayette","territory":"10","id":"aa1hjvvqb362","state":"PA"},"type":"Feature","geometry":null},{"properties":{"county":"Franklin","territory":"10","id":"aa1hjvw4kq6g","state":"PA"},"type":"Feature","geometry":null},{"properties":{"county":"Greene","territory":"10","id":"aa1hjvqhvc8b","state":"PA"},"type":"Feature","geometry":null},{"properties":{"county":"Lackawanna","territory":"10","id":"aa1hjvpmq8l1","state":"PA"},"type":"Feature","geometry":null},{"properties":{"county":"Lancaster","territory":"10","id":"aa1hjvrc7ck0","state":"PA"},"type":"Feature","geometry":null},{"properties":{"county":"Lawrence","territory":"10","id":"aa1hjvgng6v7","state":"PA"},"type":"Feature","geometry":null},{"properties":{"county":"Lehigh","territory":"10","id":"aa1hjvrv7hzd","state":"PA"},"type":"Feature","geometry":null},{"properties":{"county":"Luzerne","territory":"10","id":"aa1hjvmgch09","state":"PA"},"type":"Feature","geometry":null},{"properties":{"county":"Mercer","territory":"10","id":"aa1hjvparrfe","state":"PA"},"type":"Feature","geometry":null},{"properties":{"county":"Mifflin","territory":"10","id":"aa1hjvgckpsf","state":"PA"},"type":"Feature","geometry":null},{"properties":{"county":"Monroe","territory":"10","id":"aa1hjvslm51f","state":"PA"},"type":"Feature","geometry":null},{"properties":{"county":"Montgomery","territory":"10","id":"aa1hjvk1qxh0","state":"PA"},"type":"Feature","geometry":null},{"properties":{"county":"Northumberland","territory":"10","id":"aa1hjvr619ke","state":"PA"},"type":"Feature","geometry":null},{"properties":{"county":"Philadelphia","territory":"10","id":"aa1hjvipan43","state":"PA"},"type":"Feature","geometry":null},{"properties":{"county":"Schuylkill","territory":"10","id":"aa1hjvl9z731","state":"PA"},"type":"Feature","geometry":null},{"properties":{"county":"Somerset","territory":"10","id":"aa1hjvhlhx7g","state":"PA"},"type":"Feature","geometry":null},{"properties":{"county":"Tioga","territory":"10","id":"aa1hjvw3eai2","state":"PA"},"type":"Feature","geometry":null},{"properties":{"county":"Union","territory":"10","id":"aa1hjvp8clng","state":"PA"},"type":"Feature","geometry":null},{"properties":{"county":"Westmoreland","territory":"10","id":"aa1hjvtgdy2v","state":"PA"},"type":"Feature","geometry":null},{"properties":{"county":"York","territory":"10","id":"aa1hjvru5tst","state":"PA"},"type":"Feature","geometry":null},{"properties":{"county":"Puerto Rico","territory":"10","id":"aa1hjvo994su","state":"PR"},"type":"Feature","geometry":null},{"properties":{"county":"Newport","territory":"10","id":"aa1hjvlhkbz0","state":"RI"},"type":"Feature","geometry":null},{"properties":{"county":"Providence","territory":"10","id":"aa1hjvrpy22b","state":"RI"},"type":"Feature","geometry":null},{"properties":{"county":"Washington","territory":"10","id":"aa1hjvg21pku","state":"RI"},"type":"Feature","geometry":null},{"properties":{"county":"Darlington","territory":"10","id":"aa1hjvp9u8hp","state":"SC"},"type":"Feature","geometry":null},{"properties":{"county":"Dorchester","territory":"10","id":"aa1hjvjak7sx","state":"SC"},"type":"Feature","geometry":null},{"properties":{"county":"Florence","territory":"10","id":"aa1hjvgl768r","state":"SC"},"type":"Feature","geometry":null},{"properties":{"county":"Greenville","territory":"10","id":"aa1hjvn2ia42","state":"SC"},"type":"Feature","geometry":null},{"properties":{"county":"Laurens","territory":"10","id":"aa1hjvk3jl7w","state":"SC"},"type":"Feature","geometry":null},{"properties":{"county":"Lexington","territory":"10","id":"aa1hjvh4ui9q","state":"SC"},"type":"Feature","geometry":null},{"properties":{"county":"Newberry","territory":"10","id":"aa1hjvoql1qg","state":"SC"},"type":"Feature","geometry":null},{"properties":{"county":"Orangeburg","territory":"10","id":"aa1hjvon7lf6","state":"SC"},"type":"Feature","geometry":null},{"properties":{"county":"Richland","territory":"10","id":"aa1hjvjwcjn4","state":"SC"},"type":"Feature","geometry":null},{"properties":{"county":"Spartanburg","territory":"10","id":"aa1hjvt2s1un","state":"SC"},"type":"Feature","geometry":null},{"properties":{"county":"York","territory":"10","id":"aa1hjvm0yn1m","state":"SC"},"type":"Feature","geometry":null},{"properties":{"county":"Bedford","territory":"10","id":"aa1hjvoe4ucy","state":"TN"},"type":"Feature","geometry":null},{"properties":{"county":"Blount","territory":"10","id":"aa1hjvvuvk17","state":"TN"},"type":"Feature","geometry":null},{"properties":{"county":"Bradley","territory":"10","id":"aa1hjvrldlpo","state":"TN"},"type":"Feature","geometry":null},{"properties":{"county":"Davidson","territory":"10","id":"aa1hjvvs0c08","state":"TN"},"type":"Feature","geometry":null},{"properties":{"county":"Hamblen","territory":"10","id":"aa1hjvvhyxjn","state":"TN"},"type":"Feature","geometry":null},{"properties":{"county":"Hamilton","territory":"10","id":"aa1hjvuitth9","state":"TN"},"type":"Feature","geometry":null},{"properties":{"county":"Knox","territory":"10","id":"aa1hjvnmf6gw","state":"TN"},"type":"Feature","geometry":null},{"properties":{"county":"Loudon","territory":"10","id":"aa1hjvuekozz","state":"TN"},"type":"Feature","geometry":null},{"properties":{"county":"Mcnairy","territory":"10","id":"aa1hjvj3wy6h","state":"TN"},"type":"Feature","geometry":null},{"properties":{"county":"Putnam","territory":"10","id":"aa1hjvps1j0j","state":"TN"},"type":"Feature","geometry":null},{"properties":{"county":"Rutherford","territory":"10","id":"aa1hjvl0om2a","state":"TN"},"type":"Feature","geometry":null},{"properties":{"county":"Shelby","territory":"10","id":"aa1hjvp2v8m8","state":"TN"},"type":"Feature","geometry":null},{"properties":{"county":"Sullivan","territory":"10","id":"aa1hjvimnmei","state":"TN"},"type":"Feature","geometry":null},{"properties":{"county":"Sumner","territory":"10","id":"aa1hjvq5oe3k","state":"TN"},"type":"Feature","geometry":null},{"properties":{"county":"Washington","territory":"10","id":"aa1hjvs63zs1","state":"TN"},"type":"Feature","geometry":null},{"properties":{"county":"Wilson","territory":"10","id":"aa1hjvtdl1is","state":"TN"},"type":"Feature","geometry":null},{"properties":{"county":"Alexandria City","territory":"10","id":"aa1hjvo38n9q","state":"VA"},"type":"Feature","geometry":null},{"properties":{"county":"Cabell","territory":"10","id":"aa1hjvg63rj4","state":"VA"},"type":"Feature","geometry":null},{"properties":{"county":"Danville City","territory":"10","id":"aa1hjvkoyv42","state":"VA"},"type":"Feature","geometry":null},{"properties":{"county":"Frederick","territory":"10","id":"aa1hjvq43dfv","state":"VA"},"type":"Feature","geometry":null},{"properties":{"county":"Hancock","territory":"10","id":"aa1hjvpf9i3u","state":"VA"},"type":"Feature","geometry":null},{"properties":{"county":"Hanover","territory":"10","id":"aa1hjvtkcgrk","state":"VA"},"type":"Feature","geometry":null},{"properties":{"county":"Harrison","territory":"10","id":"aa1hjvnd742q","state":"VA"},"type":"Feature","geometry":null},{"properties":{"county":"Harrisonburg City","territory":"10","id":"aa1hjvlxk98a","state":"VA"},"type":"Feature","geometry":null},{"properties":{"county":"Henrico","territory":"10","id":"aa1hjvsef8so","state":"VA"},"type":"Feature","geometry":null},{"properties":{"county":"Jackson","territory":"10","id":"aa1hjvsm5rol","state":"VA"},"type":"Feature","geometry":null},{"properties":{"county":"Lynchburg City","territory":"10","id":"aa1hjvk7zb2z","state":"VA"},"type":"Feature","geometry":null},{"properties":{"county":"Mercer","territory":"10","id":"aa1hjvo4oz8j","state":"VA"},"type":"Feature","geometry":null},{"properties":{"county":"Mineral","territory":"10","id":"aa1hjvg1qu61","state":"VA"},"type":"Feature","geometry":null},{"properties":{"county":"Newport News City","territory":"10","id":"aa1hjvtwshlk","state":"VA"},"type":"Feature","geometry":null},{"properties":{"county":"Norfolk City","territory":"10","id":"aa1hjvrs4oba","state":"VA"},"type":"Feature","geometry":null},{"properties":{"county":"Portsmouth City","territory":"10","id":"aa1hjvhrmqo7","state":"VA"},"type":"Feature","geometry":null},{"properties":{"county":"Prince George","territory":"10","id":"aa1hjvhrcczf","state":"VA"},"type":"Feature","geometry":null},{"properties":{"county":"Prince William","territory":"10","id":"aa1hjvou49ek","state":"VA"},"type":"Feature","geometry":null},{"properties":{"county":"Pulaski","territory":"10","id":"aa1hjvtcpe2u","state":"VA"},"type":"Feature","geometry":null},{"properties":{"county":"Putnam","territory":"10","id":"aa1hjvjq5ylg","state":"VA"},"type":"Feature","geometry":null},{"properties":{"county":"Richmond City","territory":"10","id":"aa1hjvsd2au2","state":"VA"},"type":"Feature","geometry":null},{"properties":{"county":"Roanoke City","territory":"10","id":"aa1hjvv8j4dt","state":"VA"},"type":"Feature","geometry":null},{"properties":{"county":"Salem","territory":"10","id":"aa1hjvq0ihob","state":"VA"},"type":"Feature","geometry":null},{"properties":{"county":"Stafford","territory":"10","id":"aa1hjvth5flg","state":"VA"},"type":"Feature","geometry":null},{"properties":{"county":"Staunton City","territory":"10","id":"aa1hjvscmr3r","state":"VA"},"type":"Feature","geometry":null},{"properties":{"county":"Suffolk City","territory":"10","id":"aa1hjvv8whyn","state":"VA"},"type":"Feature","geometry":null},{"properties":{"county":"Upshur","territory":"10","id":"aa1hjvhr8c8g","state":"VA"},"type":"Feature","geometry":null},{"properties":{"county":"Virginia Beach City","territory":"10","id":"aa1hjvnhncph","state":"VA"},"type":"Feature","geometry":null},{"properties":{"county":"Washington","territory":"10","id":"aa1hjvv4pbad","state":"VA"},"type":"Feature","geometry":null},{"properties":{"county":"Waynesboro City","territory":"10","id":"aa1hjvltje6o","state":"VA"},"type":"Feature","geometry":null},{"properties":{"county":"Chittenden","territory":"10","id":"aa1hjvp96g2w","state":"VT"},"type":"Feature","geometry":null},{"properties":{"county":"Rutland","territory":"10","id":"aa1hjvpq0u9r","state":"VT"},"type":"Feature","geometry":null},{"properties":{"county":"Washington","territory":"10","id":"aa1hjvhihxxy","state":"VT"},"type":"Feature","geometry":null},{"properties":{"county":"Windsor","territory":"10","id":"aa1hjvjphj2x","state":"VT"},"type":"Feature","geometry":null}],"is_temporal":false,"author":{"url":"","metadata":null,"contact_name":null,"contact_address":null,"source":null,"contact_phone":null},"source":"","pagination":{"sort":null,"start":0,"total":619,"limit":1000000},"state":"parsed","tags":"","published":"2014-08-14T21:12:31-04:00","id":294581}