{"type":"FeatureCollection","data_type":"Dataset Analysis","url_type":null,"permissions":[{"permissions":{"download":true,"view":true},"group_id":"everyone"}],"classification":null,"title":"Filtered Features of 'Filtered Features of 'Fusiontables folder' based on 'Fusiontables folder'' based on 'Fusiontables folder'","count":26,"stream_id":296730,"contributor":{"url":"http://geocommons.com/users/56258","name":"rflak"},"data_attributes":null,"calculation_params":{"calculation":"buffer_intersect","input":{"min_distance":"75","unit":"miles","near_id":"296723","distance":"100","id":"296728"}},"icon_link":null,"link":"http://geocommons.com/overlays/296730.json","extent":[-113.429,33.5844,-68.7961,48.7436],"geometry_types":["point","line"],"unique_name":null,"name":"Filtered Features of 'Filtered Features of 'Fusiontables folder' based on 'Fusiontables folder'' based on 'Fusiontables folder'","feature_count":26,"description":"Dataset created by filtering features of 'Filtered Features of 'Fusiontables folder' based on 'Fusiontables folder'' that are within a buffer of 75 to 100 miles around the features in 'Fusiontables folder'","next_feature":null,"is_raster":false,"short_classification":"Y","stats":{},"features":[{"properties":{"City":"Garden City","name":"Waters Edge Resort","Zip":"29576","State":"SC","Title":"Waters Edge Resort","description":"\n<b>Title:</b> Waters Edge Resort<b>Complete Address:</b> 1012 North Waccamaw Drive Garden City SC 29576\n","id":"aa32ablprtxq","Address":"1012 North Waccamaw Drive"},"type":"Feature","geometry":{"type":"GeometryCollection","geometries":[{"type":"Point","coordinates":[-78.992083,33.584431]},{"type":"LineString","coordinates":[[-78.992083,33.584431],[-78.992083,33.584431],[-78.992083,33.584431],[-78.992083,33.584431],[-78.992083,33.584431]]}]}},{"properties":{"City":"Garden City Beach","name":"Waters Edge","Zip":"29576","State":"SC","Title":"Waters Edge","description":"\n<b>Title:</b> Waters Edge<b>Complete Address:</b> 1012 North Waccamaw Drive Garden City Beach SC 29576\n","id":"aa32ab2tmt6a","Address":"1012 North Waccamaw Drive"},"type":"Feature","geometry":{"type":"GeometryCollection","geometries":[{"type":"Point","coordinates":[-78.992083,33.584431]},{"type":"LineString","coordinates":[[-78.992083,33.584431],[-78.992083,33.584431],[-78.992083,33.584431],[-78.992083,33.584431],[-78.992083,33.584431]]}]}},{"properties":{"City":"Surfside Beach","name":"Kentucky Fried Chicken - PARIS and POTTER MANAGEMENT CORPORA","Zip":"29575","State":"SC","Title":"Kentucky Fried Chicken - PARIS and POTTER MANAGEMENT CORPORA","description":"\n<b>Title:</b> Kentucky Fried Chicken - PARIS and POTTER MANAGEMENT CORPORA<b>Complete Address:</b> 504 U.S. 17 Business Surfside Beach SC 29575\n","id":"aa32acrs2vwt","Address":"504 U.S. 17 Business"},"type":"Feature","geometry":{"type":"GeometryCollection","geometries":[{"type":"Point","coordinates":[-78.983526,33.610366]},{"type":"LineString","coordinates":[[-78.983526,33.610366],[-78.983526,33.610366],[-78.983526,33.610366],[-78.983526,33.610366],[-78.983526,33.610366]]}]}},{"properties":{"City":"Silverthorne","name":"McDonalds - Nelson - Silverthorne CO","Zip":"80498","State":"CO","Title":"McDonalds - Nelson - Silverthorne CO","description":"\n<b>Title:</b> McDonalds - Nelson - Silverthorne CO<b>Complete Address:</b> 220 Summit Place Silverthorne CO 80498\n","id":"aa32ab37hoax","Address":"220 Summit Place"},"type":"Feature","geometry":{"type":"GeometryCollection","geometries":[{"type":"Point","coordinates":[-106.063548,39.627803]},{"type":"LineString","coordinates":[[-106.063548,39.627803],[-106.063548,39.627803],[-106.063548,39.627803],[-106.063548,39.627803],[-106.063548,39.627803]]}]}},{"properties":{"City":"Vail","name":"McDonalds - PNJJ NBR3 - Vail CO","Zip":"81657","State":"CO","Title":"McDonalds - PNJJ NBR3 - Vail CO","description":"\n<b>Title:</b> McDonalds - PNJJ NBR3 - Vail CO<b>Complete Address:</b> 2171 North Frontage Road Vail CO 81657\n","id":"aa32abtwgbxx","Address":"2171 North Frontage Road"},"type":"Feature","geometry":{"type":"GeometryCollection","geometries":[{"type":"Point","coordinates":[-106.418942,39.629752]},{"type":"LineString","coordinates":[[-106.418942,39.629752],[-106.418942,39.629752],[-106.418942,39.629752],[-106.418942,39.629752],[-106.418942,39.629752]]}]}},{"properties":{"City":"Vail","name":"McDonalds - Nelson, Paul - Vail CO","Zip":"81657","State":"CO","Title":"McDonalds - Nelson, Paul - Vail CO","description":"\n<b>Title:</b> McDonalds - Nelson, Paul - Vail CO<b>Complete Address:</b> 2171 North Frontage Road Vail CO 81657\n","id":"aa32aayt8po2","Address":"2171 North Frontage Road"},"type":"Feature","geometry":{"type":"GeometryCollection","geometries":[{"type":"Point","coordinates":[-106.418942,39.629752]},{"type":"LineString","coordinates":[[-106.418942,39.629752],[-106.418942,39.629752],[-106.418942,39.629752],[-106.418942,39.629752],[-106.418942,39.629752]]}]}},{"properties":{"City":"Vail","name":"Hotel Gasthof Gramshammer - Pepis Wedel Week Inc.","Zip":"81657","State":"CO","Title":"Hotel Gasthof Gramshammer - Pepis Wedel Week Inc.","description":"\n<b>Title:</b> Hotel Gasthof Gramshammer - Pepis Wedel Week Inc.<b>Complete Address:</b> 231 East Gore Creek Drive Vail CO 81657\n","id":"aa32achh67da","Address":"231 East Gore Creek Drive"},"type":"Feature","geometry":{"type":"GeometryCollection","geometries":[{"type":"Point","coordinates":[-106.373903,39.641029]},{"type":"LineString","coordinates":[[-106.373903,39.641029],[-106.373903,39.641029],[-106.373903,39.641029],[-106.373903,39.641029],[-106.373903,39.641029]]}]}},{"properties":{"City":"Vail","name":"Vail Marriott Mountain Resort and Spa","Zip":"81657","State":"CO","Title":"Vail Marriott Mountain Resort and Spa","description":"\n<b>Title:</b> Vail Marriott Mountain Resort and Spa<b>Complete Address:</b> 715 W. Lionshead Circle Vail CO 81657\n","id":"aa32ac4lh05l","Address":"715 W. Lionshead Circle"},"type":"Feature","geometry":{"type":"GeometryCollection","geometries":[{"type":"Point","coordinates":[-106.391559,39.642743]},{"type":"LineString","coordinates":[[-106.391559,39.642743],[-106.391559,39.642743],[-106.391559,39.642743],[-106.391559,39.642743],[-106.391559,39.642743]]}]}},{"properties":{"City":"Vail","name":"Vail Marriott Mountain Resort - TRS Bloodstone, Inc","Zip":"81657","State":"CO","Title":"Vail Marriott Mountain Resort - TRS Bloodstone, Inc","description":"\n<b>Title:</b> Vail Marriott Mountain Resort - TRS Bloodstone, Inc<b>Complete Address:</b> 715 W. Lionshead Circle Vail CO 81657\n","id":"aa32ac9s2way","Address":"715 W. Lionshead Circle"},"type":"Feature","geometry":{"type":"GeometryCollection","geometries":[{"type":"Point","coordinates":[-106.391559,39.642743]},{"type":"LineString","coordinates":[[-106.391559,39.642743],[-106.391559,39.642743],[-106.391559,39.642743],[-106.391559,39.642743],[-106.391559,39.642743]]}]}},{"properties":{"City":"Oak Bluffs","name":"Phillips Hardware","Zip":"02557","State":"MA","Title":"Phillips Hardware","description":"\n<b>Title:</b> Phillips Hardware<b>Complete Address:</b> 30 Circuit Ave Oak Bluffs MA 02557\n","id":"aa32ad1jjto2","Address":"30 Circuit Ave"},"type":"Feature","geometry":{"type":"GeometryCollection","geometries":[{"type":"Point","coordinates":[-70.557992,41.459574]},{"type":"LineString","coordinates":[[-70.557992,41.459574],[-70.557992,41.459574],[-70.557992,41.459574],[-70.557992,41.459574],[-70.557992,41.459574]]}]}},{"properties":{"City":"Falmouth","name":"McDonalds - McBee Enterprises - Falmouth","Zip":"02536","State":"MA","Title":"McDonalds - McBee Enterprises - Falmouth","description":"\n<b>Title:</b> McDonalds - McBee Enterprises - Falmouth<b>Complete Address:</b> 263 Teaticket Highway Route 28 Falmouth MA 02536\n","id":"aa32abcyvobt","Address":"263 Teaticket Highway Route 28"},"type":"Feature","geometry":{"type":"GeometryCollection","geometries":[{"type":"Point","coordinates":[-70.564091,41.578826]},{"type":"LineString","coordinates":[[-70.564091,41.578826],[-70.564091,41.578826],[-70.564091,41.578826],[-70.564091,41.578826],[-70.564091,41.578826]]}]}},{"properties":{"City":"South Yarmouth","name":"Great Island Bakery","Zip":"02664","State":"MA","Title":"Great Island Bakery","description":"\n<b>Title:</b> Great Island Bakery<b>Complete Address:</b> 46 South Street South Yarmouth MA 02664\n","id":"aa32accrv4d3","Address":"46 South Street"},"type":"Feature","geometry":{"type":"GeometryCollection","geometries":[{"type":"Point","coordinates":[-70.201048,41.655797]},{"type":"LineString","coordinates":[[-70.201048,41.655797],[-70.201048,41.655797],[-70.201048,41.655797],[-70.201048,41.655797],[-70.201048,41.655797]]}]}},{"properties":{"City":"South Yarmouth","name":"McDonalds - McBee Enterprises - South Yarmouth MA","Zip":"02664","State":"MA","Title":"McDonalds - McBee Enterprises - South Yarmouth MA","description":"\n<b>Title:</b> McDonalds - McBee Enterprises - South Yarmouth MA<b>Complete Address:</b> 1060 Route 28 South Yarmouth MA 02664\n","id":"aa32aba162uc","Address":"1060 Route 28"},"type":"Feature","geometry":{"type":"GeometryCollection","geometries":[{"type":"Point","coordinates":[-70.203374,41.660305]},{"type":"LineString","coordinates":[[-70.203374,41.660305],[-70.203374,41.660305],[-70.203374,41.660305],[-70.203374,41.660305],[-70.203374,41.660305]]}]}},{"properties":{"City":"Hyannis","name":"Wendys - Fashion Foods LLC.","Zip":"02601","State":"MA","Title":"Wendys - Fashion Foods LLC.","description":"\n<b>Title:</b> Wendys - Fashion Foods LLC.<b>Complete Address:</b> 554 Iyannough Road Hyannis MA 02601\n","id":"aa32abb9lsqc","Address":"554 Iyannough Road"},"type":"Feature","geometry":{"type":"GeometryCollection","geometries":[{"type":"Point","coordinates":[-70.288778,41.665803]},{"type":"LineString","coordinates":[[-70.288778,41.665803],[-70.288778,41.665803],[-70.288778,41.665803],[-70.288778,41.665803],[-70.288778,41.665803]]}]}},{"properties":{"City":"Hyannis","name":"Wendys - Fashion Foods LLC.","Zip":"02601","State":"MA","Title":"Wendys - Fashion Foods LLC.","description":"\n<b>Title:</b> Wendys - Fashion Foods LLC.<b>Complete Address:</b> 554 Iyannough Road  Hyannis MA 02601\n","id":"aa32acgro2j9","Address":"554 Iyannough Road"},"type":"Feature","geometry":{"type":"GeometryCollection","geometries":[{"type":"Point","coordinates":[-70.288778,41.665803]},{"type":"LineString","coordinates":[[-70.288778,41.665803],[-70.288778,41.665803],[-70.288778,41.665803],[-70.288778,41.665803],[-70.288778,41.665803]]}]}},{"properties":{"City":"Hyannis","name":"Catania Hospitality Group, Inc., ETAL dba Cape Codder Resort","Zip":"02601","State":"MA","Title":"Catania Hospitality Group, Inc., ETAL dba Cape Codder Resort","description":"\n<b>Title:</b> Catania Hospitality Group, Inc., ETAL dba Cape Codder Resort<b>Complete Address:</b> 1225 Iyanough Rd Route 132 and Bearses Way Hyannis MA 02601\n","id":"aa32ac1qaoh4","Address":"1225 Iyanough Rd Route 132 and Bearses Way"},"type":"Feature","geometry":{"type":"GeometryCollection","geometries":[{"type":"Point","coordinates":[-70.309431,41.674976]},{"type":"LineString","coordinates":[[-70.309431,41.674976],[-70.309431,41.674976],[-70.309431,41.674976],[-70.309431,41.674976],[-70.309431,41.674976]]}]}},{"properties":{"City":"Bourne","name":"Dunkin Donuts - Cape Cod Enterprise LLC","Zip":"02532","State":"MA","Title":"Dunkin Donuts - Cape Cod Enterprise LLC","description":"\n<b>Title:</b> Dunkin Donuts - Cape Cod Enterprise LLC<b>Complete Address:</b> 174 Clay Pond Road Bourne MA 02532\n","id":"aa32abo4t7uv","Address":"174 Clay Pond Road"},"type":"Feature","geometry":{"type":"GeometryCollection","geometries":[{"type":"Point","coordinates":[-70.585199,41.717024]},{"type":"LineString","coordinates":[[-70.585199,41.717024],[-70.585199,41.717024],[-70.585199,41.717024],[-70.585199,41.717024],[-70.585199,41.717024]]}]}},{"properties":{"City":"South Wellfleet","name":"PB Boulangerie Bistro - Saveur De Pain, Inc.","Zip":"02663","State":"MA","Title":"PB Boulangerie Bistro - Saveur De Pain, Inc.","description":"\n<b>Title:</b> PB Boulangerie Bistro - Saveur De Pain, Inc.<b>Complete Address:</b> 15 Lecount Hollow Road South Wellfleet MA 02663\n","id":"aa32abgenb2q","Address":"15 Lecount Hollow Road"},"type":"Feature","geometry":{"type":"GeometryCollection","geometries":[{"type":"Point","coordinates":[-69.989848,41.916478]},{"type":"LineString","coordinates":[[-69.989848,41.916478],[-69.989848,41.916478],[-69.989848,41.916478],[-69.989848,41.916478],[-69.989848,41.916478]]}]}},{"properties":{"City":"Kingston","name":"McDonalds - McBee Enterprises - Kingston","Zip":"02364","State":"MA","Title":"McDonalds - McBee Enterprises - Kingston","description":"\n<b>Title:</b> McDonalds - McBee Enterprises - Kingston<b>Complete Address:</b> 178 Summer Street Kingston MA 02364\n","id":"aa32abboihg2","Address":"178 Summer Street"},"type":"Feature","geometry":{"type":"GeometryCollection","geometries":[{"type":"Point","coordinates":[-70.732622,42.011118]},{"type":"LineString","coordinates":[[-70.732622,42.011118],[-70.732622,42.011118],[-70.732622,42.011118],[-70.732622,42.011118],[-70.732622,42.011118]]}]}},{"properties":{"City":"Camden","name":"Atlantica - Cuisine de Couer","Zip":"04843","State":"ME","Title":"Atlantica - Cuisine de Couer","description":"\n<b>Title:</b> Atlantica - Cuisine de Couer<b>Complete Address:</b> 9 Bay View Landing Camden ME 04843\n","id":"aa32aczp1qb9","Address":"9 Bay View Landing"},"type":"Feature","geometry":{"type":"GeometryCollection","geometries":[{"type":"Point","coordinates":[-69.06488,44.209774]},{"type":"LineString","coordinates":[[-69.06488,44.209774],[-69.06488,44.209774],[-69.06488,44.209774],[-69.06488,44.209774],[-69.06488,44.209774]]}]}},{"properties":{"City":"Camden","name":"Hawthorn Inn Camden - Shanahan Enterprises LLC","Zip":"04843","State":"ME","Title":"Hawthorn Inn Camden - Shanahan Enterprises LLC","description":"\n<b>Title:</b> Hawthorn Inn Camden - Shanahan Enterprises LLC<b>Complete Address:</b> 9 High Street Camden ME 04843\n","id":"aa32ad26b373","Address":"9 High Street"},"type":"Feature","geometry":{"type":"GeometryCollection","geometries":[{"type":"Point","coordinates":[-69.063645,44.212791]},{"type":"LineString","coordinates":[[-69.063645,44.212791],[-69.063645,44.212791],[-69.063645,44.212791],[-69.063645,44.212791],[-69.063645,44.212791]]}]}},{"properties":{"City":"Camden","name":"The Lodge at Camden Hills - Sea Star, Inc.","Zip":"04843","State":"ME","Title":"The Lodge at Camden Hills - Sea Star, Inc.","description":"\n<b>Title:</b> The Lodge at Camden Hills - Sea Star, Inc.<b>Complete Address:</b> 186 Belfast Road Camden ME 04843\n","id":"aa32ac017drj","Address":"186 Belfast Road"},"type":"Feature","geometry":{"type":"GeometryCollection","geometries":[{"type":"Point","coordinates":[-69.051327,44.22426]},{"type":"LineString","coordinates":[[-69.051327,44.22426],[-69.051327,44.22426],[-69.051327,44.22426],[-69.051327,44.22426],[-69.051327,44.22426]]}]}},{"properties":{"City":"Castine","name":"Etchemin Properties LTD dba Dennetts Wharf Restaurant","Zip":"04421","State":"ME","Title":"Etchemin Properties LTD dba Dennetts Wharf Restaurant","description":"\n<b>Title:</b> Etchemin Properties LTD dba Dennetts Wharf Restaurant<b>Complete Address:</b> 15 Sea St. Castine ME 04421\n","id":"aa32ad0afvzk","Address":"15 Sea St."},"type":"Feature","geometry":{"type":"GeometryCollection","geometries":[{"type":"Point","coordinates":[-68.796062,44.387877]},{"type":"LineString","coordinates":[[-68.796062,44.387877],[-68.796062,44.387877],[-68.796062,44.387877],[-68.796062,44.387877],[-68.796062,44.387877]]}]}},{"properties":{"City":"Emigrant","name":"Paradise Gateway Bed and Breakfast","Zip":"59027","State":"MT","Title":"Paradise Gateway Bed and Breakfast","description":"\n<b>Title:</b> Paradise Gateway Bed and Breakfast<b>Complete Address:</b> 2644 Hwy 89 South Emigrant MT 59027\n","id":"aa32achblpvv","Address":"2644 Hwy 89 South"},"type":"Feature","geometry":{"type":"GeometryCollection","geometries":[{"type":"Point","coordinates":[-110.797954,45.318828]},{"type":"LineString","coordinates":[[-110.797954,45.318828],[-110.797954,45.318828],[-110.797954,45.318828],[-110.797954,45.318828],[-110.797954,45.318828]]}]}},{"properties":{"City":"Livingston","name":"Livingston Paradise Valley KOA - Kampgrounds of America","Zip":"59047","State":"MT","Title":"Livingston Paradise Valley KOA - Kampgrounds of America","description":"\n<b>Title:</b> Livingston Paradise Valley KOA - Kampgrounds of America<b>Complete Address:</b> 163 Pine Creek Road Livingston MT 59047\n","id":"aa32acij449o","Address":"163 Pine Creek Road"},"type":"Feature","geometry":{"type":"GeometryCollection","geometries":[{"type":"Point","coordinates":[-110.57974,45.512642]},{"type":"LineString","coordinates":[[-110.57974,45.512642],[-110.57974,45.512642],[-110.57974,45.512642],[-110.57974,45.512642],[-110.57974,45.512642]]}]}},{"properties":{"City":"St. Mary","name":"Glacier Park Inc.","Zip":"59417","State":"MT","Title":"Glacier Park Inc.","description":"\n<b>Title:</b> Glacier Park Inc.<b>Complete Address:</b> Junction Highway 89 and going to the Sun Road St. Mary MT 59417\n","id":"aa32acqawbtg","Address":"Junction Highway 89 and going to the Sun Road"},"type":"Feature","geometry":{"type":"GeometryCollection","geometries":[{"type":"Point","coordinates":[-113.429033,48.743584]},{"type":"LineString","coordinates":[[-113.429033,48.743584],[-113.429033,48.743584],[-113.429033,48.743584],[-113.429033,48.743584],[-113.429033,48.743584]]}]}}],"is_temporal":false,"author":{"url":null,"metadata":null,"contact_name":null,"contact_address":null,"source":null,"contact_phone":null},"source":null,"pagination":{"sort":null,"start":0,"total":26,"limit":1000000},"state":"complete","tags":"","published":"2014-08-14T23:38:05-04:00","id":296730}