{"type":"FeatureCollection","data_type":"Dataset","url_type":null,"permissions":[{"permissions":{"download":true,"view":true},"group_id":"everyone"}],"classification":null,"title":"Laramar_Properties","count":2,"stream_id":297745,"contributor":{"url":"http://geocommons.com/users/56179","name":"brian5635"},"data_attributes":null,"calculation_params":null,"icon_link":null,"link":"http://geocommons.com/overlays/297745.json","extent":[-122.433,37.783,-121.833,38.0022],"geometry_types":["point"],"unique_name":null,"name":"Laramar_Properties","feature_count":2,"description":"","next_feature":null,"is_raster":false,"short_classification":"Y","stats":{"optimal rev spaces":{"max":10,"variance":2.0,"mean":9.0,"stdev":1.4142135623731,"min":8,"median":10},"total score":{"max":0,"variance":0.0,"mean":0.0,"stdev":0.0,"min":0,"median":0},"units":{"max":1114,"variance":347778.0,"mean":697.0,"stdev":589.727055509581,"min":280,"median":1114}},"features":[{"properties":{"city":"San Francisco","property owner":"Laramar","zip":"94115","optimal rev spaces":10,"electric service territory":"Pacific Gas &amp; Electric Co","portfolio":null,"build cost":null,"parking spaces":null,"county":"San Francisco County","units":1114,"proximity to dealers":null,"total score":0,"geo_score":1.0,"rent":null,"id":"aa788ggi1rse","community":"Fillmore Center","address":"1475 Fillmore Street","proximity to other rev installs":null,"geo_precision":"range","state":"CA"},"type":"Feature","geometry":{"type":"Point","coordinates":[-122.432739,37.783025]}},{"properties":{"city":"Antioch","property owner":"Laramar","zip":"94509","optimal rev spaces":8,"electric service territory":"Pacific Gas &amp; Electric Co","portfolio":null,"build cost":null,"parking spaces":null,"county":"Contra Costa County","units":280,"proximity to dealers":null,"total score":0,"geo_score":1.0,"rent":null,"id":"aa788giawle6","community":"Mira Vista Hills","address":"2201 San Jose Drive","proximity to other rev installs":null,"geo_precision":"range","state":"CA"},"type":"Feature","geometry":{"type":"Point","coordinates":[-121.833165,38.002223]}}],"is_temporal":false,"author":{"url":"","metadata":null,"contact_name":null,"contact_address":null,"source":null,"contact_phone":null},"source":"","pagination":{"sort":null,"start":0,"total":2,"limit":1000000},"state":"complete","tags":"","published":"2014-08-15T00:42:42-04:00","id":297745}