{"type":"FeatureCollection","data_type":"Dataset","url_type":null,"permissions":[{"permissions":{"download":true,"view":true},"group_id":"everyone"}],"classification":null,"title":"NOAA_SPC_Storm_Report_040312_2","count":58,"stream_id":297969,"contributor":{"url":"http://geocommons.com/users/37170","name":"lfuentes"},"data_attributes":null,"calculation_params":null,"icon_link":null,"link":"http://geocommons.com/overlays/297969.json","extent":[9491.0,3113.0,9967.0,3373.0],"geometry_types":["point"],"unique_name":null,"name":"NOAA_SPC_Storm_Report_040312_2","feature_count":58,"description":"","next_feature":null,"is_raster":false,"short_classification":"Y","stats":{"lon":{"max":9967.0,"mean":9684.05172413793,"variance":10687.9095583787,"stdev":103.382346454212,"median":9688.0,"min":9491.0},"time":{"max":"2145/01/01 00:00:00 -0500","mean":"1913/12/07 07:01:10 -0500","variance":5.99798590237034e+19,"stdev":7744666488.86208,"median":"2007/01/01 00:00:00 -0500","min":"1249/12/31 23:59:56 -0456"},"lat":{"max":3373.0,"mean":3277.74137931034,"variance":2670.93194192378,"stdev":51.6810597987674,"median":3291.0,"min":3113.0}},"features":[{"properties":{"city":"KILLEEN","lon":9773.0,"remarks":"(FWD)","time":{"end_time":"2026/01/01 00:00:00 -0500","original":"2025","granularity":"year","time":"2025/01/01 00:00:00 -0500"},"county":"BELL","ef-scale":"100","id":"aa7od5mc4nvd","lat":3113.0,"state":"TX"},"type":"Feature","geometry":{"type":"Point","coordinates":[9773.0,3113.0]}},{"properties":{"city":"6 S HENRIETTA","lon":9819.0,"remarks":"SEMI BLOWN OVER ON HWY 287 NR ROADSIDE PARK (OUN)","time":{"end_time":"1519/01/01 00:00:00 -0456","original":"1518","granularity":"year","time":"1518/01/01 00:00:00 -0456"},"county":"CLAY","ef-scale":"UNK","id":"aa7od5rxr9ir","lat":3373.0,"state":"TX"},"type":"Feature","geometry":{"type":"Point","coordinates":[9819.0,3373.0]}},{"properties":{"city":"GRAND PRAIRIE","lon":9698.0,"remarks":"110TH STREET IN GRAND PRAIRIE. FUNNEL NOTED 100 YDS FROM LOCATION. EVIDENCE OF SOME ROOF DAMAGE IN THE AREA. (FWD)","time":{"end_time":"1857/01/01 00:00:00 -0456","original":"1856","granularity":"year","time":"1856/01/01 00:00:00 -0456"},"county":"DALLAS","ef-scale":"UNK","id":"aa7od5xgbudd","lat":3275.0,"state":"TX"},"type":"Feature","geometry":{"type":"Point","coordinates":[9698.0,3275.0]}},{"properties":{"city":"GRAND PRAIRIE","lon":9698.0,"remarks":"AVE J AND HWY 360 IN GRAND PRAIRIE. VERY LARGE BRANCHES BROKEN","time":{"end_time":"2033/01/01 00:00:00 -0500","original":"2032","granularity":"year","time":"2032/01/01 00:00:00 -0500"},"county":"DALLAS","ef-scale":"UNK","id":"aa7od5tlbe6q","lat":3275.0,"state":"TX"},"type":"Feature","geometry":{"type":"Point","coordinates":[9698.0,3275.0]}},{"properties":{"city":"DALLAS","lon":9678.0,"remarks":"VERY LARGE HAIL TO HEN EGG SIZE NOTED AT I635 AND BELTLINE RD. (FWD)","time":{"end_time":"1922/01/01 00:00:00 -0500","original":"1921","granularity":"year","time":"1921/01/01 00:00:00 -0500"},"county":"DALLAS","ef-scale":"200","id":"aa7od5u77tfo","lat":3277.0,"state":"TX"},"type":"Feature","geometry":{"type":"Point","coordinates":[9678.0,3277.0]}},{"properties":{"city":"COPPELL","lon":9702.0,"remarks":"NEAR DUNCAN DRIVE (FWD)","time":{"end_time":"1922/01/01 00:00:00 -0500","original":"1921","granularity":"year","time":"1921/01/01 00:00:00 -0500"},"county":"DALLAS","ef-scale":"275","id":"aa7od5tsysb8","lat":3295.0,"state":"TX"},"type":"Feature","geometry":{"type":"Point","coordinates":[9702.0,3295.0]}},{"properties":{"city":"GARLAND","lon":9663.0,"remarks":"WILLIAM STADIUM AREA (FWD)","time":{"end_time":"1924/01/01 00:00:00 -0500","original":"1923","granularity":"year","time":"1923/01/01 00:00:00 -0500"},"county":"DALLAS","ef-scale":"175","id":"aa7od5x1vk92","lat":3292.0,"state":"TX"},"type":"Feature","geometry":{"type":"Point","coordinates":[9663.0,3292.0]}},{"properties":{"city":"3 N IRVING","lon":9692.0,"remarks":"UP TO BASEBALL SIZED HAIL IS FALLING IN NORTH IRVING. (FWD)","time":{"end_time":"1924/01/01 00:00:00 -0500","original":"1923","granularity":"year","time":"1923/01/01 00:00:00 -0500"},"county":"DALLAS","ef-scale":"275","id":"aa7od5wm5sku","lat":3286.0,"state":"TX"},"type":"Feature","geometry":{"type":"Point","coordinates":[9692.0,3286.0]}},{"properties":{"city":"DALLAS","lon":9678.0,"remarks":"HAIL UP TO HEN EGG SIZE AT I635 AND ROYAL LANE IN NORTH DALLAS. (FWD)","time":{"end_time":"1931/01/01 00:00:00 -0500","original":"1930","granularity":"year","time":"1930/01/01 00:00:00 -0500"},"county":"DALLAS","ef-scale":"200","id":"aa7od5kd81wh","lat":3277.0,"state":"TX"},"type":"Feature","geometry":{"type":"Point","coordinates":[9678.0,3277.0]}},{"properties":{"city":"1 N SEAGOVILLE","lon":9653.0,"remarks":"JUST N OF SEAGOVILLE (FWD)","time":{"end_time":"2016/01/01 00:00:00 -0500","original":"2015","granularity":"year","time":"2015/01/01 00:00:00 -0500"},"county":"DALLAS","ef-scale":"150","id":"aa7od5q39n3r","lat":3264.0,"state":"TX"},"type":"Feature","geometry":{"type":"Point","coordinates":[9653.0,3264.0]}},{"properties":{"city":"LEWISVILLE","lon":9700.0,"remarks":"NEAR LEWISVILLE LAKE (FWD)","time":{"end_time":"1930/01/01 00:00:00 -0500","original":"1929","granularity":"year","time":"1929/01/01 00:00:00 -0500"},"county":"DENTON","ef-scale":"175","id":"aa7od605a483","lat":3307.0,"state":"TX"},"type":"Feature","geometry":{"type":"Point","coordinates":[9700.0,3307.0]}},{"properties":{"city":"1 S THE COLONY","lon":9689.0,"remarks":"1 S THE COLONY (FWD)","time":{"end_time":"1931/01/01 00:00:00 -0500","original":"1930","granularity":"year","time":"1930/01/01 00:00:00 -0500"},"county":"DENTON","ef-scale":"175","id":"aa7od5klo888","lat":3308.0,"state":"TX"},"type":"Feature","geometry":{"type":"Point","coordinates":[9689.0,3308.0]}},{"properties":{"city":"THE COLONY","lon":9689.0,"remarks":"(FWD)","time":{"end_time":"1935/01/01 00:00:00 -0500","original":"1934","granularity":"year","time":"1934/01/01 00:00:00 -0500"},"county":"DENTON","ef-scale":"175","id":"aa7od60i1iwc","lat":3309.0,"state":"TX"},"type":"Feature","geometry":{"type":"Point","coordinates":[9689.0,3309.0]}},{"properties":{"city":"FRISCO","lon":9683.0,"remarks":"QUARTERS IN FRISCO (FWD)","time":{"end_time":"1951/01/01 00:00:00 -0500","original":"1950","granularity":"year","time":"1950/01/01 00:00:00 -0500"},"county":"DENTON","ef-scale":"100","id":"aa7od5ts0yw8","lat":3315.0,"state":"TX"},"type":"Feature","geometry":{"type":"Point","coordinates":[9683.0,3315.0]}},{"properties":{"city":"4 S FRISCO","lon":9683.0,"remarks":"NW OF HWY 121 DALLAS NORTH TOLLWAY (FWD)","time":{"end_time":"1954/01/01 00:00:00 -0500","original":"1953","granularity":"year","time":"1953/01/01 00:00:00 -0500"},"county":"DENTON","ef-scale":"125","id":"aa7od5ycx81r","lat":3309.0,"state":"TX"},"type":"Feature","geometry":{"type":"Point","coordinates":[9683.0,3309.0]}},{"properties":{"city":"FRISCO","lon":9683.0,"remarks":"IN FRISCO (FWD)","time":{"end_time":"1955/01/01 00:00:00 -0500","original":"1954","granularity":"year","time":"1954/01/01 00:00:00 -0500"},"county":"DENTON","ef-scale":"200","id":"aa7od5xg67bl","lat":3315.0,"state":"TX"},"type":"Feature","geometry":{"type":"Point","coordinates":[9683.0,3315.0]}},{"properties":{"city":"3 WNW FRISCO","lon":9688.0,"remarks":"ONE INCH HAIL WEST SIDE OF FRISCO. (FWD)","time":{"end_time":"2001/01/01 00:00:00 -0500","original":"2000","granularity":"year","time":"2000/01/01 00:00:00 -0500"},"county":"DENTON","ef-scale":"100","id":"aa7od5lqf8l4","lat":3317.0,"state":"TX"},"type":"Feature","geometry":{"type":"Point","coordinates":[9688.0,3317.0]}},{"properties":{"city":"CISCO","lon":9897.0,"remarks":"(FWD)","time":{"end_time":"1339/01/01 00:00:00 -0456","original":"1338","granularity":"year","time":"1338/01/01 00:00:00 -0456"},"county":"EASTLAND","ef-scale":"100","id":"aa7od5pcrf7y","lat":3238.0,"state":"TX"},"type":"Feature","geometry":{"type":"Point","coordinates":[9897.0,3238.0]}},{"properties":{"city":"3 S CARBON","lon":9883.0,"remarks":"(FWD)","time":{"end_time":"1409/01/01 00:00:00 -0456","original":"1408","granularity":"year","time":"1408/01/01 00:00:00 -0456"},"county":"EASTLAND","ef-scale":"175","id":"aa7od5ypwadt","lat":3223.0,"state":"TX"},"type":"Feature","geometry":{"type":"Point","coordinates":[9883.0,3223.0]}},{"properties":{"city":"WAXAHACHIE","lon":9685.0,"remarks":"QUARTER SIZE HAIL AND STRONG WIND HWY 287 BUS. DOWNTOWN WAXAHACHIE (FWD)","time":{"end_time":"1926/01/01 00:00:00 -0500","original":"1925","granularity":"year","time":"1925/01/01 00:00:00 -0500"},"county":"ELLIS","ef-scale":"100","id":"aa7od5kmbtgc","lat":3240.0,"state":"TX"},"type":"Feature","geometry":{"type":"Point","coordinates":[9685.0,3240.0]}},{"properties":{"city":"RED OAK","lon":9680.0,"remarks":"QUARTER SIZE HAIL IN RED OAK. (FWD)","time":{"end_time":"2035/01/01 00:00:00 -0500","original":"2034","granularity":"year","time":"2034/01/01 00:00:00 -0500"},"county":"ELLIS","ef-scale":"100","id":"aa7od5m17trf","lat":3252.0,"state":"TX"},"type":"Feature","geometry":{"type":"Point","coordinates":[9680.0,3252.0]}},{"properties":{"city":"5 E HAGANSPORT","lon":9514.0,"remarks":"EMERGENCY MANAGER IS REPORTING POSSIBLE TORNADO EAST OF HAGANSPORT IN FRANKLIN COUNTY. (SHV)","time":{"end_time":"2146/01/01 00:00:00 -0500","original":"2145","granularity":"year","time":"2145/01/01 00:00:00 -0500"},"county":"FRANKLIN","ef-scale":"UNK","id":"aa7od5nhu5ij","lat":3335.0,"state":"TX"},"type":"Feature","geometry":{"type":"Point","coordinates":[9514.0,3335.0]}},{"properties":{"city":"4 S CUMBY","lon":9585.0,"remarks":"TORNADO REPORTED JUST S OF 30 AT FM 1567W. (FWD)","time":{"end_time":"2024/01/01 00:00:00 -0500","original":"2023","granularity":"year","time":"2023/01/01 00:00:00 -0500"},"county":"HOPKINS","ef-scale":"UNK","id":"aa7od5pwx82z","lat":3309.0,"state":"TX"},"type":"Feature","geometry":{"type":"Point","coordinates":[9585.0,3309.0]}},{"properties":{"city":"5 SW SULPHUR SPRINGS","lon":9566.0,"remarks":"BRIEF TORNADO AT FM3389 AND FM1170 (FWD)","time":{"end_time":"2040/01/01 00:00:00 -0500","original":"2039","granularity":"year","time":"2039/01/01 00:00:00 -0500"},"county":"HOPKINS","ef-scale":"UNK","id":"aa7od5u4arks","lat":3308.0,"state":"TX"},"type":"Feature","geometry":{"type":"Point","coordinates":[9566.0,3308.0]}},{"properties":{"city":"SULPHUR SPRINGS","lon":9560.0,"remarks":"SULPHUR SPRINGS PD REPORTS TORNADO AT HWY 19 N NEAR LOOP 301 (FWD)","time":{"end_time":"2106/01/01 00:00:00 -0500","original":"2105","granularity":"year","time":"2105/01/01 00:00:00 -0500"},"county":"HOPKINS","ef-scale":"UNK","id":"aa7od5rsubo8","lat":3313.0,"state":"TX"},"type":"Feature","geometry":{"type":"Point","coordinates":[9560.0,3313.0]}},{"properties":{"city":"4 N LONE OAK","lon":9593.0,"remarks":"POSSIBLE TORNADO NORTH OF LONE OAK HEADING NORTHEAST (FWD)","time":{"end_time":"2008/01/01 00:00:00 -0500","original":"2007","granularity":"year","time":"2007/01/01 00:00:00 -0500"},"county":"HUNT","ef-scale":"UNK","id":"aa7od5rfjrx4","lat":3306.0,"state":"TX"},"type":"Feature","geometry":{"type":"Point","coordinates":[9593.0,3306.0]}},{"properties":{"city":"CAMPBELL","lon":9595.0,"remarks":"TORNADO THAT WAS ON THE GROUND BETWEEN LOAN OAK AND CAMPBELL HAS LIFTED 3 E OF CAMPBELL. (FWD)","time":{"end_time":"2013/01/01 00:00:00 -0500","original":"2012","granularity":"year","time":"2012/01/01 00:00:00 -0500"},"county":"HUNT","ef-scale":"UNK","id":"aa7od5vtxrdy","lat":3315.0,"state":"TX"},"type":"Feature","geometry":{"type":"Point","coordinates":[9595.0,3315.0]}},{"properties":{"city":"10 W QUINLAN","lon":9630.0,"remarks":"POSSIBLE TORNADO NEAR 548 AND MUNSON (FWD)","time":{"end_time":"2102/01/01 00:00:00 -0500","original":"2101","granularity":"year","time":"2101/01/01 00:00:00 -0500"},"county":"HUNT","ef-scale":"UNK","id":"aa7od5z4sems","lat":3290.0,"state":"TX"},"type":"Feature","geometry":{"type":"Point","coordinates":[9630.0,3290.0]}},{"properties":{"city":"5 SSE ROYSE CITY","lon":9630.0,"remarks":"SIGNIFICANT DAMAGE TO BUSINESS...POSSIBLY TOTAL LOSS ON HIGHWAY 276 AND E HIGHLINE DR. (FWD)","time":{"end_time":"2103/01/01 00:00:00 -0500","original":"2102","granularity":"year","time":"2102/01/01 00:00:00 -0500"},"county":"HUNT","ef-scale":"UNK","id":"aa7od5t857ga","lat":3291.0,"state":"TX"},"type":"Feature","geometry":{"type":"Point","coordinates":[9630.0,3291.0]}},{"properties":{"city":"3 SE ROYSE CITY","lon":9629.0,"remarks":"COUNTY EM REPORTS TORNADO NEAR UNION VALLEY (FWD)","time":{"end_time":"2109/01/01 00:00:00 -0500","original":"2108","granularity":"year","time":"2108/01/01 00:00:00 -0500"},"county":"HUNT","ef-scale":"UNK","id":"aa7od5np5gyb","lat":3295.0,"state":"TX"},"type":"Feature","geometry":{"type":"Point","coordinates":[9629.0,3295.0]}},{"properties":{"city":"3 S GREENVILLE","lon":9612.0,"remarks":"AT I-30 AND HIGHWAY 34 (FWD)","time":{"end_time":"2142/01/01 00:00:00 -0500","original":"2141","granularity":"year","time":"2141/01/01 00:00:00 -0500"},"county":"HUNT","ef-scale":"175","id":"aa7od5vwjdgg","lat":3309.0,"state":"TX"},"type":"Feature","geometry":{"type":"Point","coordinates":[9612.0,3309.0]}},{"properties":{"city":"CLEBURNE","lon":9740.0,"remarks":"4 HOMES DAMAGED IN CLEBURNE WITH INJURIES. TIME IS APPROXIMATE. (FWD)","time":{"end_time":"1751/01/01 00:00:00 -0456","original":"1750","granularity":"year","time":"1750/01/01 00:00:00 -0456"},"county":"JOHNSON","ef-scale":"UNK","id":"aa7od5n8rids","lat":3235.0,"state":"TX"},"type":"Feature","geometry":{"type":"Point","coordinates":[9740.0,3235.0]}},{"properties":{"city":"CLEBURNE","lon":9740.0,"remarks":"GOLFBALL HAIL BROKE WINDSHIELDS AT CLEBURNE HENDERSON COUNTRY CLUB. (FWD)","time":{"end_time":"1916/01/01 00:00:00 -0500","original":"1915","granularity":"year","time":"1915/01/01 00:00:00 -0500"},"county":"JOHNSON","ef-scale":"175","id":"aa7od5lomf14","lat":3235.0,"state":"TX"},"type":"Feature","geometry":{"type":"Point","coordinates":[9740.0,3235.0]}},{"properties":{"city":"FORNEY","lon":9647.0,"remarks":"ON GROUND JUST WEST OF WALMART IN FORNEY (FWD)","time":{"end_time":"2041/01/01 00:00:00 -0500","original":"2040","granularity":"year","time":"2040/01/01 00:00:00 -0500"},"county":"KAUFMAN","ef-scale":"UNK","id":"aa7od5tnxv7d","lat":3275.0,"state":"TX"},"type":"Feature","geometry":{"type":"Point","coordinates":[9647.0,3275.0]}},{"properties":{"city":"6 S GHOLSON","lon":9722.0,"remarks":"SPOTTER REPORTS CAR AND SHINGLE DAMAGE (FWD)","time":{"end_time":"2046/01/01 00:00:00 -0500","original":"2045","granularity":"year","time":"2045/01/01 00:00:00 -0500"},"county":"MCLENNAN","ef-scale":"175","id":"aa7od5qwddmd","lat":3161.0,"state":"TX"},"type":"Feature","geometry":{"type":"Point","coordinates":[9722.0,3161.0]}},{"properties":{"city":"CHINA SPRING","lon":9732.0,"remarks":"(FWD)","time":{"end_time":"2051/01/01 00:00:00 -0500","original":"2050","granularity":"year","time":"2050/01/01 00:00:00 -0500"},"county":"MCLENNAN","ef-scale":"175","id":"aa7od5m8orqb","lat":3165.0,"state":"TX"},"type":"Feature","geometry":{"type":"Point","coordinates":[9732.0,3165.0]}},{"properties":{"city":"WACO","lon":9715.0,"remarks":"2W WACO AIRPORT (FWD)","time":{"end_time":"2053/01/01 00:00:00 -0500","original":"2052","granularity":"year","time":"2052/01/01 00:00:00 -0500"},"county":"MCLENNAN","ef-scale":"175","id":"aa7od5nvztaf","lat":3155.0,"state":"TX"},"type":"Feature","geometry":{"type":"Point","coordinates":[9715.0,3155.0]}},{"properties":{"city":"1 NW WACO","lon":9716.0,"remarks":"QUARTER SIZE HAIL IN NORTHWEST WACO (FWD)","time":{"end_time":"2115/01/01 00:00:00 -0500","original":"2114","granularity":"year","time":"2114/01/01 00:00:00 -0500"},"county":"MCLENNAN","ef-scale":"100","id":"aa7od5wx7yuz","lat":3156.0,"state":"TX"},"type":"Feature","geometry":{"type":"Point","coordinates":[9716.0,3156.0]}},{"properties":{"city":"1 SE LACY-LAKEVIEW","lon":9709.0,"remarks":"(FWD)","time":{"end_time":"2121/01/01 00:00:00 -0500","original":"2120","granularity":"year","time":"2120/01/01 00:00:00 -0500"},"county":"MCLENNAN","ef-scale":"150","id":"aa7od5xi7zjl","lat":3161.0,"state":"TX"},"type":"Feature","geometry":{"type":"Point","coordinates":[9709.0,3161.0]}},{"properties":{"city":"1 S GRAFORD","lon":9825.0,"remarks":"PING PONG BALL SIZE HAIL REPORTED AT INTERSECTION OF GRASSY RIDGE ROAD AND HWY 337. (FWD)","time":{"end_time":"1519/01/01 00:00:00 -0456","original":"1518","granularity":"year","time":"1518/01/01 00:00:00 -0456"},"county":"PALO PINTO","ef-scale":"150","id":"aa7od5y7uqex","lat":3292.0,"state":"TX"},"type":"Feature","geometry":{"type":"Point","coordinates":[9825.0,3292.0]}},{"properties":{"city":"ALEDO","lon":9760.0,"remarks":"QUARTER HAIL IN ALEDO. Time estimated. (FWD)","time":{"end_time":"1801/01/01 00:00:00 -0456","original":"1800","granularity":"year","time":"1800/01/01 00:00:00 -0456"},"county":"PARKER","ef-scale":"100","id":"aa7od5nlw061","lat":3270.0,"state":"TX"},"type":"Feature","geometry":{"type":"Point","coordinates":[9760.0,3270.0]}},{"properties":{"city":"3 N TALCO","lon":9510.0,"remarks":"TREES DOWN NORTH OF TALCO WHERE ROTATION WAS INDICATED AND REPORTED (SHV)","time":{"end_time":"2131/01/01 00:00:00 -0500","original":"2130","granularity":"year","time":"2130/01/01 00:00:00 -0500"},"county":"RED RIVER","ef-scale":"UNK","id":"aa7od5rrj2lu","lat":3341.0,"state":"TX"},"type":"Feature","geometry":{"type":"Point","coordinates":[9510.0,3341.0]}},{"properties":{"city":"5 S ROYSE CITY","lon":9633.0,"remarks":"EM REPORTS HOMES LEVELED POETRY RD SOUTH OF ROYSE CITY. FIRE DEPT CONDUCTING SAR. (FWD)","time":{"end_time":"2101/01/01 00:00:00 -0500","original":"2100","granularity":"year","time":"2100/01/01 00:00:00 -0500"},"county":"ROCKWALL","ef-scale":"UNK","id":"aa7od60kvicq","lat":3291.0,"state":"TX"},"type":"Feature","geometry":{"type":"Point","coordinates":[9633.0,3291.0]}},{"properties":{"city":"5 S ROYSE CITY","lon":9633.0,"remarks":"HOMES HEAVILY DAMAGED IN S ROYCE CITY NEAR 548 AND BENT TRL. (FWD)","time":{"end_time":"2101/01/01 00:00:00 -0500","original":"2100","granularity":"year","time":"2100/01/01 00:00:00 -0500"},"county":"ROCKWALL","ef-scale":"UNK","id":"aa7od5uo9472","lat":3291.0,"state":"TX"},"type":"Feature","geometry":{"type":"Point","coordinates":[9633.0,3291.0]}},{"properties":{"city":"ROCKWALL","lon":9645.0,"remarks":"HALF DOLLAR HAIL FALLING AT THE WALMART ON I30 AND RIDGEWAY RD. (FWD)","time":{"end_time":"2036/01/01 00:00:00 -0500","original":"2035","granularity":"year","time":"2035/01/01 00:00:00 -0500"},"county":"ROCKWALL","ef-scale":"125","id":"aa7od5o4jebv","lat":3293.0,"state":"TX"},"type":"Feature","geometry":{"type":"Point","coordinates":[9645.0,3293.0]}},{"properties":{"city":"HEATH","lon":9645.0,"remarks":"GOLFBALL AND BASEBALL SIZED HAIL IN HEATH (FWD)","time":{"end_time":"2111/01/01 00:00:00 -0500","original":"2110","granularity":"year","time":"2110/01/01 00:00:00 -0500"},"county":"ROCKWALL","ef-scale":"275","id":"aa7od5okevtw","lat":3283.0,"state":"TX"},"type":"Feature","geometry":{"type":"Point","coordinates":[9645.0,3283.0]}},{"properties":{"city":"EULESS","lon":9708.0,"remarks":"(FWD)","time":{"end_time":"1851/01/01 00:00:00 -0456","original":"1850","granularity":"year","time":"1850/01/01 00:00:00 -0456"},"county":"TARRANT","ef-scale":"175","id":"aa7od5rj7bk7","lat":3283.0,"state":"TX"},"type":"Feature","geometry":{"type":"Point","coordinates":[9708.0,3283.0]}},{"properties":{"city":"ARLINGTON","lon":9712.0,"remarks":"CWSU REPORTED QUARTER SIZE HAIL AT THE ZFW/ARTCC. (FWD)","time":{"end_time":"1855/01/01 00:00:00 -0456","original":"1854","granularity":"year","time":"1854/01/01 00:00:00 -0456"},"county":"TARRANT","ef-scale":"100","id":"aa7od5qo923j","lat":3273.0,"state":"TX"},"type":"Feature","geometry":{"type":"Point","coordinates":[9712.0,3273.0]}},{"properties":{"city":"EULESS","lon":9708.0,"remarks":"(FWD)","time":{"end_time":"1906/01/01 00:00:00 -0500","original":"1905","granularity":"year","time":"1905/01/01 00:00:00 -0500"},"county":"TARRANT","ef-scale":"275","id":"aa7od5qgc1ht","lat":3283.0,"state":"TX"},"type":"Feature","geometry":{"type":"Point","coordinates":[9708.0,3283.0]}},{"properties":{"city":"EULESS","lon":9708.0,"remarks":"BASEBALL HAIL NEAR 360 AND HARWOOD IN EULESS (FWD)","time":{"end_time":"1926/01/01 00:00:00 -0500","original":"1925","granularity":"year","time":"1925/01/01 00:00:00 -0500"},"county":"TARRANT","ef-scale":"275","id":"aa7od5seq076","lat":3283.0,"state":"TX"},"type":"Feature","geometry":{"type":"Point","coordinates":[9708.0,3283.0]}},{"properties":{"city":"4 ESE ABILENE","lon":9967.0,"remarks":"DIME TO QUARTER SIZE HAIL REPORTED NEAR THE AIRPORT (SJT)","time":{"end_time":"1251/01/01 00:00:00 -0456","original":"1250","granularity":"year","time":"1250/01/01 00:00:00 -0456"},"county":"TAYLOR","ef-scale":"100","id":"aa7od5z6qhw9","lat":3243.0,"state":"TX"},"type":"Feature","geometry":{"type":"Point","coordinates":[9967.0,3243.0]}},{"properties":{"city":"5 NE MOUNT PLEASANT","lon":9491.0,"remarks":"TITUS COUNTY SHERIFF REPORTED WITNESSING A TORNADO TOUCH DOWN. (SHV)","time":{"end_time":"2111/01/01 00:00:00 -0500","original":"2110","granularity":"year","time":"2110/01/01 00:00:00 -0500"},"county":"TITUS","ef-scale":"UNK","id":"aa7od5qbkn4z","lat":3322.0,"state":"TX"},"type":"Feature","geometry":{"type":"Point","coordinates":[9491.0,3322.0]}},{"properties":{"city":"1 N MOUNT PLEASANT","lon":9498.0,"remarks":"(SHV)","time":{"end_time":"2044/01/01 00:00:00 -0500","original":"2043","granularity":"year","time":"2043/01/01 00:00:00 -0500"},"county":"TITUS","ef-scale":"100","id":"aa7od5mutj85","lat":3318.0,"state":"TX"},"type":"Feature","geometry":{"type":"Point","coordinates":[9498.0,3318.0]}},{"properties":{"city":"MOUNT PLEASANT","lon":9498.0,"remarks":"GOLFBALL SIZED HAIL REPORTED BY PUBLIC. (SHV)","time":{"end_time":"2046/01/01 00:00:00 -0500","original":"2045","granularity":"year","time":"2045/01/01 00:00:00 -0500"},"county":"TITUS","ef-scale":"175","id":"aa7od5qgaeay","lat":3317.0,"state":"TX"},"type":"Feature","geometry":{"type":"Point","coordinates":[9498.0,3317.0]}},{"properties":{"city":"8 ESE TALCO","lon":9498.0,"remarks":"QUARTER SIZED HAIL REPORTED ON COUNTY ROAD 3275 (SHV)","time":{"end_time":"2131/01/01 00:00:00 -0500","original":"2130","granularity":"year","time":"2130/01/01 00:00:00 -0500"},"county":"TITUS","ef-scale":"100","id":"aa7od5pcs9qo","lat":3332.0,"state":"TX"},"type":"Feature","geometry":{"type":"Point","coordinates":[9498.0,3332.0]}},{"properties":{"city":"GRAHAM","lon":9860.0,"remarks":"(FWD)","time":{"end_time":"1251/01/01 00:00:00 -0456","original":"1250","granularity":"year","time":"1250/01/01 00:00:00 -0456"},"county":"YOUNG","ef-scale":"150","id":"aa7od5lg6h8z","lat":3310.0,"state":"TX"},"type":"Feature","geometry":{"type":"Point","coordinates":[9860.0,3310.0]}},{"properties":{"city":"SOUTH BEND","lon":9867.0,"remarks":"REPORTED BY GRAHAM FIRE AND RESCUE (FWD)","time":{"end_time":"1260/01/01 00:00:00 -0456","original":"1259","granularity":"year","time":"1259/01/01 00:00:00 -0456"},"county":"YOUNG","ef-scale":"175","id":"aa7od60narjc","lat":3300.0,"state":"TX"},"type":"Feature","geometry":{"type":"Point","coordinates":[9867.0,3300.0]}},{"properties":{"city":"GRAHAM","lon":9860.0,"remarks":"GOLFBALL SIZE HAIL IN GRAHAM (FWD)","time":{"end_time":"1307/01/01 00:00:00 -0456","original":"1306","granularity":"year","time":"1306/01/01 00:00:00 -0456"},"county":"YOUNG","ef-scale":"175","id":"aa7od5voi22y","lat":3310.0,"state":"TX"},"type":"Feature","geometry":{"type":"Point","coordinates":[9860.0,3310.0]}}],"is_temporal":true,"author":{"url":"","metadata":null,"contact_name":null,"contact_address":null,"source":null,"contact_phone":null},"source":"","pagination":{"sort":null,"start":0,"total":58,"limit":1000000},"state":"complete","tags":"","published":"2014-08-15T00:55:25-04:00","id":297969}