{"type":"FeatureCollection","data_type":"Dataset","url_type":null,"permissions":[{"permissions":{"download":true,"view":true},"group_id":"everyone"}],"classification":null,"title":"chw_schools","count":8,"stream_id":299745,"contributor":{"url":"http://geocommons.com/users/56165","name":"ledmunds"},"data_attributes":null,"calculation_params":null,"icon_link":null,"link":"http://geocommons.com/overlays/299745.json","extent":[-122.407,37.7953,-92.4194,44.9843],"geometry_types":["point"],"unique_name":null,"name":"chw_schools","feature_count":8,"description":"","next_feature":null,"is_raster":false,"short_classification":"Y","stats":{"latitude":{"max":44.984262,"mean":43.8160175,"variance":6.05908206441715,"stdev":2.46152027503678,"median":44.833469,"min":37.795311},"longitude":{"max":-92.419417,"mean":-96.877488,"variance":106.602108912224,"stdev":10.3248297280015,"median":-93.283689,"min":-122.406605}},"features":[{"properties":{"name":"Minneapolis Community and Technical College","city":"Minneapolis","zip":"55403","latitude":44.972586,"longitude":-93.283689,"id":"aacjf4y3y7hv","address":"1501 Hennepin Avenue","state":"MN"},"type":"Feature","geometry":{"type":"Point","coordinates":[-93.283689,44.972586]}},{"properties":{"name":"Rochester Community and Technical College","city":"Rochester","zip":"55904","latitude":44.012492,"longitude":-92.419417,"id":"aacjf4zzznfi","address":"851 30th Ave SE","state":"MN"},"type":"Feature","geometry":{"type":"Point","coordinates":[-92.419417,44.012492]}},{"properties":{"name":"St. Catherine University","city":"Saint Paul","zip":"55105","latitude":44.926924,"longitude":-93.185265,"id":"aacjf4uqgvog","address":"2004 Randolph Avenue","state":"MN"},"type":"Feature","geometry":{"type":"Point","coordinates":[-93.185265,44.926924]}},{"properties":{"name":"Summit Academy OIC","city":"Minneapolis","zip":"55405","latitude":44.984262,"longitude":-93.292257,"id":"aacjf4utbf22","address":"935 Olson Memorial Highway","state":"MN"},"type":"Feature","geometry":{"type":"Point","coordinates":[-93.292257,44.984262]}},{"properties":{"name":"South Central College","city":"Mankato","zip":"56003","latitude":44.174138,"longitude":-94.046786,"id":"aacjf51rp347","address":"1920 Lee Boulevard","state":"MN"},"type":"Feature","geometry":{"type":"Point","coordinates":[-94.046786,44.174138]}},{"properties":{"name":"Inver Hills Community College","city":"Inver Grove Heights","zip":"55076","latitude":44.833469,"longitude":-93.054844,"id":"aacjf4q4wuff","address":"2500 80th Street East","state":"MN"},"type":"Feature","geometry":{"type":"Point","coordinates":[-93.054844,44.833469]}},{"properties":{"name":"Normandale Community College","city":"Bloomington","zip":"55431","latitude":44.828958,"longitude":-93.331041,"id":"aacjf51euez5","address":"9700 France Avenue South","state":"MN"},"type":"Feature","geometry":{"type":"Point","coordinates":[-93.331041,44.828958]}},{"properties":{"name":"Northwest Technical College","city":"Bemidji","zip":"56601","latitude":37.795311,"longitude":-122.406605,"id":"aacjf4r5l7d5","address":"905 Grant Avenue SE","state":"MN"},"type":"Feature","geometry":{"type":"Point","coordinates":[-122.406605,37.795311]}}],"is_temporal":false,"author":{"url":"","metadata":null,"contact_name":null,"contact_address":null,"source":null,"contact_phone":null},"source":"","pagination":{"sort":null,"start":0,"total":8,"limit":1000000},"state":"complete","tags":"","published":"2014-08-15T02:37:57-04:00","id":299745}