{"type":"FeatureCollection","data_type":"Dataset","url_type":null,"permissions":[{"permissions":{"download":true,"view":true},"group_id":"everyone"}],"classification":null,"title":"Chi-affordablehousing-Wards","count":516,"stream_id":300604,"contributor":{"url":"http://geocommons.com/users/56374","name":"Dameron311850"},"data_attributes":null,"calculation_params":null,"icon_link":null,"link":"http://geocommons.com/overlays/300604.json","extent":[-87.8437,41.6341,-87.5377,42.0222],"geometry_types":["point"],"unique_name":null,"name":"Chi-affordablehousing-Wards","feature_count":516,"description":"","next_feature":null,"is_raster":false,"short_classification":"Y","stats":{"units":{"max":127,"mean":4.77713178294574,"variance":87.7385828253179,"stdev":9.36688757407272,"median":2,"min":1},"ward":{"max":50,"mean":22.1608527131783,"variance":224.123590727779,"stdev":14.9707578541562,"median":21,"min":1}},"features":[{"properties":{"city":"Chicago","units":3,"geo_score":0.468,"ils":"0-15%","id":"aae5bcptlnqa","address":"2735 W. Chanay","geo_precision":"street","state":"IL","ward":1},"type":"Feature","geometry":{"type":"Point","coordinates":[-87.695821,41.919475]}},{"properties":{"city":"Chicago","units":1,"geo_score":0.459,"ils":"16-30%","id":"aae5bcuzugpd","address":"2658 W. Armitage","geo_precision":"street","state":"IL","ward":1},"type":"Feature","geometry":{"type":"Point","coordinates":[-87.636117,41.918473]}},{"properties":{"city":"Chicago","units":1,"geo_score":0.457,"ils":"16-30%","id":"aae5bcnt0qux","address":"266 S. Sacramento","geo_precision":"street","state":"IL","ward":1},"type":"Feature","geometry":{"type":"Point","coordinates":[-87.700788,41.866455]}},{"properties":{"city":"Chicago","units":16,"geo_score":0.468,"ils":"16-30%","id":"aae5bcke84em","address":"1567 N. Hoyne","geo_precision":"street","state":"IL","ward":1},"type":"Feature","geometry":{"type":"Point","coordinates":[-87.679339,41.890364]}},{"properties":{"city":"Chicago","units":1,"geo_score":0.714,"ils":"16-30%","id":"aae5bcmq7tng","address":"2944 N. Rockwell","geo_precision":"city","state":"IL","ward":1},"type":"Feature","geometry":{"type":"Point","coordinates":[-87.68732,41.811929]}},{"properties":{"city":"Chicago","units":2,"geo_score":0.464,"ils":"16-30%","id":"aae5bcu5vmg1","address":"3415 W. Lyndale","geo_precision":"street","state":"IL","ward":1},"type":"Feature","geometry":{"type":"Point","coordinates":[-87.682688,41.922678]}},{"properties":{"city":"Chicago","units":1,"geo_score":0.459,"ils":"0-15%","id":"aae5bcu9re0q","address":"2540 W. Augusta","geo_precision":"street","state":"IL","ward":1},"type":"Feature","geometry":{"type":"Point","coordinates":[-87.656646,41.899884]}},{"properties":{"city":"Chicago","units":1,"geo_score":0.459,"ils":"16-30%","id":"aae5bcipb1uo","address":"2540 W. Augusta","geo_precision":"street","state":"IL","ward":1},"type":"Feature","geometry":{"type":"Point","coordinates":[-87.656646,41.899884]}},{"properties":{"city":"Chicago","units":1,"geo_score":0.714,"ils":"0-15%","id":"aae5bcu6zmkc","address":"2856 N. Rockwell","geo_precision":"city","state":"IL","ward":1},"type":"Feature","geometry":{"type":"Point","coordinates":[-87.68732,41.811929]}},{"properties":{"city":"Chicago","units":1,"geo_score":0.476,"ils":"0-15%","id":"aae5bclbb23s","address":"1527 N. Wicker Park","geo_precision":"street","state":"IL","ward":1},"type":"Feature","geometry":{"type":"Point","coordinates":[-87.619632,41.891014]}},{"properties":{"city":"Chicago","units":30,"geo_score":0.457,"ils":"16-30%","id":"aae5bcy98wng","address":"2517 W. Fullerton","geo_precision":"street","state":"IL","ward":1},"type":"Feature","geometry":{"type":"Point","coordinates":[-87.63116,41.926142]}},{"properties":{"city":"Chicago","units":1,"geo_score":0.455,"ils":"0-15%","id":"aae5bcwe4vz3","address":"319 S. California","geo_precision":"street","state":"IL","ward":2},"type":"Feature","geometry":{"type":"Point","coordinates":[-87.696177,41.876958]}},{"properties":{"city":"Chicago","units":1,"geo_score":0.457,"ils":"0-15%","id":"aae5bctiuf8a","address":"2847 W. Congress","geo_precision":"street","state":"IL","ward":2},"type":"Feature","geometry":{"type":"Point","coordinates":[-87.62689,41.875668]}},{"properties":{"city":"Chicago","units":24,"geo_score":0.714,"ils":"0-15%","id":"aae5bcy9rvuc","address":"2710 W. Jackson","geo_precision":"city","state":"IL","ward":2},"type":"Feature","geometry":{"type":"Point","coordinates":[-87.68732,41.811929]}},{"properties":{"city":"Chicago","units":1,"geo_score":0.714,"ils":"0-15%","id":"aae5bckiv01x","address":"2724 W. Jackson","geo_precision":"city","state":"IL","ward":2},"type":"Feature","geometry":{"type":"Point","coordinates":[-87.68732,41.811929]}},{"properties":{"city":"Chicago","units":2,"geo_score":0.455,"ils":"0-15%","id":"aae5bcyohac1","address":"116 S. California","geo_precision":"street","state":"IL","ward":2},"type":"Feature","geometry":{"type":"Point","coordinates":[-87.696177,41.876958]}},{"properties":{"city":"Chicago","units":1,"geo_score":0.455,"ils":"16-30%","id":"aae5bcq4j4hs","address":"116 S. California","geo_precision":"street","state":"IL","ward":2},"type":"Feature","geometry":{"type":"Point","coordinates":[-87.696177,41.876958]}},{"properties":{"city":"Chicago","units":6,"geo_score":0.455,"ils":"16-30%","id":"aae5bco1t8p5","address":"122 S. California","geo_precision":"street","state":"IL","ward":2},"type":"Feature","geometry":{"type":"Point","coordinates":[-87.696177,41.876958]}},{"properties":{"city":"Chicago","units":21,"geo_score":0.468,"ils":"0-15%","id":"aae5bcvnjhim","address":"1521 S. Wabash","geo_precision":"street","state":"IL","ward":2},"type":"Feature","geometry":{"type":"Point","coordinates":[-87.622761,41.71692]}},{"properties":{"city":"Chicago","units":5,"geo_score":0.468,"ils":"16-30%","id":"aae5bcvx1uxt","address":"1521 S. Wabash","geo_precision":"street","state":"IL","ward":2},"type":"Feature","geometry":{"type":"Point","coordinates":[-87.622761,41.71692]}},{"properties":{"city":"Chicago","units":4,"geo_score":0.459,"ils":"0-15%","id":"aae5bcj873ec","address":"4750 S. Michigan","geo_precision":"street","state":"IL","ward":3},"type":"Feature","geometry":{"type":"Point","coordinates":[-87.62396,41.85905]}},{"properties":{"city":"Chicago","units":4,"geo_score":0.459,"ils":"16-30%","id":"aae5bcs5hqvs","address":"4750 S. Michigan","geo_precision":"street","state":"IL","ward":3},"type":"Feature","geometry":{"type":"Point","coordinates":[-87.62396,41.85905]}},{"properties":{"city":"Chicago","units":3,"geo_score":0.476,"ils":"0-15%","id":"aae5bcxz53nf","address":"3840 S. King Drive","geo_precision":"street","state":"IL","ward":3},"type":"Feature","geometry":{"type":"Point","coordinates":[-87.618077,41.849236]}},{"properties":{"city":"Chicago","units":1,"geo_score":0.476,"ils":"16-30%","id":"aae5bck41iog","address":"3840 S. King Drive","geo_precision":"street","state":"IL","ward":3},"type":"Feature","geometry":{"type":"Point","coordinates":[-87.618077,41.849236]}},{"properties":{"city":"Chicago","units":1,"geo_score":0.462,"ils":"0-15%","id":"aae5bcq7jv8t","address":"4221 S. Prairie","geo_precision":"street","state":"IL","ward":3},"type":"Feature","geometry":{"type":"Point","coordinates":[-87.620767,41.857921]}},{"properties":{"city":"Chicago","units":1,"geo_score":0.462,"ils":"0-15%","id":"aae5bcloyjw4","address":"4463 S. Shields","geo_precision":"street","state":"IL","ward":3},"type":"Feature","geometry":{"type":"Point","coordinates":[-87.635492,41.845065]}},{"properties":{"city":"Chicago","units":2,"geo_score":0.459,"ils":"0-15%","id":"aae5bcmxikvh","address":"5161 S. Michigan","geo_precision":"street","state":"IL","ward":3},"type":"Feature","geometry":{"type":"Point","coordinates":[-87.62396,41.85905]}},{"properties":{"city":"Chicago","units":3,"geo_score":0.462,"ils":"0-15%","id":"aae5bcvns8rm","address":"4637 S. Prairie","geo_precision":"street","state":"IL","ward":3},"type":"Feature","geometry":{"type":"Point","coordinates":[-87.620767,41.857921]}},{"properties":{"city":"Chicago","units":1,"geo_score":0.457,"ils":"0-15%","id":"aae5bcqdt92v","address":"5611 S. Lafayette","geo_precision":"street","state":"IL","ward":3},"type":"Feature","geometry":{"type":"Point","coordinates":[-87.626773,41.793883]}},{"properties":{"city":"Chicago","units":2,"geo_score":0.462,"ils":"16-30%","id":"aae5bczk3gni","address":"4824 S. Prairie","geo_precision":"street","state":"IL","ward":3},"type":"Feature","geometry":{"type":"Point","coordinates":[-87.620767,41.857921]}},{"properties":{"city":"Chicago","units":1,"geo_score":0.468,"ils":"0-15%","id":"aae5bd9xiwg1","address":"4749 S. Throop","geo_precision":"street","state":"IL","ward":3},"type":"Feature","geometry":{"type":"Point","coordinates":[-87.659636,41.881609]}},{"properties":{"city":"Chicago","units":2,"geo_score":0.468,"ils":"16-30%","id":"aae5bcyygund","address":"4748 S. Wabash","geo_precision":"street","state":"IL","ward":3},"type":"Feature","geometry":{"type":"Point","coordinates":[-87.622761,41.71692]}},{"properties":{"city":"Chicago","units":1,"geo_score":0.476,"ils":"0-15%","id":"aae5bda15lsm","address":"5152 S. King Drive","geo_precision":"street","state":"IL","ward":3},"type":"Feature","geometry":{"type":"Point","coordinates":[-87.618077,41.849236]}},{"properties":{"city":"Chicago","units":1,"geo_score":0.482,"ils":"0-15%","id":"aae5bdc3eb46","address":"4149 S. Wells","geo_precision":"street","state":"IL","ward":3},"type":"Feature","geometry":{"type":"Point","coordinates":[-87.632876,41.854818]}},{"properties":{"city":"Chicago","units":7,"geo_score":0.471,"ils":"16-30%","id":"aae5bd1tkn39","address":"2111 S. Clark","geo_precision":"street","state":"IL","ward":3},"type":"Feature","geometry":{"type":"Point","coordinates":[-87.631023,41.88751]}},{"properties":{"city":"Chicago","units":11,"geo_score":0.476,"ils":"0-15%","id":"aae5bde380og","address":"5049 S. King Drive","geo_precision":"street","state":"IL","ward":3},"type":"Feature","geometry":{"type":"Point","coordinates":[-87.618077,41.849236]}},{"properties":{"city":"Chicago","units":4,"geo_score":0.476,"ils":"16-30%","id":"aae5bd3czfiq","address":"5049 S. King Drive","geo_precision":"street","state":"IL","ward":3},"type":"Feature","geometry":{"type":"Point","coordinates":[-87.618077,41.849236]}},{"properties":{"city":"Chicago","units":1,"geo_score":0.464,"ils":"16-30%","id":"aae5bd6lsl0g","address":"4945 S. Halsted","geo_precision":"street","state":"IL","ward":3},"type":"Feature","geometry":{"type":"Point","coordinates":[-87.647461,41.885262]}},{"properties":{"city":"Chicago","units":7,"geo_score":0.468,"ils":"0-15%","id":"aae5bcz1r6yz","address":"202 E. Garfield","geo_precision":"street","state":"IL","ward":3},"type":"Feature","geometry":{"type":"Point","coordinates":[-87.716189,41.890405]}},{"properties":{"city":"Chicago","units":29,"geo_score":0.468,"ils":"16-30%","id":"aae5bd1o6jp0","address":"202 E. Garfield","geo_precision":"street","state":"IL","ward":3},"type":"Feature","geometry":{"type":"Point","coordinates":[-87.716189,41.890405]}},{"properties":{"city":"Chicago","units":1,"geo_score":0.457,"ils":"16-30%","id":"aae5bdbzlkcd","address":"4751 S. Vincennes","geo_precision":"street","state":"IL","ward":3},"type":"Feature","geometry":{"type":"Point","coordinates":[-87.61148,41.828064]}},{"properties":{"city":"Chicago","units":3,"geo_score":0.462,"ils":"0-15%","id":"aae5bczuwu0g","address":"4457 S. Indiana","geo_precision":"street","state":"IL","ward":3},"type":"Feature","geometry":{"type":"Point","coordinates":[-87.622672,41.867561]}},{"properties":{"city":"Chicago","units":2,"geo_score":0.462,"ils":"16-30%","id":"aae5bdd45eil","address":"4457 S. Indiana","geo_precision":"street","state":"IL","ward":3},"type":"Feature","geometry":{"type":"Point","coordinates":[-87.622672,41.867561]}},{"properties":{"city":"Chicago","units":2,"geo_score":0.462,"ils":"0-15%","id":"aae5bczx6nyd","address":"4927 S. Prairie","geo_precision":"street","state":"IL","ward":3},"type":"Feature","geometry":{"type":"Point","coordinates":[-87.620767,41.857921]}},{"properties":{"city":"Chicago","units":1,"geo_score":0.457,"ils":"0-15%","id":"aae5bd2zjeqp","address":"4341 S. Greenwood","geo_precision":"street","state":"IL","ward":4},"type":"Feature","geometry":{"type":"Point","coordinates":[-87.599265,41.809614]}},{"properties":{"city":"Chicago","units":13,"geo_score":0.471,"ils":"0-15%","id":"aae5bd8x16zm","address":"3515 S. Cottage Grove","geo_precision":"street","state":"IL","ward":4},"type":"Feature","geometry":{"type":"Point","coordinates":[-87.656089,41.84425]}},{"properties":{"city":"Chicago","units":2,"geo_score":0.464,"ils":"0-15%","id":"aae5bd4l7gnw","address":"5220 S. Harper","geo_precision":"street","state":"IL","ward":4},"type":"Feature","geometry":{"type":"Point","coordinates":[-87.588443,41.795144]}},{"properties":{"city":"Chicago","units":15,"geo_score":0.464,"ils":"0-15%","id":"aae5bdd59shc","address":"5129 S. Harper","geo_precision":"street","state":"IL","ward":4},"type":"Feature","geometry":{"type":"Point","coordinates":[-87.588443,41.795144]}},{"properties":{"city":"Chicago","units":1,"geo_score":0.476,"ils":"0-15%","id":"aae5bd47l0qp","address":"4340 S. Lake Park","geo_precision":"street","state":"IL","ward":4},"type":"Feature","geometry":{"type":"Point","coordinates":[-87.629498,41.885745]}},{"properties":{"city":"Chicago","units":10,"geo_score":0.714,"ils":"0-15%","id":"aae5bdcf58hx","address":"4611 S. Drexel","geo_precision":"city","state":"IL","ward":4},"type":"Feature","geometry":{"type":"Point","coordinates":[-87.68732,41.811929]}},{"properties":{"city":"Chicago","units":6,"geo_score":0.468,"ils":"0-15%","id":"aae5bdebhggg","address":"6914 S. Clyde","geo_precision":"street","state":"IL","ward":5},"type":"Feature","geometry":{"type":"Point","coordinates":[-87.573854,41.76618]}},{"properties":{"city":"Chicago","units":3,"geo_score":0.471,"ils":"0-15%","id":"aae5bd3qnpag","address":"7701 S. Cottage Grove","geo_precision":"street","state":"IL","ward":5},"type":"Feature","geometry":{"type":"Point","coordinates":[-87.656089,41.84425]}},{"properties":{"city":"Chicago","units":1,"geo_score":0.476,"ils":"0-15%","id":"aae5bd940rjd","address":"2017 E. 72nd Street","geo_precision":"street","state":"IL","ward":5},"type":"Feature","geometry":{"type":"Point","coordinates":[-87.619239,41.763806]}},{"properties":{"city":"Chicago","units":1,"geo_score":0.476,"ils":"16-30%","id":"aae5bdejey8v","address":"2017 E. 72nd Street","geo_precision":"street","state":"IL","ward":5},"type":"Feature","geometry":{"type":"Point","coordinates":[-87.619239,41.763806]}},{"properties":{"city":"Chicago","units":1,"geo_score":0.476,"ils":"16-30%","id":"aae5bdb9y34f","address":"2055 E. 72nd Street","geo_precision":"street","state":"IL","ward":5},"type":"Feature","geometry":{"type":"Point","coordinates":[-87.619239,41.763806]}},{"properties":{"city":"Chicago","units":1,"geo_score":0.468,"ils":"16-30%","id":"aae5bd0fc6gi","address":"6936 S. Clyde","geo_precision":"street","state":"IL","ward":5},"type":"Feature","geometry":{"type":"Point","coordinates":[-87.573854,41.76618]}},{"properties":{"city":"Chicago","units":1,"geo_score":0.462,"ils":"0-15%","id":"aae5bd3apvbh","address":"7353 S. Kenwood","geo_precision":"street","state":"IL","ward":5},"type":"Feature","geometry":{"type":"Point","coordinates":[-87.593437,41.800958]}},{"properties":{"city":"Chicago","units":2,"geo_score":0.462,"ils":"16-30%","id":"aae5bd071an7","address":"7437 S. Chappel","geo_precision":"street","state":"IL","ward":5},"type":"Feature","geometry":{"type":"Point","coordinates":[-87.575223,41.771643]}},{"properties":{"city":"Chicago","units":20,"geo_score":0.457,"ils":"0-15%","id":"aae5bd260xfe","address":"6820 S. Ridgeland","geo_precision":"street","state":"IL","ward":5},"type":"Feature","geometry":{"type":"Point","coordinates":[-87.582447,41.766097]}},{"properties":{"city":"Chicago","units":2,"geo_score":0.457,"ils":"16-30%","id":"aae5bdbgju12","address":"6280 S. Ridgeland","geo_precision":"street","state":"IL","ward":5},"type":"Feature","geometry":{"type":"Point","coordinates":[-87.582447,41.766097]}},{"properties":{"city":"Chicago","units":1,"geo_score":0.476,"ils":"0-15%","id":"aae5bdeybj7w","address":"6430 S. Stoney Island","geo_precision":"street","state":"IL","ward":5},"type":"Feature","geometry":{"type":"Point","coordinates":[-87.630839,41.907849]}},{"properties":{"city":"Chicago","units":1,"geo_score":0.476,"ils":"16-30%","id":"aae5bden2sna","address":"6430 S. Stoney Island","geo_precision":"street","state":"IL","ward":5},"type":"Feature","geometry":{"type":"Point","coordinates":[-87.630839,41.907849]}},{"properties":{"city":"Chicago","units":1,"geo_score":0.464,"ils":"16-30%","id":"aae5bd2kccpd","address":"9531 S. Euclid","geo_precision":"street","state":"IL","ward":5},"type":"Feature","geometry":{"type":"Point","coordinates":[-87.577627,41.769791]}},{"properties":{"city":"Chicago","units":1,"geo_score":0.455,"ils":"0-15%","id":"aae5bdcrrm3y","address":"7122 S. University","geo_precision":"street","state":"IL","ward":5},"type":"Feature","geometry":{"type":"Point","coordinates":[-87.598147,41.814634]}},{"properties":{"city":"Chicago","units":7,"geo_score":0.462,"ils":"0-15%","id":"aae5bd7lna6l","address":"7110 S. Cornell","geo_precision":"street","state":"IL","ward":5},"type":"Feature","geometry":{"type":"Point","coordinates":[-87.586469,41.803792]}},{"properties":{"city":"Chicago","units":1,"geo_score":0.714,"ils":"16-30%","id":"aae5bd4b0xw3","address":"6511 S. Blackstone","geo_precision":"city","state":"IL","ward":5},"type":"Feature","geometry":{"type":"Point","coordinates":[-87.68732,41.811929]}},{"properties":{"city":"Chicago","units":4,"geo_score":0.476,"ils":"0-15%","id":"aae5bdb9mlc6","address":"2358 E. 70th Place","geo_precision":"street","state":"IL","ward":5},"type":"Feature","geometry":{"type":"Point","coordinates":[-87.621742,41.767399]}},{"properties":{"city":"Chicago","units":4,"geo_score":0.476,"ils":"16-30%","id":"aae5bde4pg2h","address":"2358 E. 70th Place","geo_precision":"street","state":"IL","ward":5},"type":"Feature","geometry":{"type":"Point","coordinates":[-87.621742,41.767399]}},{"properties":{"city":"Chicago","units":1,"geo_score":0.476,"ils":"0-15%","id":"aae5bdcpmjgp","address":"2353 E. 70th Street","geo_precision":"street","state":"IL","ward":5},"type":"Feature","geometry":{"type":"Point","coordinates":[-87.621742,41.767399]}},{"properties":{"city":"Chicago","units":4,"geo_score":0.468,"ils":"0-15%","id":"aae5bd1k1z6f","address":"7001 S. Clyde","geo_precision":"street","state":"IL","ward":5},"type":"Feature","geometry":{"type":"Point","coordinates":[-87.573854,41.76618]}},{"properties":{"city":"Chicago","units":1,"geo_score":0.468,"ils":"16-30%","id":"aae5bd05ayv9","address":"7001 S. Clyde","geo_precision":"street","state":"IL","ward":5},"type":"Feature","geometry":{"type":"Point","coordinates":[-87.573854,41.76618]}},{"properties":{"city":"Chicago","units":13,"geo_score":0.471,"ils":"0-15%","id":"aae5bd5ic7pt","address":"7834 S. Ellis","geo_precision":"street","state":"IL","ward":5},"type":"Feature","geometry":{"type":"Point","coordinates":[-87.657118,41.842051]}},{"properties":{"city":"Chicago","units":1,"geo_score":0.457,"ils":"0-15%","id":"aae5bd6ik2nx","address":"7746 S. Greenwood","geo_precision":"street","state":"IL","ward":5},"type":"Feature","geometry":{"type":"Point","coordinates":[-87.599265,41.809614]}},{"properties":{"city":"Chicago","units":1,"geo_score":0.464,"ils":"16-30%","id":"aae5bdewfjmf","address":"7249 S. Merrill","geo_precision":"street","state":"IL","ward":5},"type":"Feature","geometry":{"type":"Point","coordinates":[-87.821282,42.009316]}},{"properties":{"city":"Chicago","units":6,"geo_score":0.464,"ils":"0-15%","id":"aae5bdd3fp6x","address":"7040 S. Merrill","geo_precision":"street","state":"IL","ward":5},"type":"Feature","geometry":{"type":"Point","coordinates":[-87.821282,42.009316]}},{"properties":{"city":"Chicago","units":3,"geo_score":0.714,"ils":"0-15%","id":"aae5bd9gp60q","address":"7024 S. Paxton","geo_precision":"city","state":"IL","ward":5},"type":"Feature","geometry":{"type":"Point","coordinates":[-87.68732,41.811929]}},{"properties":{"city":"Chicago","units":5,"geo_score":0.714,"ils":"16-30%","id":"aae5bdcg0mhq","address":"7024 S. Paxton","geo_precision":"city","state":"IL","ward":5},"type":"Feature","geometry":{"type":"Point","coordinates":[-87.68732,41.811929]}},{"properties":{"city":"Chicago","units":8,"geo_score":0.476,"ils":"0-15%","id":"aae5bd5f2igg","address":"1554 E. 65th","geo_precision":"street","state":"IL","ward":5},"type":"Feature","geometry":{"type":"Point","coordinates":[-87.614331,41.776626]}},{"properties":{"city":"Chicago","units":10,"geo_score":0.476,"ils":"0-15%","id":"aae5bdaeszpr","address":"1734 E. 72nd","geo_precision":"street","state":"IL","ward":5},"type":"Feature","geometry":{"type":"Point","coordinates":[-87.619239,41.763806]}},{"properties":{"city":"Chicago","units":6,"geo_score":0.471,"ils":"0-15%","id":"aae5bdeqwf29","address":"7854 S. Ellis","geo_precision":"street","state":"IL","ward":6},"type":"Feature","geometry":{"type":"Point","coordinates":[-87.657118,41.842051]}},{"properties":{"city":"Chicago","units":1,"geo_score":0.476,"ils":"0-15%","id":"aae5bczh3ofz","address":"147 W. 71st Street","geo_precision":"street","state":"IL","ward":6},"type":"Feature","geometry":{"type":"Point","coordinates":[-87.62655,41.765481]}},{"properties":{"city":"Chicago","units":1,"geo_score":0.459,"ils":"0-15%","id":"aae5bd1lt42a","address":"7531 S. Eberhart","geo_precision":"street","state":"IL","ward":6},"type":"Feature","geometry":{"type":"Point","coordinates":[-87.614548,41.837645]}},{"properties":{"city":"Chicago","units":1,"geo_score":0.464,"ils":"0-15%","id":"aae5bd2pim3u","address":"6712 S. Halsted","geo_precision":"street","state":"IL","ward":6},"type":"Feature","geometry":{"type":"Point","coordinates":[-87.647461,41.885262]}},{"properties":{"city":"Chicago","units":4,"geo_score":0.462,"ils":"0-15%","id":"aae5bd9vm6hh","address":"7557 S. Calumet","geo_precision":"street","state":"IL","ward":6},"type":"Feature","geometry":{"type":"Point","coordinates":[-87.619076,41.85435]}},{"properties":{"city":"Chicago","units":1,"geo_score":0.462,"ils":"0-15%","id":"aae5bd9qfffe","address":"7556 S. Langley","geo_precision":"street","state":"IL","ward":6},"type":"Feature","geometry":{"type":"Point","coordinates":[-87.609809,41.823009]}},{"properties":{"city":"Chicago","units":1,"geo_score":0.476,"ils":"16-30%","id":"aae5bddlp67p","address":"57 W. 74th Street","geo_precision":"street","state":"IL","ward":6},"type":"Feature","geometry":{"type":"Point","coordinates":[-87.628044,41.760003]}},{"properties":{"city":"Chicago","units":2,"geo_score":0.457,"ils":"16-30%","id":"aae5bdcgpuvo","address":"7203 S. Vincennes","geo_precision":"street","state":"IL","ward":6},"type":"Feature","geometry":{"type":"Point","coordinates":[-87.61148,41.828064]}},{"properties":{"city":"Chicago","units":1,"geo_score":0.464,"ils":"16-30%","id":"aae5bd26hoaq","address":"7538 S. Rhodes","geo_precision":"street","state":"IL","ward":6},"type":"Feature","geometry":{"type":"Point","coordinates":[-87.61348,41.837659]}},{"properties":{"city":"Chicago","units":1,"geo_score":0.464,"ils":"16-30%","id":"aae5bd53ac9q","address":"7331 S. Vernon","geo_precision":"street","state":"IL","ward":6},"type":"Feature","geometry":{"type":"Point","coordinates":[-87.615536,41.838443]}},{"properties":{"city":"Chicago","units":1,"geo_score":0.468,"ils":"0-15%","id":"aae5bdadl3q2","address":"6948 S. Wabash","geo_precision":"street","state":"IL","ward":6},"type":"Feature","geometry":{"type":"Point","coordinates":[-87.622761,41.71692]}},{"properties":{"city":"Chicago","units":1,"geo_score":0.464,"ils":"0-15%","id":"aae5bd0t4fdp","address":"7445 S. Rhodes","geo_precision":"street","state":"IL","ward":6},"type":"Feature","geometry":{"type":"Point","coordinates":[-87.61348,41.837659]}},{"properties":{"city":"Chicago","units":8,"geo_score":0.714,"ils":"0-15%","id":"aae5bdau63l7","address":"7526 S. Colfax","geo_precision":"city","state":"IL","ward":7},"type":"Feature","geometry":{"type":"Point","coordinates":[-87.68732,41.811929]}},{"properties":{"city":"Chicago","units":3,"geo_score":0.459,"ils":"0-15%","id":"aae5bd36kfqr","address":"7613 S. Kingston","geo_precision":"street","state":"IL","ward":7},"type":"Feature","geometry":{"type":"Point","coordinates":[-87.563487,41.76132]}},{"properties":{"city":"Chicago","units":1,"geo_score":0.459,"ils":"16-30%","id":"aae5bd8s0pr3","address":"7613 S. Kingston","geo_precision":"street","state":"IL","ward":7},"type":"Feature","geometry":{"type":"Point","coordinates":[-87.563487,41.76132]}},{"properties":{"city":"Chicago","units":2,"geo_score":0.429,"ils":"0-15%","id":"aae5bd3i2lxm","address":"7733 S. Shore Drive","geo_precision":"street","state":"IL","ward":7},"type":"Feature","geometry":{"type":"Point","coordinates":[-87.652741,41.901894]}},{"properties":{"city":"Chicago","units":1,"geo_score":0.476,"ils":"0-15%","id":"aae5bde5j43z","address":"3000 E. 78th Street","geo_precision":"street","state":"IL","ward":7},"type":"Feature","geometry":{"type":"Point","coordinates":[-87.621423,41.752828]}},{"properties":{"city":"Chicago","units":1,"geo_score":0.468,"ils":"0-15%","id":"aae5bd9o2j0g","address":"8513 S. Saginaw","geo_precision":"street","state":"IL","ward":7},"type":"Feature","geometry":{"type":"Point","coordinates":[-87.558064,41.6427]}},{"properties":{"city":"Chicago","units":1,"geo_score":0.464,"ils":"0-15%","id":"aae5bdevonkm","address":"1145 N. Keeler","geo_precision":"street","state":"IL","ward":7},"type":"Feature","geometry":{"type":"Point","coordinates":[-87.730693,41.88462]}},{"properties":{"city":"Chicago","units":1,"geo_score":0.476,"ils":"0-15%","id":"aae5bddsrein","address":"3033 E. 79th Street","geo_precision":"street","state":"IL","ward":7},"type":"Feature","geometry":{"type":"Point","coordinates":[-87.621386,41.751007]}},{"properties":{"city":"Chicago","units":1,"geo_score":0.462,"ils":"0-15%","id":"aae5bd44vs5v","address":"9747 S. Merrion","geo_precision":"street","state":"IL","ward":7},"type":"Feature","geometry":{"type":"Point","coordinates":[-87.569949,41.722535]}},{"properties":{"city":"Chicago","units":2,"geo_score":0.476,"ils":"0-15%","id":"aae5bcz3rmky","address":"7701 S. Yates","geo_precision":"street","state":"IL","ward":7},"type":"Feature","geometry":{"type":"Point","coordinates":[-87.564047,41.634071]}},{"properties":{"city":"Chicago","units":1,"geo_score":0.476,"ils":"0-15%","id":"aae5bd7ysay3","address":"5300 S. King Drive","geo_precision":"street","state":"IL","ward":7},"type":"Feature","geometry":{"type":"Point","coordinates":[-87.618077,41.849236]}},{"properties":{"city":"Chicago","units":7,"geo_score":0.476,"ils":"16-30%","id":"aae5bdaikrap","address":"5300 S. King Drive","geo_precision":"street","state":"IL","ward":7},"type":"Feature","geometry":{"type":"Point","coordinates":[-87.618077,41.849236]}},{"properties":{"city":"Chicago","units":5,"geo_score":0.476,"ils":"0-15%","id":"aae5bczbpkfq","address":"2523 E. 75th Street","geo_precision":"street","state":"IL","ward":7},"type":"Feature","geometry":{"type":"Point","coordinates":[-87.620729,41.758306]}},{"properties":{"city":"Chicago","units":1,"geo_score":0.476,"ils":"0-15%","id":"aae5bdd7wx66","address":"3053 E. 79th Street","geo_precision":"street","state":"IL","ward":7},"type":"Feature","geometry":{"type":"Point","coordinates":[-87.621386,41.751007]}},{"properties":{"city":"Chicago","units":1,"geo_score":0.476,"ils":"0-15%","id":"aae5bda7z8dj","address":"2815 E. 76th Street","geo_precision":"street","state":"IL","ward":7},"type":"Feature","geometry":{"type":"Point","coordinates":[-87.620694,41.756484]}},{"properties":{"city":"Chicago","units":1,"geo_score":0.459,"ils":"0-15%","id":"aae5bd2mjunv","address":"7436 S. Kingston","geo_precision":"street","state":"IL","ward":7},"type":"Feature","geometry":{"type":"Point","coordinates":[-87.563487,41.76132]}},{"properties":{"city":"Chicago","units":7,"geo_score":0.459,"ils":"16-30%","id":"aae5bdch47lg","address":"7436 S. Kingston","geo_precision":"street","state":"IL","ward":7},"type":"Feature","geometry":{"type":"Point","coordinates":[-87.563487,41.76132]}},{"properties":{"city":"Chicago","units":5,"geo_score":0.459,"ils":"0-15%","id":"aae5bd1s80vl","address":"7901 S. Kingston","geo_precision":"street","state":"IL","ward":7},"type":"Feature","geometry":{"type":"Point","coordinates":[-87.563487,41.76132]}},{"properties":{"city":"Chicago","units":1,"geo_score":0.429,"ils":"0-15%","id":"aae5bddfmh1e","address":"7337 S. Shore Drive","geo_precision":"street","state":"IL","ward":7},"type":"Feature","geometry":{"type":"Point","coordinates":[-87.652741,41.901894]}},{"properties":{"city":"Chicago","units":1,"geo_score":0.476,"ils":"0-15%","id":"aae5bczhpqpa","address":"7210 S. Yates","geo_precision":"street","state":"IL","ward":7},"type":"Feature","geometry":{"type":"Point","coordinates":[-87.564047,41.634071]}},{"properties":{"city":"Chicago","units":6,"geo_score":0.459,"ils":"0-15%","id":"aae5bd4j7j1f","address":"7750 S. Muskegon","geo_precision":"street","state":"IL","ward":7},"type":"Feature","geometry":{"type":"Point","coordinates":[-87.55555,41.754135]}},{"properties":{"city":"Chicago","units":5,"geo_score":0.459,"ils":"16-30%","id":"aae5bd2xlool","address":"7750 S. Muskegon","geo_precision":"street","state":"IL","ward":7},"type":"Feature","geometry":{"type":"Point","coordinates":[-87.55555,41.754135]}},{"properties":{"city":"Chicago","units":1,"geo_score":0.714,"ils":"0-15%","id":"aae5bd8gkyns","address":"7827 S. Colfax","geo_precision":"city","state":"IL","ward":7},"type":"Feature","geometry":{"type":"Point","coordinates":[-87.68732,41.811929]}},{"properties":{"city":"Chicago","units":1,"geo_score":0.476,"ils":"0-15%","id":"aae5bd5b2b03","address":"3017 E. 80th Place","geo_precision":"street","state":"IL","ward":7},"type":"Feature","geometry":{"type":"Point","coordinates":[-87.621333,41.749179]}},{"properties":{"city":"Chicago","units":1,"geo_score":0.429,"ils":"0-15%","id":"aae5bd01vg20","address":"8150 S. Shore Drive","geo_precision":"street","state":"IL","ward":7},"type":"Feature","geometry":{"type":"Point","coordinates":[-87.652741,41.901894]}},{"properties":{"city":"Chicago","units":9,"geo_score":0.714,"ils":"0-15%","id":"aae5bd65uc9s","address":"7608 S. Colfax","geo_precision":"city","state":"IL","ward":7},"type":"Feature","geometry":{"type":"Point","coordinates":[-87.68732,41.811929]}},{"properties":{"city":"Chicago","units":3,"geo_score":0.714,"ils":"0-15%","id":"aae5bd703f5v","address":"7839 S. Colfax","geo_precision":"city","state":"IL","ward":7},"type":"Feature","geometry":{"type":"Point","coordinates":[-87.68732,41.811929]}},{"properties":{"city":"Chicago","units":1,"geo_score":0.714,"ils":"16-30%","id":"aae5bd0v9akr","address":"7839 S. Colfax","geo_precision":"city","state":"IL","ward":7},"type":"Feature","geometry":{"type":"Point","coordinates":[-87.68732,41.811929]}},{"properties":{"city":"Chicago","units":12,"geo_score":0.476,"ils":"0-15%","id":"aae5bd7cj8jl","address":"7131 S. Yates","geo_precision":"street","state":"IL","ward":7},"type":"Feature","geometry":{"type":"Point","coordinates":[-87.564047,41.634071]}},{"properties":{"city":"Chicago","units":1,"geo_score":0.714,"ils":"0-15%","id":"aae5bddmjeca","address":"6901 S. Paxton","geo_precision":"city","state":"IL","ward":7},"type":"Feature","geometry":{"type":"Point","coordinates":[-87.68732,41.811929]}},{"properties":{"city":"Chicago","units":3,"geo_score":0.714,"ils":"16-30%","id":"aae5bczfa1nr","address":"6901 S. Paxton","geo_precision":"city","state":"IL","ward":7},"type":"Feature","geometry":{"type":"Point","coordinates":[-87.68732,41.811929]}},{"properties":{"city":"Chicago","units":1,"geo_score":0.468,"ils":"0-15%","id":"aae5bd5xstf8","address":"7546 S. Saginaw","geo_precision":"street","state":"IL","ward":7},"type":"Feature","geometry":{"type":"Point","coordinates":[-87.558064,41.6427]}},{"properties":{"city":"Chicago","units":1,"geo_score":0.714,"ils":"0-15%","id":"aae5bdcz0vzx","address":"7640 S. Colfax","geo_precision":"city","state":"IL","ward":7},"type":"Feature","geometry":{"type":"Point","coordinates":[-87.68732,41.811929]}},{"properties":{"city":"Chicago","units":1,"geo_score":0.459,"ils":"0-15%","id":"aae5bd8ue7pp","address":"7700 S. Philips","geo_precision":"street","state":"IL","ward":7},"type":"Feature","geometry":{"type":"Point","coordinates":[-87.565343,41.763532]}},{"properties":{"city":"Chicago","units":5,"geo_score":0.459,"ils":"16-30%","id":"aae5bd1953kb","address":"7700 S. Philips","geo_precision":"street","state":"IL","ward":7},"type":"Feature","geometry":{"type":"Point","coordinates":[-87.565343,41.763532]}},{"properties":{"city":"Chicago","units":2,"geo_score":0.459,"ils":"0-15%","id":"aae5bd7h6758","address":"7801 S. Philips","geo_precision":"street","state":"IL","ward":7},"type":"Feature","geometry":{"type":"Point","coordinates":[-87.565343,41.763532]}},{"properties":{"city":"Chicago","units":4,"geo_score":0.459,"ils":"16-30%","id":"aae5bdavwu7v","address":"7801 S. Philips","geo_precision":"street","state":"IL","ward":7},"type":"Feature","geometry":{"type":"Point","coordinates":[-87.565343,41.763532]}},{"properties":{"city":"Chicago","units":2,"geo_score":0.459,"ils":"0-15%","id":"aae5bd80bmji","address":"7306 S. Philips","geo_precision":"street","state":"IL","ward":7},"type":"Feature","geometry":{"type":"Point","coordinates":[-87.565343,41.763532]}},{"properties":{"city":"Chicago","units":1,"geo_score":0.714,"ils":"0-15%","id":"aae5bdb70b1i","address":"7636 S. Colfax","geo_precision":"city","state":"IL","ward":7},"type":"Feature","geometry":{"type":"Point","coordinates":[-87.68732,41.811929]}},{"properties":{"city":"Chicago","units":1,"geo_score":0.459,"ils":"0-15%","id":"aae5bdbgzqau","address":"7631 S. Kingston","geo_precision":"street","state":"IL","ward":7},"type":"Feature","geometry":{"type":"Point","coordinates":[-87.563487,41.76132]}},{"properties":{"city":"Chicago","units":7,"geo_score":0.476,"ils":"0-15%","id":"aae5bd3aopp0","address":"2531 E. 73rd Street","geo_precision":"street","state":"IL","ward":7},"type":"Feature","geometry":{"type":"Point","coordinates":[-87.624023,41.76189]}},{"properties":{"city":"Chicago","units":3,"geo_score":0.429,"ils":"0-15%","id":"aae5bd9lyvfg","address":"7200 S. Shore Drive","geo_precision":"street","state":"IL","ward":7},"type":"Feature","geometry":{"type":"Point","coordinates":[-87.652741,41.901894]}},{"properties":{"city":"Chicago","units":2,"geo_score":0.464,"ils":"0-15%","id":"aae5bd4k5voe","address":"8041 S. Manistee","geo_precision":"street","state":"IL","ward":7},"type":"Feature","geometry":{"type":"Point","coordinates":[-87.555574,41.642673]}},{"properties":{"city":"Chicago","units":1,"geo_score":0.464,"ils":"16-30%","id":"aae5bd384o63","address":"8041 S. Manistee","geo_precision":"street","state":"IL","ward":7},"type":"Feature","geometry":{"type":"Point","coordinates":[-87.555574,41.642673]}},{"properties":{"city":"Chicago","units":1,"geo_score":0.462,"ils":"0-15%","id":"aae5bdc7dbqh","address":"7816 S. Cornell","geo_precision":"street","state":"IL","ward":8},"type":"Feature","geometry":{"type":"Point","coordinates":[-87.586469,41.803792]}},{"properties":{"city":"Chicago","units":1,"geo_score":0.462,"ils":"16-30%","id":"aae5bd5pjorb","address":"7816 S. Cornell","geo_precision":"street","state":"IL","ward":8},"type":"Feature","geometry":{"type":"Point","coordinates":[-87.586469,41.803792]}},{"properties":{"city":"Chicago","units":3,"geo_score":0.476,"ils":"0-15%","id":"aae5bd6m320n","address":"1131 E. 79th Street","geo_precision":"street","state":"IL","ward":8},"type":"Feature","geometry":{"type":"Point","coordinates":[-87.621386,41.751007]}},{"properties":{"city":"Chicago","units":1,"geo_score":0.476,"ils":"16-30%","id":"aae5bd5txdac","address":"1131 E. 79th Street","geo_precision":"street","state":"IL","ward":8},"type":"Feature","geometry":{"type":"Point","coordinates":[-87.621386,41.751007]}},{"properties":{"city":"Chicago","units":2,"geo_score":0.462,"ils":"16-30%","id":"aae5bd2yotbg","address":"7807 S. Cornell","geo_precision":"street","state":"IL","ward":8},"type":"Feature","geometry":{"type":"Point","coordinates":[-87.586469,41.803792]}},{"properties":{"city":"Chicago","units":3,"geo_score":0.476,"ils":"0-15%","id":"aae5bd9qavec","address":"949 E. 86th Street","geo_precision":"street","state":"IL","ward":8},"type":"Feature","geometry":{"type":"Point","coordinates":[-87.622655,41.738208]}},{"properties":{"city":"Chicago","units":4,"geo_score":0.457,"ils":"0-15%","id":"aae5bd62c22n","address":"7851 S. Constance","geo_precision":"street","state":"IL","ward":8},"type":"Feature","geometry":{"type":"Point","coordinates":[-87.58018,41.773405]}},{"properties":{"city":"Chicago","units":10,"geo_score":0.459,"ils":"0-15%","id":"aae5bdealpgv","address":"8049 S. Maryland","geo_precision":"street","state":"IL","ward":8},"type":"Feature","geometry":{"type":"Point","coordinates":[-87.604984,41.79317]}},{"properties":{"city":"Chicago","units":1,"geo_score":0.476,"ils":"0-15%","id":"aae5bdalavv3","address":"1564 E. 93rd Street","geo_precision":"street","state":"IL","ward":8},"type":"Feature","geometry":{"type":"Point","coordinates":[-87.623109,41.725397]}},{"properties":{"city":"Chicago","units":1,"geo_score":0.471,"ils":"0-15%","id":"aae5bd0da8iz","address":"7541 S. Ellis","geo_precision":"street","state":"IL","ward":8},"type":"Feature","geometry":{"type":"Point","coordinates":[-87.657118,41.842051]}},{"properties":{"city":"Chicago","units":2,"geo_score":0.429,"ils":"0-15%","id":"aae5bd8gbe4l","address":"7301 S. East End","geo_precision":"street","state":"IL","ward":8},"type":"Feature","geometry":{"type":"Point","coordinates":[-87.585453,41.80437]}},{"properties":{"city":"Chicago","units":3,"geo_score":0.476,"ils":"0-15%","id":"aae5bdaaks8a","address":"7307 E. East End","geo_precision":"street","state":"IL","ward":8},"type":"Feature","geometry":{"type":"Point","coordinates":[-87.585453,41.80437]}},{"properties":{"city":"Chicago","units":23,"geo_score":0.457,"ils":"0-15%","id":"aae5bd5v3ws3","address":"8101 S. Ingleside","geo_precision":"street","state":"IL","ward":8},"type":"Feature","geometry":{"type":"Point","coordinates":[-87.602885,41.802298]}},{"properties":{"city":"Chicago","units":1,"geo_score":0.476,"ils":"0-15%","id":"aae5bd60pcuq","address":"851 E. 87th Place","geo_precision":"street","state":"IL","ward":8},"type":"Feature","geometry":{"type":"Point","coordinates":[-87.616464,41.735027]}},{"properties":{"city":"Chicago","units":1,"geo_score":0.459,"ils":"0-15%","id":"aae5bdd747tz","address":"11031 S. Edbrook","geo_precision":"street","state":"IL","ward":9},"type":"Feature","geometry":{"type":"Point","coordinates":[-87.619635,41.700381]}},{"properties":{"city":"Chicago","units":1,"geo_score":0.468,"ils":"0-15%","id":"aae5bd8pcn7x","address":"10539 S. Corliss","geo_precision":"street","state":"IL","ward":9},"type":"Feature","geometry":{"type":"Point","coordinates":[-87.600743,41.691317]}},{"properties":{"city":"Chicago","units":1,"geo_score":0.457,"ils":"0-15%","id":"aae5bczqdmnj","address":"10657 S. Champlain","geo_precision":"street","state":"IL","ward":9},"type":"Feature","geometry":{"type":"Point","coordinates":[-87.610424,41.817178]}},{"properties":{"city":"Chicago","units":2,"geo_score":0.462,"ils":"16-30%","id":"aae5bd39lpff","address":"11006 S. Indiana","geo_precision":"street","state":"IL","ward":9},"type":"Feature","geometry":{"type":"Point","coordinates":[-87.622672,41.867561]}},{"properties":{"city":"Chicago","units":1,"geo_score":0.468,"ils":"0-15%","id":"aae5bd7cnkjf","address":"11572 S. Front","geo_precision":"street","state":"IL","ward":9},"type":"Feature","geometry":{"type":"Point","coordinates":[-87.611766,41.68866]}},{"properties":{"city":"Chicago","units":1,"geo_score":0.457,"ils":"0-15%","id":"aae5bdbat259","address":"11430 S. Champlain","geo_precision":"street","state":"IL","ward":9},"type":"Feature","geometry":{"type":"Point","coordinates":[-87.610424,41.817178]}},{"properties":{"city":"Chicago","units":1,"geo_score":0.468,"ils":"0-15%","id":"aae5bddzldv1","address":"10728 S. Wabash","geo_precision":"street","state":"IL","ward":9},"type":"Feature","geometry":{"type":"Point","coordinates":[-87.622761,41.71692]}},{"properties":{"city":"Chicago","units":1,"geo_score":0.471,"ils":"0-15%","id":"aae5bd894a6p","address":"234 E. 136th Street","geo_precision":"street","state":"IL","ward":9},"type":"Feature","geometry":{"type":"Point","coordinates":[-87.546268,41.647777]}},{"properties":{"city":"Chicago","units":1,"geo_score":0.455,"ils":"16-30%","id":"aae5bcyubutv","address":"13150 S. Forrestville","geo_precision":"street","state":"IL","ward":9},"type":"Feature","geometry":{"type":"Point","coordinates":[-87.843651,41.960024]}},{"properties":{"city":"Chicago","units":1,"geo_score":0.464,"ils":"16-30%","id":"aae5bdahipsz","address":"10949 S. Vernon","geo_precision":"street","state":"IL","ward":9},"type":"Feature","geometry":{"type":"Point","coordinates":[-87.615536,41.838443]}},{"properties":{"city":"Chicago","units":1,"geo_score":0.462,"ils":"16-30%","id":"aae5bdf1133d","address":"11122 S. Indiana","geo_precision":"street","state":"IL","ward":9},"type":"Feature","geometry":{"type":"Point","coordinates":[-87.622672,41.867561]}},{"properties":{"city":"Chicago","units":1,"geo_score":0.471,"ils":"0-15%","id":"aae5bdca0fy1","address":"414 W. 100th Place","geo_precision":"street","state":"IL","ward":9},"type":"Feature","geometry":{"type":"Point","coordinates":[-87.627849,41.712575]}},{"properties":{"city":"Chicago","units":1,"geo_score":0.476,"ils":"0-15%","id":"aae5bdbdk1n1","address":"12351 S. Yates","geo_precision":"street","state":"IL","ward":9},"type":"Feature","geometry":{"type":"Point","coordinates":[-87.564047,41.634071]}},{"properties":{"city":"Chicago","units":1,"geo_score":0.476,"ils":"0-15%","id":"aae5bdb8owus","address":"11348 S. Martin Luther King","geo_precision":"street","state":"IL","ward":9},"type":"Feature","geometry":{"type":"Point","coordinates":[-87.618077,41.849236]}},{"properties":{"city":"Chicago","units":1,"geo_score":0.464,"ils":"0-15%","id":"aae5bddub4dh","address":"8337 S. Burley","geo_precision":"street","state":"IL","ward":10},"type":"Feature","geometry":{"type":"Point","coordinates":[-87.545476,41.744734]}},{"properties":{"city":"Chicago","units":3,"geo_score":0.459,"ils":"16-30%","id":"aae5bczvxos0","address":"8707 S. Escanaba","geo_precision":"street","state":"IL","ward":10},"type":"Feature","geometry":{"type":"Point","coordinates":[-87.554048,41.752362]}},{"properties":{"city":"Chicago","units":7,"geo_score":0.476,"ils":"16-30%","id":"aae5bd3z8t9f","address":"3248 E. 92nd Street","geo_precision":"street","state":"IL","ward":10},"type":"Feature","geometry":{"type":"Point","coordinates":[-87.62171,41.72725]}},{"properties":{"city":"Chicago","units":1,"geo_score":0.462,"ils":"0-15%","id":"aae5bd7kshh6","address":"8949 S. Brandon","geo_precision":"street","state":"IL","ward":10},"type":"Feature","geometry":{"type":"Point","coordinates":[-87.546807,41.750175]}},{"properties":{"city":"Chicago","units":6,"geo_score":0.476,"ils":"0-15%","id":"aae5bdb0kgpw","address":"2837 E. 90th Street","geo_precision":"street","state":"IL","ward":10},"type":"Feature","geometry":{"type":"Point","coordinates":[-87.624037,41.73101]}},{"properties":{"city":"Chicago","units":1,"geo_score":0.462,"ils":"0-15%","id":"aae5bd67loxh","address":"8550 S. Houston","geo_precision":"street","state":"IL","ward":10},"type":"Feature","geometry":{"type":"Point","coordinates":[-87.550418,41.748774]}},{"properties":{"city":"Chicago","units":1,"geo_score":0.459,"ils":"0-15%","id":"aae5bd0p2h38","address":"8346 S. Muskegon","geo_precision":"street","state":"IL","ward":10},"type":"Feature","geometry":{"type":"Point","coordinates":[-87.55555,41.754135]}},{"properties":{"city":"Chicago","units":2,"geo_score":0.476,"ils":"0-15%","id":"aae5bd3yjjxt","address":"3251 E. 91st Street","geo_precision":"street","state":"IL","ward":10},"type":"Feature","geometry":{"type":"Point","coordinates":[-87.623938,41.729041]}},{"properties":{"city":"Chicago","units":2,"geo_score":0.455,"ils":"0-15%","id":"aae5bd2m6pxu","address":"9001 S. Commercial","geo_precision":"street","state":"IL","ward":10},"type":"Feature","geometry":{"type":"Point","coordinates":[-87.551514,41.750575]}},{"properties":{"city":"Chicago","units":1,"geo_score":0.455,"ils":"16-30%","id":"aae5bd1z8wlk","address":"9001 S. Commercial","geo_precision":"street","state":"IL","ward":10},"type":"Feature","geometry":{"type":"Point","coordinates":[-87.551514,41.750575]}},{"properties":{"city":"Chicago","units":6,"geo_score":0.476,"ils":"0-15%","id":"aae5bd7hh5cv","address":"3201 E. 91st Street","geo_precision":"street","state":"IL","ward":10},"type":"Feature","geometry":{"type":"Point","coordinates":[-87.623938,41.729041]}},{"properties":{"city":"Chicago","units":29,"geo_score":0.476,"ils":"16-30%","id":"aae5bd2ozi0g","address":"3201 E. 91st Street","geo_precision":"street","state":"IL","ward":10},"type":"Feature","geometry":{"type":"Point","coordinates":[-87.623938,41.729041]}},{"properties":{"city":"Chicago","units":1,"geo_score":0.457,"ils":"0-15%","id":"aae5bd4v14bk","address":"2310 S. Sacramento","geo_precision":"street","state":"IL","ward":12},"type":"Feature","geometry":{"type":"Point","coordinates":[-87.700788,41.866455]}},{"properties":{"city":"Chicago","units":4,"geo_score":0.462,"ils":"0-15%","id":"aae5bd9e3vgp","address":"2423 W. Marquette","geo_precision":"street","state":"IL","ward":15},"type":"Feature","geometry":{"type":"Point","coordinates":[-87.651729,41.972469]}},{"properties":{"city":"Chicago","units":3,"geo_score":0.476,"ils":"0-15%","id":"aae5bdcqjtf7","address":"2837 W. 64th Street","geo_precision":"street","state":"IL","ward":15},"type":"Feature","geometry":{"type":"Point","coordinates":[-87.630288,41.778159]}},{"properties":{"city":"Chicago","units":1,"geo_score":0.476,"ils":"0-15%","id":"aae5bcze8d8q","address":"1715 W. 58th Street","geo_precision":"street","state":"IL","ward":15},"type":"Feature","geometry":{"type":"Point","coordinates":[-87.633434,41.788838]}},{"properties":{"city":"Chicago","units":1,"geo_score":0.459,"ils":"0-15%","id":"aae5bd2pi4jo","address":"6421 S. Artesian","geo_precision":"street","state":"IL","ward":15},"type":"Feature","geometry":{"type":"Point","coordinates":[-87.688884,41.925432]}},{"properties":{"city":"Chicago","units":20,"geo_score":0.476,"ils":"16-30%","id":"aae5bd396sj3","address":"2626 W. 63rd Street","geo_precision":"street","state":"IL","ward":15},"type":"Feature","geometry":{"type":"Point","coordinates":[-87.631834,41.779962]}},{"properties":{"city":"Chicago","units":1,"geo_score":0.476,"ils":"0-15%","id":"aae5bd9a2emh","address":"6824 S. Wood","geo_precision":"street","state":"IL","ward":15},"type":"Feature","geometry":{"type":"Point","coordinates":[-87.671748,41.881389]}},{"properties":{"city":"Chicago","units":2,"geo_score":0.476,"ils":"16-30%","id":"aae5bczivum3","address":"6824 S. Wood","geo_precision":"street","state":"IL","ward":15},"type":"Feature","geometry":{"type":"Point","coordinates":[-87.671748,41.881389]}},{"properties":{"city":"Chicago","units":1,"geo_score":0.462,"ils":"16-30%","id":"aae5bdd4c6uv","address":"5841 S. Calumet","geo_precision":"street","state":"IL","ward":15},"type":"Feature","geometry":{"type":"Point","coordinates":[-87.619076,41.85435]}},{"properties":{"city":"Chicago","units":1,"geo_score":0.457,"ils":"0-15%","id":"aae5bcz3up5e","address":"6735 S. Claremont","geo_precision":"street","state":"IL","ward":15},"type":"Feature","geometry":{"type":"Point","coordinates":[-87.684955,41.871752]}},{"properties":{"city":"Chicago","units":1,"geo_score":0.464,"ils":"0-15%","id":"aae5bd9zgnsn","address":"6357 S. Paulina","geo_precision":"street","state":"IL","ward":15},"type":"Feature","geometry":{"type":"Point","coordinates":[-87.669317,41.881895]}},{"properties":{"city":"Chicago","units":10,"geo_score":0.457,"ils":"0-15%","id":"aae5bdd1bzqw","address":"6346 S. Fairfield","geo_precision":"street","state":"IL","ward":15},"type":"Feature","geometry":{"type":"Point","coordinates":[-87.694803,41.869237]}},{"properties":{"city":"Chicago","units":6,"geo_score":0.476,"ils":"0-15%","id":"aae5bd9u7l7p","address":"6355 S. Wood","geo_precision":"street","state":"IL","ward":15},"type":"Feature","geometry":{"type":"Point","coordinates":[-87.671748,41.881389]}},{"properties":{"city":"Chicago","units":2,"geo_score":0.476,"ils":"16-30%","id":"aae5bdaio72x","address":"6355 S. Wood","geo_precision":"street","state":"IL","ward":15},"type":"Feature","geometry":{"type":"Point","coordinates":[-87.671748,41.881389]}},{"properties":{"city":"Chicago","units":1,"geo_score":0.459,"ils":"16-30%","id":"aae5bdar1nrp","address":"6333 S. Carpenter","geo_precision":"street","state":"IL","ward":16},"type":"Feature","geometry":{"type":"Point","coordinates":[-87.653337,41.886723]}},{"properties":{"city":"Chicago","units":1,"geo_score":0.459,"ils":"0-15%","id":"aae5bd9ykqpk","address":"5735 S. Elizabeth","geo_precision":"street","state":"IL","ward":16},"type":"Feature","geometry":{"type":"Point","coordinates":[-87.658858,41.885472]}},{"properties":{"city":"Chicago","units":1,"geo_score":0.714,"ils":"0-15%","id":"aae5bd7s9hfo","address":"5346 S. Carptenter","geo_precision":"city","state":"IL","ward":16},"type":"Feature","geometry":{"type":"Point","coordinates":[-87.68732,41.811929]}},{"properties":{"city":"Chicago","units":1,"geo_score":0.476,"ils":"0-15%","id":"aae5bdc22dme","address":"2214 W. 51st Street","geo_precision":"street","state":"IL","ward":16},"type":"Feature","geometry":{"type":"Point","coordinates":[-87.62804,41.801911]}},{"properties":{"city":"Chicago","units":2,"geo_score":0.462,"ils":"0-15%","id":"aae5bd34zsz2","address":"6340 S. Sangamon","geo_precision":"street","state":"IL","ward":16},"type":"Feature","geometry":{"type":"Point","coordinates":[-87.650823,41.88043]}},{"properties":{"city":"Chicago","units":1,"geo_score":0.482,"ils":"0-15%","id":"aae5bd9tt29g","address":"5529 S. Ada","geo_precision":"street","state":"IL","ward":16},"type":"Feature","geometry":{"type":"Point","coordinates":[-87.660573,41.88201]}},{"properties":{"city":"Chicago","units":2,"geo_score":0.468,"ils":"0-15%","id":"aae5bd78gpry","address":"6224 S. Morgan","geo_precision":"street","state":"IL","ward":16},"type":"Feature","geometry":{"type":"Point","coordinates":[-87.652099,41.884215]}},{"properties":{"city":"Chicago","units":1,"geo_score":0.49,"ils":"0-15%","id":"aae5bdcnfj2z","address":"5226 S. May","geo_precision":"street","state":"IL","ward":16},"type":"Feature","geometry":{"type":"Point","coordinates":[-87.537701,41.717698]}},{"properties":{"city":"Chicago","units":1,"geo_score":0.468,"ils":"16-30%","id":"aae5bcyws49o","address":"5430 S. Loomis","geo_precision":"street","state":"IL","ward":16},"type":"Feature","geometry":{"type":"Point","coordinates":[-87.662275,41.881564]}},{"properties":{"city":"Chicago","units":1,"geo_score":0.464,"ils":"16-30%","id":"aae5bd9ozv1o","address":"6201 S. Justine","geo_precision":"street","state":"IL","ward":16},"type":"Feature","geometry":{"type":"Point","coordinates":[-87.665438,41.88536]}},{"properties":{"city":"Chicago","units":2,"geo_score":0.457,"ils":"0-15%","id":"aae5bd9297p4","address":"1107 W. Garfield Boulavard","geo_precision":"street","state":"IL","ward":16},"type":"Feature","geometry":{"type":"Point","coordinates":[-87.629545,41.794219]}},{"properties":{"city":"Chicago","units":2,"geo_score":0.714,"ils":"16-30%","id":"aae5bddndzrk","address":"5929 S. Rockwell","geo_precision":"city","state":"IL","ward":16},"type":"Feature","geometry":{"type":"Point","coordinates":[-87.68732,41.811929]}},{"properties":{"city":"Chicago","units":1,"geo_score":0.468,"ils":"16-30%","id":"aae5bdclnvvd","address":"5658 S. Bishop","geo_precision":"street","state":"IL","ward":16},"type":"Feature","geometry":{"type":"Point","coordinates":[-87.66393,41.892472]}},{"properties":{"city":"Chicago","units":1,"geo_score":0.476,"ils":"0-15%","id":"aae5bdbyj9ae","address":"1411 W. 55th Street","geo_precision":"street","state":"IL","ward":16},"type":"Feature","geometry":{"type":"Point","coordinates":[-87.635362,41.794478]}},{"properties":{"city":"Chicago","units":1,"geo_score":0.468,"ils":"0-15%","id":"aae5bd72olqf","address":"6241 S. Throop","geo_precision":"street","state":"IL","ward":16},"type":"Feature","geometry":{"type":"Point","coordinates":[-87.659636,41.881609]}},{"properties":{"city":"Chicago","units":1,"geo_score":0.468,"ils":"0-15%","id":"aae5bczdxz6s","address":"6133 S. Bishop","geo_precision":"street","state":"IL","ward":16},"type":"Feature","geometry":{"type":"Point","coordinates":[-87.66393,41.892472]}},{"properties":{"city":"Chicago","units":1,"geo_score":0.468,"ils":"16-30%","id":"aae5bd2w42zy","address":"5400 S. Loomis","geo_precision":"street","state":"IL","ward":16},"type":"Feature","geometry":{"type":"Point","coordinates":[-87.662275,41.881564]}},{"properties":{"city":"Chicago","units":1,"geo_score":0.468,"ils":"0-15%","id":"aae5bd5zpeoq","address":"6733 S. Morgan","geo_precision":"street","state":"IL","ward":17},"type":"Feature","geometry":{"type":"Point","coordinates":[-87.652099,41.884215]}},{"properties":{"city":"Chicago","units":1,"geo_score":0.462,"ils":"16-30%","id":"aae5bd4pbrak","address":"7120 S. Parnell","geo_precision":"street","state":"IL","ward":17},"type":"Feature","geometry":{"type":"Point","coordinates":[-87.640278,41.841767]}},{"properties":{"city":"Chicago","units":1,"geo_score":0.471,"ils":"0-15%","id":"aae5bdalsk29","address":"7230 S. Yale","geo_precision":"street","state":"IL","ward":17},"type":"Feature","geometry":{"type":"Point","coordinates":[-87.631796,41.778128]}},{"properties":{"city":"Chicago","units":1,"geo_score":0.471,"ils":"0-15%","id":"aae5bcyugm5y","address":"7248 S. Yale","geo_precision":"street","state":"IL","ward":17},"type":"Feature","geometry":{"type":"Point","coordinates":[-87.631796,41.778128]}},{"properties":{"city":"Chicago","units":1,"geo_score":0.462,"ils":"0-15%","id":"aae5bdepi248","address":"6239 S. Ashland","geo_precision":"street","state":"IL","ward":17},"type":"Feature","geometry":{"type":"Point","coordinates":[-87.66696,41.885329]}},{"properties":{"city":"Chicago","units":10,"geo_score":0.464,"ils":"0-15%","id":"aae5bd7feg92","address":"7750 S. Emerald","geo_precision":"street","state":"IL","ward":17},"type":"Feature","geometry":{"type":"Point","coordinates":[-87.644838,41.781556]}},{"properties":{"city":"Chicago","units":5,"geo_score":0.476,"ils":"16-30%","id":"aae5bd8c3kyk","address":"443 W. 75th Street","geo_precision":"street","state":"IL","ward":17},"type":"Feature","geometry":{"type":"Point","coordinates":[-87.628005,41.758182]}},{"properties":{"city":"Chicago","units":1,"geo_score":0.468,"ils":"0-15%","id":"aae5bdf21k6z","address":"7013 S. Morgan","geo_precision":"street","state":"IL","ward":17},"type":"Feature","geometry":{"type":"Point","coordinates":[-87.652099,41.884215]}},{"properties":{"city":"Chicago","units":1,"geo_score":0.462,"ils":"16-30%","id":"aae5bdaep63z","address":"7929 S. Harvard","geo_precision":"street","state":"IL","ward":17},"type":"Feature","geometry":{"type":"Point","coordinates":[-87.633343,41.776545]}},{"properties":{"city":"Chicago","units":4,"geo_score":0.476,"ils":"0-15%","id":"aae5bd37wlrz","address":"1370 W. 79th Street","geo_precision":"street","state":"IL","ward":17},"type":"Feature","geometry":{"type":"Point","coordinates":[-87.631878,41.750823]}},{"properties":{"city":"Chicago","units":2,"geo_score":0.476,"ils":"16-30%","id":"aae5bd548fl2","address":"1370 W. 79th Street","geo_precision":"street","state":"IL","ward":17},"type":"Feature","geometry":{"type":"Point","coordinates":[-87.631878,41.750823]}},{"properties":{"city":"Chicago","units":1,"geo_score":0.468,"ils":"0-15%","id":"aae5bddi2g6y","address":"7322 S. Laflin","geo_precision":"street","state":"IL","ward":17},"type":"Feature","geometry":{"type":"Point","coordinates":[-87.664351,41.878938]}},{"properties":{"city":"Chicago","units":1,"geo_score":0.468,"ils":"16-30%","id":"aae5bd4fxkqq","address":"6504 S. Bishop","geo_precision":"street","state":"IL","ward":17},"type":"Feature","geometry":{"type":"Point","coordinates":[-87.66393,41.892472]}},{"properties":{"city":"Chicago","units":1,"geo_score":0.455,"ils":"0-15%","id":"aae5bd6j425l","address":"7718 S. Winchester","geo_precision":"street","state":"IL","ward":18},"type":"Feature","geometry":{"type":"Point","coordinates":[-87.674951,41.873111]}},{"properties":{"city":"Chicago","units":3,"geo_score":0.476,"ils":"0-15%","id":"aae5bd6e0jn7","address":"1301 W. 80th Street","geo_precision":"street","state":"IL","ward":18},"type":"Feature","geometry":{"type":"Point","coordinates":[-87.626984,41.749083]}},{"properties":{"city":"Chicago","units":20,"geo_score":0.455,"ils":"0-15%","id":"aae5bd5qpbvw","address":"1622 N. California","geo_precision":"street","state":"IL","ward":20},"type":"Feature","geometry":{"type":"Point","coordinates":[-87.696177,41.876958]}},{"properties":{"city":"Chicago","units":3,"geo_score":0.462,"ils":"0-15%","id":"aae5bdc4lk7j","address":"6109 S. Indiana","geo_precision":"street","state":"IL","ward":20},"type":"Feature","geometry":{"type":"Point","coordinates":[-87.622672,41.867561]}},{"properties":{"city":"Chicago","units":4,"geo_score":0.462,"ils":"0-15%","id":"aae5bdbzydm3","address":"5717 S. Prairie","geo_precision":"street","state":"IL","ward":20},"type":"Feature","geometry":{"type":"Point","coordinates":[-87.620767,41.857921]}},{"properties":{"city":"Chicago","units":1,"geo_score":0.464,"ils":"0-15%","id":"aae5bd0jp8gi","address":"6512 S. Rhodes","geo_precision":"street","state":"IL","ward":20},"type":"Feature","geometry":{"type":"Point","coordinates":[-87.61348,41.837659]}},{"properties":{"city":"Chicago","units":1,"geo_score":0.464,"ils":"0-15%","id":"aae5bczpwiv9","address":"5641 S. Justine","geo_precision":"street","state":"IL","ward":20},"type":"Feature","geometry":{"type":"Point","coordinates":[-87.665438,41.88536]}},{"properties":{"city":"Chicago","units":1,"geo_score":0.462,"ils":"16-30%","id":"aae5bd9kjczp","address":"6041 S. Indiana","geo_precision":"street","state":"IL","ward":20},"type":"Feature","geometry":{"type":"Point","coordinates":[-87.622672,41.867561]}},{"properties":{"city":"Chicago","units":1,"geo_score":0.457,"ils":"0-15%","id":"aae5bd4wjjcs","address":"6062 S. Lafayette","geo_precision":"street","state":"IL","ward":20},"type":"Feature","geometry":{"type":"Point","coordinates":[-87.626773,41.793883]}},{"properties":{"city":"Chicago","units":1,"geo_score":0.476,"ils":"0-15%","id":"aae5bd11leng","address":"929 W. 54th Place","geo_precision":"street","state":"IL","ward":20},"type":"Feature","geometry":{"type":"Point","coordinates":[-87.627333,41.796476]}},{"properties":{"city":"Chicago","units":1,"geo_score":0.476,"ils":"0-15%","id":"aae5bczhxtmy","address":"817 W. 54th Street","geo_precision":"street","state":"IL","ward":20},"type":"Feature","geometry":{"type":"Point","coordinates":[-87.627333,41.796476]}},{"properties":{"city":"Chicago","units":3,"geo_score":0.462,"ils":"16-30%","id":"aae5bd8ldu9o","address":"5627 S. Indiana","geo_precision":"street","state":"IL","ward":20},"type":"Feature","geometry":{"type":"Point","coordinates":[-87.622672,41.867561]}},{"properties":{"city":"Chicago","units":1,"geo_score":0.471,"ils":"0-15%","id":"aae5bdczl78b","address":"6732 S. Evans","geo_precision":"street","state":"IL","ward":20},"type":"Feature","geometry":{"type":"Point","coordinates":[-87.62428,41.896231]}},{"properties":{"city":"Chicago","units":1,"geo_score":0.464,"ils":"0-15%","id":"aae5bd5otxpv","address":"5722 S. La Salle","geo_precision":"street","state":"IL","ward":20},"type":"Feature","geometry":{"type":"Point","coordinates":[-87.679657,41.943204]}},{"properties":{"city":"Chicago","units":1,"geo_score":0.476,"ils":"0-15%","id":"aae5bd5auswk","address":"829 W. 54th Place","geo_precision":"street","state":"IL","ward":20},"type":"Feature","geometry":{"type":"Point","coordinates":[-87.627333,41.796476]}},{"properties":{"city":"Chicago","units":1,"geo_score":0.468,"ils":"0-15%","id":"aae5bd3lknat","address":"5606 S. Wabash","geo_precision":"street","state":"IL","ward":20},"type":"Feature","geometry":{"type":"Point","coordinates":[-87.622761,41.71692]}},{"properties":{"city":"Chicago","units":3,"geo_score":0.468,"ils":"16-30%","id":"aae5bd5606z3","address":"5606 S. Wabash","geo_precision":"street","state":"IL","ward":20},"type":"Feature","geometry":{"type":"Point","coordinates":[-87.622761,41.71692]}},{"properties":{"city":"Chicago","units":2,"geo_score":0.476,"ils":"0-15%","id":"aae5bd8rnkbf","address":"5950 S. King Drive","geo_precision":"street","state":"IL","ward":20},"type":"Feature","geometry":{"type":"Point","coordinates":[-87.618077,41.849236]}},{"properties":{"city":"Chicago","units":5,"geo_score":0.476,"ils":"16-30%","id":"aae5bd6voydc","address":"5950 S. King Drive","geo_precision":"street","state":"IL","ward":20},"type":"Feature","geometry":{"type":"Point","coordinates":[-87.618077,41.849236]}},{"properties":{"city":"Chicago","units":1,"geo_score":0.468,"ils":"0-15%","id":"aae5bd3d9i1s","address":"6147 S. Wabash","geo_precision":"street","state":"IL","ward":20},"type":"Feature","geometry":{"type":"Point","coordinates":[-87.622761,41.71692]}},{"properties":{"city":"Chicago","units":3,"geo_score":0.476,"ils":"0-15%","id":"aae5bd2nznxj","address":"109 E. 57th Street","geo_precision":"street","state":"IL","ward":20},"type":"Feature","geometry":{"type":"Point","coordinates":[-87.624804,41.791028]}},{"properties":{"city":"Chicago","units":12,"geo_score":0.476,"ils":"0-15%","id":"aae5bd2nr3wh","address":"6116 S. King Drive","geo_precision":"street","state":"IL","ward":20},"type":"Feature","geometry":{"type":"Point","coordinates":[-87.618077,41.849236]}},{"properties":{"city":"Chicago","units":5,"geo_score":0.476,"ils":"16-30%","id":"aae5bddb4fzn","address":"333 E. 55th Place","geo_precision":"street","state":"IL","ward":20},"type":"Feature","geometry":{"type":"Point","coordinates":[-87.622466,41.794693]}},{"properties":{"city":"Chicago","units":4,"geo_score":0.455,"ils":"0-15%","id":"aae5bda4ugoi","address":"6230 S. Dorchester","geo_precision":"street","state":"IL","ward":20},"type":"Feature","geometry":{"type":"Point","coordinates":[-87.591949,41.807876]}},{"properties":{"city":"Chicago","units":1,"geo_score":0.476,"ils":"0-15%","id":"aae5bdb64ga7","address":"1411 E. 65th Street","geo_precision":"street","state":"IL","ward":20},"type":"Feature","geometry":{"type":"Point","coordinates":[-87.614331,41.776626]}},{"properties":{"city":"Chicago","units":6,"geo_score":0.462,"ils":"0-15%","id":"aae5bdcfqpx3","address":"6146 S. Kenwood","geo_precision":"street","state":"IL","ward":20},"type":"Feature","geometry":{"type":"Point","coordinates":[-87.593437,41.800958]}},{"properties":{"city":"Chicago","units":1,"geo_score":0.462,"ils":"16-30%","id":"aae5bczdv1s2","address":"6146 S. Kenwood","geo_precision":"street","state":"IL","ward":20},"type":"Feature","geometry":{"type":"Point","coordinates":[-87.593437,41.800958]}},{"properties":{"city":"Chicago","units":13,"geo_score":0.455,"ils":"0-15%","id":"aae5bd8zx3xe","address":"6800 S. Dorchester","geo_precision":"street","state":"IL","ward":20},"type":"Feature","geometry":{"type":"Point","coordinates":[-87.591949,41.807876]}},{"properties":{"city":"Chicago","units":3,"geo_score":0.455,"ils":"16-30%","id":"aae5bdcgtyvj","address":"6800 S. Dorchester","geo_precision":"street","state":"IL","ward":20},"type":"Feature","geometry":{"type":"Point","coordinates":[-87.591949,41.807876]}},{"properties":{"city":"Chicago","units":7,"geo_score":0.459,"ils":"0-15%","id":"aae5bdf5m4xn","address":"6126 S. Woodlawn","geo_precision":"street","state":"IL","ward":20},"type":"Feature","geometry":{"type":"Point","coordinates":[-87.596854,41.814147]}},{"properties":{"city":"Chicago","units":2,"geo_score":0.459,"ils":"16-30%","id":"aae5bd97s8jf","address":"6126 S. Woodlawn","geo_precision":"street","state":"IL","ward":20},"type":"Feature","geometry":{"type":"Point","coordinates":[-87.596854,41.814147]}},{"properties":{"city":"Chicago","units":3,"geo_score":0.462,"ils":"16-30%","id":"aae5bdbo7ivr","address":"6224 S. Kimbark","geo_precision":"street","state":"IL","ward":20},"type":"Feature","geometry":{"type":"Point","coordinates":[-87.595057,41.800938]}},{"properties":{"city":"Chicago","units":10,"geo_score":0.471,"ils":"0-15%","id":"aae5bdbeinmb","address":"6565 S. Yale","geo_precision":"street","state":"IL","ward":20},"type":"Feature","geometry":{"type":"Point","coordinates":[-87.631796,41.778128]}},{"properties":{"city":"Chicago","units":3,"geo_score":0.471,"ils":"16-30%","id":"aae5bd1vk7zq","address":"6565 S. Yale","geo_precision":"street","state":"IL","ward":20},"type":"Feature","geometry":{"type":"Point","coordinates":[-87.631796,41.778128]}},{"properties":{"city":"Chicago","units":1,"geo_score":0.464,"ils":"16-30%","id":"aae5bd74937g","address":"9443 S. Justine","geo_precision":"street","state":"IL","ward":21},"type":"Feature","geometry":{"type":"Point","coordinates":[-87.665438,41.88536]}},{"properties":{"city":"Chicago","units":4,"geo_score":0.476,"ils":"0-15%","id":"aae5bd7v5kjh","address":"1334 W. 83rd Street","geo_precision":"street","state":"IL","ward":21},"type":"Feature","geometry":{"type":"Point","coordinates":[-87.625536,41.743636]}},{"properties":{"city":"Chicago","units":5,"geo_score":0.476,"ils":"0-15%","id":"aae5bdd9mzwu","address":"1314 W. 82nd Street","geo_precision":"street","state":"IL","ward":21},"type":"Feature","geometry":{"type":"Point","coordinates":[-87.627496,41.745422]}},{"properties":{"city":"Chicago","units":3,"geo_score":0.476,"ils":"0-15%","id":"aae5bd6jv7gt","address":"1334 W. 83rd Street","geo_precision":"street","state":"IL","ward":21},"type":"Feature","geometry":{"type":"Point","coordinates":[-87.625536,41.743636]}},{"properties":{"city":"Chicago","units":1,"geo_score":0.476,"ils":"0-15%","id":"aae5bd3tma7c","address":"1334 W. 83rd Street","geo_precision":"street","state":"IL","ward":21},"type":"Feature","geometry":{"type":"Point","coordinates":[-87.625536,41.743636]}},{"properties":{"city":"Chicago","units":4,"geo_score":0.476,"ils":"0-15%","id":"aae5bd54eyzu","address":"1434 W. 83rd Street","geo_precision":"street","state":"IL","ward":21},"type":"Feature","geometry":{"type":"Point","coordinates":[-87.625536,41.743636]}},{"properties":{"city":"Chicago","units":1,"geo_score":0.462,"ils":"16-30%","id":"aae5bd6smldp","address":"9101 S. Beverly","geo_precision":"street","state":"IL","ward":21},"type":"Feature","geometry":{"type":"Point","coordinates":[-87.672784,41.735654]}},{"properties":{"city":"Chicago","units":3,"geo_score":0.476,"ils":"16-30%","id":"aae5bd3i9hea","address":"1401 W. 80th Street","geo_precision":"street","state":"IL","ward":21},"type":"Feature","geometry":{"type":"Point","coordinates":[-87.626984,41.749083]}},{"properties":{"city":"Chicago","units":3,"geo_score":0.464,"ils":"16-30%","id":"aae5bdf76lfv","address":"7955 S. Paulina","geo_precision":"street","state":"IL","ward":21},"type":"Feature","geometry":{"type":"Point","coordinates":[-87.669317,41.881895]}},{"properties":{"city":"Chicago","units":3,"geo_score":0.462,"ils":"0-15%","id":"aae5bd6mwq0h","address":"7959 S. Ashland","geo_precision":"street","state":"IL","ward":21},"type":"Feature","geometry":{"type":"Point","coordinates":[-87.66696,41.885329]}},{"properties":{"city":"Chicago","units":5,"geo_score":0.476,"ils":"0-15%","id":"aae5bd0pe1nc","address":"1605 W. 80th Street","geo_precision":"street","state":"IL","ward":21},"type":"Feature","geometry":{"type":"Point","coordinates":[-87.626984,41.749083]}},{"properties":{"city":"Chicago","units":1,"geo_score":0.468,"ils":"0-15%","id":"aae5bd00zs74","address":"8821 S. Loomis","geo_precision":"street","state":"IL","ward":21},"type":"Feature","geometry":{"type":"Point","coordinates":[-87.662275,41.881564]}},{"properties":{"city":"Chicago","units":4,"geo_score":0.464,"ils":"0-15%","id":"aae5bd1zqpww","address":"8101 S.Marshfield","geo_precision":"street","state":"IL","ward":21},"type":"Feature","geometry":{"type":"Point","coordinates":[-87.670955,42.017603]}},{"properties":{"city":"Chicago","units":1,"geo_score":0.468,"ils":"16-30%","id":"aae5bd8v9dva","address":"2349 S. Drake","geo_precision":"street","state":"IL","ward":22},"type":"Feature","geometry":{"type":"Point","coordinates":[-87.714069,41.861872]}},{"properties":{"city":"Chicago","units":2,"geo_score":0.468,"ils":"16-30%","id":"aae5bd3s6xla","address":"2700 S. Drake","geo_precision":"street","state":"IL","ward":22},"type":"Feature","geometry":{"type":"Point","coordinates":[-87.714069,41.861872]}},{"properties":{"city":"Chicago","units":4,"geo_score":0.468,"ils":"0-15%","id":"aae5bdf9ra3r","address":"4100 W. Ogden","geo_precision":"street","state":"IL","ward":22},"type":"Feature","geometry":{"type":"Point","coordinates":[-87.66679,41.880838]}},{"properties":{"city":"Chicago","units":3,"geo_score":0.476,"ils":"16-30%","id":"aae5bdbueah1","address":"3515 W. 23rd Street","geo_precision":"street","state":"IL","ward":22},"type":"Feature","geometry":{"type":"Point","coordinates":[-87.635764,41.850013]}},{"properties":{"city":"Chicago","units":5,"geo_score":0.471,"ils":"0-15%","id":"aae5bdcazl1y","address":"1235 S. Sawyer","geo_precision":"street","state":"IL","ward":24},"type":"Feature","geometry":{"type":"Point","coordinates":[-87.702238,41.6974]}},{"properties":{"city":"Chicago","units":1,"geo_score":0.471,"ils":"16-30%","id":"aae5bd21ntzu","address":"1235 S. Sawyer","geo_precision":"street","state":"IL","ward":24},"type":"Feature","geometry":{"type":"Point","coordinates":[-87.702238,41.6974]}},{"properties":{"city":"Chicago","units":1,"geo_score":0.471,"ils":"16-30%","id":"aae5bdb7nztn","address":"2102 S. Pulaski","geo_precision":"street","state":"IL","ward":24},"type":"Feature","geometry":{"type":"Point","coordinates":[-87.721089,41.711349]}},{"properties":{"city":"Chicago","units":1,"geo_score":0.459,"ils":"0-15%","id":"aae5bdci52hg","address":"1453 S. Komensky","geo_precision":"street","state":"IL","ward":24},"type":"Feature","geometry":{"type":"Point","coordinates":[-87.726286,41.862504]}},{"properties":{"city":"Chicago","units":2,"geo_score":0.464,"ils":"0-15%","id":"aae5bdcj8qvz","address":"1525 S. Hamlin","geo_precision":"street","state":"IL","ward":24},"type":"Feature","geometry":{"type":"Point","coordinates":[-87.720136,41.860749]}},{"properties":{"city":"Chicago","units":1,"geo_score":0.464,"ils":"16-30%","id":"aae5bczxwm3s","address":"3909 W. Gladys","geo_precision":"street","state":"IL","ward":24},"type":"Feature","geometry":{"type":"Point","coordinates":[-87.678985,41.876939]}},{"properties":{"city":"Chicago","units":1,"geo_score":0.462,"ils":"16-30%","id":"aae5bczlnunt","address":"1436 S. Kostner","geo_precision":"street","state":"IL","ward":24},"type":"Feature","geometry":{"type":"Point","coordinates":[-87.735379,41.87786]}},{"properties":{"city":"Chicago","units":1,"geo_score":0.459,"ils":"16-30%","id":"aae5bd7yyh0p","address":"1861 S. Komensky","geo_precision":"street","state":"IL","ward":24},"type":"Feature","geometry":{"type":"Point","coordinates":[-87.726286,41.862504]}},{"properties":{"city":"Chicago","units":1,"geo_score":0.462,"ils":"0-15%","id":"aae5bd6oe8cb","address":"1521 S. Harding","geo_precision":"street","state":"IL","ward":24},"type":"Feature","geometry":{"type":"Point","coordinates":[-87.72385,41.862534]}},{"properties":{"city":"Chicago","units":2,"geo_score":0.464,"ils":"0-15%","id":"aae5bddyag68","address":"1511 S. Lawndale","geo_precision":"street","state":"IL","ward":24},"type":"Feature","geometry":{"type":"Point","coordinates":[-87.679837,41.922716]}},{"properties":{"city":"Chicago","units":10,"geo_score":0.464,"ils":"0-15%","id":"aae5bd3frur3","address":"1251 S. Keeler","geo_precision":"street","state":"IL","ward":24},"type":"Feature","geometry":{"type":"Point","coordinates":[-87.730573,41.880666]}},{"properties":{"city":"Chicago","units":1,"geo_score":0.482,"ils":"0-15%","id":"aae5bd7ycfey","address":"4905 W. Van Buren","geo_precision":"street","state":"IL","ward":24},"type":"Feature","geometry":{"type":"Point","coordinates":[-87.736887,41.977594]}},{"properties":{"city":"Chicago","units":6,"geo_score":0.464,"ils":"16-30%","id":"aae5bd6epw32","address":"4031 W. Gladys","geo_precision":"street","state":"IL","ward":24},"type":"Feature","geometry":{"type":"Point","coordinates":[-87.678985,41.876939]}},{"properties":{"city":"Chicago","units":5,"geo_score":0.476,"ils":"0-15%","id":"aae5bd9aoga5","address":"3857 W. Polk","geo_precision":"street","state":"IL","ward":24},"type":"Feature","geometry":{"type":"Point","coordinates":[-87.627626,41.872301]}},{"properties":{"city":"Chicago","units":3,"geo_score":0.457,"ils":"0-15%","id":"aae5bcz6puuo","address":"711 S. Independence Boulavard","geo_precision":"street","state":"IL","ward":24},"type":"Feature","geometry":{"type":"Point","coordinates":[-87.699323,41.847138]}},{"properties":{"city":"Chicago","units":7,"geo_score":0.457,"ils":"16-30%","id":"aae5bd2sosnj","address":"711 S. Independence Boulavard","geo_precision":"street","state":"IL","ward":24},"type":"Feature","geometry":{"type":"Point","coordinates":[-87.699323,41.847138]}},{"properties":{"city":"Chicago","units":1,"geo_score":0.459,"ils":"16-30%","id":"aae5bdc3jllh","address":"1444 S. Ridgeway","geo_precision":"street","state":"IL","ward":24},"type":"Feature","geometry":{"type":"Point","coordinates":[-87.718943,41.861701]}},{"properties":{"city":"Chicago","units":11,"geo_score":0.459,"ils":"16-30%","id":"aae5bd25wg8o","address":"4041 W. Roosevelt Road","geo_precision":"street","state":"IL","ward":24},"type":"Feature","geometry":{"type":"Point","coordinates":[-87.629298,41.867457]}},{"properties":{"city":"Chicago","units":1,"geo_score":0.476,"ils":"16-30%","id":"aae5bcz8bw1d","address":"1852 S. Troy","geo_precision":"street","state":"IL","ward":24},"type":"Feature","geometry":{"type":"Point","coordinates":[-87.704807,41.877796]}},{"properties":{"city":"Chicago","units":1,"geo_score":0.714,"ils":"0-15%","id":"aae5bdcykn4a","address":"1530 S. Christina","geo_precision":"city","state":"IL","ward":24},"type":"Feature","geometry":{"type":"Point","coordinates":[-87.68732,41.811929]}},{"properties":{"city":"Chicago","units":5,"geo_score":0.468,"ils":"0-15%","id":"aae5bd0h1qz5","address":"1203 S. Kolin","geo_precision":"street","state":"IL","ward":24},"type":"Feature","geometry":{"type":"Point","coordinates":[-87.733721,41.865591]}},{"properties":{"city":"Chicago","units":2,"geo_score":0.468,"ils":"16-30%","id":"aae5bdc4nuaq","address":"1203 S. Kolin","geo_precision":"street","state":"IL","ward":24},"type":"Feature","geometry":{"type":"Point","coordinates":[-87.733721,41.865591]}},{"properties":{"city":"Chicago","units":1,"geo_score":0.464,"ils":"0-15%","id":"aae5bcz7sskp","address":"1825 S. Lawndale","geo_precision":"street","state":"IL","ward":24},"type":"Feature","geometry":{"type":"Point","coordinates":[-87.679837,41.922716]}},{"properties":{"city":"Chicago","units":1,"geo_score":0.468,"ils":"0-15%","id":"aae5bd79ykwl","address":"1432 S. Homan","geo_precision":"street","state":"IL","ward":24},"type":"Feature","geometry":{"type":"Point","coordinates":[-87.711006,41.880917]}},{"properties":{"city":"Chicago","units":1,"geo_score":0.476,"ils":"0-15%","id":"aae5bdcd2422","address":"3946 W. Polk","geo_precision":"street","state":"IL","ward":24},"type":"Feature","geometry":{"type":"Point","coordinates":[-87.627626,41.872301]}},{"properties":{"city":"Chicago","units":1,"geo_score":0.476,"ils":"16-30%","id":"aae5bdaxgwss","address":"1921 W. 17th Street","geo_precision":"street","state":"IL","ward":25},"type":"Feature","geometry":{"type":"Point","coordinates":[-87.628738,41.858975]}},{"properties":{"city":"Chicago","units":1,"geo_score":0.468,"ils":"16-30%","id":"aae5bddjkh1r","address":"1841 S. Laflin","geo_precision":"street","state":"IL","ward":25},"type":"Feature","geometry":{"type":"Point","coordinates":[-87.664351,41.878938]}},{"properties":{"city":"Chicago","units":1,"geo_score":0.476,"ils":"0-15%","id":"aae5bd4qpgho","address":"1714 W. 17th Street","geo_precision":"street","state":"IL","ward":25},"type":"Feature","geometry":{"type":"Point","coordinates":[-87.628738,41.858975]}},{"properties":{"city":"Chicago","units":1,"geo_score":0.476,"ils":"16-30%","id":"aae5bd1y3zbe","address":"967 W. 19th Street","geo_precision":"street","state":"IL","ward":25},"type":"Feature","geometry":{"type":"Point","coordinates":[-87.62863,41.856604]}},{"properties":{"city":"Chicago","units":1,"geo_score":0.476,"ils":"16-30%","id":"aae5bd5n74vc","address":"1313 W. 19th Street","geo_precision":"street","state":"IL","ward":25},"type":"Feature","geometry":{"type":"Point","coordinates":[-87.62863,41.856604]}},{"properties":{"city":"Chicago","units":2,"geo_score":0.476,"ils":"16-30%","id":"aae5bd01w6xn","address":"1721 W. 17th Street","geo_precision":"street","state":"IL","ward":25},"type":"Feature","geometry":{"type":"Point","coordinates":[-87.628738,41.858975]}},{"properties":{"city":"Chicago","units":1,"geo_score":0.476,"ils":"16-30%","id":"aae5bdfa86zg","address":"1714 W. 19th Street","geo_precision":"street","state":"IL","ward":25},"type":"Feature","geometry":{"type":"Point","coordinates":[-87.62863,41.856604]}},{"properties":{"city":"Chicago","units":3,"geo_score":0.459,"ils":"16-30%","id":"aae5bddz9czv","address":"963 W. Cullerton","geo_precision":"street","state":"IL","ward":25},"type":"Feature","geometry":{"type":"Point","coordinates":[-87.629408,41.85548]}},{"properties":{"city":"Chicago","units":6,"geo_score":0.462,"ils":"0-15%","id":"aae5bd2tb60m","address":"3306 W. Division","geo_precision":"street","state":"IL","ward":26},"type":"Feature","geometry":{"type":"Point","coordinates":[-87.630715,41.903914]}},{"properties":{"city":"Chicago","units":3,"geo_score":0.457,"ils":"0-15%","id":"aae5bdaq6rwk","address":"929 N. Sacramento","geo_precision":"street","state":"IL","ward":26},"type":"Feature","geometry":{"type":"Point","coordinates":[-87.700788,41.866455]}},{"properties":{"city":"Chicago","units":9,"geo_score":0.457,"ils":"16-30%","id":"aae5bd5975qy","address":"929 N. Sacramento","geo_precision":"street","state":"IL","ward":26},"type":"Feature","geometry":{"type":"Point","coordinates":[-87.700788,41.866455]}},{"properties":{"city":"Chicago","units":1,"geo_score":0.454,"ils":"0-15%","id":"aae5bd2d437c","address":"3600 W. Shakespeare","geo_precision":"street","state":"IL","ward":26},"type":"Feature","geometry":{"type":"Point","coordinates":[-87.678246,41.920788]}},{"properties":{"city":"Chicago","units":7,"geo_score":0.457,"ils":"0-15%","id":"aae5bdci5hws","address":"901 N. Sacramento","geo_precision":"street","state":"IL","ward":26},"type":"Feature","geometry":{"type":"Point","coordinates":[-87.700788,41.866455]}},{"properties":{"city":"Chicago","units":14,"geo_score":0.457,"ils":"16-30%","id":"aae5bd8anufi","address":"901 N. Sacramento","geo_precision":"street","state":"IL","ward":26},"type":"Feature","geometry":{"type":"Point","coordinates":[-87.700788,41.866455]}},{"properties":{"city":"Chicago","units":1,"geo_score":0.459,"ils":"16-30%","id":"aae5bdbmysm6","address":"1941 N. Monticello","geo_precision":"street","state":"IL","ward":26},"type":"Feature","geometry":{"type":"Point","coordinates":[-87.72037,41.998917]}},{"properties":{"city":"Chicago","units":1,"geo_score":0.468,"ils":"0-15%","id":"aae5bd8jultt","address":"1536 N. St. Louis","geo_precision":"street","state":"IL","ward":26},"type":"Feature","geometry":{"type":"Point","coordinates":[-87.746354,41.984694]}},{"properties":{"city":"Chicago","units":2,"geo_score":0.468,"ils":"0-15%","id":"aae5bd7q1o15","address":"2500 W. Thomas","geo_precision":"street","state":"IL","ward":26},"type":"Feature","geometry":{"type":"Point","coordinates":[-87.661743,41.901491]}},{"properties":{"city":"Chicago","units":1,"geo_score":0.468,"ils":"0-15%","id":"aae5bd8dt9c6","address":"3301 W. Palmer","geo_precision":"street","state":"IL","ward":26},"type":"Feature","geometry":{"type":"Point","coordinates":[-87.683692,41.921907]}},{"properties":{"city":"Chicago","units":9,"geo_score":0.468,"ils":"16-30%","id":"aae5bd5sihf6","address":"3301 W. Palmer","geo_precision":"street","state":"IL","ward":26},"type":"Feature","geometry":{"type":"Point","coordinates":[-87.683692,41.921907]}},{"properties":{"city":"Chicago","units":1,"geo_score":0.468,"ils":"0-15%","id":"aae5bd0wdenk","address":"1810 N. St. Louis","geo_precision":"street","state":"IL","ward":26},"type":"Feature","geometry":{"type":"Point","coordinates":[-87.746354,41.984694]}},{"properties":{"city":"Chicago","units":5,"geo_score":0.468,"ils":"16-30%","id":"aae5bd4ekwgb","address":"1810 N. St. Louis","geo_precision":"street","state":"IL","ward":26},"type":"Feature","geometry":{"type":"Point","coordinates":[-87.746354,41.984694]}},{"properties":{"city":"Chicago","units":1,"geo_score":0.457,"ils":"0-15%","id":"aae5bd3tb1vc","address":"1414 N. Washtenaw","geo_precision":"street","state":"IL","ward":26},"type":"Feature","geometry":{"type":"Point","coordinates":[-87.694172,41.893582]}},{"properties":{"city":"Chicago","units":2,"geo_score":0.457,"ils":"16-30%","id":"aae5bd6danym","address":"1414 N. Washtenaw","geo_precision":"street","state":"IL","ward":26},"type":"Feature","geometry":{"type":"Point","coordinates":[-87.694172,41.893582]}},{"properties":{"city":"Chicago","units":1,"geo_score":0.714,"ils":"0-15%","id":"aae5bdehevvv","address":"1318 N. Rockwell","geo_precision":"city","state":"IL","ward":26},"type":"Feature","geometry":{"type":"Point","coordinates":[-87.68732,41.811929]}},{"properties":{"city":"Chicago","units":3,"geo_score":0.714,"ils":"16-30%","id":"aae5bda3cpul","address":"1318 N. Rockwell","geo_precision":"city","state":"IL","ward":26},"type":"Feature","geometry":{"type":"Point","coordinates":[-87.68732,41.811929]}},{"properties":{"city":"Chicago","units":3,"geo_score":0.714,"ils":"16-30%","id":"aae5bd8ur7g9","address":"1456 N. Rockwell","geo_precision":"city","state":"IL","ward":26},"type":"Feature","geometry":{"type":"Point","coordinates":[-87.68732,41.811929]}},{"properties":{"city":"Chicago","units":20,"geo_score":0.462,"ils":"0-15%","id":"aae5bd70r4cb","address":"3339 W. Division","geo_precision":"street","state":"IL","ward":26},"type":"Feature","geometry":{"type":"Point","coordinates":[-87.630715,41.903914]}},{"properties":{"city":"Chicago","units":2,"geo_score":0.462,"ils":"16-30%","id":"aae5bd9qlagf","address":"3339 W. Division","geo_precision":"street","state":"IL","ward":26},"type":"Feature","geometry":{"type":"Point","coordinates":[-87.630715,41.903914]}},{"properties":{"city":"Chicago","units":11,"geo_score":0.482,"ils":"0-15%","id":"aae5bdb351to","address":"3507 W. North","geo_precision":"street","state":"IL","ward":26},"type":"Feature","geometry":{"type":"Point","coordinates":[-87.618609,41.891034]}},{"properties":{"city":"Chicago","units":1,"geo_score":0.459,"ils":"0-15%","id":"aae5bd9mg1z5","address":"1226 N. Artesian","geo_precision":"street","state":"IL","ward":26},"type":"Feature","geometry":{"type":"Point","coordinates":[-87.688884,41.925432]}},{"properties":{"city":"Chicago","units":1,"geo_score":0.468,"ils":"0-15%","id":"aae5bd0ofnh8","address":"3345 W. Beach","geo_precision":"street","state":"IL","ward":26},"type":"Feature","geometry":{"type":"Point","coordinates":[-87.668118,41.907599]}},{"properties":{"city":"Chicago","units":1,"geo_score":0.457,"ils":"0-15%","id":"aae5bdd5qkmv","address":"868 N. Sacramento","geo_precision":"street","state":"IL","ward":26},"type":"Feature","geometry":{"type":"Point","coordinates":[-87.700788,41.866455]}},{"properties":{"city":"Chicago","units":2,"geo_score":0.462,"ils":"16-30%","id":"aae5bdf1fu5j","address":"3416 W. Potomac","geo_precision":"street","state":"IL","ward":26},"type":"Feature","geometry":{"type":"Point","coordinates":[-87.663282,41.9052]}},{"properties":{"city":"Chicago","units":1,"geo_score":0.471,"ils":"16-30%","id":"aae5bd531o0u","address":"1622 N. Albany","geo_precision":"street","state":"IL","ward":26},"type":"Feature","geometry":{"type":"Point","coordinates":[-87.713681,42.000999]}},{"properties":{"city":"Chicago","units":1,"geo_score":0.714,"ils":"16-30%","id":"aae5bdaeojkz","address":"1019 N. Fransico","geo_precision":"city","state":"IL","ward":26},"type":"Feature","geometry":{"type":"Point","coordinates":[-87.68732,41.811929]}},{"properties":{"city":"Chicago","units":2,"geo_score":0.462,"ils":"0-15%","id":"aae5bdf6fupi","address":"1750 N. Spaulding","geo_precision":"street","state":"IL","ward":26},"type":"Feature","geometry":{"type":"Point","coordinates":[-87.711903,41.999157]}},{"properties":{"city":"Chicago","units":3,"geo_score":0.462,"ils":"16-30%","id":"aae5bd3qqwt1","address":"1750 N. Spaulding","geo_precision":"street","state":"IL","ward":26},"type":"Feature","geometry":{"type":"Point","coordinates":[-87.711903,41.999157]}},{"properties":{"city":"Chicago","units":1,"geo_score":0.714,"ils":"16-30%","id":"aae5bd71h0sz","address":"3508 W. Dickens","geo_precision":"city","state":"IL","ward":26},"type":"Feature","geometry":{"type":"Point","coordinates":[-87.68732,41.811929]}},{"properties":{"city":"Chicago","units":1,"geo_score":0.468,"ils":"16-30%","id":"aae5bd191jas","address":"634 S. Avers","geo_precision":"street","state":"IL","ward":27},"type":"Feature","geometry":{"type":"Point","coordinates":[-87.722411,41.8954]}},{"properties":{"city":"Chicago","units":1,"geo_score":0.476,"ils":"0-15%","id":"aae5bddzawvl","address":"4924 W. Iowa","geo_precision":"street","state":"IL","ward":27},"type":"Feature","geometry":{"type":"Point","coordinates":[-87.641821,41.89835]}},{"properties":{"city":"Chicago","units":1,"geo_score":0.471,"ils":"16-30%","id":"aae5bdazo6dr","address":"1039 N. Hamlin","geo_precision":"street","state":"IL","ward":27},"type":"Feature","geometry":{"type":"Point","coordinates":[-87.724007,41.999069]}},{"properties":{"city":"Chicago","units":1,"geo_score":0.714,"ils":"0-15%","id":"aae5bdfa6wsg","address":"653 N. Christina","geo_precision":"city","state":"IL","ward":27},"type":"Feature","geometry":{"type":"Point","coordinates":[-87.68732,41.811929]}},{"properties":{"city":"Chicago","units":1,"geo_score":0.459,"ils":"0-15%","id":"aae5bd2yto5l","address":"739 N. Ridgeway","geo_precision":"street","state":"IL","ward":27},"type":"Feature","geometry":{"type":"Point","coordinates":[-87.719803,41.889468]}},{"properties":{"city":"Chicago","units":1,"geo_score":0.471,"ils":"16-30%","id":"aae5bdambenv","address":"1205 N. Hamlin","geo_precision":"street","state":"IL","ward":27},"type":"Feature","geometry":{"type":"Point","coordinates":[-87.724007,41.999069]}},{"properties":{"city":"Chicago","units":63,"geo_score":0.459,"ils":"0-15%","id":"aae5bde6xubm","address":"932 N. Washington","geo_precision":"street","state":"IL","ward":27},"type":"Feature","geometry":{"type":"Point","coordinates":[-87.826765,41.976077]}},{"properties":{"city":"Chicago","units":23,"geo_score":0.459,"ils":"16-30%","id":"aae5bd6idzn5","address":"932 N. Washington","geo_precision":"street","state":"IL","ward":27},"type":"Feature","geometry":{"type":"Point","coordinates":[-87.826765,41.976077]}},{"properties":{"city":"Chicago","units":1,"geo_score":0.457,"ils":"16-30%","id":"aae5bd3iqkpx","address":"1115 N. Springfield","geo_precision":"street","state":"IL","ward":27},"type":"Feature","geometry":{"type":"Point","coordinates":[-87.72639,41.999967]}},{"properties":{"city":"Chicago","units":14,"geo_score":0.471,"ils":"0-15%","id":"aae5bdemsi9f","address":"3656 W. Huron","geo_precision":"street","state":"IL","ward":27},"type":"Feature","geometry":{"type":"Point","coordinates":[-87.631777,41.894825]}},{"properties":{"city":"Chicago","units":5,"geo_score":0.471,"ils":"16-30%","id":"aae5bd9l21dx","address":"3656 W. Huron","geo_precision":"street","state":"IL","ward":27},"type":"Feature","geometry":{"type":"Point","coordinates":[-87.631777,41.894825]}},{"properties":{"city":"Chicago","units":2,"geo_score":0.459,"ils":"0-15%","id":"aae5bdc4ejnc","address":"4200 W. Washington","geo_precision":"street","state":"IL","ward":28},"type":"Feature","geometry":{"type":"Point","coordinates":[-87.826765,41.976077]}},{"properties":{"city":"Chicago","units":2,"geo_score":0.459,"ils":"16-30%","id":"aae5bdcly8rt","address":"4200 W. Washington","geo_precision":"street","state":"IL","ward":28},"type":"Feature","geometry":{"type":"Point","coordinates":[-87.826765,41.976077]}},{"properties":{"city":"Chicago","units":3,"geo_score":0.429,"ils":"0-15%","id":"aae5bd5twd4p","address":"4316 W. West End","geo_precision":"street","state":"IL","ward":28},"type":"Feature","geometry":{"type":"Point","coordinates":[-87.585453,41.80437]}},{"properties":{"city":"Chicago","units":2,"geo_score":0.429,"ils":"16-30%","id":"aae5bdd1mu3t","address":"4316 W. West End","geo_precision":"street","state":"IL","ward":28},"type":"Feature","geometry":{"type":"Point","coordinates":[-87.585453,41.80437]}},{"properties":{"city":"Chicago","units":1,"geo_score":0.459,"ils":"0-15%","id":"aae5bczvjeys","address":"4400 W. Washington","geo_precision":"street","state":"IL","ward":28},"type":"Feature","geometry":{"type":"Point","coordinates":[-87.826765,41.976077]}},{"properties":{"city":"Chicago","units":1,"geo_score":0.459,"ils":"16-30%","id":"aae5bdem19qv","address":"4400 W. Washington","geo_precision":"street","state":"IL","ward":28},"type":"Feature","geometry":{"type":"Point","coordinates":[-87.826765,41.976077]}},{"properties":{"city":"Chicago","units":1,"geo_score":0.471,"ils":"0-15%","id":"aae5bdagnwi7","address":"4401 W. Maypole","geo_precision":"street","state":"IL","ward":28},"type":"Feature","geometry":{"type":"Point","coordinates":[-87.628345,41.901883]}},{"properties":{"city":"Chicago","units":2,"geo_score":0.714,"ils":"0-15%","id":"aae5bd1k0vym","address":"4900 W. Jackson","geo_precision":"city","state":"IL","ward":28},"type":"Feature","geometry":{"type":"Point","coordinates":[-87.68732,41.811929]}},{"properties":{"city":"Chicago","units":1,"geo_score":0.714,"ils":"16-30%","id":"aae5bd47pc2l","address":"4900 W. Jackson","geo_precision":"city","state":"IL","ward":28},"type":"Feature","geometry":{"type":"Point","coordinates":[-87.68732,41.811929]}},{"properties":{"city":"Chicago","units":1,"geo_score":0.457,"ils":"0-15%","id":"aae5bd0wnh2c","address":"3328 W. Congress Parkway","geo_precision":"street","state":"IL","ward":28},"type":"Feature","geometry":{"type":"Point","coordinates":[-87.62689,41.875668]}},{"properties":{"city":"Chicago","units":1,"geo_score":0.468,"ils":"16-30%","id":"aae5bddctc52","address":"3107 W. Monroe","geo_precision":"street","state":"IL","ward":28},"type":"Feature","geometry":{"type":"Point","coordinates":[-87.630853,41.880696]}},{"properties":{"city":"Chicago","units":1,"geo_score":0.457,"ils":"0-15%","id":"aae5bdessrj5","address":"1131 S. Sacramento","geo_precision":"street","state":"IL","ward":28},"type":"Feature","geometry":{"type":"Point","coordinates":[-87.700788,41.866455]}},{"properties":{"city":"Chicago","units":7,"geo_score":0.429,"ils":"0-15%","id":"aae5bd4hzm02","address":"5447 W. West End","geo_precision":"street","state":"IL","ward":28},"type":"Feature","geometry":{"type":"Point","coordinates":[-87.585453,41.80437]}},{"properties":{"city":"Chicago","units":1,"geo_score":0.471,"ils":"0-15%","id":"aae5bd5n9ai9","address":"6 N. Hamlin","geo_precision":"street","state":"IL","ward":28},"type":"Feature","geometry":{"type":"Point","coordinates":[-87.724007,41.999069]}},{"properties":{"city":"Chicago","units":1,"geo_score":0.468,"ils":"16-30%","id":"aae5bd78s1dw","address":"355 S. Homan","geo_precision":"street","state":"IL","ward":28},"type":"Feature","geometry":{"type":"Point","coordinates":[-87.711006,41.880917]}},{"properties":{"city":"Chicago","units":2,"geo_score":0.471,"ils":"0-15%","id":"aae5bd1hs2i3","address":"4701 W. Maypole","geo_precision":"street","state":"IL","ward":28},"type":"Feature","geometry":{"type":"Point","coordinates":[-87.628345,41.901883]}},{"properties":{"city":"Chicago","units":6,"geo_score":0.471,"ils":"16-30%","id":"aae5bd9o8ut8","address":"4701 W. Maypole","geo_precision":"street","state":"IL","ward":28},"type":"Feature","geometry":{"type":"Point","coordinates":[-87.628345,41.901883]}},{"properties":{"city":"Chicago","units":6,"geo_score":0.471,"ils":"0-15%","id":"aae5bczs44qf","address":"7 N. Pine","geo_precision":"street","state":"IL","ward":28},"type":"Feature","geometry":{"type":"Point","coordinates":[-87.763325,41.884256]}},{"properties":{"city":"Chicago","units":15,"geo_score":0.462,"ils":"16-30%","id":"aae5bd325zan","address":"5509 W. Corcoran","geo_precision":"street","state":"IL","ward":28},"type":"Feature","geometry":{"type":"Point","coordinates":[-87.765108,41.887274]}},{"properties":{"city":"Chicago","units":2,"geo_score":0.468,"ils":"0-15%","id":"aae5bd0o03eu","address":"5449 W. Quincy","geo_precision":"street","state":"IL","ward":29},"type":"Feature","geometry":{"type":"Point","coordinates":[-87.627695,41.87884]}},{"properties":{"city":"Chicago","units":2,"geo_score":0.468,"ils":"16-30%","id":"aae5bdcjtdsk","address":"5449 W. Quincy","geo_precision":"street","state":"IL","ward":29},"type":"Feature","geometry":{"type":"Point","coordinates":[-87.627695,41.87884]}},{"properties":{"city":"Chicago","units":4,"geo_score":0.457,"ils":"0-15%","id":"aae5bd3r6kue","address":"840 N. Massasoit","geo_precision":"street","state":"IL","ward":29},"type":"Feature","geometry":{"type":"Point","coordinates":[-87.769044,41.894799]}},{"properties":{"city":"Chicago","units":1,"geo_score":0.457,"ils":"16-30%","id":"aae5bd857chg","address":"5501 W. Congress","geo_precision":"street","state":"IL","ward":29},"type":"Feature","geometry":{"type":"Point","coordinates":[-87.62689,41.875668]}},{"properties":{"city":"Chicago","units":1,"geo_score":0.462,"ils":"0-15%","id":"aae5bddkipqp","address":"301 S. Central","geo_precision":"street","state":"IL","ward":29},"type":"Feature","geometry":{"type":"Point","coordinates":[-87.764828,41.879251]}},{"properties":{"city":"Chicago","units":9,"geo_score":0.459,"ils":"0-15%","id":"aae5bdb992q2","address":"5645 W. Washington","geo_precision":"street","state":"IL","ward":29},"type":"Feature","geometry":{"type":"Point","coordinates":[-87.826765,41.976077]}},{"properties":{"city":"Chicago","units":2,"geo_score":0.459,"ils":"16-30%","id":"aae5bdewsg60","address":"5645 W. Washington","geo_precision":"street","state":"IL","ward":29},"type":"Feature","geometry":{"type":"Point","coordinates":[-87.826765,41.976077]}},{"properties":{"city":"Chicago","units":3,"geo_score":0.468,"ils":"0-15%","id":"aae5bd3bwlvg","address":"5714 W. Thomas","geo_precision":"street","state":"IL","ward":29},"type":"Feature","geometry":{"type":"Point","coordinates":[-87.661743,41.901491]}},{"properties":{"city":"Chicago","units":2,"geo_score":0.462,"ils":"0-15%","id":"aae5bdc5gfv8","address":"133 S. Central","geo_precision":"street","state":"IL","ward":29},"type":"Feature","geometry":{"type":"Point","coordinates":[-87.764828,41.879251]}},{"properties":{"city":"Chicago","units":5,"geo_score":0.462,"ils":"0-15%","id":"aae5bcz32joq","address":"16 S. Central","geo_precision":"street","state":"IL","ward":29},"type":"Feature","geometry":{"type":"Point","coordinates":[-87.764828,41.879251]}},{"properties":{"city":"Chicago","units":3,"geo_score":0.462,"ils":"16-30%","id":"aae5bd6cd1b1","address":"16 S. Central","geo_precision":"street","state":"IL","ward":29},"type":"Feature","geometry":{"type":"Point","coordinates":[-87.764828,41.879251]}},{"properties":{"city":"Chicago","units":3,"geo_score":0.459,"ils":"0-15%","id":"aae5bdbtugad","address":"5700 W. Washington","geo_precision":"street","state":"IL","ward":29},"type":"Feature","geometry":{"type":"Point","coordinates":[-87.826765,41.976077]}},{"properties":{"city":"Chicago","units":1,"geo_score":0.459,"ils":"16-30%","id":"aae5bdbbmfrd","address":"5700 W. Washington","geo_precision":"street","state":"IL","ward":29},"type":"Feature","geometry":{"type":"Point","coordinates":[-87.826765,41.976077]}},{"properties":{"city":"Chicago","units":1,"geo_score":0.464,"ils":"16-30%","id":"aae5bd2a8gnp","address":"1148 S. Keeler","geo_precision":"street","state":"IL","ward":29},"type":"Feature","geometry":{"type":"Point","coordinates":[-87.730573,41.880666]}},{"properties":{"city":"Chicago","units":1,"geo_score":0.464,"ils":"0-15%","id":"aae5bd2w0ahw","address":"5645 W. Madison","geo_precision":"street","state":"IL","ward":29},"type":"Feature","geometry":{"type":"Point","coordinates":[-87.633823,41.881945]}},{"properties":{"city":"Chicago","units":1,"geo_score":0.464,"ils":"16-30%","id":"aae5bdf8nz56","address":"5645 W. Madison","geo_precision":"street","state":"IL","ward":29},"type":"Feature","geometry":{"type":"Point","coordinates":[-87.633823,41.881945]}},{"properties":{"city":"Chicago","units":4,"geo_score":0.464,"ils":"0-15%","id":"aae5bdb4dyf0","address":"5836 W. Madison","geo_precision":"street","state":"IL","ward":29},"type":"Feature","geometry":{"type":"Point","coordinates":[-87.633823,41.881945]}},{"properties":{"city":"Chicago","units":2,"geo_score":0.457,"ils":"0-15%","id":"aae5bd65r5mu","address":"5531 W. Congress","geo_precision":"street","state":"IL","ward":29},"type":"Feature","geometry":{"type":"Point","coordinates":[-87.62689,41.875668]}},{"properties":{"city":"Chicago","units":3,"geo_score":0.468,"ils":"0-15%","id":"aae5bd5myljp","address":"5806 W. Fulton","geo_precision":"street","state":"IL","ward":29},"type":"Feature","geometry":{"type":"Point","coordinates":[-87.639891,41.886818]}},{"properties":{"city":"Chicago","units":1,"geo_score":0.468,"ils":"16-30%","id":"aae5bcz3m914","address":"5806 W. Fulton","geo_precision":"street","state":"IL","ward":29},"type":"Feature","geometry":{"type":"Point","coordinates":[-87.639891,41.886818]}},{"properties":{"city":"Chicago","units":1,"geo_score":0.464,"ils":"0-15%","id":"aae5bd8b9k1h","address":"5554 W. Gladys","geo_precision":"street","state":"IL","ward":29},"type":"Feature","geometry":{"type":"Point","coordinates":[-87.678985,41.876939]}},{"properties":{"city":"Chicago","units":3,"geo_score":0.462,"ils":"0-15%","id":"aae5bda5dl5c","address":"4043 N. Cortland","geo_precision":"street","state":"IL","ward":30},"type":"Feature","geometry":{"type":"Point","coordinates":[-87.66122,41.917073]}},{"properties":{"city":"Chicago","units":2,"geo_score":0.462,"ils":"16-30%","id":"aae5bd8ojdva","address":"1523 N. Kedvale","geo_precision":"street","state":"IL","ward":30},"type":"Feature","geometry":{"type":"Point","coordinates":[-87.729793,41.895765]}},{"properties":{"city":"Chicago","units":2,"geo_score":0.714,"ils":"16-30%","id":"aae5bdabe444","address":"3859 W. Wrightwood","geo_precision":"city","state":"IL","ward":30},"type":"Feature","geometry":{"type":"Point","coordinates":[-87.68732,41.811929]}},{"properties":{"city":"Chicago","units":1,"geo_score":0.476,"ils":"16-30%","id":"aae5bdd899dy","address":"2622 N. Mason","geo_precision":"street","state":"IL","ward":30},"type":"Feature","geometry":{"type":"Point","coordinates":[-87.769129,41.761116]}},{"properties":{"city":"Chicago","units":1,"geo_score":0.468,"ils":"16-30%","id":"aae5bdcvk46k","address":"2429 N. Tripp","geo_precision":"street","state":"IL","ward":31},"type":"Feature","geometry":{"type":"Point","coordinates":[-87.732267,41.895962]}},{"properties":{"city":"Chicago","units":1,"geo_score":0.462,"ils":"0-15%","id":"aae5bdb2ove7","address":"2701 N. Laramie","geo_precision":"street","state":"IL","ward":31},"type":"Feature","geometry":{"type":"Point","coordinates":[-87.755209,41.884319]}},{"properties":{"city":"Chicago","units":1,"geo_score":0.714,"ils":"0-15%","id":"aae5bd5p9cyi","address":"1938 W. School Street","geo_precision":"city","state":"IL","ward":32},"type":"Feature","geometry":{"type":"Point","coordinates":[-87.68732,41.811929]}},{"properties":{"city":"Chicago","units":1,"geo_score":0.464,"ils":"16-30%","id":"aae5bd299ufo","address":"2328 W. McLean","geo_precision":"street","state":"IL","ward":32},"type":"Feature","geometry":{"type":"Point","coordinates":[-87.6796,41.918487]}},{"properties":{"city":"Chicago","units":5,"geo_score":0.462,"ils":"0-15%","id":"aae5bd4wjrmz","address":"1501 W. Belmont","geo_precision":"street","state":"IL","ward":32},"type":"Feature","geometry":{"type":"Point","coordinates":[-87.638433,41.940411]}},{"properties":{"city":"Chicago","units":5,"geo_score":0.462,"ils":"16-30%","id":"aae5bd8nwjl2","address":"1501 W. Belmont","geo_precision":"street","state":"IL","ward":32},"type":"Feature","geometry":{"type":"Point","coordinates":[-87.638433,41.940411]}},{"properties":{"city":"Chicago","units":1,"geo_score":0.468,"ils":"0-15%","id":"aae5bd7ocfzq","address":"4043 N. Mozart","geo_precision":"street","state":"IL","ward":33},"type":"Feature","geometry":{"type":"Point","coordinates":[-87.698118,41.902409]}},{"properties":{"city":"Chicago","units":1,"geo_score":0.464,"ils":"16-30%","id":"aae5bd4drfwy","address":"4500 N. Sawyer","geo_precision":"street","state":"IL","ward":33},"type":"Feature","geometry":{"type":"Point","coordinates":[-87.707428,41.898621]}},{"properties":{"city":"Chicago","units":1,"geo_score":0.464,"ils":"0-15%","id":"aae5bczo8xii","address":"3518 W. Cullom","geo_precision":"street","state":"IL","ward":33},"type":"Feature","geometry":{"type":"Point","coordinates":[-87.66709,41.959796]}},{"properties":{"city":"Chicago","units":2,"geo_score":0.464,"ils":"0-15%","id":"aae5bdbdffgv","address":"2944 W. Cullom","geo_precision":"street","state":"IL","ward":33},"type":"Feature","geometry":{"type":"Point","coordinates":[-87.66709,41.959796]}},{"properties":{"city":"Chicago","units":1,"geo_score":0.464,"ils":"16-30%","id":"aae5bd88f53n","address":"2944 W. Cullom","geo_precision":"street","state":"IL","ward":33},"type":"Feature","geometry":{"type":"Point","coordinates":[-87.66709,41.959796]}},{"properties":{"city":"Chicago","units":1,"geo_score":0.468,"ils":"0-15%","id":"aae5bd3aj7yn","address":"2516 W. Foster","geo_precision":"street","state":"IL","ward":33},"type":"Feature","geometry":{"type":"Point","coordinates":[-87.804865,41.975511]}},{"properties":{"city":"Chicago","units":1,"geo_score":0.471,"ils":"0-15%","id":"aae5bd23or3q","address":"1148 W. 111th Place","geo_precision":"street","state":"IL","ward":34},"type":"Feature","geometry":{"type":"Point","coordinates":[-87.632195,41.692477]}},{"properties":{"city":"Chicago","units":6,"geo_score":0.457,"ils":"0-15%","id":"aae5bd8kz7cz","address":"11045 S. Wentworth","geo_precision":"street","state":"IL","ward":34},"type":"Feature","geometry":{"type":"Point","coordinates":[-87.63185,41.856198]}},{"properties":{"city":"Chicago","units":2,"geo_score":0.457,"ils":"16-30%","id":"aae5bd9881xy","address":"11045 S. Wentworth","geo_precision":"street","state":"IL","ward":34},"type":"Feature","geometry":{"type":"Point","coordinates":[-87.63185,41.856198]}},{"properties":{"city":"Chicago","units":1,"geo_score":0.468,"ils":"0-15%","id":"aae5bcz3slzo","address":"10420 S. Union","geo_precision":"street","state":"IL","ward":34},"type":"Feature","geometry":{"type":"Point","coordinates":[-87.645016,41.863848]}},{"properties":{"city":"Chicago","units":2,"geo_score":0.462,"ils":"0-15%","id":"aae5bd8yple3","address":"1908 N. Kimball","geo_precision":"street","state":"IL","ward":35},"type":"Feature","geometry":{"type":"Point","coordinates":[-87.711664,41.910605]}},{"properties":{"city":"Chicago","units":4,"geo_score":0.468,"ils":"0-15%","id":"aae5bd2kan2m","address":"2120 N. Mozart","geo_precision":"street","state":"IL","ward":35},"type":"Feature","geometry":{"type":"Point","coordinates":[-87.698118,41.902409]}},{"properties":{"city":"Chicago","units":1,"geo_score":0.464,"ils":"0-15%","id":"aae5bd3wxs61","address":"2901 N. Dawson","geo_precision":"street","state":"IL","ward":35},"type":"Feature","geometry":{"type":"Point","coordinates":[-87.713201,41.933189]}},{"properties":{"city":"Chicago","units":1,"geo_score":0.457,"ils":"0-15%","id":"aae5bddgzqp2","address":"2621 N. Fairfield","geo_precision":"street","state":"IL","ward":35},"type":"Feature","geometry":{"type":"Point","coordinates":[-87.695145,41.884297]}},{"properties":{"city":"Chicago","units":2,"geo_score":0.464,"ils":"16-30%","id":"aae5bdcdhon8","address":"3402 W. Lyndale","geo_precision":"street","state":"IL","ward":35},"type":"Feature","geometry":{"type":"Point","coordinates":[-87.682688,41.922678]}},{"properties":{"city":"Chicago","units":1,"geo_score":0.462,"ils":"0-15%","id":"aae5bd98t1d9","address":"1832 N. Humboldt","geo_precision":"street","state":"IL","ward":35},"type":"Feature","geometry":{"type":"Point","coordinates":[-87.702128,41.903957]}},{"properties":{"city":"Chicago","units":2,"geo_score":0.464,"ils":"16-30%","id":"aae5bdbroido","address":"2921 N. Dawson","geo_precision":"street","state":"IL","ward":35},"type":"Feature","geometry":{"type":"Point","coordinates":[-87.713201,41.933189]}},{"properties":{"city":"Chicago","units":1,"geo_score":0.714,"ils":"0-15%","id":"aae5bd5jj86l","address":"3707 W. Wrightwood","geo_precision":"city","state":"IL","ward":35},"type":"Feature","geometry":{"type":"Point","coordinates":[-87.68732,41.811929]}},{"properties":{"city":"Chicago","units":1,"geo_score":0.468,"ils":"0-15%","id":"aae5bdebvmrg","address":"2749 N. Mozart","geo_precision":"street","state":"IL","ward":35},"type":"Feature","geometry":{"type":"Point","coordinates":[-87.698118,41.902409]}},{"properties":{"city":"Chicago","units":1,"geo_score":0.459,"ils":"0-15%","id":"aae5bd5cj4l5","address":"5442 W. Augusta","geo_precision":"street","state":"IL","ward":37},"type":"Feature","geometry":{"type":"Point","coordinates":[-87.656646,41.899884]}},{"properties":{"city":"Chicago","units":9,"geo_score":0.482,"ils":"0-15%","id":"aae5bd6rj74x","address":"4846 W. North","geo_precision":"street","state":"IL","ward":37},"type":"Feature","geometry":{"type":"Point","coordinates":[-87.618609,41.891034]}},{"properties":{"city":"Chicago","units":1,"geo_score":0.464,"ils":"0-15%","id":"aae5bd9mfgd9","address":"1413 N. Karlov","geo_precision":"street","state":"IL","ward":37},"type":"Feature","geometry":{"type":"Point","coordinates":[-87.728118,41.880696]}},{"properties":{"city":"Chicago","units":1,"geo_score":0.429,"ils":"0-15%","id":"aae5bdazsrlo","address":"4247 N. Hirsch","geo_precision":"street","state":"IL","ward":37},"type":"Feature","geometry":{"type":"Point","coordinates":[-87.683466,41.906726]}},{"properties":{"city":"Chicago","units":4,"geo_score":0.468,"ils":"0-15%","id":"aae5bdcd78p3","address":"4248 W. Hirsch","geo_precision":"street","state":"IL","ward":37},"type":"Feature","geometry":{"type":"Point","coordinates":[-87.683466,41.906726]}},{"properties":{"city":"Chicago","units":1,"geo_score":0.462,"ils":"16-30%","id":"aae5bde1bz59","address":"745 N. Central","geo_precision":"street","state":"IL","ward":37},"type":"Feature","geometry":{"type":"Point","coordinates":[-87.765057,41.885718]}},{"properties":{"city":"Chicago","units":1,"geo_score":0.457,"ils":"0-15%","id":"aae5bd55cg3a","address":"4246 W. Kamerling","geo_precision":"street","state":"IL","ward":37},"type":"Feature","geometry":{"type":"Point","coordinates":[-87.726979,41.905367]}},{"properties":{"city":"Chicago","units":8,"geo_score":0.462,"ils":"16-30%","id":"aae5bd29bm3y","address":"723 N. Central","geo_precision":"street","state":"IL","ward":37},"type":"Feature","geometry":{"type":"Point","coordinates":[-87.765057,41.885718]}},{"properties":{"city":"Chicago","units":1,"geo_score":0.471,"ils":"0-15%","id":"aae5bd5o08mh","address":"5440 W. Huron","geo_precision":"street","state":"IL","ward":37},"type":"Feature","geometry":{"type":"Point","coordinates":[-87.631777,41.894825]}},{"properties":{"city":"Chicago","units":4,"geo_score":0.482,"ils":"0-15%","id":"aae5bd9pd1zn","address":"5422 W. North","geo_precision":"street","state":"IL","ward":37},"type":"Feature","geometry":{"type":"Point","coordinates":[-87.618609,41.891034]}},{"properties":{"city":"Chicago","units":2,"geo_score":0.482,"ils":"16-30%","id":"aae5bd8sfkdo","address":"5422 W. North","geo_precision":"street","state":"IL","ward":37},"type":"Feature","geometry":{"type":"Point","coordinates":[-87.618609,41.891034]}},{"properties":{"city":"Chicago","units":2,"geo_score":0.471,"ils":"0-15%","id":"aae5bd1rkqpy","address":"4957 W. Huron","geo_precision":"street","state":"IL","ward":37},"type":"Feature","geometry":{"type":"Point","coordinates":[-87.631777,41.894825]}},{"properties":{"city":"Chicago","units":59,"geo_score":0.462,"ils":"0-15%","id":"aae5bdcsc098","address":"501 N. Central","geo_precision":"street","state":"IL","ward":37},"type":"Feature","geometry":{"type":"Point","coordinates":[-87.765057,41.885718]}},{"properties":{"city":"Chicago","units":1,"geo_score":0.455,"ils":"16-30%","id":"aae5bd909jq7","address":"2126 S. California","geo_precision":"street","state":"IL","ward":38},"type":"Feature","geometry":{"type":"Point","coordinates":[-87.696177,41.876958]}},{"properties":{"city":"Chicago","units":1,"geo_score":0.464,"ils":"0-15%","id":"aae5bdasiytc","address":"7033 W. Wolfram","geo_precision":"street","state":"IL","ward":38},"type":"Feature","geometry":{"type":"Point","coordinates":[-87.651465,41.933583]}},{"properties":{"city":"Chicago","units":1,"geo_score":0.471,"ils":"16-30%","id":"aae5bd3ep2yl","address":"4740 W. Grace","geo_precision":"street","state":"IL","ward":38},"type":"Feature","geometry":{"type":"Point","coordinates":[-87.64962,41.951198]}},{"properties":{"city":"Chicago","units":44,"geo_score":0.455,"ils":"0-15%","id":"aae5bd6q48ik","address":"4251 W. Irving Park","geo_precision":"street","state":"IL","ward":38},"type":"Feature","geometry":{"type":"Point","coordinates":[-87.6497,41.954561]}},{"properties":{"city":"Chicago","units":6,"geo_score":0.468,"ils":"0-15%","id":"aae5bd8rt3ga","address":"1737 W. Devon","geo_precision":"street","state":"IL","ward":40},"type":"Feature","geometry":{"type":"Point","coordinates":[-87.663615,41.998155]}},{"properties":{"city":"Chicago","units":1,"geo_score":0.471,"ils":"0-15%","id":"aae5bdat8e3a","address":"5753 N. Talman","geo_precision":"street","state":"IL","ward":40},"type":"Feature","geometry":{"type":"Point","coordinates":[-87.694784,41.939409]}},{"properties":{"city":"Chicago","units":4,"geo_score":0.459,"ils":"0-15%","id":"aae5bd2erwkp","address":"1537 W. Rosemont","geo_precision":"street","state":"IL","ward":40},"type":"Feature","geometry":{"type":"Point","coordinates":[-87.657708,41.9964]}},{"properties":{"city":"Chicago","units":1,"geo_score":0.468,"ils":"0-15%","id":"aae5bderfxos","address":"1542 W. Thome","geo_precision":"street","state":"IL","ward":40},"type":"Feature","geometry":{"type":"Point","coordinates":[-87.667752,41.995442]}},{"properties":{"city":"Chicago","units":127,"geo_score":0.462,"ils":"0-15%","id":"aae5bd7tvwz2","address":"30 W. Chicago","geo_precision":"street","state":"IL","ward":42},"type":"Feature","geometry":{"type":"Point","coordinates":[-87.628986,41.896665]}},{"properties":{"city":"Chicago","units":69,"geo_score":0.464,"ils":"0-15%","id":"aae5bd9g9tda","address":"3333 N. Marshfield","geo_precision":"street","state":"IL","ward":44},"type":"Feature","geometry":{"type":"Point","coordinates":[-87.670955,42.017603]}},{"properties":{"city":"Chicago","units":1,"geo_score":0.464,"ils":"0-15%","id":"aae5bdf6rpjv","address":"5484 W. Higgins","geo_precision":"street","state":"IL","ward":45},"type":"Feature","geometry":{"type":"Point","coordinates":[-87.834745,41.98611]}},{"properties":{"city":"Chicago","units":32,"geo_score":0.462,"ils":"16-30%","id":"aae5bd1e2pci","address":"4541 N. Sheridan Road","geo_precision":"street","state":"IL","ward":46},"type":"Feature","geometry":{"type":"Point","coordinates":[-87.645012,41.952906]}},{"properties":{"city":"Chicago","units":18,"geo_score":0.464,"ils":"0-15%","id":"aae5bd0j0eb0","address":"1134 W. Wilson","geo_precision":"street","state":"IL","ward":46},"type":"Feature","geometry":{"type":"Point","coordinates":[-87.653742,41.965444]}},{"properties":{"city":"Chicago","units":31,"geo_score":0.464,"ils":"0-15%","id":"aae5bddeb0lo","address":"915 W. Wilson","geo_precision":"street","state":"IL","ward":46},"type":"Feature","geometry":{"type":"Point","coordinates":[-87.653742,41.965444]}},{"properties":{"city":"Chicago","units":32,"geo_score":0.464,"ils":"16-30%","id":"aae5bd6uyo0h","address":"915 W. Wilson","geo_precision":"street","state":"IL","ward":46},"type":"Feature","geometry":{"type":"Point","coordinates":[-87.653742,41.965444]}},{"properties":{"city":"Chicago","units":5,"geo_score":0.464,"ils":"0-15%","id":"aae5bdbaak5d","address":"927 W. Wilson","geo_precision":"street","state":"IL","ward":46},"type":"Feature","geometry":{"type":"Point","coordinates":[-87.653742,41.965444]}},{"properties":{"city":"Chicago","units":8,"geo_score":0.464,"ils":"16-30%","id":"aae5bdcwgfyz","address":"927 W. Wilson","geo_precision":"street","state":"IL","ward":46},"type":"Feature","geometry":{"type":"Point","coordinates":[-87.653742,41.965444]}},{"properties":{"city":"Chicago","units":1,"geo_score":0.462,"ils":"0-15%","id":"aae5bdbuev4l","address":"900 W. Windsor","geo_precision":"street","state":"IL","ward":46},"type":"Feature","geometry":{"type":"Point","coordinates":[-87.649988,41.964513]}},{"properties":{"city":"Chicago","units":5,"geo_score":0.462,"ils":"16-30%","id":"aae5bdfa9jon","address":"900 W. Windsor","geo_precision":"street","state":"IL","ward":46},"type":"Feature","geometry":{"type":"Point","coordinates":[-87.649988,41.964513]}},{"properties":{"city":"Chicago","units":4,"geo_score":0.462,"ils":"16-30%","id":"aae5bd7evbkh","address":"4431 N. Clifton","geo_precision":"street","state":"IL","ward":46},"type":"Feature","geometry":{"type":"Point","coordinates":[-87.657125,41.921679]}},{"properties":{"city":"Chicago","units":5,"geo_score":0.464,"ils":"0-15%","id":"aae5bddcf1ea","address":"1311 W. Leland","geo_precision":"street","state":"IL","ward":46},"type":"Feature","geometry":{"type":"Point","coordinates":[-87.651133,41.967334]}},{"properties":{"city":"Chicago","units":13,"geo_score":0.464,"ils":"16-30%","id":"aae5bdbp55t1","address":"1311 W. Leland","geo_precision":"street","state":"IL","ward":46},"type":"Feature","geometry":{"type":"Point","coordinates":[-87.651133,41.967334]}},{"properties":{"city":"Chicago","units":52,"geo_score":0.464,"ils":"0-15%","id":"aae5bd2w4085","address":"920 W. Wilson","geo_precision":"street","state":"IL","ward":46},"type":"Feature","geometry":{"type":"Point","coordinates":[-87.653742,41.965444]}},{"properties":{"city":"Chicago","units":21,"geo_score":0.459,"ils":"0-15%","id":"aae5bczffog1","address":"1039 W. Lawrence","geo_precision":"street","state":"IL","ward":46},"type":"Feature","geometry":{"type":"Point","coordinates":[-87.651528,41.969134]}},{"properties":{"city":"Chicago","units":7,"geo_score":0.468,"ils":"0-15%","id":"aae5bd7mwovm","address":"4727 N. Malden","geo_precision":"street","state":"IL","ward":46},"type":"Feature","geometry":{"type":"Point","coordinates":[-87.662332,41.961681]}},{"properties":{"city":"Chicago","units":7,"geo_score":0.468,"ils":"16-30%","id":"aae5bd7wryfs","address":"4727 N. Malden","geo_precision":"street","state":"IL","ward":46},"type":"Feature","geometry":{"type":"Point","coordinates":[-87.662332,41.961681]}},{"properties":{"city":"Chicago","units":14,"geo_score":0.462,"ils":"0-15%","id":"aae5bd765agm","address":"4040 N. Sheridan Road","geo_precision":"street","state":"IL","ward":46},"type":"Feature","geometry":{"type":"Point","coordinates":[-87.645012,41.952906]}},{"properties":{"city":"Chicago","units":1,"geo_score":0.462,"ils":"0-15%","id":"aae5bdc3lzns","address":"831 W. Windsor","geo_precision":"street","state":"IL","ward":46},"type":"Feature","geometry":{"type":"Point","coordinates":[-87.649988,41.964513]}},{"properties":{"city":"Chicago","units":1,"geo_score":0.457,"ils":"0-15%","id":"aae5bd3emxkj","address":"847 W. Sunnyside","geo_precision":"street","state":"IL","ward":46},"type":"Feature","geometry":{"type":"Point","coordinates":[-87.654769,41.963606]}},{"properties":{"city":"Chicago","units":1,"geo_score":0.457,"ils":"16-30%","id":"aae5bd407q17","address":"847 W. Sunnyside","geo_precision":"street","state":"IL","ward":46},"type":"Feature","geometry":{"type":"Point","coordinates":[-87.654769,41.963606]}},{"properties":{"city":"Chicago","units":2,"geo_score":0.464,"ils":"0-15%","id":"aae5bdckw3fe","address":"4431 N. Racine","geo_precision":"street","state":"IL","ward":46},"type":"Feature","geometry":{"type":"Point","coordinates":[-87.657125,41.88115]}},{"properties":{"city":"Chicago","units":1,"geo_score":0.462,"ils":"0-15%","id":"aae5bd4k08bw","address":"4927 N. Kenmore","geo_precision":"street","state":"IL","ward":46},"type":"Feature","geometry":{"type":"Point","coordinates":[-87.654688,41.921265]}},{"properties":{"city":"Chicago","units":2,"geo_score":0.457,"ils":"0-15%","id":"aae5bdb9v27x","address":"825 W. Sunnyside","geo_precision":"street","state":"IL","ward":46},"type":"Feature","geometry":{"type":"Point","coordinates":[-87.654769,41.963606]}},{"properties":{"city":"Chicago","units":9,"geo_score":0.457,"ils":"16-30%","id":"aae5bdd8l6lu","address":"825 W. Sunnyside","geo_precision":"street","state":"IL","ward":46},"type":"Feature","geometry":{"type":"Point","coordinates":[-87.654769,41.963606]}},{"properties":{"city":"Chicago","units":1,"geo_score":0.464,"ils":"16-30%","id":"aae5bddasr9b","address":"2433 W. Eastwood","geo_precision":"street","state":"IL","ward":47},"type":"Feature","geometry":{"type":"Point","coordinates":[-87.652923,41.966424]}},{"properties":{"city":"Chicago","units":1,"geo_score":0.459,"ils":"0-15%","id":"aae5bday41as","address":"5450 N. Winthrop","geo_precision":"street","state":"IL","ward":48},"type":"Feature","geometry":{"type":"Point","coordinates":[-87.657033,41.96618]}},{"properties":{"city":"Chicago","units":1,"geo_score":0.462,"ils":"0-15%","id":"aae5bdbdl0vc","address":"5701 N. Sheridan Road","geo_precision":"street","state":"IL","ward":48},"type":"Feature","geometry":{"type":"Point","coordinates":[-87.645012,41.952906]}},{"properties":{"city":"Chicago","units":20,"geo_score":0.459,"ils":"0-15%","id":"aae5bdcf0bc5","address":"5240 N. Winthrop","geo_precision":"street","state":"IL","ward":48},"type":"Feature","geometry":{"type":"Point","coordinates":[-87.657033,41.96618]}},{"properties":{"city":"Chicago","units":2,"geo_score":0.714,"ils":"16-30%","id":"aae5bdfazsah","address":"1016 W. Balmore","geo_precision":"city","state":"IL","ward":48},"type":"Feature","geometry":{"type":"Point","coordinates":[-87.68732,41.811929]}},{"properties":{"city":"Chicago","units":24,"geo_score":0.462,"ils":"0-15%","id":"aae5bcz57llf","address":"5700 N. Sheridan Road","geo_precision":"street","state":"IL","ward":48},"type":"Feature","geometry":{"type":"Point","coordinates":[-87.645012,41.952906]}},{"properties":{"city":"Chicago","units":11,"geo_score":0.462,"ils":"16-30%","id":"aae5bdag5c8e","address":"5700 N. Sheridan Road","geo_precision":"street","state":"IL","ward":48},"type":"Feature","geometry":{"type":"Point","coordinates":[-87.645012,41.952906]}},{"properties":{"city":"Chicago","units":2,"geo_score":0.462,"ils":"16-30%","id":"aae5bd07j7cf","address":"5550 N. Kenmore","geo_precision":"street","state":"IL","ward":48},"type":"Feature","geometry":{"type":"Point","coordinates":[-87.654688,41.921265]}},{"properties":{"city":"Chicago","units":3,"geo_score":0.462,"ils":"16-30%","id":"aae5bd43e0qc","address":"1055 W. Catalpa","geo_precision":"street","state":"IL","ward":48},"type":"Feature","geometry":{"type":"Point","coordinates":[-87.659256,41.981809]}},{"properties":{"city":"Chicago","units":34,"geo_score":0.459,"ils":"0-16%","id":"aae5bd4xgovt","address":"1061 W. Rosemont","geo_precision":"street","state":"IL","ward":48},"type":"Feature","geometry":{"type":"Point","coordinates":[-87.657708,41.9964]}},{"properties":{"city":"Chicago","units":11,"geo_score":0.462,"ils":"0-15%","id":"aae5bdc3rpfn","address":"5750 N. Sheridan Road","geo_precision":"street","state":"IL","ward":48},"type":"Feature","geometry":{"type":"Point","coordinates":[-87.645012,41.952906]}},{"properties":{"city":"Chicago","units":25,"geo_score":0.459,"ils":"0-15%","id":"aae5bdarqcr2","address":"5042 N. Winthrop","geo_precision":"street","state":"IL","ward":48},"type":"Feature","geometry":{"type":"Point","coordinates":[-87.657033,41.96618]}},{"properties":{"city":"Chicago","units":15,"geo_score":0.459,"ils":"16-30%","id":"aae5bdavjdpu","address":"5042 N. Winthrop","geo_precision":"street","state":"IL","ward":48},"type":"Feature","geometry":{"type":"Point","coordinates":[-87.657033,41.96618]}},{"properties":{"city":"Chicago","units":15,"geo_score":0.459,"ils":"0-15%","id":"aae5bd2dju3h","address":"5326 N. Winthrop","geo_precision":"street","state":"IL","ward":48},"type":"Feature","geometry":{"type":"Point","coordinates":[-87.657033,41.96618]}},{"properties":{"city":"Chicago","units":7,"geo_score":0.459,"ils":"16-30%","id":"aae5bd1avd1i","address":"5326 N. Winthrop","geo_precision":"street","state":"IL","ward":48},"type":"Feature","geometry":{"type":"Point","coordinates":[-87.657033,41.96618]}},{"properties":{"city":"Chicago","units":5,"geo_score":0.462,"ils":"0-15%","id":"aae5bd9oqkav","address":"5730 N. Sheridan Road","geo_precision":"street","state":"IL","ward":48},"type":"Feature","geometry":{"type":"Point","coordinates":[-87.645012,41.952906]}},{"properties":{"city":"Chicago","units":6,"geo_score":0.462,"ils":"16-30%","id":"aae5bd6cauip","address":"5730 N. Sheridan Road","geo_precision":"street","state":"IL","ward":48},"type":"Feature","geometry":{"type":"Point","coordinates":[-87.645012,41.952906]}},{"properties":{"city":"Chicago","units":8,"geo_score":0.459,"ils":"0-15%","id":"aae5bdcrkqb7","address":"5054 N. Winthrop","geo_precision":"street","state":"IL","ward":48},"type":"Feature","geometry":{"type":"Point","coordinates":[-87.657033,41.96618]}},{"properties":{"city":"Chicago","units":20,"geo_score":0.462,"ils":"0-15%","id":"aae5bd3rozl4","address":"6748 N. Ashland","geo_precision":"street","state":"IL","ward":48},"type":"Feature","geometry":{"type":"Point","coordinates":[-87.66696,41.885329]}},{"properties":{"city":"Chicago","units":9,"geo_score":0.462,"ils":"16-30%","id":"aae5bd703621","address":"6748 N. Ashland","geo_precision":"street","state":"IL","ward":48},"type":"Feature","geometry":{"type":"Point","coordinates":[-87.66696,41.885329]}},{"properties":{"city":"Chicago","units":2,"geo_score":0.462,"ils":"0-15%","id":"aae5bdck123b","address":"6912 N. Ashland","geo_precision":"street","state":"IL","ward":49},"type":"Feature","geometry":{"type":"Point","coordinates":[-87.66696,41.885329]}},{"properties":{"city":"Chicago","units":3,"geo_score":0.462,"ils":"16-30%","id":"aae5bd3faey2","address":"6912 N. Ashland","geo_precision":"street","state":"IL","ward":49},"type":"Feature","geometry":{"type":"Point","coordinates":[-87.66696,41.885329]}},{"properties":{"city":"Chicago","units":5,"geo_score":0.459,"ils":"0-15%","id":"aae5bda3dkou","address":"7600 N. Bosworth","geo_precision":"street","state":"IL","ward":49},"type":"Feature","geometry":{"type":"Point","coordinates":[-87.666461,41.910222]}},{"properties":{"city":"Chicago","units":19,"geo_score":0.459,"ils":"16-30%","id":"aae5bd4p8z9j","address":"7600 N. Bosworth","geo_precision":"street","state":"IL","ward":49},"type":"Feature","geometry":{"type":"Point","coordinates":[-87.666461,41.910222]}},{"properties":{"city":"Chicago","units":1,"geo_score":0.462,"ils":"0-15%","id":"aae5bdbclbkj","address":"6825 N. Sheridan Road","geo_precision":"street","state":"IL","ward":49},"type":"Feature","geometry":{"type":"Point","coordinates":[-87.645012,41.952906]}},{"properties":{"city":"Chicago","units":1,"geo_score":0.457,"ils":"0-15%","id":"aae5bd6u3j7z","address":"1456 W. Birchwood","geo_precision":"street","state":"IL","ward":49},"type":"Feature","geometry":{"type":"Point","coordinates":[-87.668213,42.018167]}},{"properties":{"city":"Chicago","units":5,"geo_score":0.462,"ils":"0-15%","id":"aae5bd1yt6uo","address":"1700 W. Juneway Terrace","geo_precision":"street","state":"IL","ward":49},"type":"Feature","geometry":{"type":"Point","coordinates":[-87.66754,42.022237]}},{"properties":{"city":"Chicago","units":2,"geo_score":0.462,"ils":"16-30%","id":"aae5bdabahdf","address":"1700 W. Juneway Terrace","geo_precision":"street","state":"IL","ward":49},"type":"Feature","geometry":{"type":"Point","coordinates":[-87.66754,42.022237]}},{"properties":{"city":"Chicago","units":1,"geo_score":0.462,"ils":"0-15%","id":"aae5bdbzpuyl","address":"1714 W. Jonquil","geo_precision":"street","state":"IL","ward":49},"type":"Feature","geometry":{"type":"Point","coordinates":[-87.66742,42.021128]}},{"properties":{"city":"Chicago","units":5,"geo_score":0.464,"ils":"0-15%","id":"aae5bd36xogo","address":"7720 N. Marshfield","geo_precision":"street","state":"IL","ward":49},"type":"Feature","geometry":{"type":"Point","coordinates":[-87.670955,42.017603]}},{"properties":{"city":"Chicago","units":22,"geo_score":0.459,"ils":"0-15%","id":"aae5bd07ak56","address":"1063 W. Columbia","geo_precision":"street","state":"IL","ward":49},"type":"Feature","geometry":{"type":"Point","coordinates":[-87.658478,42.00465]}},{"properties":{"city":"Chicago","units":12,"geo_score":0.462,"ils":"16-30%","id":"aae5bd5w6si8","address":"1221 W. Sherwin","geo_precision":"street","state":"IL","ward":49},"type":"Feature","geometry":{"type":"Point","coordinates":[-87.662598,42.015055]}},{"properties":{"city":"Chicago","units":5,"geo_score":0.462,"ils":"0-15%","id":"aae5bd3lpsmy","address":"1546 W. Jonquil Terrace","geo_precision":"street","state":"IL","ward":49},"type":"Feature","geometry":{"type":"Point","coordinates":[-87.66742,42.021128]}},{"properties":{"city":"Chicago","units":8,"geo_score":0.462,"ils":"0-15%","id":"aae5bdd2m7mz","address":"7320 N. Sheridan Road","geo_precision":"street","state":"IL","ward":49},"type":"Feature","geometry":{"type":"Point","coordinates":[-87.645012,41.952906]}},{"properties":{"city":"Chicago","units":7,"geo_score":0.462,"ils":"16-30%","id":"aae5bd3gc6rl","address":"7320 N. Sheridan Road","geo_precision":"street","state":"IL","ward":49},"type":"Feature","geometry":{"type":"Point","coordinates":[-87.645012,41.952906]}},{"properties":{"city":"Chicago","units":1,"geo_score":0.459,"ils":"0-15%","id":"aae5bd04og6z","address":"6214 N. Winthrop","geo_precision":"street","state":"IL","ward":49},"type":"Feature","geometry":{"type":"Point","coordinates":[-87.657033,41.96618]}},{"properties":{"city":"Chicago","units":5,"geo_score":0.471,"ils":"0-15%","id":"aae5bcyvlrxy","address":"7417 N. Clark","geo_precision":"street","state":"IL","ward":49},"type":"Feature","geometry":{"type":"Point","coordinates":[-87.631093,41.890425]}},{"properties":{"city":"Chicago","units":4,"geo_score":0.462,"ils":"0-15%","id":"aae5bd9fd206","address":"7725 N. Sheridan Road","geo_precision":"street","state":"IL","ward":49},"type":"Feature","geometry":{"type":"Point","coordinates":[-87.645012,41.952906]}},{"properties":{"city":"Chicago","units":2,"geo_score":0.462,"ils":"16-30%","id":"aae5bdbg82qz","address":"7725 N. Sheridan Road","geo_precision":"street","state":"IL","ward":49},"type":"Feature","geometry":{"type":"Point","coordinates":[-87.645012,41.952906]}},{"properties":{"city":"Chicago","units":2,"geo_score":0.49,"ils":"16-30%","id":"aae5bd0k5rbe","address":"7369 N. Damen","geo_precision":"street","state":"IL","ward":49},"type":"Feature","geometry":{"type":"Point","coordinates":[-87.674589,41.812481]}},{"properties":{"city":"Chicago","units":1,"geo_score":0.462,"ils":"0-15%","id":"aae5bdd0czar","address":"6030 N. Kenmore","geo_precision":"street","state":"IL","ward":49},"type":"Feature","geometry":{"type":"Point","coordinates":[-87.654688,41.921265]}},{"properties":{"city":"Chicago","units":3,"geo_score":0.462,"ils":"0-15%","id":"aae5bdd8zvej","address":"6758 N. Sheridan Road","geo_precision":"street","state":"IL","ward":49},"type":"Feature","geometry":{"type":"Point","coordinates":[-87.645012,41.952906]}},{"properties":{"city":"Chicago","units":3,"geo_score":0.462,"ils":"16-30%","id":"aae5bd93ypqq","address":"6758 N. Sheridan Road","geo_precision":"street","state":"IL","ward":49},"type":"Feature","geometry":{"type":"Point","coordinates":[-87.645012,41.952906]}},{"properties":{"city":"Chicago","units":3,"geo_score":0.468,"ils":"0-15%","id":"aae5bd49lalq","address":"1528 W. Pratt","geo_precision":"street","state":"IL","ward":49},"type":"Feature","geometry":{"type":"Point","coordinates":[-87.719158,42.004431]}},{"properties":{"city":"Chicago","units":1,"geo_score":0.462,"ils":"16-30%","id":"aae5bd3c8pjo","address":"1421 W. Farwell","geo_precision":"street","state":"IL","ward":49},"type":"Feature","geometry":{"type":"Point","coordinates":[-87.658616,42.006803]}},{"properties":{"city":"Chicago","units":4,"geo_score":0.462,"ils":"0-15%","id":"aae5bd1ap4fo","address":"7600 N. Sheridan Road","geo_precision":"street","state":"IL","ward":49},"type":"Feature","geometry":{"type":"Point","coordinates":[-87.645012,41.952906]}},{"properties":{"city":"Chicago","units":21,"geo_score":0.468,"ils":"0-15%","id":"aae5bda7gxi2","address":"6928 N. Wayne","geo_precision":"street","state":"IL","ward":49},"type":"Feature","geometry":{"type":"Point","coordinates":[-87.662089,41.924797]}},{"properties":{"city":"Chicago","units":18,"geo_score":0.468,"ils":"16-30%","id":"aae5bdbct8wu","address":"6926 N. Wayne","geo_precision":"street","state":"IL","ward":49},"type":"Feature","geometry":{"type":"Point","coordinates":[-87.662089,41.924797]}},{"properties":{"city":"Chicago","units":1,"geo_score":0.464,"ils":"0-15%","id":"aae5bd8z3gw8","address":"6500 N. Leavitt","geo_precision":"street","state":"IL","ward":50},"type":"Feature","geometry":{"type":"Point","coordinates":[-87.681623,41.884802]}},{"properties":{"city":"Chicago","units":1,"geo_score":0.464,"ils":"16-30%","id":"aae5bd9zbk9k","address":"2018 W. Arthur","geo_precision":"street","state":"IL","ward":50},"type":"Feature","geometry":{"type":"Point","coordinates":[-87.661351,42.000432]}},{"properties":{"city":"Chicago","units":16,"geo_score":0.459,"ils":"0-15%","id":"aae5bd75wq1j","address":"1818 W. Peterson","geo_precision":"street","state":"IL","ward":50},"type":"Feature","geometry":{"type":"Point","coordinates":[-87.67526,41.990753]}},{"properties":{"city":"Chicago","units":18,"geo_score":0.459,"ils":"16-30%","id":"aae5bde59dam","address":"1818 W. Peterson","geo_precision":"street","state":"IL","ward":50},"type":"Feature","geometry":{"type":"Point","coordinates":[-87.67526,41.990753]}},{"properties":{"city":"Chicago","units":2,"geo_score":0.468,"ils":"16-30%","id":"aae5bdfbagy6","address":"6307 N. Mozart","geo_precision":"street","state":"IL","ward":50},"type":"Feature","geometry":{"type":"Point","coordinates":[-87.698118,41.902409]}},{"properties":{"city":"Chicago","units":7,"geo_score":0.455,"ils":"0-15%","id":"aae5bd35ts4n","address":"6142 N. California","geo_precision":"street","state":"IL","ward":50},"type":"Feature","geometry":{"type":"Point","coordinates":[-87.696177,41.876958]}},{"properties":{"city":"Chicago","units":8,"geo_score":0.455,"ils":"16-30%","id":"aae5bddgnhm1","address":"6142 N. California","geo_precision":"street","state":"IL","ward":50},"type":"Feature","geometry":{"type":"Point","coordinates":[-87.696177,41.876958]}},{"properties":{"city":"Chicago","units":6,"geo_score":0.468,"ils":"0-15%","id":"aae5bd3ccv3r","address":"6200 N. Hoyne","geo_precision":"street","state":"IL","ward":50},"type":"Feature","geometry":{"type":"Point","coordinates":[-87.679339,41.890364]}}],"is_temporal":false,"author":{"url":"","metadata":"","contact_name":"","contact_address":"","source":"","contact_phone":""},"source":"","pagination":{"sort":null,"start":0,"total":516,"limit":1000000},"state":"complete","tags":"chicago,cook,county","published":"2014-08-16T13:29:16-04:00","id":300604}