{"type":"FeatureCollection","data_type":"Dataset","url_type":null,"permissions":[{"permissions":{"download":true,"view":true},"group_id":"everyone"}],"classification":null,"title":"Discovery Days AT&amp;T Park 2012 Zip Codes","count":188,"stream_id":300669,"contributor":{"url":"http://geocommons.com/users/41433","name":"kishorehari"},"data_attributes":null,"calculation_params":null,"icon_link":null,"link":"http://geocommons.com/overlays/300669.json","extent":[-123.403,33.7866,-77.3444,43.1834],"geometry_types":["point"],"unique_name":null,"name":"Discovery Days AT&T Park 2012 Zip Codes","feature_count":188,"description":"","next_feature":null,"is_raster":false,"short_classification":"Y","stats":{"frequency":{"max":15,"mean":2.71808510638298,"variance":7.41207759699628,"stdev":2.72251310318174,"median":2,"min":1}},"features":[{"properties":{"zip_code":"6042","geo_score":0.0,"id":"aae7xouw5piu","geo_precision":"unmatched","frequency":1},"type":"Feature","geometry":null},{"properties":{"zip_code":"9430","geo_score":0.0,"id":"aae7xp47vfn5","geo_precision":"unmatched","frequency":1},"type":"Feature","geometry":null},{"properties":{"zip_code":"14502","geo_score":0.714,"id":"aae7xp1ubdsh","geo_precision":"zip","frequency":1},"type":"Feature","geometry":{"type":"Point","coordinates":[-77.344434,43.183397]}},{"properties":{"zip_code":"90046","geo_score":0.714,"id":"aae7xp1j4ggc","geo_precision":"zip","frequency":2},"type":"Feature","geometry":{"type":"Point","coordinates":[-118.298662,33.786594]}},{"properties":{"zip_code":"90049","geo_score":0.714,"id":"aae7xp49movi","geo_precision":"zip","frequency":1},"type":"Feature","geometry":{"type":"Point","coordinates":[-118.298662,33.786594]}},{"properties":{"zip_code":"93401","geo_score":0.714,"id":"aae7xp92ximd","geo_precision":"zip","frequency":1},"type":"Feature","geometry":{"type":"Point","coordinates":[-120.846846,35.318308]}},{"properties":{"zip_code":"93405","geo_score":0.714,"id":"aae7xp5wi43v","geo_precision":"zip","frequency":1},"type":"Feature","geometry":{"type":"Point","coordinates":[-120.703455,35.363067]}},{"properties":{"zip_code":"93923","geo_score":0.714,"id":"aae7xp7gnvxh","geo_precision":"zip","frequency":1},"type":"Feature","geometry":{"type":"Point","coordinates":[-121.931621,36.504129]}},{"properties":{"zip_code":"94002","geo_score":0.714,"id":"aae7xp19i27e","geo_precision":"zip","frequency":4},"type":"Feature","geometry":{"type":"Point","coordinates":[-122.29339,37.516644]}},{"properties":{"zip_code":"94003","geo_score":0.714,"id":"aae7xp18clly","geo_precision":"zip","frequency":1},"type":"Feature","geometry":{"type":"Point","coordinates":[-122.334825,37.381144]}},{"properties":{"zip_code":"94006","geo_score":0.0,"id":"aae7xp7eh57p","geo_precision":"unmatched","frequency":1},"type":"Feature","geometry":null},{"properties":{"zip_code":"94010","geo_score":0.714,"id":"aae7xou5ypha","geo_precision":"zip","frequency":8},"type":"Feature","geometry":{"type":"Point","coordinates":[-122.379416,37.574103]}},{"properties":{"zip_code":"94014","geo_score":0.714,"id":"aae7xovqtj2i","geo_precision":"zip","frequency":6},"type":"Feature","geometry":{"type":"Point","coordinates":[-122.459695,37.676878]}},{"properties":{"zip_code":"94015","geo_score":0.714,"id":"aae7xp59385f","geo_precision":"zip","frequency":9},"type":"Feature","geometry":{"type":"Point","coordinates":[-122.475234,37.676864]}},{"properties":{"zip_code":"94017","geo_score":0.714,"id":"aae7xoyguwva","geo_precision":"zip","frequency":1},"type":"Feature","geometry":{"type":"Point","coordinates":[-122.334825,37.381144]}},{"properties":{"zip_code":"94022","geo_score":0.714,"id":"aae7xp2yqdox","geo_precision":"zip","frequency":1},"type":"Feature","geometry":{"type":"Point","coordinates":[-122.100518,37.35133]}},{"properties":{"zip_code":"94024","geo_score":0.714,"id":"aae7xp1oht8x","geo_precision":"zip","frequency":3},"type":"Feature","geometry":{"type":"Point","coordinates":[-121.705327,37.189396]}},{"properties":{"zip_code":"94025","geo_score":0.714,"id":"aae7xp65yj0v","geo_precision":"zip","frequency":3},"type":"Feature","geometry":{"type":"Point","coordinates":[-122.159409,37.476327]}},{"properties":{"zip_code":"94027","geo_score":0.714,"id":"aae7xp13sm2t","geo_precision":"zip","frequency":1},"type":"Feature","geometry":{"type":"Point","coordinates":[-122.199439,37.450627]}},{"properties":{"zip_code":"94030","geo_score":0.714,"id":"aae7xp4tzc8c","geo_precision":"zip","frequency":6},"type":"Feature","geometry":{"type":"Point","coordinates":[-122.400083,37.598385]}},{"properties":{"zip_code":"94040","geo_score":0.714,"id":"aae7xoyc2n2c","geo_precision":"zip","frequency":2},"type":"Feature","geometry":{"type":"Point","coordinates":[-121.705327,37.189396]}},{"properties":{"zip_code":"94043","geo_score":0.714,"id":"aae7xp15x193","geo_precision":"zip","frequency":2},"type":"Feature","geometry":{"type":"Point","coordinates":[-121.705327,37.189396]}},{"properties":{"zip_code":"94044","geo_score":0.714,"id":"aae7xp1toshx","geo_precision":"zip","frequency":2},"type":"Feature","geometry":{"type":"Point","coordinates":[-122.490807,37.653824]}},{"properties":{"zip_code":"94061","geo_score":0.714,"id":"aae7xp133o5t","geo_precision":"zip","frequency":3},"type":"Feature","geometry":{"type":"Point","coordinates":[-122.235639,37.462158]}},{"properties":{"zip_code":"94063","geo_score":0.714,"id":"aae7xp0cnm0t","geo_precision":"zip","frequency":1},"type":"Feature","geometry":{"type":"Point","coordinates":[-122.212846,37.490387]}},{"properties":{"zip_code":"94065","geo_score":0.714,"id":"aae7xp6djx1t","geo_precision":"zip","frequency":2},"type":"Feature","geometry":{"type":"Point","coordinates":[-122.247806,37.53256]}},{"properties":{"zip_code":"94066","geo_score":0.714,"id":"aae7xp69dzzt","geo_precision":"zip","frequency":5},"type":"Feature","geometry":{"type":"Point","coordinates":[-122.404417,37.616602]}},{"properties":{"zip_code":"94070","geo_score":0.714,"id":"aae7xovjkqb3","geo_precision":"zip","frequency":3},"type":"Feature","geometry":{"type":"Point","coordinates":[-122.29815,37.498586]}},{"properties":{"zip_code":"94080","geo_score":0.714,"id":"aae7xp3rnujn","geo_precision":"zip","frequency":5},"type":"Feature","geometry":{"type":"Point","coordinates":[-122.411361,37.638546]}},{"properties":{"zip_code":"94086","geo_score":0.714,"id":"aae7xp3rtu5i","geo_precision":"zip","frequency":3},"type":"Feature","geometry":{"type":"Point","coordinates":[-121.705327,37.189396]}},{"properties":{"zip_code":"94087","geo_score":0.714,"id":"aae7xp6treal","geo_precision":"zip","frequency":3},"type":"Feature","geometry":{"type":"Point","coordinates":[-121.705327,37.189396]}},{"properties":{"zip_code":"94089","geo_score":0.714,"id":"aae7xoxaduu5","geo_precision":"zip","frequency":1},"type":"Feature","geometry":{"type":"Point","coordinates":[-121.705327,37.189396]}},{"properties":{"zip_code":"94102","geo_score":0.714,"id":"aae7xp1k2dog","geo_precision":"zip","frequency":1},"type":"Feature","geometry":{"type":"Point","coordinates":[-122.416582,37.779278]}},{"properties":{"zip_code":"94103","geo_score":0.714,"id":"aae7xp6xbniv","geo_precision":"zip","frequency":3},"type":"Feature","geometry":{"type":"Point","coordinates":[-122.412131,37.775678]}},{"properties":{"zip_code":"94105","geo_score":0.714,"id":"aae7xp1fqfim","geo_precision":"zip","frequency":1},"type":"Feature","geometry":{"type":"Point","coordinates":[-122.395631,37.789595]}},{"properties":{"zip_code":"94107","geo_score":0.714,"id":"aae7xp60giz3","geo_precision":"zip","frequency":13},"type":"Feature","geometry":{"type":"Point","coordinates":[-122.393681,37.769029]}},{"properties":{"zip_code":"94109","geo_score":0.714,"id":"aae7xp2wd2eh","geo_precision":"zip","frequency":3},"type":"Feature","geometry":{"type":"Point","coordinates":[-122.420782,37.795219]}},{"properties":{"zip_code":"94110","geo_score":0.714,"id":"aae7xp6ft0wr","geo_precision":"zip","frequency":14},"type":"Feature","geometry":{"type":"Point","coordinates":[-122.416281,37.748932]}},{"properties":{"zip_code":"94111","geo_score":0.714,"id":"aae7xp3zvk0n","geo_precision":"zip","frequency":1},"type":"Feature","geometry":{"type":"Point","coordinates":[-122.405331,37.773579]}},{"properties":{"zip_code":"94112","geo_score":0.714,"id":"aae7xp2bdt35","geo_precision":"zip","frequency":11},"type":"Feature","geometry":{"type":"Point","coordinates":[-122.439382,37.721981]}},{"properties":{"zip_code":"94114","geo_score":0.714,"id":"aae7xp3ye31n","geo_precision":"zip","frequency":9},"type":"Feature","geometry":{"type":"Point","coordinates":[-122.439332,37.758279]}},{"properties":{"zip_code":"94115","geo_score":0.714,"id":"aae7xp5vkjbs","geo_precision":"zip","frequency":6},"type":"Feature","geometry":{"type":"Point","coordinates":[-122.437032,37.786028]}},{"properties":{"zip_code":"94116","geo_score":0.714,"id":"aae7xp1rzvqv","geo_precision":"zip","frequency":11},"type":"Feature","geometry":{"type":"Point","coordinates":[-122.483232,37.743857]}},{"properties":{"zip_code":"94117","geo_score":0.714,"id":"aae7xovpxvon","geo_precision":"zip","frequency":11},"type":"Feature","geometry":{"type":"Point","coordinates":[-122.443882,37.769079]}},{"properties":{"zip_code":"94118","geo_score":0.714,"id":"aae7xp73zzna","geo_precision":"zip","frequency":7},"type":"Feature","geometry":{"type":"Point","coordinates":[-122.459982,37.778779]}},{"properties":{"zip_code":"94121","geo_score":0.714,"id":"aae7xow7enmo","geo_precision":"zip","frequency":7},"type":"Feature","geometry":{"type":"Point","coordinates":[-122.491682,37.777129]}},{"properties":{"zip_code":"94122","geo_score":0.714,"id":"aae7xoyp0m5q","geo_precision":"zip","frequency":15},"type":"Feature","geometry":{"type":"Point","coordinates":[-122.475732,37.761179]}},{"properties":{"zip_code":"94123","geo_score":0.714,"id":"aae7xp1f6ebc","geo_precision":"zip","frequency":1},"type":"Feature","geometry":{"type":"Point","coordinates":[-122.435732,37.79967]}},{"properties":{"zip_code":"94124","geo_score":0.714,"id":"aae7xougnele","geo_precision":"zip","frequency":5},"type":"Feature","geometry":{"type":"Point","coordinates":[-122.382857,37.73123]}},{"properties":{"zip_code":"94127","geo_score":0.714,"id":"aae7xp2ibwtz","geo_precision":"zip","frequency":14},"type":"Feature","geometry":{"type":"Point","coordinates":[-122.458632,37.73403]}},{"properties":{"zip_code":"94129","geo_score":0.714,"id":"aae7xp3qmbfv","geo_precision":"zip","frequency":1},"type":"Feature","geometry":{"type":"Point","coordinates":[-122.473583,37.801596]}},{"properties":{"zip_code":"94131","geo_score":0.714,"id":"aae7xp7llmy8","geo_precision":"zip","frequency":5},"type":"Feature","geometry":{"type":"Point","coordinates":[-122.443182,37.74363]}},{"properties":{"zip_code":"94132","geo_score":0.714,"id":"aae7xp495xii","geo_precision":"zip","frequency":4},"type":"Feature","geometry":{"type":"Point","coordinates":[-122.482483,37.722631]}},{"properties":{"zip_code":"94133","geo_score":0.714,"id":"aae7xp1jq4z8","geo_precision":"zip","frequency":2},"type":"Feature","geometry":{"type":"Point","coordinates":[-122.412193,37.805762]}},{"properties":{"zip_code":"94134","geo_score":0.714,"id":"aae7xotaxo15","geo_precision":"zip","frequency":6},"type":"Feature","geometry":{"type":"Point","coordinates":[-122.410832,37.72168]}},{"properties":{"zip_code":"94158","geo_score":0.714,"id":"aae7xp02gilb","geo_precision":"zip","frequency":1},"type":"Feature","geometry":{"type":"Point","coordinates":[-122.419416,37.77493]}},{"properties":{"zip_code":"94301","geo_score":0.714,"id":"aae7xotz07mo","geo_precision":"zip","frequency":1},"type":"Feature","geometry":{"type":"Point","coordinates":[-121.705327,37.189396]}},{"properties":{"zip_code":"94303","geo_score":0.714,"id":"aae7xp66k3a9","geo_precision":"zip","frequency":2},"type":"Feature","geometry":{"type":"Point","coordinates":[-122.141075,37.468827]}},{"properties":{"zip_code":"94306","geo_score":0.714,"id":"aae7xp3gbcby","geo_precision":"zip","frequency":2},"type":"Feature","geometry":{"type":"Point","coordinates":[-121.705327,37.189396]}},{"properties":{"zip_code":"94307","geo_score":0.714,"id":"aae7xow1nyut","geo_precision":"zip","frequency":1},"type":"Feature","geometry":{"type":"Point","coordinates":[-122.14302,37.441883]}},{"properties":{"zip_code":"94401","geo_score":0.714,"id":"aae7xp3njss0","geo_precision":"zip","frequency":1},"type":"Feature","geometry":{"type":"Point","coordinates":[-122.32253,37.573485]}},{"properties":{"zip_code":"94402","geo_score":0.714,"id":"aae7xp6iks5p","geo_precision":"zip","frequency":1},"type":"Feature","geometry":{"type":"Point","coordinates":[-122.33063,37.541886]}},{"properties":{"zip_code":"94403","geo_score":0.714,"id":"aae7xp8waonz","geo_precision":"zip","frequency":4},"type":"Feature","geometry":{"type":"Point","coordinates":[-122.304079,37.541486]}},{"properties":{"zip_code":"94404","geo_score":0.714,"id":"aae7xoyah9b4","geo_precision":"zip","frequency":2},"type":"Feature","geometry":{"type":"Point","coordinates":[-122.269978,37.553774]}},{"properties":{"zip_code":"94501","geo_score":0.714,"id":"aae7xp4tpidg","geo_precision":"zip","frequency":10},"type":"Feature","geometry":{"type":"Point","coordinates":[-122.264779,37.770563]}},{"properties":{"zip_code":"94502","geo_score":0.714,"id":"aae7xozmfefw","geo_precision":"zip","frequency":3},"type":"Feature","geometry":{"type":"Point","coordinates":[-122.243067,37.735088]}},{"properties":{"zip_code":"94510","geo_score":0.714,"id":"aae7xoy419q2","geo_precision":"zip","frequency":2},"type":"Feature","geometry":{"type":"Point","coordinates":[-122.032061,38.1012]}},{"properties":{"zip_code":"94513","geo_score":0.714,"id":"aae7xp5xup14","geo_precision":"zip","frequency":1},"type":"Feature","geometry":{"type":"Point","coordinates":[-121.843071,37.912274]}},{"properties":{"zip_code":"94517","geo_score":0.714,"id":"aae7xp478jvy","geo_precision":"zip","frequency":1},"type":"Feature","geometry":{"type":"Point","coordinates":[-121.784818,37.897832]}},{"properties":{"zip_code":"94518","geo_score":0.714,"id":"aae7xovog4e7","geo_precision":"zip","frequency":2},"type":"Feature","geometry":{"type":"Point","coordinates":[-122.022872,37.953672]}},{"properties":{"zip_code":"94523","geo_score":0.714,"id":"aae7xoxzq7r9","geo_precision":"zip","frequency":2},"type":"Feature","geometry":{"type":"Point","coordinates":[-122.052741,37.941312]}},{"properties":{"zip_code":"94524","geo_score":0.714,"id":"aae7xp4otu92","geo_precision":"zip","frequency":1},"type":"Feature","geometry":{"type":"Point","coordinates":[-121.955399,37.777208]}},{"properties":{"zip_code":"94530","geo_score":0.714,"id":"aae7xp1ybhcs","geo_precision":"zip","frequency":2},"type":"Feature","geometry":{"type":"Point","coordinates":[-122.30248,37.918024]}},{"properties":{"zip_code":"94533","geo_score":0.714,"id":"aae7xp7a5bir","geo_precision":"zip","frequency":1},"type":"Feature","geometry":{"type":"Point","coordinates":[-122.020276,38.278428]}},{"properties":{"zip_code":"94534","geo_score":0.714,"id":"aae7xoxqzzfx","geo_precision":"zip","frequency":1},"type":"Feature","geometry":{"type":"Point","coordinates":[-122.264316,38.107945]}},{"properties":{"zip_code":"94536","geo_score":0.714,"id":"aae7xowfjf0u","geo_precision":"zip","frequency":2},"type":"Feature","geometry":{"type":"Point","coordinates":[-121.982721,37.565285]}},{"properties":{"zip_code":"94538","geo_score":0.714,"id":"aae7xp1p6s4f","geo_precision":"zip","frequency":5},"type":"Feature","geometry":{"type":"Point","coordinates":[-121.95832,37.509453]}},{"properties":{"zip_code":"94539","geo_score":0.714,"id":"aae7xp7bhk2y","geo_precision":"zip","frequency":5},"type":"Feature","geometry":{"type":"Point","coordinates":[-121.912568,37.520339]}},{"properties":{"zip_code":"94540","geo_score":0.714,"id":"aae7xp8q8tla","geo_precision":"zip","frequency":1},"type":"Feature","geometry":{"type":"Point","coordinates":[-121.921498,37.680181]}},{"properties":{"zip_code":"94541","geo_score":0.714,"id":"aae7xp8z8x24","geo_precision":"zip","frequency":2},"type":"Feature","geometry":{"type":"Point","coordinates":[-122.113853,37.694653]}},{"properties":{"zip_code":"94544","geo_score":0.714,"id":"aae7xozv4gw7","geo_precision":"zip","frequency":2},"type":"Feature","geometry":{"type":"Point","coordinates":[-122.061673,37.613883]}},{"properties":{"zip_code":"94549","geo_score":0.714,"id":"aae7xovx18n6","geo_precision":"zip","frequency":3},"type":"Feature","geometry":{"type":"Point","coordinates":[-122.120089,37.901223]}},{"properties":{"zip_code":"94551","geo_score":0.714,"id":"aae7xp0cvv01","geo_precision":"zip","frequency":2},"type":"Feature","geometry":{"type":"Point","coordinates":[-121.921498,37.680181]}},{"properties":{"zip_code":"94552","geo_score":0.714,"id":"aae7xp7z6d69","geo_precision":"zip","frequency":3},"type":"Feature","geometry":{"type":"Point","coordinates":[-121.9251,37.68943]}},{"properties":{"zip_code":"94553","geo_score":0.714,"id":"aae7xot685te","geo_precision":"zip","frequency":2},"type":"Feature","geometry":{"type":"Point","coordinates":[-122.075241,37.983533]}},{"properties":{"zip_code":"94554","geo_score":0.714,"id":"aae7xp916dmk","geo_precision":"zip","frequency":1},"type":"Feature","geometry":{"type":"Point","coordinates":[-122.080796,37.668821]}},{"properties":{"zip_code":"94555","geo_score":0.714,"id":"aae7xp8a9l2r","geo_precision":"zip","frequency":6},"type":"Feature","geometry":{"type":"Point","coordinates":[-122.063323,37.570681]}},{"properties":{"zip_code":"94556","geo_score":0.714,"id":"aae7xouuuusm","geo_precision":"zip","frequency":3},"type":"Feature","geometry":{"type":"Point","coordinates":[-122.099224,37.838926]}},{"properties":{"zip_code":"94563","geo_score":0.714,"id":"aae7xp1ajhkk","geo_precision":"zip","frequency":2},"type":"Feature","geometry":{"type":"Point","coordinates":[-122.195523,37.887425]}},{"properties":{"zip_code":"94564","geo_score":0.714,"id":"aae7xp0cxltv","geo_precision":"zip","frequency":2},"type":"Feature","geometry":{"type":"Point","coordinates":[-122.243294,37.990772]}},{"properties":{"zip_code":"94566","geo_score":0.714,"id":"aae7xp2n4er6","geo_precision":"zip","frequency":5},"type":"Feature","geometry":{"type":"Point","coordinates":[-121.862128,37.646081]}},{"properties":{"zip_code":"94568","geo_score":0.714,"id":"aae7xp8piipq","geo_precision":"zip","frequency":1},"type":"Feature","geometry":{"type":"Point","coordinates":[-121.988017,38.041309]}},{"properties":{"zip_code":"94577","geo_score":0.714,"id":"aae7xoxj3q41","geo_precision":"zip","frequency":6},"type":"Feature","geometry":{"type":"Point","coordinates":[-122.158621,37.715629]}},{"properties":{"zip_code":"94578","geo_score":0.714,"id":"aae7xp8yszvs","geo_precision":"zip","frequency":2},"type":"Feature","geometry":{"type":"Point","coordinates":[-122.124225,37.704429]}},{"properties":{"zip_code":"94579","geo_score":0.714,"id":"aae7xp8l77mg","geo_precision":"zip","frequency":1},"type":"Feature","geometry":{"type":"Point","coordinates":[-122.147425,37.688518]}},{"properties":{"zip_code":"94580","geo_score":0.714,"id":"aae7xou9lftl","geo_precision":"zip","frequency":1},"type":"Feature","geometry":{"type":"Point","coordinates":[-122.133825,37.68123]}},{"properties":{"zip_code":"94582","geo_score":0.0,"id":"aae7xovs4q1g","geo_precision":"unmatched","frequency":6},"type":"Feature","geometry":null},{"properties":{"zip_code":"94583","geo_score":0.714,"id":"aae7xp3hjuig","geo_precision":"zip","frequency":2},"type":"Feature","geometry":{"type":"Point","coordinates":[-121.975531,37.768556]}},{"properties":{"zip_code":"94585","geo_score":0.714,"id":"aae7xotma12k","geo_precision":"zip","frequency":3},"type":"Feature","geometry":{"type":"Point","coordinates":[-121.849958,38.076864]}},{"properties":{"zip_code":"94587","geo_score":0.714,"id":"aae7xp1uk7w3","geo_precision":"zip","frequency":4},"type":"Feature","geometry":{"type":"Point","coordinates":[-121.97362,37.589084]}},{"properties":{"zip_code":"94588","geo_score":0.714,"id":"aae7xp315cul","geo_precision":"zip","frequency":1},"type":"Feature","geometry":{"type":"Point","coordinates":[-121.898741,37.688244]}},{"properties":{"zip_code":"94589","geo_score":0.714,"id":"aae7xp1iw6v2","geo_precision":"zip","frequency":2},"type":"Feature","geometry":{"type":"Point","coordinates":[-122.280383,38.158221]}},{"properties":{"zip_code":"94590","geo_score":0.714,"id":"aae7xp3b7m6i","geo_precision":"zip","frequency":5},"type":"Feature","geometry":{"type":"Point","coordinates":[-122.25328,38.096719]}},{"properties":{"zip_code":"94591","geo_score":0.714,"id":"aae7xp77p05u","geo_precision":"zip","frequency":8},"type":"Feature","geometry":{"type":"Point","coordinates":[-122.206292,38.114249]}},{"properties":{"zip_code":"94595","geo_score":0.714,"id":"aae7xp6651dq","geo_precision":"zip","frequency":1},"type":"Feature","geometry":{"type":"Point","coordinates":[-122.070625,37.873343]}},{"properties":{"zip_code":"94597","geo_score":0.714,"id":"aae7xp9i3pdx","geo_precision":"zip","frequency":1},"type":"Feature","geometry":{"type":"Point","coordinates":[-121.955399,37.777208]}},{"properties":{"zip_code":"94601","geo_score":0.714,"id":"aae7xou2i0h1","geo_precision":"zip","frequency":1},"type":"Feature","geometry":{"type":"Point","coordinates":[-122.223779,37.786027]}},{"properties":{"zip_code":"94603","geo_score":0.714,"id":"aae7xowvspr2","geo_precision":"zip","frequency":4},"type":"Feature","geometry":{"type":"Point","coordinates":[-122.198428,37.761778]}},{"properties":{"zip_code":"94604","geo_score":0.714,"id":"aae7xp5ue1ge","geo_precision":"zip","frequency":1},"type":"Feature","geometry":{"type":"Point","coordinates":[-121.921498,37.680181]}},{"properties":{"zip_code":"94605","geo_score":0.714,"id":"aae7xp59o3qi","geo_precision":"zip","frequency":7},"type":"Feature","geometry":{"type":"Point","coordinates":[-122.156626,37.759322]}},{"properties":{"zip_code":"94606","geo_score":0.714,"id":"aae7xp59cn62","geo_precision":"zip","frequency":3},"type":"Feature","geometry":{"type":"Point","coordinates":[-122.243979,37.789927]}},{"properties":{"zip_code":"94607","geo_score":0.714,"id":"aae7xoyn41bp","geo_precision":"zip","frequency":1},"type":"Feature","geometry":{"type":"Point","coordinates":[-122.29878,37.807967]}},{"properties":{"zip_code":"94608","geo_score":0.714,"id":"aae7xp8mv37f","geo_precision":"zip","frequency":3},"type":"Feature","geometry":{"type":"Point","coordinates":[-122.29548,37.833876]}},{"properties":{"zip_code":"94610","geo_score":0.714,"id":"aae7xp3y8nnq","geo_precision":"zip","frequency":5},"type":"Feature","geometry":{"type":"Point","coordinates":[-122.238779,37.811277]}},{"properties":{"zip_code":"94611","geo_score":0.714,"id":"aae7xovrfts9","geo_precision":"zip","frequency":7},"type":"Feature","geometry":{"type":"Point","coordinates":[-122.231635,37.824372]}},{"properties":{"zip_code":"94612","geo_score":0.714,"id":"aae7xovnv7c0","geo_precision":"zip","frequency":1},"type":"Feature","geometry":{"type":"Point","coordinates":[-122.27018,37.809435]}},{"properties":{"zip_code":"94618","geo_score":0.714,"id":"aae7xot6s1w7","geo_precision":"zip","frequency":2},"type":"Feature","geometry":{"type":"Point","coordinates":[-122.240179,37.843126]}},{"properties":{"zip_code":"94619","geo_score":0.714,"id":"aae7xp8bm1jq","geo_precision":"zip","frequency":1},"type":"Feature","geometry":{"type":"Point","coordinates":[-122.167126,37.783877]}},{"properties":{"zip_code":"94621","geo_score":0.714,"id":"aae7xp8cmvpp","geo_precision":"zip","frequency":1},"type":"Feature","geometry":{"type":"Point","coordinates":[-122.196689,37.742529]}},{"properties":{"zip_code":"94658","geo_score":0.714,"id":"aae7xow6ds7t","geo_precision":"zip","frequency":1},"type":"Feature","geometry":{"type":"Point","coordinates":[-122.270803,37.804372]}},{"properties":{"zip_code":"94702","geo_score":0.714,"id":"aae7xp497r52","geo_precision":"zip","frequency":2},"type":"Feature","geometry":{"type":"Point","coordinates":[-122.28713,37.864425]}},{"properties":{"zip_code":"94703","geo_score":0.714,"id":"aae7xp3b7c68","geo_precision":"zip","frequency":3},"type":"Feature","geometry":{"type":"Point","coordinates":[-122.27573,37.865725]}},{"properties":{"zip_code":"94704","geo_score":0.714,"id":"aae7xouinvz5","geo_precision":"zip","frequency":3},"type":"Feature","geometry":{"type":"Point","coordinates":[-122.256729,37.866975]}},{"properties":{"zip_code":"94705","geo_score":0.714,"id":"aae7xp8qxulj","geo_precision":"zip","frequency":1},"type":"Feature","geometry":{"type":"Point","coordinates":[-122.242029,37.85983]}},{"properties":{"zip_code":"94706","geo_score":0.714,"id":"aae7xp2921eu","geo_precision":"zip","frequency":1},"type":"Feature","geometry":{"type":"Point","coordinates":[-122.29828,37.889525]}},{"properties":{"zip_code":"94707","geo_score":0.714,"id":"aae7xovuuxhi","geo_precision":"zip","frequency":2},"type":"Feature","geometry":{"type":"Point","coordinates":[-122.280247,37.910481]}},{"properties":{"zip_code":"94708","geo_score":0.714,"id":"aae7xp6caw6b","geo_precision":"zip","frequency":1},"type":"Feature","geometry":{"type":"Point","coordinates":[-122.260429,37.891825]}},{"properties":{"zip_code":"94727","geo_score":0.0,"id":"aae7xp6ribzo","geo_precision":"unmatched","frequency":1},"type":"Feature","geometry":null},{"properties":{"zip_code":"94780","geo_score":0.0,"id":"aae7xozkzop4","geo_precision":"unmatched","frequency":1},"type":"Feature","geometry":null},{"properties":{"zip_code":"94801","geo_score":0.714,"id":"aae7xp43zp9r","geo_precision":"zip","frequency":3},"type":"Feature","geometry":{"type":"Point","coordinates":[-122.367471,37.958813]}},{"properties":{"zip_code":"94803","geo_score":0.714,"id":"aae7xowh6pbs","geo_precision":"zip","frequency":3},"type":"Feature","geometry":{"type":"Point","coordinates":[-122.206177,37.966422]}},{"properties":{"zip_code":"94804","geo_score":0.714,"id":"aae7xp1sxkm8","geo_precision":"zip","frequency":2},"type":"Feature","geometry":{"type":"Point","coordinates":[-122.344381,37.925174]}},{"properties":{"zip_code":"94805","geo_score":0.714,"id":"aae7xow5tcxt","geo_precision":"zip","frequency":1},"type":"Feature","geometry":{"type":"Point","coordinates":[-122.30093,37.929123]}},{"properties":{"zip_code":"94806","geo_score":0.714,"id":"aae7xozbc5k9","geo_precision":"zip","frequency":2},"type":"Feature","geometry":{"type":"Point","coordinates":[-122.334131,37.959573]}},{"properties":{"zip_code":"94901","geo_score":0.714,"id":"aae7xp6nklzr","geo_precision":"zip","frequency":1},"type":"Feature","geometry":{"type":"Point","coordinates":[-122.504286,37.970948]}},{"properties":{"zip_code":"94903","geo_score":0.714,"id":"aae7xp4ur5z5","geo_precision":"zip","frequency":2},"type":"Feature","geometry":{"type":"Point","coordinates":[-122.537756,38.038255]}},{"properties":{"zip_code":"94904","geo_score":0.714,"id":"aae7xp8r5gq0","geo_precision":"zip","frequency":2},"type":"Feature","geometry":{"type":"Point","coordinates":[-122.5572,37.952147]}},{"properties":{"zip_code":"94920","geo_score":0.714,"id":"aae7xp277uho","geo_precision":"zip","frequency":1},"type":"Feature","geometry":{"type":"Point","coordinates":[-122.471917,37.884093]}},{"properties":{"zip_code":"94925","geo_score":0.714,"id":"aae7xp90oido","geo_precision":"zip","frequency":2},"type":"Feature","geometry":{"type":"Point","coordinates":[-122.512035,37.925039]}},{"properties":{"zip_code":"94928","geo_score":0.714,"id":"aae7xp7zmv1m","geo_precision":"zip","frequency":1},"type":"Feature","geometry":{"type":"Point","coordinates":[-122.698398,38.345663]}},{"properties":{"zip_code":"94939","geo_score":0.714,"id":"aae7xp2tf7go","geo_precision":"zip","frequency":1},"type":"Feature","geometry":{"type":"Point","coordinates":[-122.532476,37.930758]}},{"properties":{"zip_code":"94941","geo_score":0.714,"id":"aae7xp7rav6e","geo_precision":"zip","frequency":1},"type":"Feature","geometry":{"type":"Point","coordinates":[-122.562937,37.886325]}},{"properties":{"zip_code":"94947","geo_score":0.714,"id":"aae7xov1cns2","geo_precision":"zip","frequency":1},"type":"Feature","geometry":{"type":"Point","coordinates":[-122.620893,38.09502]}},{"properties":{"zip_code":"95008","geo_score":0.714,"id":"aae7xp8f33r9","geo_precision":"zip","frequency":1},"type":"Feature","geometry":{"type":"Point","coordinates":[-121.705327,37.189396]}},{"properties":{"zip_code":"95014","geo_score":0.714,"id":"aae7xot7057o","geo_precision":"zip","frequency":4},"type":"Feature","geometry":{"type":"Point","coordinates":[-121.705327,37.189396]}},{"properties":{"zip_code":"95017","geo_score":0.714,"id":"aae7xp1q1da8","geo_precision":"zip","frequency":1},"type":"Feature","geometry":{"type":"Point","coordinates":[-122.227469,37.064115]}},{"properties":{"zip_code":"95023","geo_score":0.714,"id":"aae7xp2qntz0","geo_precision":"zip","frequency":1},"type":"Feature","geometry":{"type":"Point","coordinates":[-121.400491,36.869398]}},{"properties":{"zip_code":"95035","geo_score":0.714,"id":"aae7xp7tlz18","geo_precision":"zip","frequency":3},"type":"Feature","geometry":{"type":"Point","coordinates":[-121.861989,37.436454]}},{"properties":{"zip_code":"95051","geo_score":0.714,"id":"aae7xp0lvfe5","geo_precision":"zip","frequency":4},"type":"Feature","geometry":{"type":"Point","coordinates":[-121.705327,37.189396]}},{"properties":{"zip_code":"95060","geo_score":0.714,"id":"aae7xp1eqwvg","geo_precision":"zip","frequency":3},"type":"Feature","geometry":{"type":"Point","coordinates":[-122.111126,37.052748]}},{"properties":{"zip_code":"95070","geo_score":0.714,"id":"aae7xovhofez","geo_precision":"zip","frequency":2},"type":"Feature","geometry":{"type":"Point","coordinates":[-122.00857,37.275777]}},{"properties":{"zip_code":"95091","geo_score":0.0,"id":"aae7xp1r4xh5","geo_precision":"unmatched","frequency":1},"type":"Feature","geometry":null},{"properties":{"zip_code":"95112","geo_score":0.714,"id":"aae7xp7qy1wk","geo_precision":"zip","frequency":2},"type":"Feature","geometry":{"type":"Point","coordinates":[-121.892093,37.37004]}},{"properties":{"zip_code":"95120","geo_score":0.714,"id":"aae7xotinbdr","geo_precision":"zip","frequency":2},"type":"Feature","geometry":{"type":"Point","coordinates":[-121.895798,37.38478]}},{"properties":{"zip_code":"95123","geo_score":0.714,"id":"aae7xp8dbhir","geo_precision":"zip","frequency":3},"type":"Feature","geometry":{"type":"Point","coordinates":[-121.705327,37.189396]}},{"properties":{"zip_code":"95127","geo_score":0.714,"id":"aae7xp4nlr0a","geo_precision":"zip","frequency":2},"type":"Feature","geometry":{"type":"Point","coordinates":[-121.795913,37.373903]}},{"properties":{"zip_code":"95129","geo_score":0.714,"id":"aae7xp0rmrai","geo_precision":"zip","frequency":2},"type":"Feature","geometry":{"type":"Point","coordinates":[-121.705327,37.189396]}},{"properties":{"zip_code":"95130","geo_score":0.714,"id":"aae7xp0zt08b","geo_precision":"zip","frequency":1},"type":"Feature","geometry":{"type":"Point","coordinates":[-121.705327,37.189396]}},{"properties":{"zip_code":"95131","geo_score":0.714,"id":"aae7xp2dt87g","geo_precision":"zip","frequency":1},"type":"Feature","geometry":{"type":"Point","coordinates":[-121.886316,37.388389]}},{"properties":{"zip_code":"95132","geo_score":0.714,"id":"aae7xowtps8r","geo_precision":"zip","frequency":2},"type":"Feature","geometry":{"type":"Point","coordinates":[-121.86051,37.386329]}},{"properties":{"zip_code":"95133","geo_score":0.714,"id":"aae7xp8aeezb","geo_precision":"zip","frequency":1},"type":"Feature","geometry":{"type":"Point","coordinates":[-121.864265,37.372239]}},{"properties":{"zip_code":"95135","geo_score":0.714,"id":"aae7xp2a1pkb","geo_precision":"zip","frequency":1},"type":"Feature","geometry":{"type":"Point","coordinates":[-121.723862,37.272289]}},{"properties":{"zip_code":"95139","geo_score":0.714,"id":"aae7xox0glqs","geo_precision":"zip","frequency":1},"type":"Feature","geometry":{"type":"Point","coordinates":[-121.740059,37.216394]}},{"properties":{"zip_code":"95148","geo_score":0.714,"id":"aae7xp9cceco","geo_precision":"zip","frequency":1},"type":"Feature","geometry":{"type":"Point","coordinates":[-121.776861,37.335928]}},{"properties":{"zip_code":"95202","geo_score":0.714,"id":"aae7xovlnhkb","geo_precision":"zip","frequency":1},"type":"Feature","geometry":{"type":"Point","coordinates":[-121.289206,37.958573]}},{"properties":{"zip_code":"95206","geo_score":0.714,"id":"aae7xp27e0xc","geo_precision":"zip","frequency":1},"type":"Feature","geometry":{"type":"Point","coordinates":[-121.147442,37.904925]}},{"properties":{"zip_code":"95215","geo_score":0.714,"id":"aae7xp90edt8","geo_precision":"zip","frequency":1},"type":"Feature","geometry":{"type":"Point","coordinates":[-121.128903,37.964123]}},{"properties":{"zip_code":"95307","geo_score":0.714,"id":"aae7xowzv2ww","geo_precision":"zip","frequency":1},"type":"Feature","geometry":{"type":"Point","coordinates":[-120.967976,37.561889]}},{"properties":{"zip_code":"95350","geo_score":0.714,"id":"aae7xp1vdnoz","geo_precision":"zip","frequency":1},"type":"Feature","geometry":{"type":"Point","coordinates":[-121.016796,37.669463]}},{"properties":{"zip_code":"95391","geo_score":0.0,"id":"aae7xp07mbt6","geo_precision":"unmatched","frequency":1},"type":"Feature","geometry":null},{"properties":{"zip_code":"95403","geo_score":0.714,"id":"aae7xozdnxcy","geo_precision":"zip","frequency":2},"type":"Feature","geometry":{"type":"Point","coordinates":[-122.810328,38.477043]}},{"properties":{"zip_code":"95405","geo_score":0.714,"id":"aae7xoutqadc","geo_precision":"zip","frequency":2},"type":"Feature","geometry":{"type":"Point","coordinates":[-122.786392,38.444714]}},{"properties":{"zip_code":"95409","geo_score":0.714,"id":"aae7xp6wihpu","geo_precision":"zip","frequency":1},"type":"Feature","geometry":{"type":"Point","coordinates":[-122.626545,38.462575]}},{"properties":{"zip_code":"95451","geo_score":0.714,"id":"aae7xowipbne","geo_precision":"zip","frequency":1},"type":"Feature","geometry":{"type":"Point","coordinates":[-122.789158,39.001008]}},{"properties":{"zip_code":"95476","geo_score":0.714,"id":"aae7xp1f6e6a","geo_precision":"zip","frequency":1},"type":"Feature","geometry":{"type":"Point","coordinates":[-122.476819,38.255943]}},{"properties":{"zip_code":"95492","geo_score":0.714,"id":"aae7xp7rui9s","geo_precision":"zip","frequency":1},"type":"Feature","geometry":{"type":"Point","coordinates":[-122.8041,38.532827]}},{"properties":{"zip_code":"95601","geo_score":0.714,"id":"aae7xp0i5aco","geo_precision":"zip","frequency":1},"type":"Feature","geometry":{"type":"Point","coordinates":[-120.836326,38.437133]}},{"properties":{"zip_code":"95602","geo_score":0.714,"id":"aae7xoxvxurz","geo_precision":"zip","frequency":1},"type":"Feature","geometry":{"type":"Point","coordinates":[-121.07047,39.014933]}},{"properties":{"zip_code":"95616","geo_score":0.714,"id":"aae7xp7bxhs2","geo_precision":"zip","frequency":1},"type":"Feature","geometry":{"type":"Point","coordinates":[-121.749016,38.521776]}},{"properties":{"zip_code":"95618","geo_score":0.714,"id":"aae7xp36zovh","geo_precision":"zip","frequency":1},"type":"Feature","geometry":{"type":"Point","coordinates":[-121.685904,38.54431]}},{"properties":{"zip_code":"95620","geo_score":0.714,"id":"aae7xou00wlx","geo_precision":"zip","frequency":1},"type":"Feature","geometry":{"type":"Point","coordinates":[-121.761419,38.397372]}},{"properties":{"zip_code":"95628","geo_score":0.714,"id":"aae7xp151uv3","geo_precision":"zip","frequency":2},"type":"Feature","geometry":{"type":"Point","coordinates":[-121.260709,38.655263]}},{"properties":{"zip_code":"95655","geo_score":0.714,"id":"aae7xowjy7qj","geo_precision":"zip","frequency":1},"type":"Feature","geometry":{"type":"Point","coordinates":[-121.28181,38.554406]}},{"properties":{"zip_code":"95682","geo_score":0.714,"id":"aae7xp11fqoa","geo_precision":"zip","frequency":1},"type":"Feature","geometry":{"type":"Point","coordinates":[-120.983831,38.559629]}},{"properties":{"zip_code":"95687","geo_score":0.714,"id":"aae7xp4huyh6","geo_precision":"zip","frequency":2},"type":"Feature","geometry":{"type":"Point","coordinates":[-121.912773,38.35056]}},{"properties":{"zip_code":"95757","geo_score":0.0,"id":"aae7xozsocu0","geo_precision":"unmatched","frequency":1},"type":"Feature","geometry":null},{"properties":{"zip_code":"96110","geo_score":0.714,"id":"aae7xp5gwckt","geo_precision":"zip","frequency":1},"type":"Feature","geometry":{"type":"Point","coordinates":[-120.727706,41.590548]}},{"properties":{"zip_code":"97526","geo_score":0.714,"id":"aae7xp4r51oh","geo_precision":"zip","frequency":2},"type":"Feature","geometry":{"type":"Point","coordinates":[-123.402563,42.584561]}}],"is_temporal":false,"author":{"url":"","metadata":"","contact_name":"","contact_address":"","source":"","contact_phone":""},"source":"","pagination":{"sort":null,"start":0,"total":188,"limit":1000000},"state":"complete","tags":"","published":"2014-08-16T13:34:27-04:00","id":300669}