{"type":"FeatureCollection","data_type":"Dataset","url_type":null,"permissions":[{"permissions":{"download":true,"view":true},"group_id":"everyone"}],"classification":null,"title":"Universities","count":25,"stream_id":300770,"contributor":{"url":"http://geocommons.com/users/55755","name":"duncan.pettigrew@gmail.com"},"data_attributes":null,"calculation_params":null,"icon_link":null,"link":"http://geocommons.com/overlays/300770.json","extent":[-73.2017,41.3294,-68.7994,44.8871],"geometry_types":["point"],"unique_name":null,"name":"Universities","feature_count":25,"description":"","next_feature":null,"is_raster":false,"short_classification":"Y","stats":{},"features":[{"properties":{"zip":"04240","geo_score":0.286,"id":"aaebvhs0lgmp","campus":"Bates College","address":"2 Andrews Road  Lewiston, ME 04240","geo_precision":"street"},"type":"Feature","geometry":{"type":"Point","coordinates":[-70.205399,44.107212]}},{"properties":{"zip":"01106","geo_score":0.352,"id":"aaebvhv5kphd","campus":"Bay Path College","address":"Longmeadow, MA","geo_precision":"street"},"type":"Feature","geometry":{"type":"Point","coordinates":[-72.580702,42.070806]}},{"properties":{"zip":"02452","geo_score":0.286,"id":"aaebvhrs4eqn","campus":"Bentley University","address":"175 Forest Street  Waltham, MA 02452","geo_precision":"street"},"type":"Feature","geometry":{"type":"Point","coordinates":[-71.224127,42.387909]}},{"properties":{"zip":"02467","geo_score":0.339,"id":"aaebvht6wxo5","campus":"Boston College","address":"140 Commonwealth Avenue  Chestnut Hill, MA 02467","geo_precision":"street"},"type":"Feature","geometry":{"type":"Point","coordinates":[-71.166823,42.339833]}},{"properties":{"zip":"02215","geo_score":0.714,"id":"aaebvhs43c0w","campus":"Boston University","address":"1 Silber Way  Boston, MA 02215","geo_precision":"zip"},"type":"Feature","geometry":{"type":"Point","coordinates":[-71.107653,42.345079]}},{"properties":{"zip":"04011","geo_score":0.5,"id":"aaebvhw9bjwe","campus":"Bowdoin College","address":"5000 South Street, Brunswick, ME 04011","geo_precision":"street"},"type":"Feature","geometry":{"type":"Point","coordinates":[-70.432907,43.499342]}},{"properties":{"zip":"02453","geo_score":0.393,"id":"aaebvhnvsg1m","campus":"Brandeis University","address":"415 South Street  Waltham, MA 02453","geo_precision":"street"},"type":"Feature","geometry":{"type":"Point","coordinates":[-71.23145,42.282889]}},{"properties":{"zip":"02912","geo_score":0.352,"id":"aaebvhowqd5b","campus":"Brown University","address":"Providence, RI 02912","geo_precision":"street"},"type":"Feature","geometry":{"type":"Point","coordinates":[-71.41767,41.827583]}},{"properties":{"zip":"01610","geo_score":0.714,"id":"aaebvhp4n1kq","campus":"Clark University","address":"950 Main Street, Worcester, MA 01610","geo_precision":"street"},"type":"Feature","geometry":{"type":"Point","coordinates":[-71.805165,42.259619]}},{"properties":{"zip":"04901","geo_score":0.393,"id":"aaebvhtgfw77","campus":"Colby College","address":"4000 Mayflower Hill Drive  Waterville, ME 04901","geo_precision":"street"},"type":"Feature","geometry":{"type":"Point","coordinates":[-69.645778,44.551321]}},{"properties":{"zip":"02115","geo_score":0.286,"id":"aaebvhr39dol","campus":"Emmanuel College Massachusetts","address":"400 The Fenway Boston, MA 02115","geo_precision":"street"},"type":"Feature","geometry":{"type":"Point","coordinates":[-71.090671,42.345777]}},{"properties":{"zip":"01702","geo_score":0.286,"id":"aaebvhxyxim7","campus":"Framingham State University","address":"100 State Street  Framingham, MA 01702","geo_precision":"street"},"type":"Feature","geometry":{"type":"Point","coordinates":[-71.437404,42.300033]}},{"properties":{"zip":"01984","geo_score":0.357,"id":"aaebvhxzpti8","campus":"Gordon College Massachusetts","address":"255 Grapevine Road, Wenham, MA 01984","geo_precision":"street"},"type":"Feature","geometry":{"type":"Point","coordinates":[-70.855207,42.601043]}},{"properties":{"zip":"02115","geo_score":0.378,"id":"aaebvhoh349y","campus":"Northeastern University","address":"360 Huntington Ave, Boston, MA 02115","geo_precision":"street"},"type":"Feature","geometry":{"type":"Point","coordinates":[-71.078417,42.348209]}},{"properties":{"zip":"03264","geo_score":0.325,"id":"aaebvhzs2r83","campus":"Plymouth State University","address":"Plymouth, NH","geo_precision":"street"},"type":"Feature","geometry":{"type":"Point","coordinates":[-71.463917,43.7093]}},{"properties":{"zip":"02908","geo_score":0.352,"id":"aaebvhtjnfnh","campus":"Providence College","address":"1 Cunningham Square  Providence, RI 02908","geo_precision":"street"},"type":"Feature","geometry":{"type":"Point","coordinates":[-71.41767,41.827583]}},{"properties":{"zip":"05439","geo_score":0.333,"id":"aaebvhyhsuw8","campus":"St Michael's College","address":"30 College Parkway  Colchester, VT 05439","geo_precision":"street"},"type":"Feature","geometry":{"type":"Point","coordinates":[-73.126139,44.551189]}},{"properties":{"zip":"02108","geo_score":0.286,"id":"aaebvi0xfmzj","campus":"Suffolk university","address":"8 Ashburton Place  Boston, MA 02108","geo_precision":"street"},"type":"Feature","geometry":{"type":"Point","coordinates":[-71.062862,42.359204]}},{"properties":{"zip":"06106","geo_score":0.286,"id":"aaebvhyhrnaf","campus":"Trinity College","address":"300 Summit Street  Hartford, CT 06106","geo_precision":"street"},"type":"Feature","geometry":{"type":"Point","coordinates":[-72.692189,41.74236]}},{"properties":{"zip":"06340","geo_score":0.333,"id":"aaebvhst5ivq","campus":"University of Connecticut","address":"1084 Shennecossett Road  Groton, CT 06340","geo_precision":"street"},"type":"Feature","geometry":{"type":"Point","coordinates":[-72.075138,41.329429]}},{"properties":{"zip":"04469","geo_score":0.554,"id":"aaebvhuqfdwb","campus":"University of Maine","address":"Orono, ME 04469","geo_precision":"street"},"type":"Feature","geometry":{"type":"Point","coordinates":[-68.799379,44.887126]}},{"properties":{"zip":"03824","geo_score":0.286,"id":"aaebvhlts7ds","campus":"University of New Hampshire Durham","address":"83 Main St. Durham, NH 03824-4800","geo_precision":"street"},"type":"Feature","geometry":{"type":"Point","coordinates":[-70.921205,43.132996]}},{"properties":{"zip":"04038","geo_score":0.519,"id":"aaebvhqjx3ai","campus":"University of Southern Maine","address":"37 College Avenue, Gorham, ME 04038","geo_precision":"street"},"type":"Feature","geometry":{"type":"Point","coordinates":[-70.474612,43.766078]}},{"properties":{"zip":"05401","geo_score":0.319,"id":"aaebvhrgmp07","campus":"University of Vermont","address":"85 S Prospect St  Burlington, VT 05401","geo_precision":"street"},"type":"Feature","geometry":{"type":"Point","coordinates":[-73.201678,44.485789]}},{"properties":{"zip":"06459","geo_score":0.714,"id":"aaebvhxz10b3","campus":"Wesleyan University","address":"45 Wyllys Avenue, Middletown, Connecticut 06459","geo_precision":"street"},"type":"Feature","geometry":{"type":"Point","coordinates":[-72.655183,41.557793]}}],"is_temporal":false,"author":{"url":"","metadata":"","contact_name":"","contact_address":"","source":"","contact_phone":""},"source":"","pagination":{"sort":null,"start":0,"total":25,"limit":1000000},"state":"complete","tags":"","published":"2014-08-16T13:43:50-04:00","id":300770}