{"type":"FeatureCollection","data_type":"Dataset Analysis","url_type":null,"permissions":[{"permissions":{"download":true,"view":true},"group_id":"everyone"}],"classification":null,"title":"Intersection of 'Discovery Days AT&amp;T Park 2012 Zip Codes' and 'Bay Area ZIP Code Areas'","count":125,"stream_id":300708,"contributor":{"url":"http://geocommons.com/users/41433","name":"kishorehari"},"data_attributes":null,"calculation_params":{"input":{"columns":[{"id":"300669"},{"id":"299442"}],"merge":"combine"},"calculation":"intersect"},"icon_link":null,"link":"http://geocommons.com/overlays/300708.json","extent":[-122.621,37.3513,-121.749,38.5218],"geometry_types":["point"],"unique_name":null,"name":"Intersection of 'Discovery Days AT&T Park 2012 Zip Codes' and 'Bay Area ZIP Code Areas'","feature_count":125,"description":"Dataset created by the intersection of 1) Discovery Days AT&amp;T Park 2012 Zip Codes and 2) Bay Area ZIP Code Areas","next_feature":null,"is_raster":false,"short_classification":"Y","stats":{"Area__":{"max":7236949520.92,"mean":531110215.88432,"variance":1.23695121158745e+18,"stdev":1112183083.66359,"median":163378828.223,"min":12382882.0355},"geo_score":{"max":0.714,"mean":0.713999999999999,"variance":1.00645371287333e-30,"stdev":1.00322166686796e-15,"median":0.714,"min":0.714},"zip_code":{"max":null,"median":null,"min":null},"Length__":{"max":492056.752411,"mean":118325.226653316,"variance":10563913554.5672,"stdev":102780.900728526,"median":83184.0719141,"min":23624.3085968},"frequency":{"max":15,"mean":3.288,"variance":9.73896774193549,"stdev":3.12073192407414,"median":2,"min":1}},"features":[{"properties":{"PO_NAME":"BELMONT","ZIP":"94002","Area__":163210029.225,"zip_code":"94002","geo_score":0.714,"Length__":86346.4872109,"STATE":"CA","id":"aaeabt8apwqs","geo_precision":"zip","frequency":4},"type":"Feature","geometry":{"type":"Point","coordinates":[-122.29339,37.516644]}},{"properties":{"PO_NAME":"REDWOOD CITY","ZIP":"94062","Area__":2346924897.49,"zip_code":"94003","geo_score":0.714,"Length__":430979.71729,"STATE":"CA","id":"aaeabt6qn1e3","geo_precision":"zip","frequency":1},"type":"Feature","geometry":{"type":"Point","coordinates":[-122.334825,37.381144]}},{"properties":{"PO_NAME":"BURLINGAME","ZIP":"94010","Area__":359016202.637,"zip_code":"94010","geo_score":0.714,"Length__":141377.757027,"STATE":"CA","id":"aaeabt501rbc","geo_precision":"zip","frequency":8},"type":"Feature","geometry":{"type":"Point","coordinates":[-122.379416,37.574103]}},{"properties":{"PO_NAME":"DALY CITY","ZIP":"94014","Area__":181555330.136,"zip_code":"94014","geo_score":0.714,"Length__":81604.6288525,"STATE":"CA","id":"aaeabsxk0t08","geo_precision":"zip","frequency":6},"type":"Feature","geometry":{"type":"Point","coordinates":[-122.459695,37.676878]}},{"properties":{"PO_NAME":"DALY CITY","ZIP":"94015","Area__":159483452.372,"zip_code":"94015","geo_score":0.714,"Length__":75079.2856064,"STATE":"CA","id":"aaeabsztr86i","geo_precision":"zip","frequency":9},"type":"Feature","geometry":{"type":"Point","coordinates":[-122.475234,37.676864]}},{"properties":{"PO_NAME":"REDWOOD CITY","ZIP":"94062","Area__":2346924897.49,"zip_code":"94017","geo_score":0.714,"Length__":430979.71729,"STATE":"CA","id":"aaeabt91uhaf","geo_precision":"zip","frequency":1},"type":"Feature","geometry":{"type":"Point","coordinates":[-122.334825,37.381144]}},{"properties":{"PO_NAME":"LOS ALTOS","ZIP":"94024","Area__":296697315.102,"zip_code":"94022","geo_score":0.714,"Length__":136286.64298,"STATE":"CA","id":"aaeabsva5xwq","geo_precision":"zip","frequency":1},"type":"Feature","geometry":{"type":"Point","coordinates":[-122.100518,37.35133]}},{"properties":{"PO_NAME":"MENLO PARK","ZIP":"94025","Area__":336079222.289,"zip_code":"94025","geo_score":0.714,"Length__":182065.992187,"STATE":"CA","id":"aaeabsw2gow2","geo_precision":"zip","frequency":3},"type":"Feature","geometry":{"type":"Point","coordinates":[-122.159409,37.476327]}},{"properties":{"PO_NAME":"ATHERTON","ZIP":"94027","Area__":140097694.009,"zip_code":"94027","geo_score":0.714,"Length__":81316.3112471,"STATE":"CA","id":"aaeabt74mnd7","geo_precision":"zip","frequency":1},"type":"Feature","geometry":{"type":"Point","coordinates":[-122.199439,37.450627]}},{"properties":{"PO_NAME":"MILLBRAE","ZIP":"94030","Area__":95661190.4102,"zip_code":"94030","geo_score":0.714,"Length__":54644.6509188,"STATE":"CA","id":"aaeabt1dqjzj","geo_precision":"zip","frequency":6},"type":"Feature","geometry":{"type":"Point","coordinates":[-122.400083,37.598385]}},{"properties":{"PO_NAME":"PACIFICA","ZIP":"94044","Area__":402788971.601,"zip_code":"94044","geo_score":0.714,"Length__":123465.9436,"STATE":"CA","id":"aaeabt80137n","geo_precision":"zip","frequency":2},"type":"Feature","geometry":{"type":"Point","coordinates":[-122.490807,37.653824]}},{"properties":{"PO_NAME":"REDWOOD CITY","ZIP":"94061","Area__":102796125.021,"zip_code":"94061","geo_score":0.714,"Length__":55830.9217316,"STATE":"CA","id":"aaeabt0t4b2v","geo_precision":"zip","frequency":3},"type":"Feature","geometry":{"type":"Point","coordinates":[-122.235639,37.462158]}},{"properties":{"PO_NAME":"REDWOOD CITY","ZIP":"94063","Area__":358663813.647,"zip_code":"94063","geo_score":0.714,"Length__":122228.604855,"STATE":"CA","id":"aaeabsva83s5","geo_precision":"zip","frequency":1},"type":"Feature","geometry":{"type":"Point","coordinates":[-122.212846,37.490387]}},{"properties":{"PO_NAME":"REDWOOD CITY","ZIP":"94065","Area__":71850210.7003,"zip_code":"94065","geo_score":0.714,"Length__":45567.4308222,"STATE":"CA","id":"aaeabt1hj5be","geo_precision":"zip","frequency":2},"type":"Feature","geometry":{"type":"Point","coordinates":[-122.247806,37.53256]}},{"properties":{"PO_NAME":"SAN BRUNO","ZIP":"94066","Area__":198460889.237,"zip_code":"94066","geo_score":0.714,"Length__":88744.8854886,"STATE":"CA","id":"aaeabt3vaj6y","geo_precision":"zip","frequency":5},"type":"Feature","geometry":{"type":"Point","coordinates":[-122.404417,37.616602]}},{"properties":{"PO_NAME":"SAN CARLOS","ZIP":"94070","Area__":191633849.315,"zip_code":"94070","geo_score":0.714,"Length__":99300.2264511,"STATE":"CA","id":"aaeabt8zd9e7","geo_precision":"zip","frequency":3},"type":"Feature","geometry":{"type":"Point","coordinates":[-122.29815,37.498586]}},{"properties":{"PO_NAME":"SAN BRUNO","ZIP":"94066","Area__":198460889.237,"zip_code":"94080","geo_score":0.714,"Length__":88744.8854886,"STATE":"CA","id":"aaeabt4lzann","geo_precision":"zip","frequency":5},"type":"Feature","geometry":{"type":"Point","coordinates":[-122.411361,37.638546]}},{"properties":{"PO_NAME":"SAN FRANCISCO","ZIP":"94102","Area__":18740654.0256,"zip_code":"94102","geo_score":0.714,"Length__":23624.3085968,"STATE":"CA","id":"aaeabt2cyhzv","geo_precision":"zip","frequency":1},"type":"Feature","geometry":{"type":"Point","coordinates":[-122.416582,37.779278]}},{"properties":{"PO_NAME":"SAN FRANCISCO","ZIP":"94103","Area__":36906106.5495,"zip_code":"94103","geo_score":0.714,"Length__":33638.9331596,"STATE":"CA","id":"aaeabt8v434z","geo_precision":"zip","frequency":3},"type":"Feature","geometry":{"type":"Point","coordinates":[-122.412131,37.775678]}},{"properties":{"PO_NAME":"SAN FRANCISCO","ZIP":"94105","Area__":12382882.0355,"zip_code":"94105","geo_score":0.714,"Length__":26722.9849804,"STATE":"CA","id":"aaeabt3tguen","geo_precision":"zip","frequency":1},"type":"Feature","geometry":{"type":"Point","coordinates":[-122.395631,37.789595]}},{"properties":{"PO_NAME":"SAN FRANCISCO","ZIP":"94107","Area__":66294329.949,"zip_code":"94107","geo_score":0.714,"Length__":72456.4318386,"STATE":"CA","id":"aaeabt8i4g7i","geo_precision":"zip","frequency":13},"type":"Feature","geometry":{"type":"Point","coordinates":[-122.393681,37.769029]}},{"properties":{"PO_NAME":"SAN FRANCISCO","ZIP":"94109","Area__":29239810.9534,"zip_code":"94109","geo_score":0.714,"Length__":30323.9485551,"STATE":"CA","id":"aaeabsuv6d5h","geo_precision":"zip","frequency":3},"type":"Feature","geometry":{"type":"Point","coordinates":[-122.420782,37.795219]}},{"properties":{"PO_NAME":"SAN FRANCISCO","ZIP":"94110","Area__":66887406.7173,"zip_code":"94110","geo_score":0.714,"Length__":41644.5510172,"STATE":"CA","id":"aaeabt0usyts","geo_precision":"zip","frequency":14},"type":"Feature","geometry":{"type":"Point","coordinates":[-122.416281,37.748932]}},{"properties":{"PO_NAME":"SAN FRANCISCO","ZIP":"94103","Area__":36906106.5495,"zip_code":"94111","geo_score":0.714,"Length__":33638.9331596,"STATE":"CA","id":"aaeabt8ly0ud","geo_precision":"zip","frequency":1},"type":"Feature","geometry":{"type":"Point","coordinates":[-122.405331,37.773579]}},{"properties":{"PO_NAME":"SAN FRANCISCO","ZIP":"94112","Area__":92226023.9877,"zip_code":"94112","geo_score":0.714,"Length__":57996.3187634,"STATE":"CA","id":"aaeabt0llgzl","geo_precision":"zip","frequency":11},"type":"Feature","geometry":{"type":"Point","coordinates":[-122.439382,37.721981]}},{"properties":{"PO_NAME":"SAN FRANCISCO","ZIP":"94114","Area__":40823946.739,"zip_code":"94114","geo_score":0.714,"Length__":38323.361765,"STATE":"CA","id":"aaeabsvvovug","geo_precision":"zip","frequency":9},"type":"Feature","geometry":{"type":"Point","coordinates":[-122.439332,37.758279]}},{"properties":{"PO_NAME":"SAN FRANCISCO","ZIP":"94115","Area__":30561656.884,"zip_code":"94115","geo_score":0.714,"Length__":24300.4390242,"STATE":"CA","id":"aaeabt3j3xva","geo_precision":"zip","frequency":6},"type":"Feature","geometry":{"type":"Point","coordinates":[-122.437032,37.786028]}},{"properties":{"PO_NAME":"SAN FRANCISCO","ZIP":"94116","Area__":73713578.4373,"zip_code":"94116","geo_score":0.714,"Length__":42635.9553171,"STATE":"CA","id":"aaeabszyz4rd","geo_precision":"zip","frequency":11},"type":"Feature","geometry":{"type":"Point","coordinates":[-122.483232,37.743857]}},{"properties":{"PO_NAME":"SAN FRANCISCO","ZIP":"94117","Area__":33954482.7702,"zip_code":"94117","geo_score":0.714,"Length__":33260.7442902,"STATE":"CA","id":"aaeabt3x1p08","geo_precision":"zip","frequency":11},"type":"Feature","geometry":{"type":"Point","coordinates":[-122.443882,37.769079]}},{"properties":{"PO_NAME":"SAN FRANCISCO","ZIP":"94118","Area__":46128646.0967,"zip_code":"94118","geo_score":0.714,"Length__":31063.6615541,"STATE":"CA","id":"aaeabt05xepx","geo_precision":"zip","frequency":7},"type":"Feature","geometry":{"type":"Point","coordinates":[-122.459982,37.778779]}},{"properties":{"PO_NAME":"SAN FRANCISCO","ZIP":"94121","Area__":60790379.5089,"zip_code":"94121","geo_score":0.714,"Length__":34650.0403968,"STATE":"CA","id":"aaeabt6wmvbs","geo_precision":"zip","frequency":7},"type":"Feature","geometry":{"type":"Point","coordinates":[-122.491682,37.777129]}},{"properties":{"PO_NAME":"SAN FRANCISCO","ZIP":"94122","Area__":115396029.783,"zip_code":"94122","geo_score":0.714,"Length__":52028.9664001,"STATE":"CA","id":"aaeabt3pqn7p","geo_precision":"zip","frequency":15},"type":"Feature","geometry":{"type":"Point","coordinates":[-122.475732,37.761179]}},{"properties":{"PO_NAME":"SAN FRANCISCO","ZIP":"94123","Area__":31602774.7513,"zip_code":"94123","geo_score":0.714,"Length__":38751.4051836,"STATE":"CA","id":"aaeabt3q9nu7","geo_precision":"zip","frequency":1},"type":"Feature","geometry":{"type":"Point","coordinates":[-122.435732,37.79967]}},{"properties":{"PO_NAME":"SAN FRANCISCO","ZIP":"94124","Area__":136997620.418,"zip_code":"94124","geo_score":0.714,"Length__":114072.475164,"STATE":"CA","id":"aaeabstpbyne","geo_precision":"zip","frequency":5},"type":"Feature","geometry":{"type":"Point","coordinates":[-122.382857,37.73123]}},{"properties":{"PO_NAME":"SAN FRANCISCO","ZIP":"94127","Area__":46522319.0828,"zip_code":"94127","geo_score":0.714,"Length__":37097.2567363,"STATE":"CA","id":"aaeabt67f949","geo_precision":"zip","frequency":14},"type":"Feature","geometry":{"type":"Point","coordinates":[-122.458632,37.73403]}},{"properties":{"PO_NAME":"SAN FRANCISCO","ZIP":"94129","Area__":66147462.778,"zip_code":"94129","geo_score":0.714,"Length__":36589.1009263,"STATE":"CA","id":"aaeabt7suruc","geo_precision":"zip","frequency":1},"type":"Feature","geometry":{"type":"Point","coordinates":[-122.473583,37.801596]}},{"properties":{"PO_NAME":"SAN FRANCISCO","ZIP":"94131","Area__":62041183.5838,"zip_code":"94131","geo_score":0.714,"Length__":57011.7832824,"STATE":"CA","id":"aaeabt0vi3o7","geo_precision":"zip","frequency":5},"type":"Feature","geometry":{"type":"Point","coordinates":[-122.443182,37.74363]}},{"properties":{"PO_NAME":"SAN FRANCISCO","ZIP":"94132","Area__":112727175.099,"zip_code":"94132","geo_score":0.714,"Length__":52755.1532284,"STATE":"CA","id":"aaeabt6d392f","geo_precision":"zip","frequency":4},"type":"Feature","geometry":{"type":"Point","coordinates":[-122.482483,37.722631]}},{"properties":{"PO_NAME":"SAN FRANCISCO","ZIP":"94133","Area__":21552448.565,"zip_code":"94133","geo_score":0.714,"Length__":43114.3623601,"STATE":"CA","id":"aaeabstzx5s7","geo_precision":"zip","frequency":2},"type":"Feature","geometry":{"type":"Point","coordinates":[-122.412193,37.805762]}},{"properties":{"PO_NAME":"SAN FRANCISCO","ZIP":"94134","Area__":67516008.0857,"zip_code":"94134","geo_score":0.714,"Length__":44866.5215478,"STATE":"CA","id":"aaeabt1y75mx","geo_precision":"zip","frequency":6},"type":"Feature","geometry":{"type":"Point","coordinates":[-122.410832,37.72168]}},{"properties":{"PO_NAME":"SAN FRANCISCO","ZIP":"94103","Area__":36906106.5495,"zip_code":"94158","geo_score":0.714,"Length__":33638.9331596,"STATE":"CA","id":"aaeabsyvvfh0","geo_precision":"zip","frequency":1},"type":"Feature","geometry":{"type":"Point","coordinates":[-122.419416,37.77493]}},{"properties":{"PO_NAME":"PALO ALTO","ZIP":"94303","Area__":235585704.525,"zip_code":"94303","geo_score":0.714,"Length__":117478.534111,"STATE":"CA","id":"aaeabsslya4w","geo_precision":"zip","frequency":2},"type":"Feature","geometry":{"type":"Point","coordinates":[-122.141075,37.468827]}},{"properties":{"PO_NAME":"PALO ALTO","ZIP":"94301","Area__":67843191.3691,"zip_code":"94307","geo_score":0.714,"Length__":46139.9464212,"STATE":"CA","id":"aaeabsuj5j11","geo_precision":"zip","frequency":1},"type":"Feature","geometry":{"type":"Point","coordinates":[-122.14302,37.441883]}},{"properties":{"PO_NAME":"SAN MATEO","ZIP":"94401","Area__":84012885.9011,"zip_code":"94401","geo_score":0.714,"Length__":68467.7009352,"STATE":"CA","id":"aaeabt0ro99e","geo_precision":"zip","frequency":1},"type":"Feature","geometry":{"type":"Point","coordinates":[-122.32253,37.573485]}},{"properties":{"PO_NAME":"SAN MATEO","ZIP":"94402","Area__":140943163.742,"zip_code":"94402","geo_score":0.714,"Length__":125898.272739,"STATE":"CA","id":"aaeabt6wc477","geo_precision":"zip","frequency":1},"type":"Feature","geometry":{"type":"Point","coordinates":[-122.33063,37.541886]}},{"properties":{"PO_NAME":"SAN MATEO","ZIP":"94403","Area__":154142007.977,"zip_code":"94403","geo_score":0.714,"Length__":83184.0719141,"STATE":"CA","id":"aaeabt34prgh","geo_precision":"zip","frequency":4},"type":"Feature","geometry":{"type":"Point","coordinates":[-122.304079,37.541486]}},{"properties":{"PO_NAME":"SAN MATEO","ZIP":"94404","Area__":136283387.409,"zip_code":"94404","geo_score":0.714,"Length__":60618.0394201,"STATE":"CA","id":"aaeabsxfgo5z","geo_precision":"zip","frequency":2},"type":"Feature","geometry":{"type":"Point","coordinates":[-122.269978,37.553774]}},{"properties":{"PO_NAME":"ALAMEDA","ZIP":"94501","Area__":227432934.96,"zip_code":"94501","geo_score":0.714,"Length__":116720.49058,"STATE":"CA","id":"aaeabsuth10e","geo_precision":"zip","frequency":10},"type":"Feature","geometry":{"type":"Point","coordinates":[-122.264779,37.770563]}},{"properties":{"PO_NAME":"ALAMEDA","ZIP":"94502","Area__":69205104.5972,"zip_code":"94502","geo_score":0.714,"Length__":32993.2120455,"STATE":"CA","id":"aaeabsx0lk2l","geo_precision":"zip","frequency":3},"type":"Feature","geometry":{"type":"Point","coordinates":[-122.243067,37.735088]}},{"properties":{"PO_NAME":"BRENTWOOD","ZIP":"94513","Area__":3255395680.47,"zip_code":"94513","geo_score":0.714,"Length__":483845.895183,"STATE":"CA","id":"aaeabsuu5pf8","geo_precision":"zip","frequency":1},"type":"Feature","geometry":{"type":"Point","coordinates":[-121.843071,37.912274]}},{"properties":{"PO_NAME":"BRENTWOOD","ZIP":"94513","Area__":3255395680.47,"zip_code":"94517","geo_score":0.714,"Length__":483845.895183,"STATE":"CA","id":"aaeabsttwixk","geo_precision":"zip","frequency":1},"type":"Feature","geometry":{"type":"Point","coordinates":[-121.784818,37.897832]}},{"properties":{"PO_NAME":"CONCORD","ZIP":"94518","Area__":148765460.651,"zip_code":"94518","geo_score":0.714,"Length__":58899.0379129,"STATE":"CA","id":"aaeabt9068er","geo_precision":"zip","frequency":2},"type":"Feature","geometry":{"type":"Point","coordinates":[-122.022872,37.953672]}},{"properties":{"PO_NAME":"PLEASANT HILL","ZIP":"94523","Area__":202070432.339,"zip_code":"94523","geo_score":0.714,"Length__":83822.0034009,"STATE":"CA","id":"aaeabsyh7k3c","geo_precision":"zip","frequency":2},"type":"Feature","geometry":{"type":"Point","coordinates":[-122.052741,37.941312]}},{"properties":{"PO_NAME":"SAN RAMON","ZIP":"94583","Area__":735599560.505,"zip_code":"94524","geo_score":0.714,"Length__":177252.498937,"STATE":"CA","id":"aaeabssuderv","geo_precision":"zip","frequency":1},"type":"Feature","geometry":{"type":"Point","coordinates":[-121.955399,37.777208]}},{"properties":{"PO_NAME":"EL CERRITO","ZIP":"94530","Area__":169161060.608,"zip_code":"94530","geo_score":0.714,"Length__":81669.9240338,"STATE":"CA","id":"aaeabt34ps7x","geo_precision":"zip","frequency":2},"type":"Feature","geometry":{"type":"Point","coordinates":[-122.30248,37.918024]}},{"properties":{"PO_NAME":"FAIRFIELD","ZIP":"94533","Area__":991786103.42,"zip_code":"94533","geo_score":0.714,"Length__":200772.556587,"STATE":"CA","id":"aaeabsuz9xe1","geo_precision":"zip","frequency":1},"type":"Feature","geometry":{"type":"Point","coordinates":[-122.020276,38.278428]}},{"properties":{"PO_NAME":"VALLEJO","ZIP":"94590","Area__":163378828.223,"zip_code":"94534","geo_score":0.714,"Length__":72484.5706619,"STATE":"CA","id":"aaeabsw5fwvg","geo_precision":"zip","frequency":1},"type":"Feature","geometry":{"type":"Point","coordinates":[-122.264316,38.107945]}},{"properties":{"PO_NAME":"FREMONT","ZIP":"94536","Area__":396695472.314,"zip_code":"94536","geo_score":0.714,"Length__":106065.8214,"STATE":"CA","id":"aaeabsvmqcc5","geo_precision":"zip","frequency":2},"type":"Feature","geometry":{"type":"Point","coordinates":[-121.982721,37.565285]}},{"properties":{"PO_NAME":"FREMONT","ZIP":"94538","Area__":637942800.938,"zip_code":"94538","geo_score":0.714,"Length__":170982.207431,"STATE":"CA","id":"aaeabstxvfqn","geo_precision":"zip","frequency":5},"type":"Feature","geometry":{"type":"Point","coordinates":[-121.95832,37.509453]}},{"properties":{"PO_NAME":"FREMONT","ZIP":"94539","Area__":824046204.322,"zip_code":"94539","geo_score":0.714,"Length__":155729.115904,"STATE":"CA","id":"aaeabt286pxq","geo_precision":"zip","frequency":5},"type":"Feature","geometry":{"type":"Point","coordinates":[-121.912568,37.520339]}},{"properties":{"PO_NAME":"PLEASANTON","ZIP":"94588","Area__":739157650.571,"zip_code":"94540","geo_score":0.714,"Length__":188209.142551,"STATE":"CA","id":"aaeabssn56yk","geo_precision":"zip","frequency":1},"type":"Feature","geometry":{"type":"Point","coordinates":[-121.921498,37.680181]}},{"properties":{"PO_NAME":"SAN LEANDRO","ZIP":"94578","Area__":125334185.735,"zip_code":"94541","geo_score":0.714,"Length__":81210.6463023,"STATE":"CA","id":"aaeabsxh9e1r","geo_precision":"zip","frequency":2},"type":"Feature","geometry":{"type":"Point","coordinates":[-122.113853,37.694653]}},{"properties":{"PO_NAME":"HAYWARD","ZIP":"94544","Area__":292946682.044,"zip_code":"94544","geo_score":0.714,"Length__":109190.191481,"STATE":"CA","id":"aaeabsy0ybh3","geo_precision":"zip","frequency":2},"type":"Feature","geometry":{"type":"Point","coordinates":[-122.061673,37.613883]}},{"properties":{"PO_NAME":"LAFAYETTE","ZIP":"94549","Area__":715541155.214,"zip_code":"94549","geo_score":0.714,"Length__":209032.298331,"STATE":"CA","id":"aaeabt70onyl","geo_precision":"zip","frequency":3},"type":"Feature","geometry":{"type":"Point","coordinates":[-122.120089,37.901223]}},{"properties":{"PO_NAME":"PLEASANTON","ZIP":"94588","Area__":739157650.571,"zip_code":"94551","geo_score":0.714,"Length__":188209.142551,"STATE":"CA","id":"aaeabsw2h27k","geo_precision":"zip","frequency":2},"type":"Feature","geometry":{"type":"Point","coordinates":[-121.921498,37.680181]}},{"properties":{"PO_NAME":"PLEASANTON","ZIP":"94588","Area__":739157650.571,"zip_code":"94552","geo_score":0.714,"Length__":188209.142551,"STATE":"CA","id":"aaeabswqe16e","geo_precision":"zip","frequency":3},"type":"Feature","geometry":{"type":"Point","coordinates":[-121.9251,37.68943]}},{"properties":{"PO_NAME":"MARTINEZ","ZIP":"94553","Area__":1875385975.76,"zip_code":"94553","geo_score":0.714,"Length__":280291.712466,"STATE":"CA","id":"aaeabt8j57hz","geo_precision":"zip","frequency":2},"type":"Feature","geometry":{"type":"Point","coordinates":[-122.075241,37.983533]}},{"properties":{"PO_NAME":"HAYWARD","ZIP":"94541","Area__":199794016.621,"zip_code":"94554","geo_score":0.714,"Length__":105832.83647,"STATE":"CA","id":"aaeabstex0of","geo_precision":"zip","frequency":1},"type":"Feature","geometry":{"type":"Point","coordinates":[-122.080796,37.668821]}},{"properties":{"PO_NAME":"UNION CITY","ZIP":"94587","Area__":794418080.846,"zip_code":"94555","geo_score":0.714,"Length__":217359.34094,"STATE":"CA","id":"aaeabswy7tjr","geo_precision":"zip","frequency":6},"type":"Feature","geometry":{"type":"Point","coordinates":[-122.063323,37.570681]}},{"properties":{"PO_NAME":"MORAGA","ZIP":"94556","Area__":426346668.704,"zip_code":"94556","geo_score":0.714,"Length__":120707.929057,"STATE":"CA","id":"aaeabt506qcp","geo_precision":"zip","frequency":3},"type":"Feature","geometry":{"type":"Point","coordinates":[-122.099224,37.838926]}},{"properties":{"PO_NAME":"ORINDA","ZIP":"94563","Area__":620751322.752,"zip_code":"94563","geo_score":0.714,"Length__":170414.411787,"STATE":"CA","id":"aaeabt537rgg","geo_precision":"zip","frequency":2},"type":"Feature","geometry":{"type":"Point","coordinates":[-122.195523,37.887425]}},{"properties":{"PO_NAME":"HERCULES","ZIP":"94547","Area__":160751632.708,"zip_code":"94564","geo_score":0.714,"Length__":68087.3368349,"STATE":"CA","id":"aaeabstrtayu","geo_precision":"zip","frequency":2},"type":"Feature","geometry":{"type":"Point","coordinates":[-122.243294,37.990772]}},{"properties":{"PO_NAME":"PLEASANTON","ZIP":"94566","Area__":687209602.804,"zip_code":"94566","geo_score":0.714,"Length__":134627.73765,"STATE":"CA","id":"aaeabt0tjwg0","geo_precision":"zip","frequency":5},"type":"Feature","geometry":{"type":"Point","coordinates":[-121.862128,37.646081]}},{"properties":{"PO_NAME":"PITTSBURG","ZIP":"94565","Area__":927254522.039,"zip_code":"94568","geo_score":0.714,"Length__":219041.517359,"STATE":"CA","id":"aaeabstvpqkl","geo_precision":"zip","frequency":1},"type":"Feature","geometry":{"type":"Point","coordinates":[-121.988017,38.041309]}},{"properties":{"PO_NAME":"SAN LEANDRO","ZIP":"94577","Area__":224770222.046,"zip_code":"94577","geo_score":0.714,"Length__":121640.650145,"STATE":"CA","id":"aaeabt52b7am","geo_precision":"zip","frequency":6},"type":"Feature","geometry":{"type":"Point","coordinates":[-122.158621,37.715629]}},{"properties":{"PO_NAME":"SAN LEANDRO","ZIP":"94578","Area__":125334185.735,"zip_code":"94578","geo_score":0.714,"Length__":81210.6463023,"STATE":"CA","id":"aaeabt037nbl","geo_precision":"zip","frequency":2},"type":"Feature","geometry":{"type":"Point","coordinates":[-122.124225,37.704429]}},{"properties":{"PO_NAME":"SAN LEANDRO","ZIP":"94579","Area__":83767507.7715,"zip_code":"94579","geo_score":0.714,"Length__":51133.1508367,"STATE":"CA","id":"aaeabt4x1lxd","geo_precision":"zip","frequency":1},"type":"Feature","geometry":{"type":"Point","coordinates":[-122.147425,37.688518]}},{"properties":{"PO_NAME":"SAN LORENZO","ZIP":"94580","Area__":110040203.708,"zip_code":"94580","geo_score":0.714,"Length__":69329.4125512,"STATE":"CA","id":"aaeabt0k8mlw","geo_precision":"zip","frequency":1},"type":"Feature","geometry":{"type":"Point","coordinates":[-122.133825,37.68123]}},{"properties":{"PO_NAME":"SAN RAMON","ZIP":"94583","Area__":735599560.505,"zip_code":"94583","geo_score":0.714,"Length__":177252.498937,"STATE":"CA","id":"aaeabsz5889d","geo_precision":"zip","frequency":2},"type":"Feature","geometry":{"type":"Point","coordinates":[-121.975531,37.768556]}},{"properties":{"PO_NAME":"RIO VISTA","ZIP":"94571","Area__":4454445620.31,"zip_code":"94585","geo_score":0.714,"Length__":492056.752411,"STATE":"CA","id":"aaeabswzwbi2","geo_precision":"zip","frequency":3},"type":"Feature","geometry":{"type":"Point","coordinates":[-121.849958,38.076864]}},{"properties":{"PO_NAME":"FREMONT","ZIP":"94536","Area__":396695472.314,"zip_code":"94587","geo_score":0.714,"Length__":106065.8214,"STATE":"CA","id":"aaeabstx1rq1","geo_precision":"zip","frequency":4},"type":"Feature","geometry":{"type":"Point","coordinates":[-121.97362,37.589084]}},{"properties":{"PO_NAME":"PLEASANTON","ZIP":"94588","Area__":739157650.571,"zip_code":"94588","geo_score":0.714,"Length__":188209.142551,"STATE":"CA","id":"aaeabt701jmc","geo_precision":"zip","frequency":1},"type":"Feature","geometry":{"type":"Point","coordinates":[-121.898741,37.688244]}},{"properties":{"PO_NAME":"AMERICAN CANYON","ZIP":"94503","Area__":693134128.346,"zip_code":"94589","geo_score":0.714,"Length__":136394.695137,"STATE":"CA","id":"aaeabt38xc4a","geo_precision":"zip","frequency":2},"type":"Feature","geometry":{"type":"Point","coordinates":[-122.280383,38.158221]}},{"properties":{"PO_NAME":"VALLEJO","ZIP":"94590","Area__":163378828.223,"zip_code":"94590","geo_score":0.714,"Length__":72484.5706619,"STATE":"CA","id":"aaeabsza8eil","geo_precision":"zip","frequency":5},"type":"Feature","geometry":{"type":"Point","coordinates":[-122.25328,38.096719]}},{"properties":{"PO_NAME":"VALLEJO","ZIP":"94591","Area__":484506685.041,"zip_code":"94591","geo_score":0.714,"Length__":109660.438701,"STATE":"CA","id":"aaeabt3tonop","geo_precision":"zip","frequency":8},"type":"Feature","geometry":{"type":"Point","coordinates":[-122.206292,38.114249]}},{"properties":{"PO_NAME":"WALNUT CREEK","ZIP":"94595","Area__":152409891.3,"zip_code":"94595","geo_score":0.714,"Length__":64758.8496277,"STATE":"CA","id":"aaeabt73bie2","geo_precision":"zip","frequency":1},"type":"Feature","geometry":{"type":"Point","coordinates":[-122.070625,37.873343]}},{"properties":{"PO_NAME":"SAN RAMON","ZIP":"94583","Area__":735599560.505,"zip_code":"94597","geo_score":0.714,"Length__":177252.498937,"STATE":"CA","id":"aaeabt3gdl7l","geo_precision":"zip","frequency":1},"type":"Feature","geometry":{"type":"Point","coordinates":[-121.955399,37.777208]}},{"properties":{"PO_NAME":"OAKLAND","ZIP":"94601","Area__":92237133.018,"zip_code":"94601","geo_score":0.714,"Length__":41843.3658591,"STATE":"CA","id":"aaeabsvh5bwx","geo_precision":"zip","frequency":1},"type":"Feature","geometry":{"type":"Point","coordinates":[-122.223779,37.786027]}},{"properties":{"PO_NAME":"OAKLAND","ZIP":"94621","Area__":239083047.007,"zip_code":"94603","geo_score":0.714,"Length__":128361.705105,"STATE":"CA","id":"aaeabt7xnkbs","geo_precision":"zip","frequency":4},"type":"Feature","geometry":{"type":"Point","coordinates":[-122.198428,37.761778]}},{"properties":{"PO_NAME":"PLEASANTON","ZIP":"94588","Area__":739157650.571,"zip_code":"94604","geo_score":0.714,"Length__":188209.142551,"STATE":"CA","id":"aaeabste8nag","geo_precision":"zip","frequency":1},"type":"Feature","geometry":{"type":"Point","coordinates":[-121.921498,37.680181]}},{"properties":{"PO_NAME":"OAKLAND","ZIP":"94605","Area__":242614081.222,"zip_code":"94605","geo_score":0.714,"Length__":89849.3753694,"STATE":"CA","id":"aaeabswevfy9","geo_precision":"zip","frequency":7},"type":"Feature","geometry":{"type":"Point","coordinates":[-122.156626,37.759322]}},{"properties":{"PO_NAME":"OAKLAND","ZIP":"94606","Area__":65624024.3142,"zip_code":"94606","geo_score":0.714,"Length__":49895.4881935,"STATE":"CA","id":"aaeabsz0yoix","geo_precision":"zip","frequency":3},"type":"Feature","geometry":{"type":"Point","coordinates":[-122.243979,37.789927]}},{"properties":{"PO_NAME":"OAKLAND","ZIP":"94607","Area__":167850803.207,"zip_code":"94607","geo_score":0.714,"Length__":101303.424694,"STATE":"CA","id":"aaeabsyzn0mc","geo_precision":"zip","frequency":1},"type":"Feature","geometry":{"type":"Point","coordinates":[-122.29878,37.807967]}},{"properties":{"PO_NAME":"EMERYVILLE","ZIP":"94608","Area__":76433732.1928,"zip_code":"94608","geo_score":0.714,"Length__":60472.2440741,"STATE":"CA","id":"aaeabsvv1wcx","geo_precision":"zip","frequency":3},"type":"Feature","geometry":{"type":"Point","coordinates":[-122.29548,37.833876]}},{"properties":{"PO_NAME":"OAKLAND","ZIP":"94610","Area__":56926956.9701,"zip_code":"94610","geo_score":0.714,"Length__":51256.873313,"STATE":"CA","id":"aaeabswfdxnb","geo_precision":"zip","frequency":5},"type":"Feature","geometry":{"type":"Point","coordinates":[-122.238779,37.811277]}},{"properties":{"PO_NAME":"OAKLAND","ZIP":"94611","Area__":199585844.589,"zip_code":"94611","geo_score":0.714,"Length__":115654.511733,"STATE":"CA","id":"aaeabswaz5rf","geo_precision":"zip","frequency":7},"type":"Feature","geometry":{"type":"Point","coordinates":[-122.231635,37.824372]}},{"properties":{"PO_NAME":"OAKLAND","ZIP":"94612","Area__":31234990.6919,"zip_code":"94612","geo_score":0.714,"Length__":28335.5840323,"STATE":"CA","id":"aaeabt5iotkn","geo_precision":"zip","frequency":1},"type":"Feature","geometry":{"type":"Point","coordinates":[-122.27018,37.809435]}},{"properties":{"PO_NAME":"OAKLAND","ZIP":"94618","Area__":80994168.872,"zip_code":"94618","geo_score":0.714,"Length__":53734.5125607,"STATE":"CA","id":"aaeabt657rbk","geo_precision":"zip","frequency":2},"type":"Feature","geometry":{"type":"Point","coordinates":[-122.240179,37.843126]}},{"properties":{"PO_NAME":"OAKLAND","ZIP":"94619","Area__":130659944.931,"zip_code":"94619","geo_score":0.714,"Length__":80525.7205127,"STATE":"CA","id":"aaeabsumbymr","geo_precision":"zip","frequency":1},"type":"Feature","geometry":{"type":"Point","coordinates":[-122.167126,37.783877]}},{"properties":{"PO_NAME":"OAKLAND","ZIP":"94621","Area__":239083047.007,"zip_code":"94621","geo_score":0.714,"Length__":128361.705105,"STATE":"CA","id":"aaeabsv5sya7","geo_precision":"zip","frequency":1},"type":"Feature","geometry":{"type":"Point","coordinates":[-122.196689,37.742529]}},{"properties":{"PO_NAME":"OAKLAND","ZIP":"94612","Area__":31234990.6919,"zip_code":"94658","geo_score":0.714,"Length__":28335.5840323,"STATE":"CA","id":"aaeabsur52qa","geo_precision":"zip","frequency":1},"type":"Feature","geometry":{"type":"Point","coordinates":[-122.270803,37.804372]}},{"properties":{"PO_NAME":"BERKELEY","ZIP":"94702","Area__":33198715.556,"zip_code":"94702","geo_score":0.714,"Length__":31001.1628029,"STATE":"CA","id":"aaeabt802ihk","geo_precision":"zip","frequency":2},"type":"Feature","geometry":{"type":"Point","coordinates":[-122.28713,37.864425]}},{"properties":{"PO_NAME":"BERKELEY","ZIP":"94703","Area__":38096533.8085,"zip_code":"94703","geo_score":0.714,"Length__":35167.821257,"STATE":"CA","id":"aaeabt2ayhe8","geo_precision":"zip","frequency":3},"type":"Feature","geometry":{"type":"Point","coordinates":[-122.27573,37.865725]}},{"properties":{"PO_NAME":"BERKELEY","ZIP":"94704","Area__":63505176.7551,"zip_code":"94704","geo_score":0.714,"Length__":53493.6016455,"STATE":"CA","id":"aaeabt5omdow","geo_precision":"zip","frequency":3},"type":"Feature","geometry":{"type":"Point","coordinates":[-122.256729,37.866975]}},{"properties":{"PO_NAME":"BERKELEY","ZIP":"94705","Area__":51854267.7298,"zip_code":"94705","geo_score":0.714,"Length__":48080.6093518,"STATE":"CA","id":"aaeabswk1vwi","geo_precision":"zip","frequency":1},"type":"Feature","geometry":{"type":"Point","coordinates":[-122.242029,37.85983]}},{"properties":{"PO_NAME":"ALBANY","ZIP":"94706","Area__":37048827.5676,"zip_code":"94706","geo_score":0.714,"Length__":29800.7537341,"STATE":"CA","id":"aaeabt1z90f3","geo_precision":"zip","frequency":1},"type":"Feature","geometry":{"type":"Point","coordinates":[-122.29828,37.889525]}},{"properties":{"PO_NAME":"BERKELEY","ZIP":"94708","Area__":93749561.2773,"zip_code":"94707","geo_score":0.714,"Length__":57103.8440235,"STATE":"CA","id":"aaeabsz70rfp","geo_precision":"zip","frequency":2},"type":"Feature","geometry":{"type":"Point","coordinates":[-122.280247,37.910481]}},{"properties":{"PO_NAME":"BERKELEY","ZIP":"94708","Area__":93749561.2773,"zip_code":"94708","geo_score":0.714,"Length__":57103.8440235,"STATE":"CA","id":"aaeabt6theri","geo_precision":"zip","frequency":1},"type":"Feature","geometry":{"type":"Point","coordinates":[-122.260429,37.891825]}},{"properties":{"PO_NAME":"RICHMOND","ZIP":"94801","Area__":317898734.276,"zip_code":"94801","geo_score":0.714,"Length__":172951.644713,"STATE":"CA","id":"aaeabsyv71xi","geo_precision":"zip","frequency":3},"type":"Feature","geometry":{"type":"Point","coordinates":[-122.367471,37.958813]}},{"properties":{"PO_NAME":"MARTINEZ","ZIP":"94553","Area__":1875385975.76,"zip_code":"94803","geo_score":0.714,"Length__":280291.712466,"STATE":"CA","id":"aaeabt87gehq","geo_precision":"zip","frequency":3},"type":"Feature","geometry":{"type":"Point","coordinates":[-122.206177,37.966422]}},{"properties":{"PO_NAME":"RICHMOND","ZIP":"94804","Area__":183177839.327,"zip_code":"94804","geo_score":0.714,"Length__":118411.137621,"STATE":"CA","id":"aaeabsyyakke","geo_precision":"zip","frequency":2},"type":"Feature","geometry":{"type":"Point","coordinates":[-122.344381,37.925174]}},{"properties":{"PO_NAME":"EL CERRITO","ZIP":"94530","Area__":169161060.608,"zip_code":"94805","geo_score":0.714,"Length__":81669.9240338,"STATE":"CA","id":"aaeabt6wi0oh","geo_precision":"zip","frequency":1},"type":"Feature","geometry":{"type":"Point","coordinates":[-122.30093,37.929123]}},{"properties":{"PO_NAME":"SAN PABLO","ZIP":"94806","Area__":225301944.051,"zip_code":"94806","geo_score":0.714,"Length__":81845.4325884,"STATE":"CA","id":"aaeabt8tc6rx","geo_precision":"zip","frequency":2},"type":"Feature","geometry":{"type":"Point","coordinates":[-122.334131,37.959573]}},{"properties":{"PO_NAME":"SAN RAFAEL","ZIP":"94901","Area__":329395252.007,"zip_code":"94901","geo_score":0.714,"Length__":137698.701402,"STATE":"CA","id":"aaeabstcibye","geo_precision":"zip","frequency":1},"type":"Feature","geometry":{"type":"Point","coordinates":[-122.504286,37.970948]}},{"properties":{"PO_NAME":"SAN RAFAEL","ZIP":"94903","Area__":588314133.764,"zip_code":"94903","geo_score":0.714,"Length__":162048.143345,"STATE":"CA","id":"aaeabt0om0ry","geo_precision":"zip","frequency":2},"type":"Feature","geometry":{"type":"Point","coordinates":[-122.537756,38.038255]}},{"properties":{"PO_NAME":"GREENBRAE","ZIP":"94904","Area__":124760438.805,"zip_code":"94904","geo_score":0.714,"Length__":93937.51122,"STATE":"CA","id":"aaeabt7dfpld","geo_precision":"zip","frequency":2},"type":"Feature","geometry":{"type":"Point","coordinates":[-122.5572,37.952147]}},{"properties":{"PO_NAME":"BELVEDERE TIBURON","ZIP":"94920","Area__":187081098.328,"zip_code":"94920","geo_score":0.714,"Length__":105989.263884,"STATE":"CA","id":"aaeabt617kpt","geo_precision":"zip","frequency":1},"type":"Feature","geometry":{"type":"Point","coordinates":[-122.471917,37.884093]}},{"properties":{"PO_NAME":"CORTE MADERA","ZIP":"94925","Area__":92439243.1655,"zip_code":"94925","geo_score":0.714,"Length__":62252.911912,"STATE":"CA","id":"aaeabsvrvn6e","geo_precision":"zip","frequency":2},"type":"Feature","geometry":{"type":"Point","coordinates":[-122.512035,37.925039]}},{"properties":{"PO_NAME":"LARKSPUR","ZIP":"94939","Area__":57292596.1209,"zip_code":"94939","geo_score":0.714,"Length__":59247.2763858,"STATE":"CA","id":"aaeabstcx6lq","geo_precision":"zip","frequency":1},"type":"Feature","geometry":{"type":"Point","coordinates":[-122.532476,37.930758]}},{"properties":{"PO_NAME":"MILL VALLEY","ZIP":"94941","Area__":737837375.612,"zip_code":"94941","geo_score":0.714,"Length__":187101.653358,"STATE":"CA","id":"aaeabt7cme43","geo_precision":"zip","frequency":1},"type":"Feature","geometry":{"type":"Point","coordinates":[-122.562937,37.886325]}},{"properties":{"PO_NAME":"NOVATO","ZIP":"94947","Area__":526285868.495,"zip_code":"94947","geo_score":0.714,"Length__":142727.1472,"STATE":"CA","id":"aaeabsw35jn7","geo_precision":"zip","frequency":1},"type":"Feature","geometry":{"type":"Point","coordinates":[-122.620893,38.09502]}},{"properties":{"PO_NAME":"MILPITAS","ZIP":"95035","Area__":1364207061.4,"zip_code":"95035","geo_score":0.714,"Length__":238038.079652,"STATE":"CA","id":"aaeabsuizd14","geo_precision":"zip","frequency":3},"type":"Feature","geometry":{"type":"Point","coordinates":[-121.861989,37.436454]}},{"properties":{"PO_NAME":"SONOMA","ZIP":"95476","Area__":3001414164.85,"zip_code":"95476","geo_score":0.714,"Length__":311318.546326,"STATE":"CA","id":"aaeabt8fb5hi","geo_precision":"zip","frequency":1},"type":"Feature","geometry":{"type":"Point","coordinates":[-122.476819,38.255943]}},{"properties":{"PO_NAME":"DIXON","ZIP":"95620","Area__":7236949520.92,"zip_code":"95616","geo_score":0.714,"Length__":441860.2014,"STATE":"CA","id":"aaeabsz8zsmz","geo_precision":"zip","frequency":1},"type":"Feature","geometry":{"type":"Point","coordinates":[-121.749016,38.521776]}},{"properties":{"PO_NAME":"DIXON","ZIP":"95620","Area__":7236949520.92,"zip_code":"95620","geo_score":0.714,"Length__":441860.2014,"STATE":"CA","id":"aaeabszlffpv","geo_precision":"zip","frequency":1},"type":"Feature","geometry":{"type":"Point","coordinates":[-121.761419,38.397372]}}],"is_temporal":false,"author":{"url":null,"metadata":null,"contact_name":null,"contact_address":null,"source":null,"contact_phone":null},"source":null,"pagination":{"sort":null,"start":0,"total":125,"limit":1000000},"state":"complete","tags":"","published":"2014-08-16T13:36:25-04:00","id":300708}