{"type":"FeatureCollection","data_type":"Dataset","url_type":null,"permissions":[{"permissions":{"download":true,"view":true},"group_id":"everyone"}],"classification":null,"title":"112712HospitalsinOhio","count":184,"stream_id":301480,"contributor":{"url":"http://geocommons.com/users/12008","name":"pantheon"},"data_attributes":null,"calculation_params":null,"icon_link":null,"link":"http://geocommons.com/overlays/301480.json","extent":[-84.7555,38.7534,-80.5865,41.937],"geometry_types":["point"],"unique_name":null,"name":"112712HospitalsinOhio","feature_count":184,"description":"","next_feature":null,"is_raster":false,"short_classification":"Y","stats":{},"features":[{"properties":{"city":"West Union","zip":"45693","county":"Adams","geo_score":1.0,"hospital name":"Adams County Hospital","id":"aahi4c8cihzo","address":"210 North Wilson Drive","geo_precision":"range","state":"OH"},"type":"Feature","geometry":{"type":"Point","coordinates":[-83.536569,38.795057]}},{"properties":{"city":"Chillicothe","zip":"45601","county":"Ross","geo_score":0.878,"hospital name":"Adena Health System","id":"aahi4c7wahll","address":"272 Hospital Road","geo_precision":"range","state":"OH"},"type":"Feature","geometry":{"type":"Point","coordinates":[-82.96806,39.393474]}},{"properties":{"city":"Akron","zip":"44307","county":"Summit","geo_score":1.0,"hospital name":"Akron General Medical Center","id":"aahi4cjndjan","address":"400 Wabash Avenue","geo_precision":"range","state":"OH"},"type":"Feature","geometry":{"type":"Point","coordinates":[-81.530933,41.078254]}},{"properties":{"city":"Oberlin","zip":"44074","county":"Lorain","geo_score":1.0,"hospital name":"Allen Medical Center","id":"aahi4cbus55g","address":"200 West Lorain Street","geo_precision":"range","state":"OH"},"type":"Feature","geometry":{"type":"Point","coordinates":[-82.221207,41.294284]}},{"properties":{"city":"Alliance","zip":"44601","county":"Stark","geo_score":0.935,"hospital name":"Alliance Community Hospital","id":"aahi4cjaicie","address":"264 East Rice Street","geo_precision":"range","state":"OH"},"type":"Feature","geometry":{"type":"Point","coordinates":[-81.102301,40.90335]}},{"properties":{"city":"Cambridge","zip":"43725","county":"Guernsey","geo_score":0.811,"hospital name":"Appalachian Behavioral Healthcare","id":"aahi4ck6vxn9","address":"66737 Old 21 Road North","geo_precision":"range","state":"OH"},"type":"Feature","geometry":{"type":"Point","coordinates":[-81.580206,40.06993]}},{"properties":{"city":"Columbus","zip":"43210","county":"Franklin","geo_score":0.649,"hospital name":"Arthur James Cancer Hospital/Solove Res Inst","id":"aahi4c8ln9nd","address":"300 West Tenth Avenue","geo_precision":"street","state":"OH"},"type":"Feature","geometry":{"type":"Point","coordinates":[-83.012215,39.994284]}},{"properties":{"city":"Ashtabula","zip":"44004","county":"Ashtabula","geo_score":1.0,"hospital name":"Ashtabula County Medical Center","id":"aahi4cg1z4c7","address":"2420 Lake Avenue","geo_precision":"range","state":"OH"},"type":"Feature","geometry":{"type":"Point","coordinates":[-80.796591,41.880856]}},{"properties":{"city":"Canton","zip":"44710","county":"Stark","geo_score":0.619,"hospital name":"Aultman Hospital","id":"aahi4c6wai4m","address":"2600 Sixth Street S.W.","geo_precision":"street","state":"OH"},"type":"Feature","geometry":{"type":"Point","coordinates":[-81.401027,40.796772]}},{"properties":{"city":"Barberton","zip":"44203","county":"Summit","geo_score":0.619,"hospital name":"Barberton Citizens Hospital","id":"aahi4cg35w5n","address":"155 Fifth Street N.E.","geo_precision":"street","state":"OH"},"type":"Feature","geometry":{"type":"Point","coordinates":[-81.589868,41.012854]}},{"properties":{"city":"Barnesville","zip":"43713","county":"Belmont","geo_score":0.878,"hospital name":"Barnesville","id":"aahi4cmcv67b","address":"639 West Main Street","geo_precision":"range","state":"OH"},"type":"Feature","geometry":{"type":"Point","coordinates":[-81.189871,39.992536]}},{"properties":{"city":"Bellevue","zip":"44811","county":"Sandusky","geo_score":0.707,"hospital name":"Bellevue Hospital","id":"aahi4c9e5rit","address":"811 Northwest Street","geo_precision":"range","state":"OH"},"type":"Feature","geometry":{"type":"Point","coordinates":[-82.841126,41.28375]}},{"properties":{"city":"Bellaire","zip":"43906","county":"Belmont","geo_score":1.0,"hospital name":"Belmont Community Hospital","id":"aahi4cb16503","address":"4697 Harrison Street","geo_precision":"range","state":"OH"},"type":"Feature","geometry":{"type":"Point","coordinates":[-80.741198,40.028929]}},{"properties":{"city":"Youngstown","zip":"44505","county":"Mahoning","geo_score":0.797,"hospital name":"Belmont Pines Hospital","id":"aahi4cj1yi1z","address":"615 Churchill-Hubbard Road","geo_precision":"street","state":"OH"},"type":"Feature","geometry":{"type":"Point","coordinates":[-80.655126,41.162332]}},{"properties":{"city":"Circleville","zip":"43113","county":"Pickaway","geo_score":0.585,"hospital name":"Berger Health System","id":"aahi4ciax32f","address":"600 North Pichaway Street","geo_precision":"zip","state":"OH"},"type":"Feature","geometry":{"type":"Point","coordinates":[-82.951847,39.569784]}},{"properties":{"city":"Cincinnati","zip":"45242","county":"Hamilton","geo_score":1.0,"hospital name":"Bethesda North Hospital","id":"aahi4cdlkvgo","address":"10500 Montgomery Road","geo_precision":"range","state":"OH"},"type":"Feature","geometry":{"type":"Point","coordinates":[-84.343588,39.253839]}},{"properties":{"city":"Findlay","zip":"45840","county":"Hancock","geo_score":1.0,"hospital name":"Blanchard Valley Health Association System","id":"aahi4chd5um4","address":"145 West Wallace Street","geo_precision":"range","state":"OH"},"type":"Feature","geometry":{"type":"Point","coordinates":[-83.650341,41.017243]}},{"properties":{"city":"Georgetown","zip":"45121","county":"Brown","geo_score":1.0,"hospital name":"Brown County General Hospital","id":"aahi4ch80ygf","address":"425 Home Street","geo_precision":"range","state":"OH"},"type":"Feature","geometry":{"type":"Point","coordinates":[-83.897767,38.86]}},{"properties":{"city":"Bucyrus","zip":"44820","county":"Crawford","geo_score":1.0,"hospital name":"Bucyrus Community Hospital","id":"aahi4cfoe5ja","address":"629 North Sandusky Avenue","geo_precision":"range","state":"OH"},"type":"Feature","geometry":{"type":"Point","coordinates":[-82.975708,40.815354]}},{"properties":{"city":"Kettering","zip":"45429","county":"Montgomery","geo_score":1.0,"hospital name":"Charles F. Kettering Memorial Hospital","id":"aahi4cc2f09b","address":"3535 Southern Boulevard","geo_precision":"range","state":"OH"},"type":"Feature","geometry":{"type":"Point","coordinates":[-84.190858,39.697064]}},{"properties":{"city":"Columbus","zip":"43205","county":"Franklin","geo_score":0.977,"hospital name":"Children's Hospital","id":"aahi4c6cz6pu","address":"700 Children's Drive","geo_precision":"range","state":"OH"},"type":"Feature","geometry":{"type":"Point","coordinates":[-82.979003,39.952452]}},{"properties":{"city":"Cincinnati","zip":"45229","county":"Hamilton","geo_score":1.0,"hospital name":"Children's Hospital Medical Center","id":"aahi4c677yp8","address":"3333 Burnet Avenue","geo_precision":"range","state":"OH"},"type":"Feature","geometry":{"type":"Point","coordinates":[-84.500525,39.139737]}},{"properties":{"city":"Arkon","zip":"44308","county":"Summit","geo_score":0.9,"hospital name":"Children's Hospital Medical Center of Akron","id":"aahi4cccyb8g","address":"One Perkins Square","geo_precision":"street","state":"OH"},"type":"Feature","geometry":{"type":"Point","coordinates":[-81.526562,41.078756]}},{"properties":{"city":"Dayton","zip":"45404","county":"Montgomery","geo_score":0.652,"hospital name":"Children's Medical Center","id":"aahi4cdbz6dt","address":"One Children's Plaza","geo_precision":"street","state":"OH"},"type":"Feature","geometry":{"type":"Point","coordinates":[-84.20225,39.77462]}},{"properties":{"city":"Cincinnati","zip":"45219","county":"Hamilton","geo_score":1.0,"hospital name":"Christ Hospital","id":"aahi4c6fzj2q","address":"2139 Auburn Avenue","geo_precision":"range","state":"OH"},"type":"Feature","geometry":{"type":"Point","coordinates":[-84.508678,39.120086]}},{"properties":{"city":"Cleveland","zip":"44104","county":"Cuyahoga","geo_score":0.963,"hospital name":"Cleveland Clinic Children's Hospital for Rehab","id":"aahi4c8zp4u7","address":"2801 Martin Luther King Drive","geo_precision":"range","state":"OH"},"type":"Feature","geometry":{"type":"Point","coordinates":[-81.609242,41.482788]}},{"properties":{"city":"Cleveland","zip":"44195","county":"Cuyahoga","geo_score":0.707,"hospital name":"Cleveland Clinic Foundation","id":"aahi4cm7phj4","address":"9500 Euclid Avenue","geo_precision":"street","state":"OH"},"type":"Feature","geometry":{"type":"Point","coordinates":[-81.621443,41.503475]}},{"properties":{"city":"Wilmington","zip":"45177","county":"Clinton","geo_score":1.0,"hospital name":"Clinton Memorial Hospital","id":"aahi4c7k8re6","address":"610 West Main Street","geo_precision":"range","state":"OH"},"type":"Feature","geometry":{"type":"Point","coordinates":[-83.838935,39.445507]}},{"properties":{"city":"Lorain","zip":"44053","county":"Lorain","geo_score":0.902,"hospital name":"Community Health Partners Hosp &amp; Surgical Ctr","id":"aahi4c7e74s0","address":"3700 Kolbe Road","geo_precision":"street","state":"OH"},"type":"Feature","geometry":{"type":"Point","coordinates":[-82.235248,41.436837]}},{"properties":{"city":"Springfield","zip":"45505","county":"Clark","geo_score":0.586,"hospital name":"Community Hospital","id":"aahi4cl8eg3r","address":"2615 East High Street","geo_precision":"street","state":"OH"},"type":"Feature","geometry":{"type":"Point","coordinates":[-83.801232,39.886831]}},{"properties":{"city":"Bryan","zip":"43506","county":"Williams","geo_score":0.397,"hospital name":"Community Hospitals of Williams County","id":"aahi4ci696i6","address":"433 West High Street","geo_precision":"street","state":"OH"},"type":"Feature","geometry":{"type":"Point","coordinates":[-83.631131,41.526816]}},{"properties":{"city":"Hicksville","zip":"43526","county":"Defiance","geo_score":0.955,"hospital name":"Community Memorial Hospital","id":"aahi4cli2wua","address":"208 North Columbus Street","geo_precision":"range","state":"OH"},"type":"Feature","geometry":{"type":"Point","coordinates":[-84.755494,41.299998]}},{"properties":{"city":"Coshocton","zip":"43812","county":"Coshocton","geo_score":1.0,"hospital name":"Coshocton County Memorial Hospital","id":"aahi4ceohv64","address":"1460 Orange Street","geo_precision":"range","state":"OH"},"type":"Feature","geometry":{"type":"Point","coordinates":[-81.848668,40.27056]}},{"properties":{"city":"Cuyahoga Falls","zip":"44223","county":"Summit","geo_score":0.916,"hospital name":"Cuyahoga Falls General Hospital","id":"aahi4cgq9rjl","address":"1900 23rd Street","geo_precision":"range","state":"OH"},"type":"Feature","geometry":{"type":"Point","coordinates":[-81.510424,41.131963]}},{"properties":{"city":"Cincinnati","zip":"45219","county":"Hamilton","geo_score":0.585,"hospital name":"Deaconess Hospital","id":"aahi4ckg4r73","address":"311 Straight Street","geo_precision":"zip","state":"OH"},"type":"Feature","geometry":{"type":"Point","coordinates":[-84.515191,39.12851]}},{"properties":{"city":"Cleveland","zip":"44109","county":"Cuyahoga","geo_score":1.0,"hospital name":"Deaconess Hospital, LLC","id":"aahi4cc9f6tl","address":"4229 Pearl Road","geo_precision":"range","state":"OH"},"type":"Feature","geometry":{"type":"Point","coordinates":[-81.705975,41.440102]}},{"properties":{"city":"Defiance","zip":"43512","county":"Defiance","geo_score":0.585,"hospital name":"Defiance Regional Medical Center","id":"aahi4cm70jz8","address":"1200 Raiston Avenue","geo_precision":"zip","state":"OH"},"type":"Feature","geometry":{"type":"Point","coordinates":[-84.299947,41.297826]}},{"properties":{"city":"Columbus","zip":"43291","county":"Franklin","geo_score":0.805,"hospital name":"Doctors Hospital","id":"aahi4c6qd2o3","address":"1087 Dennison Avenue","geo_precision":"range","state":"OH"},"type":"Feature","geometry":{"type":"Point","coordinates":[-83.008299,39.986362]}},{"properties":{"city":"Nelsonville","zip":"45764","county":"Athens","geo_score":0.62,"hospital name":"Doctors Hospital Nelsonville","id":"aahi4ceuaici","address":"1950 Mount Saint Mary Drive","geo_precision":"street","state":"OH"},"type":"Feature","geometry":{"type":"Point","coordinates":[-82.238749,39.462847]}},{"properties":{"city":"Massillon","zip":"44646","county":"Stark","geo_score":0.604,"hospital name":"Doctors Hospital of Stark County","id":"aahi4c9dy7hy","address":"400 Austin Avenue N.W,","geo_precision":"street","state":"OH"},"type":"Feature","geometry":{"type":"Point","coordinates":[-81.476176,40.795435]}},{"properties":{"city":"Cincinnati","zip":"45216","county":"Hamilton","geo_score":1.0,"hospital name":"Drake Center","id":"aahi4cmev4qh","address":"151 West Galbraith Road","geo_precision":"range","state":"OH"},"type":"Feature","geometry":{"type":"Point","coordinates":[-84.476985,39.213274]}},{"properties":{"city":"Orrville","zip":"44667","county":"Wayne","geo_score":1.0,"hospital name":"Dunlap Memorial Hospital","id":"aahi4ccap5oa","address":"832 South Main Street","geo_precision":"range","state":"OH"},"type":"Feature","geometry":{"type":"Point","coordinates":[-81.764483,40.832518]}},{"properties":{"city":"East Liverpool","zip":"43920","county":"Columbiana","geo_score":0.927,"hospital name":"East Liverpool City Hospital","id":"aahi4cini1yd","address":"425 West Fifth Street","geo_precision":"range","state":"OH"},"type":"Feature","geometry":{"type":"Point","coordinates":[-80.58646,40.621525]}},{"properties":{"city":"Martins Ferry","zip":"43935","county":"Belmont","geo_score":0.927,"hospital name":"East Ohio Regional Hospital","id":"aahi4chn4wbv","address":"90 North Fourth Street","geo_precision":"range","state":"OH"},"type":"Feature","geometry":{"type":"Point","coordinates":[-80.720284,40.098907]}},{"properties":{"city":"Akron","zip":"44312","county":"Summit","geo_score":0.585,"hospital name":"Edwin Shaw Hospital for Rehabilitation","id":"aahi4c8sv19q","address":"1621 Flickinger Road","geo_precision":"zip","state":"OH"},"type":"Feature","geometry":{"type":"Point","coordinates":[-81.443312,41.018961]}},{"properties":{"city":"Amherst","zip":"44001","county":"Lorain","geo_score":1.0,"hospital name":"EMH Amherst Hospital","id":"aahi4cc65h8q","address":"254 Cleveland Avenue","geo_precision":"range","state":"OH"},"type":"Feature","geometry":{"type":"Point","coordinates":[-82.224274,41.3996]}},{"properties":{"city":"Elyria","zip":"44035","county":"Lorain","geo_score":0.941,"hospital name":"EMH Regional Medical Center","id":"aahi4cjd3gvf","address":"630 East River Street","geo_precision":"range","state":"OH"},"type":"Feature","geometry":{"type":"Point","coordinates":[-82.09778,41.366904]}},{"properties":{"city":"Euclid","zip":"44119","county":"Cuyahoga","geo_score":0.935,"hospital name":"Euclid hospital","id":"aahi4c9loa88","address":"18901 Lake Shore Boulevard","geo_precision":"range","state":"OH"},"type":"Feature","geometry":{"type":"Point","coordinates":[-81.547258,41.59689]}},{"properties":{"city":"Lancaster","zip":"43130","county":"Fairfield","geo_score":1.0,"hospital name":"Fairfield Medical Center","id":"aahi4cf0jzov","address":"401 North Ewing Street","geo_precision":"range","state":"OH"},"type":"Feature","geometry":{"type":"Point","coordinates":[-82.576573,39.717838]}},{"properties":{"city":"Cleveland","zip":"44111","county":"Cuyahoga","geo_score":1.0,"hospital name":"Fairview Hospital","id":"aahi4cczilcx","address":"18101 Lorain Avenue","geo_precision":"range","state":"OH"},"type":"Feature","geometry":{"type":"Point","coordinates":[-81.82423,41.45117]}},{"properties":{"city":"Sandusky","zip":"44870","county":"Erie","geo_score":1.0,"hospital name":"Firelands Regional Medical Center","id":"aahi4cjylmo6","address":"1101 Decatur Street","geo_precision":"range","state":"OH"},"type":"Feature","geometry":{"type":"Point","coordinates":[-82.709943,41.446397]}},{"properties":{"city":"Sandusky","zip":"44870","county":"Erie","geo_score":1.0,"hospital name":"Firelands Regional Medical Center South Campus","id":"aahi4chpnalj","address":"1912 Hayes Avenue","geo_precision":"range","state":"OH"},"type":"Feature","geometry":{"type":"Point","coordinates":[-82.712748,41.437607]}},{"properties":{"city":"Norwalk","zip":"44857","county":"Huron","geo_score":1.0,"hospital name":"Fisher-Titus Medical Center","id":"aahi4c9n6jlg","address":"272 Benedict Avenue","geo_precision":"range","state":"OH"},"type":"Feature","geometry":{"type":"Point","coordinates":[-82.602138,41.2262]}},{"properties":{"city":"Sylvania","zip":"43560","county":"Lucas","geo_score":1.0,"hospital name":"Flower Hospital","id":"aahi4cfd26hg","address":"5200 Harroun Road","geo_precision":"range","state":"OH"},"type":"Feature","geometry":{"type":"Point","coordinates":[-83.694417,41.710347]}},{"properties":{"city":"Maumee","zip":"43537","county":"Lucas","geo_score":0.979,"hospital name":"Focus Healthcare of Ohio","id":"aahi4cebv7oo","address":"1725 Timber Line Road","geo_precision":"range","state":"OH"},"type":"Feature","geometry":{"type":"Point","coordinates":[-83.687232,41.589382]}},{"properties":{"city":"Hamilton","zip":"45013","county":"Butler","geo_score":1.0,"hospital name":"Fort Hamilton Hospital","id":"aahi4chduecr","address":"630 Eaton Avenue","geo_precision":"range","state":"OH"},"type":"Feature","geometry":{"type":"Point","coordinates":[-84.573908,39.415622]}},{"properties":{"city":"Warren","zip":"44482","county":"Trumbull","geo_score":0.805,"hospital name":"Forum Health Trumbull Memorial Hospital","id":"aahi4cbgc1oz","address":"1350 East Market Street","geo_precision":"range","state":"OH"},"type":"Feature","geometry":{"type":"Point","coordinates":[-80.799872,41.236357]}},{"properties":{"city":"Warren","zip":"44484","county":"Trumbull","geo_score":0.604,"hospital name":"Forum Hillside Rehabilitation Hospital","id":"aahi4cctzhl9","address":"8747 Squires Lane N.E.","geo_precision":"street","state":"OH"},"type":"Feature","geometry":{"type":"Point","coordinates":[-80.730899,41.249216]}},{"properties":{"city":"Fostoria","zip":"44830","county":"Hancock","geo_score":1.0,"hospital name":"Fostoria Community Hospital","id":"aahi4c7yogec","address":"501 Van Buren Street","geo_precision":"range","state":"OH"},"type":"Feature","geometry":{"type":"Point","coordinates":[-83.423166,41.163713]}},{"properties":{"city":"Saint Clairsville","zip":"43950","county":"Belmont","geo_score":1.0,"hospital name":"Fox Run Hospital","id":"aahi4cauhsx7","address":"67670 Traco Drive","geo_precision":"range","state":"OH"},"type":"Feature","geometry":{"type":"Point","coordinates":[-80.848578,40.066569]}},{"properties":{"city":"Wauseon","zip":"43567","county":"Lucas","geo_score":1.0,"hospital name":"Fulton County Health Center","id":"aahi4ch7aag1","address":"725 South Shoop Avenue","geo_precision":"range","state":"OH"},"type":"Feature","geometry":{"type":"Point","coordinates":[-84.134317,41.543067]}},{"properties":{"city":"Galion","zip":"44833","county":"Crawford","geo_score":1.0,"hospital name":"Galion Community Hospital","id":"aahi4cj4jnuv","address":"269 Portland Way South","geo_precision":"range","state":"OH"},"type":"Feature","geometry":{"type":"Point","coordinates":[-82.803273,40.730807]}},{"properties":{"city":"Zanesville","zip":"43701","county":"Muskingum","geo_score":1.0,"hospital name":"Genesis Healthcare System","id":"aahi4ce87bfc","address":"2951 Maple Avenue","geo_precision":"range","state":"OH"},"type":"Feature","geometry":{"type":"Point","coordinates":[-82.014603,39.975865]}},{"properties":{"city":"Rock Creek","zip":"44084","county":"Ashtabula","geo_score":0.786,"hospital name":"Glenbeigh Hospital and Outpatient Centers","id":"aahi4chb9ndn","address":"Route 45","geo_precision":"street","state":"OH"},"type":"Feature","geometry":{"type":"Point","coordinates":[-80.852797,41.705011]}},{"properties":{"city":"Cincinnati","zip":"45220","county":"Hamilton","geo_score":0.585,"hospital name":"Good Samaritan Hospital","id":"aahi4cg7hz3x","address":"375 Dixmyth Avenue","geo_precision":"zip","state":"OH"},"type":"Feature","geometry":{"type":"Point","coordinates":[-84.520093,39.145559]}},{"properties":{"city":"Dayton","zip":"45406","county":"Montgomery","geo_score":1.0,"hospital name":"Good Samaritan Hospital and Health Center","id":"aahi4c79qu23","address":"2222 Philadelphia Drive","geo_precision":"range","state":"OH"},"type":"Feature","geometry":{"type":"Point","coordinates":[-84.234924,39.788782]}},{"properties":{"city":"Cleveland","zip":"44113","county":"Cuyahoga","geo_score":0.935,"hospital name":"Grace Hospital","id":"aahi4cfkqulp","address":"2307 West 14th Street","geo_precision":"range","state":"OH"},"type":"Feature","geometry":{"type":"Point","coordinates":[-81.691282,41.481446]}},{"properties":{"city":"Delaware","zip":"43015","county":"Delaware","geo_score":0.585,"hospital name":"Grady Memorial Hospital","id":"aahi4cg1he6h","address":"561 West Cental Avenue","geo_precision":"zip","state":"OH"},"type":"Feature","geometry":{"type":"Point","coordinates":[-82.981095,40.289886]}},{"properties":{"city":"Dayton","zip":"45405","county":"Montgomery","geo_score":0.947,"hospital name":"Grandview Hospital and Medical Center","id":"aahi4cg1got1","address":"405 Grand Avenue","geo_precision":"range","state":"OH"},"type":"Feature","geometry":{"type":"Point","coordinates":[-84.20456,39.769208]}},{"properties":{"city":"Columbus","zip":"43215","county":"Franklin","geo_score":1.0,"hospital name":"Grant Medical Center","id":"aahi4c9ih793","address":"111 South Grant Avenue","geo_precision":"range","state":"OH"},"type":"Feature","geometry":{"type":"Point","coordinates":[-82.990665,39.960925]}},{"properties":{"city":"Xenia","zip":"45385","county":"Greene","geo_score":1.0,"hospital name":"Greene Memorial Hospital","id":"aahi4ccdj9yk","address":"1141 North Monroe Drive","geo_precision":"range","state":"OH"},"type":"Feature","geometry":{"type":"Point","coordinates":[-83.928555,39.699673]}},{"properties":{"city":"Greenfield","zip":"45123","county":"Highland","geo_score":1.0,"hospital name":"Greenfield Area Medical Center","id":"aahi4cal6wkd","address":"550 Mirabeau Street","geo_precision":"range","state":"OH"},"type":"Feature","geometry":{"type":"Point","coordinates":[-83.387474,39.349356]}},{"properties":{"city":"Kenton","zip":"43326","county":"Hardin","geo_score":1.0,"hospital name":"Hardin Memorial Hospital","id":"aahi4cbk5bw6","address":"921 East Franklin Street","geo_precision":"range","state":"OH"},"type":"Feature","geometry":{"type":"Point","coordinates":[-83.595859,40.645638]}},{"properties":{"city":"Cadiz","zip":"43907","county":"Harrison","geo_score":1.0,"hospital name":"Harrison Community Hospital","id":"aahi4ccg737k","address":"951 East Market Street","geo_precision":"range","state":"OH"},"type":"Feature","geometry":{"type":"Point","coordinates":[-80.978485,40.257084]}},{"properties":{"city":"Massillon","zip":"44648","county":"Stark","geo_score":0.61,"hospital name":"Heartland Behavioral Healthcare","id":"aahi4ce9i3mt","address":"3000 Erie Street","geo_precision":"street","state":"OH"},"type":"Feature","geometry":{"type":"Point","coordinates":[-81.184379,40.427659]}},{"properties":{"city":"Chardon","zip":"44024","county":"Geauga","geo_score":1.0,"hospital name":"Heather Hill Hospital and Health Partnership","id":"aahi4ckf2b1x","address":"12340 Bass Lake Road","geo_precision":"range","state":"OH"},"type":"Feature","geometry":{"type":"Point","coordinates":[-81.216693,41.530415]}},{"properties":{"city":"Napoleon","zip":"43545","county":"Henry","geo_score":1.0,"hospital name":"Henry County Hospital","id":"aahi4clkhtsg","address":"11600 State Route 424","geo_precision":"range","state":"OH"},"type":"Feature","geometry":{"type":"Point","coordinates":[-84.087381,41.41001]}},{"properties":{"city":"Hillsboro","zip":"45133","county":"Highland","geo_score":0.397,"hospital name":"Highland District Hospital","id":"aahi4c9bo38e","address":"1275 North High Street","geo_precision":"street","state":"OH"},"type":"Feature","geometry":{"type":"Point","coordinates":[-84.243271,39.185461]}},{"properties":{"city":"Cleveland","zip":"44124","county":"Cuyahoga","geo_score":1.0,"hospital name":"Hillcrest Hospital","id":"aahi4chvsq6c","address":"6780 Mayfield Road","geo_precision":"range","state":"OH"},"type":"Feature","geometry":{"type":"Point","coordinates":[-81.434881,41.520028]}},{"properties":{"city":"Logan","zip":"43138","county":"Hocking","geo_score":0.703,"hospital name":"Hocking Valley Community Hospital","id":"aahi4cbikcd6","address":"Route 2, State Route 664","geo_precision":"street","state":"OH"},"type":"Feature","geometry":{"type":"Point","coordinates":[-82.428859,39.544077]}},{"properties":{"city":"Gallipolis","zip":"45631","county":"Gallia","geo_score":0.585,"hospital name":"Holzer Medical Center","id":"aahi4c8veuu2","address":"100 Jackson Pike","geo_precision":"zip","state":"OH"},"type":"Feature","geometry":{"type":"Point","coordinates":[-82.147089,38.842303]}},{"properties":{"city":"Cleveland","zip":"44112","county":"Cuyahoga","geo_score":0.883,"hospital name":"Huron Hospital","id":"aahi4chcodj6","address":"13951 Terrace Road","geo_precision":"range","state":"OH"},"type":"Feature","geometry":{"type":"Point","coordinates":[-81.584332,41.523663]}},{"properties":{"city":"Port Clinton","zip":"43452","county":"Ottawa","geo_score":1.0,"hospital name":"H.B. Magruder Memorial Hospital","id":"aahi4cl1h6vb","address":"615 Fulton Street","geo_precision":"range","state":"OH"},"type":"Feature","geometry":{"type":"Point","coordinates":[-82.933702,41.506295]}},{"properties":{"city":"Cincinnati","zip":"45236","county":"Hamilton","geo_score":1.0,"hospital name":"Jewish Hospital","id":"aahi4cgo01xd","address":"4777 East Galbraith Road","geo_precision":"range","state":"OH"},"type":"Feature","geometry":{"type":"Point","coordinates":[-84.38076,39.206783]}},{"properties":{"city":"Saint Marys","zip":"45885","county":"Auglaize","geo_score":0.286,"hospital name":"Jont Township District Memorial Hospital","id":"aahi4cfhi490","address":"200 St. Clair Street","geo_precision":"street","state":"OH"},"type":"Feature","geometry":{"type":"Point","coordinates":[-84.156281,40.7365]}},{"properties":{"city":"Mount Vernon","zip":"43050","county":"Knox","geo_score":1.0,"hospital name":"Knox Community Hospital","id":"aahi4cdhbhrx","address":"1330 Coshocton Road","geo_precision":"range","state":"OH"},"type":"Feature","geometry":{"type":"Point","coordinates":[-82.441321,40.40233]}},{"properties":{"city":"Painesville","zip":"44077","county":"Lake","geo_score":0.941,"hospital name":"Lake Hospital System","id":"aahi4ca3eecz","address":"10 East Washington","geo_precision":"range","state":"OH"},"type":"Feature","geometry":{"type":"Point","coordinates":[-81.241248,41.72383]}},{"properties":{"city":"Lakewood","zip":"44107","county":"Cuyahoga","geo_score":1.0,"hospital name":"Lakewood Hospital","id":"aahi4c81zfau","address":"14519 Detroit Avenue","geo_precision":"range","state":"OH"},"type":"Feature","geometry":{"type":"Point","coordinates":[-81.796771,41.485209]}},{"properties":{"city":"Newark","zip":"43055","county":"Licking","geo_score":1.0,"hospital name":"Licking Memorial Hospital","id":"aahi4ceqg24p","address":"1320 West Main Street","geo_precision":"range","state":"OH"},"type":"Feature","geometry":{"type":"Point","coordinates":[-82.452734,40.046442]}},{"properties":{"city":"Lima","zip":"45804","county":"Allen","geo_score":0.902,"hospital name":"Lima Memorial Health System","id":"aahi4cheqwvj","address":"1001 Bellefontaine Avenue","geo_precision":"street","state":"OH"},"type":"Feature","geometry":{"type":"Point","coordinates":[-84.088409,40.736052]}},{"properties":{"city":"Lodi","zip":"44254","county":"Medina","geo_score":0.967,"hospital name":"Lodi Community Hospital","id":"aahi4chlt3fi","address":"225 Eluria Street","geo_precision":"range","state":"OH"},"type":"Feature","geometry":{"type":"Point","coordinates":[-82.014039,41.037343]}},{"properties":{"city":"Cleveland","zip":"44113","county":"Cuyahoga","geo_score":0.935,"hospital name":"Lutheran Hospital","id":"aahi4c75epmx","address":"1730 West 25th Street","geo_precision":"range","state":"OH"},"type":"Feature","geometry":{"type":"Point","coordinates":[-81.706209,41.487854]}},{"properties":{"city":"London","zip":"43140","county":"Madison","geo_score":1.0,"hospital name":"Madison County Hospital","id":"aahi4c7h4qc4","address":"210 North Main Street","geo_precision":"range","state":"OH"},"type":"Feature","geometry":{"type":"Point","coordinates":[-83.456095,39.892783]}},{"properties":{"city":"Marietta","zip":"45750","county":"Washington","geo_score":0.601,"hospital name":"Marietta Memorial Hospital","id":"aahi4ckdtb98","address":"401 Matthew Street","geo_precision":"street","state":"OH"},"type":"Feature","geometry":{"type":"Point","coordinates":[-81.439033,39.440363]}},{"properties":{"city":"Marion","zip":"43302","county":"Marion","geo_score":0.604,"hospital name":"Marion General Hospital","id":"aahi4clsfejg","address":"1000 McKinely Park Drive","geo_precision":"street","state":"OH"},"type":"Feature","geometry":{"type":"Point","coordinates":[-83.125804,40.599385]}},{"properties":{"city":"Bellefontaine","zip":"43311","county":"Logan","geo_score":0.837,"hospital name":"Mary Rutan Hospital","id":"aahi4cdws5uz","address":"205 Palmer Avenue","geo_precision":"street","state":"OH"},"type":"Feature","geometry":{"type":"Point","coordinates":[-83.757049,40.368373]}},{"properties":{"city":"Garfield Heights","zip":"44125","county":"Cuyahoga","geo_score":0.385,"hospital name":"Marymount Hospital","id":"aahi4cblta9n","address":"12300 McCracken Road","geo_precision":"street","state":"OH"},"type":"Feature","geometry":{"type":"Point","coordinates":[-81.661603,41.44862]}},{"properties":{"city":"Massillon","zip":"44646","county":"Stark","geo_score":0.619,"hospital name":"Massillon Community Hospital","id":"aahi4c64zfva","address":"875 Eighth Street N.E,","geo_precision":"street","state":"OH"},"type":"Feature","geometry":{"type":"Point","coordinates":[-81.513938,40.79926]}},{"properties":{"city":"Oxford","zip":"45056","county":"Butler","geo_score":1.0,"hospital name":"Mccullough-Hyde Memorial Hospital","id":"aahi4clb2652","address":"110 North Poplar Street","geo_precision":"range","state":"OH"},"type":"Feature","geometry":{"type":"Point","coordinates":[-84.740868,39.51252]}},{"properties":{"city":"Marion","zip":"43302","county":"Marion","geo_score":0.976,"hospital name":"Medcenter Hospital","id":"aahi4cie6ruh","address":"1050 Deleware Avenue","geo_precision":"range","state":"OH"},"type":"Feature","geometry":{"type":"Point","coordinates":[-83.122916,40.571161]}},{"properties":{"city":"Mansfield","zip":"44827","county":"Richland","geo_score":0.585,"hospital name":"Medcentral Health System","id":"aahi4ca3wpxx","address":"335 Glessner Avenue","geo_precision":"zip","state":"OH"},"type":"Feature","geometry":{"type":"Point","coordinates":[-82.909054,40.824607]}},{"properties":{"city":"Toledo","zip":"43614","county":"Lucas","geo_score":1.0,"hospital name":"Medical College of Ohio Hospitals","id":"aahi4c7v0lmj","address":"3000 Arlington Avenue","geo_precision":"range","state":"OH"},"type":"Feature","geometry":{"type":"Point","coordinates":[-83.615087,41.621356]}},{"properties":{"city":"Medina","zip":"44256","county":"Medina","geo_score":1.0,"hospital name":"Medina General Hospital","id":"aahi4c834vms","address":"1000 East Washington Street","geo_precision":"range","state":"OH"},"type":"Feature","geometry":{"type":"Point","coordinates":[-81.837075,41.138844]}},{"properties":{"city":"Fremont","zip":"43420","county":"Sandusky","geo_score":1.0,"hospital name":"Memorial Hospital","id":"aahi4c9p2rse","address":"715 South Taft Avenue","geo_precision":"range","state":"OH"},"type":"Feature","geometry":{"type":"Point","coordinates":[-83.134141,41.337987]}},{"properties":{"city":"Marysville","zip":"43040","county":"Union","geo_score":1.0,"hospital name":"Memorial Hospital of Union County","id":"aahi4cjyjw92","address":"500 London Avenue","geo_precision":"range","state":"OH"},"type":"Feature","geometry":{"type":"Point","coordinates":[-83.368931,40.230739]}},{"properties":{"city":"Coldwater","zip":"45823","county":"Mercer","geo_score":0.902,"hospital name":"Mercer County Joint Township Comm Hospital","id":"aahi4cgjmgvj","address":"800 West Main Street","geo_precision":"range","state":"OH"},"type":"Feature","geometry":{"type":"Point","coordinates":[-84.639411,40.479771]}},{"properties":{"city":"Cincinnati","zip":"45239","county":"Hamilton","geo_score":1.0,"hospital name":"Mercy Francisan Hospital-Mount Airy","id":"aahi4cfu4vr0","address":"2446 Kipling Avenue","geo_precision":"range","state":"OH"},"type":"Feature","geometry":{"type":"Point","coordinates":[-84.573369,39.201654]}},{"properties":{"city":"Cincinnati","zip":"45238","county":"Hamilton","geo_score":1.0,"hospital name":"Mercy Franciscan Hospital-Western Hills","id":"aahi4c6z3o9u","address":"3131 Queen City Avenue","geo_precision":"range","state":"OH"},"type":"Feature","geometry":{"type":"Point","coordinates":[-84.606568,39.136455]}},{"properties":{"city":"Cincinnati","zip":"45238","county":"Hamilton","geo_score":0.805,"hospital name":"Mercy Hospital Anderson","id":"aahi4ci3gt5a","address":"7500 State Road","geo_precision":"range","state":"OH"},"type":"Feature","geometry":{"type":"Point","coordinates":[-84.347038,39.084295]}},{"properties":{"city":"Batavia","zip":"45103","county":"Clermont","geo_score":1.0,"hospital name":"Mercy Hospital Clermont","id":"aahi4c7k4auf","address":"3000 Hospital Drive","geo_precision":"range","state":"OH"},"type":"Feature","geometry":{"type":"Point","coordinates":[-84.146042,39.078962]}},{"properties":{"city":"Fairfield","zip":"45014","county":"Butler","geo_score":0.48,"hospital name":"Mercy Hospital Fairfield","id":"aahi4ca01s5x","address":"3000 Mack Road","geo_precision":"street","state":"OH"},"type":"Feature","geometry":{"type":"Point","coordinates":[-84.722285,39.449232]}},{"properties":{"city":"Tiffin","zip":"44883","county":"Seneca","geo_score":1.0,"hospital name":"Mercy Hospital of Tiffin","id":"aahi4c6whpke","address":"485 West Market Street","geo_precision":"range","state":"OH"},"type":"Feature","geometry":{"type":"Point","coordinates":[-83.197055,41.112519]}},{"properties":{"city":"Willard","zip":"44890","county":"Huron","geo_score":1.0,"hospital name":"Mercy Hospital of Willard","id":"aahi4cl3tdrp","address":"110 East Howard Street","geo_precision":"range","state":"OH"},"type":"Feature","geometry":{"type":"Point","coordinates":[-82.724611,41.048515]}},{"properties":{"city":"Canton","zip":"44708","county":"Stark","geo_score":0.61,"hospital name":"Mercy Medical Center","id":"aahi4cf9i6at","address":"1320 Mercy Drive N.W.","geo_precision":"street","state":"OH"},"type":"Feature","geometry":{"type":"Point","coordinates":[-81.397108,40.81142]}},{"properties":{"city":"Springfield","zip":"45501","county":"Clark","geo_score":0.805,"hospital name":"Mercy Medical Center","id":"aahi4cfm0rgn","address":"1343 North Fountain Boulevard","geo_precision":"range","state":"OH"},"type":"Feature","geometry":{"type":"Point","coordinates":[-83.808924,39.940714]}},{"properties":{"city":"Urbana","zip":"43078","county":"Champaign","geo_score":1.0,"hospital name":"Mercy Memorial Hospital","id":"aahi4c69dol1","address":"904 Scioto Street","geo_precision":"range","state":"OH"},"type":"Feature","geometry":{"type":"Point","coordinates":[-83.730187,40.106787]}},{"properties":{"city":"Dayton","zip":"45409","county":"Montgomery","geo_score":0.929,"hospital name":"Miami Valley Hospital","id":"aahi4c6iods5","address":"One Wyoming Street","geo_precision":"street","state":"OH"},"type":"Feature","geometry":{"type":"Point","coordinates":[-84.187482,39.74371]}},{"properties":{"city":"Middletown","zip":"45044","county":"Butler","geo_score":0.585,"hospital name":"Middletown Regional Hospital","id":"aahi4c9iowyz","address":"105 McKnight Drive","geo_precision":"zip","state":"OH"},"type":"Feature","geometry":{"type":"Point","coordinates":[-84.424549,39.418175]}},{"properties":{"city":"Mount Gilead","zip":"43338","county":"Morrow","geo_score":0.947,"hospital name":"Morrow County Hospital","id":"aahi4c8fcnll","address":"651 West Marion Road","geo_precision":"range","state":"OH"},"type":"Feature","geometry":{"type":"Point","coordinates":[-82.847799,40.548906]}},{"properties":{"city":"Columbus","zip":"43222","county":"Franklin","geo_score":1.0,"hospital name":"Mount Carmel","id":"aahi4ci2a052","address":"793 West State Street","geo_precision":"range","state":"OH"},"type":"Feature","geometry":{"type":"Point","coordinates":[-83.022406,39.957496]}},{"properties":{"city":"Westerville","zip":"43081","county":"Franklin","geo_score":1.0,"hospital name":"Mount Carmel St, Ann's","id":"aahi4ckxly6a","address":"500 South Cleveland Avenue","geo_precision":"range","state":"OH"},"type":"Feature","geometry":{"type":"Point","coordinates":[-82.948537,40.119734]}},{"properties":{"city":"Northfield","zip":"44067","county":"Summit","geo_score":1.0,"hospital name":"Northcoast Behavioral Healthcare System","id":"aahi4c818bf8","address":"1756 Sagamore Road","geo_precision":"range","state":"OH"},"type":"Feature","geometry":{"type":"Point","coordinates":[-81.589708,41.351055]}},{"properties":{"city":"Athens","zip":"45701","county":"Athens","geo_score":1.0,"hospital name":"O'Bleness Memorial Hospital","id":"aahi4cf0yfh0","address":"55 Hospital Drive","geo_precision":"range","state":"OH"},"type":"Feature","geometry":{"type":"Point","coordinates":[-82.116005,39.329128]}},{"properties":{"city":"Lima","zip":"45801","county":"Allen","geo_score":0.902,"hospital name":"Oakwood Correctional Facility","id":"aahi4cl6encb","address":"3200 North West Street","geo_precision":"range","state":"OH"},"type":"Feature","geometry":{"type":"Point","coordinates":[-84.108774,40.784642]}},{"properties":{"city":"Columbus","zip":"43205","county":"Franklin","geo_score":1.0,"hospital name":"Ohio State University Hospitals East","id":"aahi4ckq34m5","address":"1492 East Broad Street","geo_precision":"range","state":"OH"},"type":"Feature","geometry":{"type":"Point","coordinates":[-82.961779,39.966694]}},{"properties":{"city":"Columbus","zip":"43210","county":"Franklin","geo_score":0.624,"hospital name":"Ohio State University Medical Center","id":"aahi4cihyhei","address":"410 West 10th Avenue","geo_precision":"range","state":"OH"},"type":"Feature","geometry":{"type":"Point","coordinates":[-83.021101,39.99401]}},{"properties":{"city":"Worthington","zip":"43085","county":"Franklin","geo_score":0.916,"hospital name":"OSU&amp;Harding Behavioral Healthcare &amp; Med","id":"aahi4chunlv7","address":"445 East Granville Road","geo_precision":"range","state":"OH"},"type":"Feature","geometry":{"type":"Point","coordinates":[-83.008451,40.089906]}},{"properties":{"city":"Parma","zip":"44129","county":"Cuyahoga","geo_score":1.0,"hospital name":"Parma Connumity General Hospital","id":"aahi4ce6q6p2","address":"7007 Powers Boulevard","geo_precision":"range","state":"OH"},"type":"Feature","geometry":{"type":"Point","coordinates":[-81.732093,41.382708]}},{"properties":{"city":"Paulding","zip":"45879","county":"Paulding","geo_score":1.0,"hospital name":"Paulding County Hospital","id":"aahi4cblexqk","address":"1035 West Wayne Street","geo_precision":"range","state":"OH"},"type":"Feature","geometry":{"type":"Point","coordinates":[-84.602406,41.135204]}},{"properties":{"city":"Waverly","zip":"45690","county":"Pike","geo_score":1.0,"hospital name":"Pike Community Hospital","id":"aahi4chyvqh1","address":"100 Dawn Lane","geo_precision":"range","state":"OH"},"type":"Feature","geometry":{"type":"Point","coordinates":[-83.005839,39.116366]}},{"properties":{"city":"Millersburg","zip":"44654","county":"Holmes","geo_score":1.0,"hospital name":"Pomerene Hospital","id":"aahi4ce3zw65","address":"981 Wooster Road","geo_precision":"range","state":"OH"},"type":"Feature","geometry":{"type":"Point","coordinates":[-81.921297,40.566217]}},{"properties":{"city":"Columbus","zip":"43214","county":"Franklin","geo_score":0.967,"hospital name":"Riverside Methodist Hospital","id":"aahi4c9dze8w","address":"3535 Olentangy River Road","geo_precision":"range","state":"OH"},"type":"Feature","geometry":{"type":"Point","coordinates":[-83.030506,40.030631]}},{"properties":{"city":"Ravenna","zip":"44266","county":"Portage","geo_score":1.0,"hospital name":"Robinson Memorial Hospital","id":"aahi4ccoi8ok","address":"6847 North Chestnut Street","geo_precision":"range","state":"OH"},"type":"Feature","geometry":{"type":"Point","coordinates":[-81.245838,41.176096]}},{"properties":{"city":"Salem","zip":"44460","county":"Columbiana","geo_score":0.878,"hospital name":"Salem Community Hospital","id":"aahi4ce6yow2","address":"1995 East State Street","geo_precision":"range","state":"OH"},"type":"Feature","geometry":{"type":"Point","coordinates":[-80.833404,40.901002]}},{"properties":{"city":"Ashland","zip":"44805","county":"Ashland","geo_score":1.0,"hospital name":"Samaritan Regional Health System","id":"aahi4cf7ese7","address":"1025 Center Street","geo_precision":"range","state":"OH"},"type":"Feature","geometry":{"type":"Point","coordinates":[-82.310628,40.859175]}},{"properties":{"city":"Marietta","zip":"45750","county":"Washington","geo_score":1.0,"hospital name":"Selby General Hospital","id":"aahi4cb2l6k4","address":"1106 Colegate Drive","geo_precision":"range","state":"OH"},"type":"Feature","geometry":{"type":"Point","coordinates":[-81.446483,39.440311]}},{"properties":{"city":"Cincinnati","zip":"45229","county":"Hamilton","geo_score":0.973,"hospital name":"Shriners Hospital for Children","id":"aahi4clp27yn","address":"3229 Burnett Avenue","geo_precision":"range","state":"OH"},"type":"Feature","geometry":{"type":"Point","coordinates":[-84.500869,39.136961]}},{"properties":{"city":"Warrensville Heights","zip":"44122","county":"Morgan","geo_score":1.0,"hospital name":"South Pointe Hospital","id":"aahi4cczryty","address":"4110 Warrensville Center Road","geo_precision":"range","state":"OH"},"type":"Feature","geometry":{"type":"Point","coordinates":[-81.536167,41.447188]}},{"properties":{"city":"Cambridge","zip":"43725","county":"Guernsey","geo_score":0.941,"hospital name":"Southeastern Ohio Regional Medical Center","id":"aahi4cf11jqp","address":"1341 North Clark Street","geo_precision":"range","state":"OH"},"type":"Feature","geometry":{"type":"Point","coordinates":[-81.576999,40.039516]}},{"properties":{"city":"Portsmouth","zip":"45662","county":"Scioto","geo_score":0.916,"hospital name":"Southern Ohio Medical Center","id":"aahi4cflfmal","address":"1805 27th Street","geo_precision":"range","state":"OH"},"type":"Feature","geometry":{"type":"Point","coordinates":[-82.978667,38.753388]}},{"properties":{"city":"Middleburg Heights","zip":"44130","county":"Cuyahoga","geo_score":1.0,"hospital name":"Southwest General Health Center","id":"aahi4c9cs85w","address":"18697 Bagley Road","geo_precision":"range","state":"OH"},"type":"Feature","geometry":{"type":"Point","coordinates":[-81.832734,41.372003]}},{"properties":{"city":"Lorain","zip":"44052","county":"Lorain","geo_score":0.905,"hospital name":"Specialty Hospital of Lorain","id":"aahi4cljmc40","address":"205 West 20th Street, Suite 200","geo_precision":"street","state":"OH"},"type":"Feature","geometry":{"type":"Point","coordinates":[-82.16623,41.452455]}},{"properties":{"city":"Toledo","zip":"43623","county":"Lucas","geo_score":1.0,"hospital name":"St. Anne Mercy Hospital","id":"aahi4cgoymdq","address":"3404 West Sylvania Avenue","geo_precision":"range","state":"OH"},"type":"Feature","geometry":{"type":"Point","coordinates":[-83.626151,41.691788]}},{"properties":{"city":"Oregon","zip":"43616","county":"Lucas","geo_score":1.0,"hospital name":"St. Charles Mercy Hospital","id":"aahi4c6w98a4","address":"2600 Navarre Avenue","geo_precision":"range","state":"OH"},"type":"Feature","geometry":{"type":"Point","coordinates":[-83.482368,41.636739]}},{"properties":{"city":"Youngstown","zip":"44504","county":"Mahoning","geo_score":1.0,"hospital name":"St. Elizabeth Health Center","id":"aahi4c8r4g14","address":"1044 Belmont Avenue","geo_precision":"range","state":"OH"},"type":"Feature","geometry":{"type":"Point","coordinates":[-80.655653,41.113258]}},{"properties":{"city":"Green Springs","zip":"44836","county":"Sandusky","geo_score":0.932,"hospital name":"St. Francis Health Care Centre","id":"aahi4cc0ll7v","address":"401 North Broadway","geo_precision":"range","state":"OH"},"type":"Feature","geometry":{"type":"Point","coordinates":[-83.051991,41.261297]}},{"properties":{"city":"Warren","zip":"44484","county":"Trumbull","geo_score":0.6,"hospital name":"St. Joseph Health Center","id":"aahi4cblra6n","address":"667 Eastland Avenue S.E.","geo_precision":"street","state":"OH"},"type":"Feature","geometry":{"type":"Point","coordinates":[-80.778354,41.23196]}},{"properties":{"city":"Maumee","zip":"43537","county":"Lucas","geo_score":1.0,"hospital name":"St. Luke's Hospital","id":"aahi4ckdkv8t","address":"5901 Monclova Road","geo_precision":"range","state":"OH"},"type":"Feature","geometry":{"type":"Point","coordinates":[-83.682046,41.558662]}},{"properties":{"city":"Lima","zip":"45801","county":"Allen","geo_score":1.0,"hospital name":"St. Rita's Medical Center","id":"aahi4calg0af","address":"730 West Market Street","geo_precision":"range","state":"OH"},"type":"Feature","geometry":{"type":"Point","coordinates":[-84.117102,40.740094]}},{"properties":{"city":"Cleveland","zip":"44115","county":"Cuyahoga","geo_score":0.935,"hospital name":"St. Vincent Charity Hospital","id":"aahi4cgsysof","address":"2351 East 22nd Street","geo_precision":"range","state":"OH"},"type":"Feature","geometry":{"type":"Point","coordinates":[-81.673841,41.497055]}},{"properties":{"city":"Toledo","zip":"43608","county":"Lucas","geo_score":1.0,"hospital name":"St. Vincent Mercy Medical Center","id":"aahi4cfnxxh9","address":"2213 Cherry Street","geo_precision":"range","state":"OH"},"type":"Feature","geometry":{"type":"Point","coordinates":[-83.542547,41.669372]}},{"properties":{"city":"Cleveland","zip":"44145","county":"Cuyahoga","geo_score":0.935,"hospital name":"St.John West Shore Hospital","id":"aahi4cfkarjk","address":"29000 Center Ridge Road","geo_precision":"range","state":"OH"},"type":"Feature","geometry":{"type":"Point","coordinates":[-81.943344,41.433244]}},{"properties":{"city":"Miamisburg","zip":"45342","county":"Montgomery","geo_score":1.0,"hospital name":"Sucamore Hospital","id":"aahi4ckmjzww","address":"2150 Leiter Road","geo_precision":"range","state":"OH"},"type":"Feature","geometry":{"type":"Point","coordinates":[-84.250631,39.638637]}},{"properties":{"city":"Akron","zip":"44309","county":"Summit","geo_score":0.805,"hospital name":"Summa Health System","id":"aahi4clslomd","address":"525 East Market Street","geo_precision":"range","state":"OH"},"type":"Feature","geometry":{"type":"Point","coordinates":[-81.501578,41.078969]}},{"properties":{"city":"Cincinnati","zip":"45237","county":"Hamilton","geo_score":0.902,"hospital name":"Summit Behavioral Healthcare","id":"aahi4ckeohlx","address":"1101 Summit Road","geo_precision":"street","state":"OH"},"type":"Feature","geometry":{"type":"Point","coordinates":[-84.473776,39.194646]}},{"properties":{"city":"Cleveland","zip":"44109","county":"Cuyahoga","geo_score":1.0,"hospital name":"The Metrohealth System","id":"aahi4c6bergg","address":"2500 Metrohealth Drive","geo_precision":"range","state":"OH"},"type":"Feature","geometry":{"type":"Point","coordinates":[-81.699613,41.463052]}},{"properties":{"city":"Toledo","zip":"43606","county":"Lucas","geo_score":1.0,"hospital name":"The Toledo Hospital","id":"aahi4ckomsk4","address":"2142 North Cove Boulevard","geo_precision":"range","state":"OH"},"type":"Feature","geometry":{"type":"Point","coordinates":[-83.595109,41.670833]}},{"properties":{"city":"Steubenville","zip":"43952","county":"Jefferson","geo_score":1.0,"hospital name":"Trinity Health System","id":"aahi4c6gvnr0","address":"380 Summit Avenue","geo_precision":"range","state":"OH"},"type":"Feature","geometry":{"type":"Point","coordinates":[-80.62562,40.358231]}},{"properties":{"city":"Dennison","zip":"44621","county":"Tuscarawas","geo_score":0.927,"hospital name":"Twin City Hospital","id":"aahi4cd1bh56","address":"819 North First Street","geo_precision":"range","state":"OH"},"type":"Feature","geometry":{"type":"Point","coordinates":[-81.335915,40.401809]}},{"properties":{"city":"Columbus","zip":"43223","county":"Franklin","geo_score":1.0,"hospital name":"Twin Valley Psych System/Columbus Campus","id":"aahi4cg6q54x","address":"2200 West Broad Street","geo_precision":"range","state":"OH"},"type":"Feature","geometry":{"type":"Point","coordinates":[-83.058415,39.95577]}},{"properties":{"city":"Geneva","zip":"44041","county":"Ashtabula","geo_score":1.0,"hospital name":"UHHS-Memorial Hospital of Geneva","id":"aahi4ckfhs8f","address":"870 West Main Street","geo_precision":"range","state":"OH"},"type":"Feature","geometry":{"type":"Point","coordinates":[-80.962026,41.80021]}},{"properties":{"city":"Bedford","zip":"44146","county":"Cuyahoga","geo_score":1.0,"hospital name":"UHHS Bedford Medical Center","id":"aahi4cg1hi32","address":"44 Blaine Avenue","geo_precision":"range","state":"OH"},"type":"Feature","geometry":{"type":"Point","coordinates":[-81.535002,41.395354]}},{"properties":{"city":"Conneaut","zip":"44030","county":"Ashtabula","geo_score":0.935,"hospital name":"UHHS Brown Memorial Hospital","id":"aahi4cfkwdag","address":"158 West Main Road","geo_precision":"range","state":"OH"},"type":"Feature","geometry":{"type":"Point","coordinates":[-80.587517,41.936987]}},{"properties":{"city":"Chardon","zip":"44024","county":"Geauga","geo_score":1.0,"hospital name":"UHHS Geauga Regional Hospital","id":"aahi4cit3uky","address":"13207 Ravenna Road","geo_precision":"range","state":"OH"},"type":"Feature","geometry":{"type":"Point","coordinates":[-81.193533,41.508762]}},{"properties":{"city":"Willoughby","zip":"44094","county":"Lake","geo_score":1.0,"hospital name":"UHHS Laurelwood Hospital","id":"aahi4cgy6bce","address":"35900 Euclid Avenue","geo_precision":"range","state":"OH"},"type":"Feature","geometry":{"type":"Point","coordinates":[-81.428464,41.627314]}},{"properties":{"city":"Richmond Heights","zip":"44143","county":"Cuyahoga","geo_score":1.0,"hospital name":"UHHS Richmond Heights Hospital","id":"aahi4ckbi4pq","address":"27100 Chardon Road","geo_precision":"range","state":"OH"},"type":"Feature","geometry":{"type":"Point","coordinates":[-81.488218,41.582047]}},{"properties":{"city":"Cleveland","zip":"44127","county":"Cuyahoga","geo_score":1.0,"hospital name":"UHHS Saint Michael Hospital","id":"aahi4caiap33","address":"5163 Broadway Avenue","geo_precision":"range","state":"OH"},"type":"Feature","geometry":{"type":"Point","coordinates":[-81.654682,41.470536]}},{"properties":{"city":"Dover","zip":"44622","county":"Tuscarawas","geo_score":0.805,"hospital name":"Union Hospital","id":"aahi4cm7f8mi","address":"659 Boulevard","geo_precision":"range","state":"OH"},"type":"Feature","geometry":{"type":"Point","coordinates":[-81.456899,40.514093]}},{"properties":{"city":"Cincinnati","zip":"45219","county":"Hamilton","geo_score":1.0,"hospital name":"University Hospital","id":"aahi4cbg1875","address":"234 Goodman Street","geo_precision":"range","state":"OH"},"type":"Feature","geometry":{"type":"Point","coordinates":[-84.503785,39.136801]}},{"properties":{"city":"Cleveland","zip":"44106","county":"Cuyahoga","geo_score":1.0,"hospital name":"University Hospitals of Cleveland","id":"aahi4cbojvkx","address":"11100 Euclid Avenue","geo_precision":"range","state":"OH"},"type":"Feature","geometry":{"type":"Point","coordinates":[-81.607852,41.506593]}},{"properties":{"city":"Troy","zip":"45373","county":"Miami","geo_score":0.585,"hospital name":"Upper Valley Medical Center","id":"aahi4ckxioou","address":"3130 North Dixie Highway","geo_precision":"zip","state":"OH"},"type":"Feature","geometry":{"type":"Point","coordinates":[-84.279668,39.965332]}},{"properties":{"city":"Van Wert","zip":"45891","county":"Van Wert","geo_score":1.0,"hospital name":"Van Wert County Hospital","id":"aahi4cg28732","address":"1250 South Washington Street","geo_precision":"range","state":"OH"},"type":"Feature","geometry":{"type":"Point","coordinates":[-84.581329,40.850373]}},{"properties":{"city":"Cleveland","zip":"44106","county":"Cuyahoga","geo_score":0.902,"hospital name":"Veterans Affairs Medical Center","id":"aahi4c9kyoev","address":"10701 East Boulevard","geo_precision":"range","state":"OH"},"type":"Feature","geometry":{"type":"Point","coordinates":[-81.61335,41.51264]}},{"properties":{"city":"Dayton","zip":"45428","county":"Montgomery","geo_score":0.732,"hospital name":"Veterans Affairs Medical Center","id":"aahi4ccplid1","address":"4100 West Third Street","geo_precision":"range","state":"OH"},"type":"Feature","geometry":{"type":"Point","coordinates":[-84.254228,39.749206]}},{"properties":{"city":"Chillicothe","zip":"45601","county":"Ross","geo_score":1.0,"hospital name":"Veterans Affairs ","id":"aahi4cj2j6s9","address":"17273 State Route 104","geo_precision":"range","state":"OH"},"type":"Feature","geometry":{"type":"Point","coordinates":[-83.011299,39.384112]}},{"properties":{"city":"Pomeroy","zip":"45769","county":"Meigs","geo_score":1.0,"hospital name":"Veterans Memorial Hospital of Meigs County","id":"aahi4cik9kzg","address":"115 East Memorial Drive","geo_precision":"range","state":"OH"},"type":"Feature","geometry":{"type":"Point","coordinates":[-82.045749,39.037662]}},{"properties":{"city":"Wadsworth","zip":"44281","county":"Medina","geo_score":1.0,"hospital name":"Wadsworth-Rittman Hospital","id":"aahi4cfbru3v","address":"195 Wadsworth Road","geo_precision":"range","state":"OH"},"type":"Feature","geometry":{"type":"Point","coordinates":[-81.753962,41.026535]}},{"properties":{"city":"Greenville","zip":"45331","county":"Darke","geo_score":0.973,"hospital name":"Wayne Hospital","id":"aahi4c8e09ea","address":"835 Swetzer Street","geo_precision":"range","state":"OH"},"type":"Feature","geometry":{"type":"Point","coordinates":[-84.635034,40.0882]}},{"properties":{"city":"Sidney","zip":"45365","county":"Shelby","geo_score":0.805,"hospital name":"Wilson Memorial Hospital","id":"aahi4c8e0oud","address":"915 West Michigan Street","geo_precision":"street","state":"OH"},"type":"Feature","geometry":{"type":"Point","coordinates":[-84.19757,40.287635]}},{"properties":{"city":"Chagrin Falls","zip":"44022","county":"Cuyahoga","geo_score":1.0,"hospital name":"Windsor Hospital","id":"aahi4clvovy6","address":"115 East Summit Street","geo_precision":"range","state":"OH"},"type":"Feature","geometry":{"type":"Point","coordinates":[-81.390103,41.435093]}},{"properties":{"city":"Bowling Green","zip":"43402","county":"Wood","geo_score":1.0,"hospital name":"Wood County Hospital","id":"aahi4ced0gb4","address":"950 West Wooster Street","geo_precision":"range","state":"OH"},"type":"Feature","geometry":{"type":"Point","coordinates":[-83.665082,41.374101]}},{"properties":{"city":"Wooster","zip":"44691","county":"Wayne","geo_score":1.0,"hospital name":"Wooster Community Hospital","id":"aahi4c6p453t","address":"1761 Beall Avenue","geo_precision":"range","state":"OH"},"type":"Feature","geometry":{"type":"Point","coordinates":[-81.934237,40.821103]}},{"properties":{"city":"Wright-Patterson AFB","zip":"43085","county":"Greene","geo_score":0.61,"hospital name":"Wright Patterson Medical Center","id":"aahi4c78dryk","address":"4881 Sugar Maple Drive","geo_precision":"street","state":"OH"},"type":"Feature","geometry":{"type":"Point","coordinates":[-82.923328,40.169619]}},{"properties":{"city":"Upper Sandusky","zip":"43351","county":"Wyandot","geo_score":0.807,"hospital name":"Wyandot Memorial Hospital","id":"aahi4c5y8c1x","address":"885 North Sandusky Avenue","geo_precision":"street","state":"OH"},"type":"Feature","geometry":{"type":"Point","coordinates":[-83.281005,40.839052]}}],"is_temporal":false,"author":{"url":"","metadata":"","contact_name":"","contact_address":"","source":"","contact_phone":""},"source":"","pagination":{"sort":null,"start":0,"total":184,"limit":1000000},"state":"complete","tags":"","published":"2014-08-16T14:24:49-04:00","id":301480}