{"type":"FeatureCollection","data_type":"Dataset","url_type":null,"permissions":[{"permissions":{"download":true,"view":true},"group_id":"everyone"}],"classification":null,"title":"adult day all counties","count":132,"stream_id":301646,"contributor":{"url":"http://geocommons.com/users/56357","name":"polyfrg"},"data_attributes":null,"calculation_params":null,"icon_link":null,"link":"http://geocommons.com/overlays/301646.json","extent":[-122.567,36.9843,-121.549,38.236],"geometry_types":["point"],"unique_name":null,"name":"adult day all counties","feature_count":132,"description":"","next_feature":null,"is_raster":false,"short_classification":"Y","stats":{},"features":[{"properties":{"name":"ARC-SF/COMMUNITY TRAINING PROGRAMS, THE","city":"SAN FRANCISCO","zip":"94133","geo_score":1.0,"phone":"(415) 268-0135","tax_sm-category":"Adult Day Programs","id":"aahq5edqa5cu","address":"416 BAY STREET","geo_precision":"range","state":"CA"},"type":"Feature","geometry":{"type":"Point","coordinates":[-122.415041,37.805524]}},{"properties":{"name":"BETHESDA LUTHERAN COMMUNITIES-BETHEL CENTER","city":"SAN FRANCISCO","zip":"94112","geo_score":1.0,"phone":"(415) 586-4977","tax_sm-category":"Adult Day Programs","id":"aahq5eiy2vnz","address":"2557 ALEMANY BLVD.","geo_precision":"range","state":"CA"},"type":"Feature","geometry":{"type":"Point","coordinates":[-122.446514,37.714904]}},{"properties":{"name":"CATHOLIC CHARITIES OF THE ARCHDIOCESE OF SAN FRANC","city":"SAN FRANCISCO","zip":"94112","geo_score":0.89,"phone":"(415) 452-3500","tax_sm-category":"Adult Day Programs","id":"aahq5es7o0y4","address":"50 BROAD","geo_precision":"range","state":"CA"},"type":"Feature","geometry":{"type":"Point","coordinates":[-122.455027,37.713278]}},{"properties":{"name":"CREATIVITY EXPLORED II","city":"SAN FRANCISCO","zip":"94107","geo_score":0.934,"phone":"(415) 863-2108","tax_sm-category":"Adult Day Programs","id":"aahq5eqj422x","address":"ONE ARKANSAS STREET","geo_precision":"street","state":"CA"},"type":"Feature","geometry":{"type":"Point","coordinates":[-122.398825,37.766309]}},{"properties":{"name":"CREATIVITY EXPLORED OF SAN FRANCISCO","city":"SAN FRANCISCO","zip":"94103","geo_score":0.571,"phone":"(415) 863-2108","tax_sm-category":"Adult Day Programs","id":"aahq5eijbd69","address":"3245 - 16TH STREET","geo_precision":"street","state":"CA"},"type":"Feature","geometry":{"type":"Point","coordinates":[-122.390976,37.766791]}},{"properties":{"name":"HAYES VALLEY CARE HOME &amp; COMM. FOR THE ELDERLY","city":"SAN FRANCISCO","zip":"94102","geo_score":1.0,"phone":"(415) 252-1128","tax_sm-category":"Adult Day Programs","id":"aahq5enqpmkk","address":"601 LAGUNA STREET","geo_precision":"range","state":"CA"},"type":"Feature","geometry":{"type":"Point","coordinates":[-122.426358,37.77693]}},{"properties":{"name":"IRENE SWINDELLS CENTER FOR ADULT DAY SERVICES","city":"SAN FRANCISCO","zip":"94118","geo_score":1.0,"phone":"(415) 750-4180","tax_sm-category":"Adult Day Programs","id":"aahq5ecz5oj2","address":"3698 CALIFORNIA STREET","geo_precision":"range","state":"CA"},"type":"Feature","geometry":{"type":"Point","coordinates":[-122.454774,37.786244]}},{"properties":{"name":"JANET POMEROY CENTER, THE","city":"SAN FRANCISCO","zip":"94132","geo_score":1.0,"phone":"(415) 665-4100","tax_sm-category":"Adult Day Programs","id":"aahq5eg62ltf","address":"207 SKYLINE BLVD","geo_precision":"range","state":"CA"},"type":"Feature","geometry":{"type":"Point","coordinates":[-122.49901,37.731723]}},{"properties":{"name":"KIMOCHI HOME-DAY CARE","city":"SAN FRANCISCO","zip":"94109","geo_score":1.0,"phone":"(415) 922-9972","tax_sm-category":"Adult Day Programs","id":"aahq5efnvti3","address":"1531 SUTTER STREET","geo_precision":"range","state":"CA"},"type":"Feature","geometry":{"type":"Point","coordinates":[-122.426263,37.786914]}},{"properties":{"name":"NORCAL VOCATIONAL, INC.","city":"SAN FRANCISCO","zip":"94107","geo_score":0.585,"phone":"(415) 206-9766","tax_sm-category":"Adult Day Programs","id":"aahq5el77ox5","address":"645 TEXAS STREET","geo_precision":"zip","state":"CA"},"type":"Feature","geometry":{"type":"Point","coordinates":[-122.393681,37.769029]}},{"properties":{"name":"OCTAVIA COURT ART CENTER","city":"SAN FRANCISCO","zip":"94102","geo_score":0.724,"phone":"(415) 491-4071","tax_sm-category":"Adult Day Programs","id":"aahq5elqx5vp","address":"261 OCTAVIA BOULEVARD","geo_precision":"street","state":"CA"},"type":"Feature","geometry":{"type":"Point","coordinates":[-122.424057,37.773875]}},{"properties":{"name":"OPPORTUNITY UNLIMITED II","city":"SAN FRANCISCO","zip":"94121","geo_score":0.571,"phone":"(415) 387-8405","tax_sm-category":"Adult Day Programs","id":"aahq5emsbb39","address":"378 - 18TH AVENUE","geo_precision":"street","state":"CA"},"type":"Feature","geometry":{"type":"Point","coordinates":[-122.477696,37.786797]}},{"properties":{"name":"POTRERO HILL NEIGHBORHOOD HOUSE SOCIAL DEV. CENTER","city":"SAN FRANCISCO","zip":"94107","geo_score":1.0,"phone":"(415) 420-0936","tax_sm-category":"Adult Day Programs","id":"aahq5ep6g5bd","address":"953 DE HARO STREET","geo_precision":"range","state":"CA"},"type":"Feature","geometry":{"type":"Point","coordinates":[-122.401004,37.759719]}},{"properties":{"name":"PROGRESS FOUNDATION-RYPINS DAY TREATMENT","city":"SAN FRANCISCO","zip":"94110","geo_score":1.0,"phone":"(415) 821-0697","tax_sm-category":"Adult Day Programs","id":"aahq5eiv61le","address":"1405 GUERRERO STREET","geo_precision":"range","state":"CA"},"type":"Feature","geometry":{"type":"Point","coordinates":[-122.4224,37.748059]}},{"properties":{"name":"RUTH ANN ROSENBERG ADULT DAY SERVICES","city":"SAN FRANCISCO","zip":"94118","geo_score":1.0,"phone":"(415) 750-4111","tax_sm-category":"Adult Day Programs","id":"aahq5eke06sq","address":"3575A GEARY BOULEVARD","geo_precision":"range","state":"CA"},"type":"Feature","geometry":{"type":"Point","coordinates":[-122.45705,37.781202]}},{"properties":{"name":"A FAMILY AFFAIR CONNECTION, INC.","city":"ALAMEDA","zip":"94501","geo_score":1.0,"phone":"(916) 395-3788","tax_sm-category":"Adult Day Programs","id":"aahq5emsen0a","address":"841 MARINA VILLAGE PARKWAY","geo_precision":"range","state":"CA"},"type":"Feature","geometry":{"type":"Point","coordinates":[-122.274466,37.783084]}},{"properties":{"name":"AMADOR TRI-VALLEY CENTER","city":"LIVERMORE","zip":"94551","geo_score":0.948,"phone":"(925) 825-4700","tax_sm-category":"Adult Day Programs","id":"aahq5edmc8w1","address":"2177 LAS POSITAS COURT BC","geo_precision":"range","state":"CA"},"type":"Feature","geometry":{"type":"Point","coordinates":[-121.774079,37.697477]}},{"properties":{"name":"ARC OF ALAMEDA CO. ALTERNATIVE VENTURES PROG., THE","city":"SAN LEANDRO","zip":"94577","geo_score":0.951,"phone":"(510) 357-3727","tax_sm-category":"Adult Day Programs","id":"aahq5ef2r34g","address":"14700 DOOLITTLE STREET","geo_precision":"range","state":"CA"},"type":"Feature","geometry":{"type":"Point","coordinates":[-122.173398,37.691539]}},{"properties":{"name":"ARC OF ALAMEDA CO., UC SCOPE/ALTERNATIVE VENTURES","city":"UNION CITY","zip":"94587","geo_score":0.902,"phone":"(510) 477-0899","tax_sm-category":"Adult Day Programs","id":"aahq5ek1kjoe","address":"34135 SEVENTH STREET","geo_precision":"range","state":"CA"},"type":"Feature","geometry":{"type":"Point","coordinates":[-122.01311,37.596021]}},{"properties":{"name":"ARC OF ALAMEDA COUNTY SAN LEANDRO SCOPE, THE","city":"SAN LEANDRO","zip":"94577","geo_score":1.0,"phone":"(510) 357-3569","tax_sm-category":"Adult Day Programs","id":"aahq5endp6bl","address":"14700 DOOLITTLE DRIVE","geo_precision":"range","state":"CA"},"type":"Feature","geometry":{"type":"Point","coordinates":[-122.173398,37.691539]}},{"properties":{"name":"ARC OF ALAMEDA COUNTY WALPERT AVP, THE","city":"HAYWARD","zip":"94541","geo_score":1.0,"phone":"(510) 357-3569","tax_sm-category":"Adult Day Programs","id":"aahq5emqustm","address":"1101 WALPERT STREET","geo_precision":"range","state":"CA"},"type":"Feature","geometry":{"type":"Point","coordinates":[-122.077008,37.667972]}},{"properties":{"name":"ARTFUL STEPS PROGRAM, THE","city":"SAN LEANDRO","zip":"94577","geo_score":1.0,"phone":"(510) 568-3331","tax_sm-category":"Adult Day Programs","id":"aahq5el3rqtd","address":"311 MACARTHUR BLVD.","geo_precision":"range","state":"CA"},"type":"Feature","geometry":{"type":"Point","coordinates":[-122.146636,37.739777]}},{"properties":{"name":"BACS ADULT DAY CARE SERVICES","city":"OAKLAND","zip":"94609","geo_score":0.965,"phone":"(510) 601-1074","tax_sm-category":"Adult Day Programs","id":"aahq5egmql19","address":"5714 MARTIN LUTHER KING WAY","geo_precision":"range","state":"CA"},"type":"Feature","geometry":{"type":"Point","coordinates":[-122.270366,37.842537]}},{"properties":{"name":"BACS ADULT DAY CARE/FREMONT","city":"FREMONT","zip":"94538","geo_score":1.0,"phone":"(510) 656-7742","tax_sm-category":"Adult Day Programs","id":"aahq5emk9cup","address":"40963 GRIMMER BLVD","geo_precision":"range","state":"CA"},"type":"Feature","geometry":{"type":"Point","coordinates":[-121.968136,37.533208]}},{"properties":{"name":"BAY AREA ADULT DAY PROGRAM","city":"OAKLAND","zip":"94601","geo_score":0.805,"phone":"(510) 830-6068","tax_sm-category":"Adult Day Programs","id":"aahq5enemzsi","address":"5607 HOLWAY STREET","geo_precision":"range","state":"CA"},"type":"Feature","geometry":{"type":"Point","coordinates":[-122.19801,37.769898]}},{"properties":{"name":"CARE ADMINISTRATION AND MGMT. PROFESSIONALS, INC.","city":"DUBLIN","zip":"94568","geo_score":0.679,"phone":"(925) 560-0124","tax_sm-category":"Adult Day Programs","id":"aahq5em2v9ay","address":"6805 SIERRA COURT, SUITE A","geo_precision":"street","state":"CA"},"type":"Feature","geometry":{"type":"Point","coordinates":[-121.943558,37.710916]}},{"properties":{"name":"CEREBRAL PALSY CENTER FOR THE BAY AREA, INC.","city":"OAKLAND","zip":"94602","geo_score":1.0,"phone":"(510) 531-3323","tax_sm-category":"Adult Day Programs","id":"aahq5eg1k87b","address":"4500 LINCOLN AVENUE","geo_precision":"range","state":"CA"},"type":"Feature","geometry":{"type":"Point","coordinates":[-122.202833,37.809083]}},{"properties":{"name":"CEREBRAL PALSY CENTER FOR THE BAY AREA, INC.","city":"OAKLAND","zip":"94612","geo_score":1.0,"phone":"(510) 531-3323","tax_sm-category":"Adult Day Programs","id":"aahq5emf9ms7","address":"1775 BROADWAY","geo_precision":"range","state":"CA"},"type":"Feature","geometry":{"type":"Point","coordinates":[-122.26941,37.807407]}},{"properties":{"name":"CLAUSEN HOUSE ADULT EDUCATION PROGRAM","city":"OAKLAND","zip":"94610","geo_score":1.0,"phone":"(510) 839-0050","tax_sm-category":"Adult Day Programs","id":"aahq5eon1wqm","address":"650 GRAND AVE","geo_precision":"range","state":"CA"},"type":"Feature","geometry":{"type":"Point","coordinates":[-122.249098,37.810009]}},{"properties":{"name":"COLE VOCATIONAL SVC-ALAMEDA COUNTY BMP","city":"HAYWARD","zip":"94544","geo_score":0.973,"phone":"(510) 429-1919","tax_sm-category":"Adult Day Programs","id":"aahq5effqvfn","address":"1479 SALMON  WAY","geo_precision":"range","state":"CA"},"type":"Feature","geometry":{"type":"Point","coordinates":[-122.056564,37.610142]}},{"properties":{"name":"COMMUNITY DAY PROGRAM, INC.","city":"FREMONT","zip":"94538","geo_score":0.93,"phone":"(510) 445-1227","tax_sm-category":"Adult Day Programs","id":"aahq5ejpxabm","address":"44250 OLD WARM SPRINGS","geo_precision":"range","state":"CA"},"type":"Feature","geometry":{"type":"Point","coordinates":[-121.946086,37.506701]}},{"properties":{"name":"COMMUNITY INTEGRATED WORK PROGRAM, INC.","city":"HAYWARD","zip":"94544","geo_score":1.0,"phone":"(510) 487-9768","tax_sm-category":"Adult Day Programs","id":"aahq5ep4ly7n","address":"1875 WHIPPLE ROAD","geo_precision":"range","state":"CA"},"type":"Feature","geometry":{"type":"Point","coordinates":[-122.054808,37.606025]}},{"properties":{"name":"CREATIVE GROWTH","city":"OAKLAND","zip":"94612","geo_score":0.571,"phone":"(510) 836-2340","tax_sm-category":"Adult Day Programs","id":"aahq5ehlov6r","address":"355 - 24TH STREET","geo_precision":"street","state":"CA"},"type":"Feature","geometry":{"type":"Point","coordinates":[-122.262193,37.813029]}},{"properties":{"name":"DEAF PLUS ADULT COMMUNITY","city":"NEWARK","zip":"94560","geo_score":0.657,"phone":"(510) 610-0170","tax_sm-category":"Adult Day Programs","id":"aahq5eoy0err","address":"5437 CENTRAL AVENUE, SUITE 5","geo_precision":"street","state":"CA"},"type":"Feature","geometry":{"type":"Point","coordinates":[-122.038845,37.519926]}},{"properties":{"name":"DUBLIN DAY PROGRAM","city":"DUBLIN","zip":"94568","geo_score":0.625,"phone":"(925) 560-0124","tax_sm-category":"Adult Day Programs","id":"aahq5epgkl74","address":"6670 AMADOR PLAZA, STE. C","geo_precision":"street","state":"CA"},"type":"Feature","geometry":{"type":"Point","coordinates":[-121.946953,37.711016]}},{"properties":{"name":"DUNGARVIN CALIFORNIA, LLC","city":"HAYWARD","zip":"94544","geo_score":0.585,"phone":"(510) 727-9448","tax_sm-category":"Adult Day Programs","id":"aahq5er9f6v2","address":"21988 FOOTHILLS BLVD.","geo_precision":"zip","state":"CA"},"type":"Feature","geometry":{"type":"Point","coordinates":[-122.061673,37.613883]}},{"properties":{"name":"EVERGREEN PROGRAM","city":"SAN LEANDRO","zip":"94577","geo_score":1.0,"phone":"(510) 895-2838","tax_sm-category":"Adult Day Programs","id":"aahq5effjg0p","address":"797 MONTAGUE AVENUE","geo_precision":"range","state":"CA"},"type":"Feature","geometry":{"type":"Point","coordinates":[-122.155866,37.711118]}},{"properties":{"name":"FCSN EAST BAY ADULT DAY PROGRAM","city":"FREMONT","zip":"94536","geo_score":1.0,"phone":"(510) 739-6900","tax_sm-category":"Adult Day Programs","id":"aahq5eju8s3j","address":"2300 PERALTA BLVD.","geo_precision":"range","state":"CA"},"type":"Feature","geometry":{"type":"Point","coordinates":[-121.988832,37.562467]}},{"properties":{"name":"GARDEN TRI-VALLEY","city":"LIVERMORE","zip":"94551","geo_score":0.707,"phone":"(925) 284-3240","tax_sm-category":"Adult Day Programs","id":"aahq5enge0r6","address":"676 &amp; 690 L STREET","geo_precision":"range","state":"CA"},"type":"Feature","geometry":{"type":"Point","coordinates":[-121.774276,37.687691]}},{"properties":{"name":"GOLDEN HOUSE ADULT DEV. CENTER","city":"ALAMEDA","zip":"94501","geo_score":1.0,"phone":"(510) 522-4260","tax_sm-category":"Adult Day Programs","id":"aahq5eckyk8c","address":"730 CENTRAL AVENUE","geo_precision":"range","state":"CA"},"type":"Feature","geometry":{"type":"Point","coordinates":[-122.276365,37.771375]}},{"properties":{"name":"GREEN OAK DEVELOPMENTAL CENTER","city":"UNION CITY","zip":"94587","geo_score":1.0,"phone":"(510) 441-8300","tax_sm-category":"Adult Day Programs","id":"aahq5elfnnoh","address":"2949 WHIPPLE ROAD","geo_precision":"range","state":"CA"},"type":"Feature","geometry":{"type":"Point","coordinates":[-122.071141,37.605767]}},{"properties":{"name":"GREEN OAK DEVELOPMENTAL CENTER II","city":"UNION CITY","zip":"94587","geo_score":1.0,"phone":"(510) 475-6069","tax_sm-category":"Adult Day Programs","id":"aahq5eoz0g6w","address":"2827 WHIPPLE ROAD","geo_precision":"range","state":"CA"},"type":"Feature","geometry":{"type":"Point","coordinates":[-122.075699,37.605741]}},{"properties":{"name":"HARAMBEE KINSHIP CENTER","city":"SAN LEANDRO","zip":"94577","geo_score":1.0,"phone":"(510) 352-2591","tax_sm-category":"Adult Day Programs","id":"aahq5ee7uo2g","address":"1515 AURORA DRIVE","geo_precision":"range","state":"CA"},"type":"Feature","geometry":{"type":"Point","coordinates":[-122.187576,37.706009]}},{"properties":{"name":"HAYWARD ADULT DAY PROGRAM","city":"HAYWARD","zip":"94541","geo_score":1.0,"phone":"(510) 728-5113","tax_sm-category":"Adult Day Programs","id":"aahq5end73yn","address":"22964 SUTRO STREET","geo_precision":"range","state":"CA"},"type":"Feature","geometry":{"type":"Point","coordinates":[-122.083433,37.665064]}},{"properties":{"name":"HAYWARD EMPLOY AMERICA","city":"HAYWARD","zip":"94545","geo_score":0.966,"phone":"(510) 785-2284","tax_sm-category":"Adult Day Programs","id":"aahq5egmycj9","address":"2483 INDUSTRIAL PARKWAY","geo_precision":"range","state":"CA"},"type":"Feature","geometry":{"type":"Point","coordinates":[-122.084233,37.617964]}},{"properties":{"name":"HENRY &amp; HENRY ADULT DAY PROGRAM II","city":"OAKLAND","zip":"94621","geo_score":0.805,"phone":"(510) 530-3800","tax_sm-category":"Adult Day Programs","id":"aahq5eg8zcll","address":"4778 INTERNATIONAL BLVD.","geo_precision":"street","state":"CA"},"type":"Feature","geometry":{"type":"Point","coordinates":[-122.202597,37.766607]}},{"properties":{"name":"HENRY AND HENRY ADULT DAY CARE","city":"OAKLAND","zip":"94602","geo_score":1.0,"phone":"(510) 530-9656","tax_sm-category":"Adult Day Programs","id":"aahq5ehmxmpd","address":"3361 MACARTHUR BLVD.","geo_precision":"range","state":"CA"},"type":"Feature","geometry":{"type":"Point","coordinates":[-122.201913,37.794891]}},{"properties":{"name":"HERGL CENTER","city":"BERKELEY","zip":"94702","geo_score":1.0,"phone":"(510) 524-0822","tax_sm-category":"Adult Day Programs","id":"aahq5ekcm4y1","address":"1326 LINCOLN STREET","geo_precision":"range","state":"CA"},"type":"Feature","geometry":{"type":"Point","coordinates":[-122.287693,37.875104]}},{"properties":{"name":"KEYSTONE ADULT LEARNING CENTER","city":"PLEASANTON","zip":"94566","geo_score":1.0,"phone":"(925) 484-5330","tax_sm-category":"Adult Day Programs","id":"aahq5ekbh3al","address":"1241 QUARRY LANE, SUITE 145","geo_precision":"street","state":"CA"},"type":"Feature","geometry":{"type":"Point","coordinates":[-121.865672,37.672762]}},{"properties":{"name":"MISSION HOPE DAY PROGRAM, FREMONT","city":"FREMONT","zip":"94539","geo_score":1.0,"phone":"(925) 813-0651","tax_sm-category":"Adult Day Programs","id":"aahq5epwtu78","address":"43154 OSGOOD ROAD","geo_precision":"range","state":"CA"},"type":"Feature","geometry":{"type":"Point","coordinates":[-121.946226,37.519845]}},{"properties":{"name":"MISSION HOPE DAY PROGRAM- HAYWARD","city":"HAYWARD","zip":"94541","geo_score":0.463,"phone":"(510) 888-9231","tax_sm-category":"Adult Day Programs","id":"aahq5ehbgfk0","address":"21328 MISSION BLVD.","geo_precision":"street","state":"CA"},"type":"Feature","geometry":{"type":"Point","coordinates":[-122.162973,38.236045]}},{"properties":{"name":"MISSION-HOPE DAY PROGRAM, DUBLIN","city":"DUBLIN","zip":"94568","geo_score":1.0,"phone":"(925) 560-9582","tax_sm-category":"Adult Day Programs","id":"aahq5el1na15","address":"6300 VILLAGE PARKWAY","geo_precision":"range","state":"CA"},"type":"Feature","geometry":{"type":"Point","coordinates":[-121.922378,37.704502]}},{"properties":{"name":"NDS-ASHLAND","city":"SAN LORENZO","zip":"94580","geo_score":1.0,"phone":"(626) 808-5260","tax_sm-category":"Adult Day Programs","id":"aahq5elusmnu","address":"16440 ASHLAND AVENUE","geo_precision":"range","state":"CA"},"type":"Feature","geometry":{"type":"Point","coordinates":[-122.118954,37.691712]}},{"properties":{"name":"ONE STEP CLOSER","city":"OAKLAND","zip":"94605","geo_score":0.98,"phone":"(510) 636-0216","tax_sm-category":"Adult Day Programs","id":"aahq5epewmu3","address":"7622 MAC ARTHUR BLVD.","geo_precision":"range","state":"CA"},"type":"Feature","geometry":{"type":"Point","coordinates":[-122.169277,37.767303]}},{"properties":{"name":"OVER 21 - OAKLAND","city":"OAKLAND","zip":"94601","geo_score":0.902,"phone":"(510) 533-0115","tax_sm-category":"Adult Day Programs","id":"aahq5ekldge3","address":"3125-EAST 15TH STREET","geo_precision":"range","state":"CA"},"type":"Feature","geometry":{"type":"Point","coordinates":[-122.225545,37.778773]}},{"properties":{"name":"SAILS WORK PROGRAM","city":"OAKLAND","zip":"94611","geo_score":1.0,"phone":"(510) 269-2840","tax_sm-category":"Adult Day Programs","id":"aahq5erkk9ec","address":"3300 BROADWAY","geo_precision":"range","state":"CA"},"type":"Feature","geometry":{"type":"Point","coordinates":[-122.261027,37.820761]}},{"properties":{"name":"SOCIAL DAY SERVICES PROGRAM","city":"SAN LEANDRO","zip":"94577","geo_score":1.0,"phone":"(510) 483-8000","tax_sm-category":"Adult Day Programs","id":"aahq5eqz5im1","address":"211 JOAQUIN AVENUE","geo_precision":"range","state":"CA"},"type":"Feature","geometry":{"type":"Point","coordinates":[-122.152738,37.724754]}},{"properties":{"name":"SOCIAL VOCATIONAL SERVICES, NEWARK","city":"NEWARK","zip":"94560","geo_score":0.614,"phone":"(510) 797-1916","tax_sm-category":"Adult Day Programs","id":"aahq5el16mco","address":"37400 CEDAR BLVD., SUITES A&amp;B","geo_precision":"street","state":"CA"},"type":"Feature","geometry":{"type":"Point","coordinates":[-122.044778,37.547827]}},{"properties":{"name":"SVS EMERYVILLE ADULT DAY PROGRAM","city":"EMERYVILLE","zip":"94608","geo_score":1.0,"phone":"(510) 594-7756","tax_sm-category":"Adult Day Programs","id":"aahq5efal73q","address":"4550A SAN PABLO AVE.","geo_precision":"range","state":"CA"},"type":"Feature","geometry":{"type":"Point","coordinates":[-122.281307,37.835362]}},{"properties":{"name":"WAY OF THE ELDERS","city":"HAYWARD","zip":"94545","geo_score":0.512,"phone":"(925) 825-2091","tax_sm-category":"Adult Day Programs","id":"aahq5eqnq5ri","address":"3563 INVESTMENT BLVD, STE. 3","geo_precision":"street","state":"CA"},"type":"Feature","geometry":{"type":"Point","coordinates":[-122.114172,37.628043]}},{"properties":{"name":"WAY OF THE ELDERS","city":"SAN LEANDRO","zip":"94577","geo_score":0.805,"phone":"(510) 266-5260","tax_sm-category":"Adult Day Programs","id":"aahq5erhvhuz","address":"2700 MERCED STREET","geo_precision":"range","state":"CA"},"type":"Feature","geometry":{"type":"Point","coordinates":[-122.165879,37.701212]}},{"properties":{"name":"WISDOM PATH","city":"HAYWARD","zip":"94541","geo_score":0.912,"phone":"(510) 783-1174","tax_sm-category":"Adult Day Programs","id":"aahq5eqy0yfp","address":"985 SUEIRRO","geo_precision":"range","state":"CA"},"type":"Feature","geometry":{"type":"Point","coordinates":[-122.114231,37.6626]}},{"properties":{"name":"CAREPLUS","city":"SAN RAFAEL","zip":"94903","geo_score":1.0,"phone":"(415) 225-6868","tax_sm-category":"Adult Day Programs","id":"aahq5ekdwtcd","address":"4182-4184 REDWOOD HIGHWAY","geo_precision":"range","state":"CA"},"type":"Feature","geometry":{"type":"Point","coordinates":[-122.541218,38.011862]}},{"properties":{"name":"CEDARS COMMUNITY CHALLENGES","city":"SAN ANSELMO","zip":"94960","geo_score":1.0,"phone":"(415) 258-2858","tax_sm-category":"Adult Day Programs","id":"aahq5ejpu6ya","address":"72 KENSINGTON RD.","geo_precision":"range","state":"CA"},"type":"Feature","geometry":{"type":"Point","coordinates":[-122.567088,37.970827]}},{"properties":{"name":"CEDARS COMMUNITY CHALLENGES-VICTORY CENTER","city":"SAN ANSELMO","zip":"94960","geo_score":1.0,"phone":"(415) 453-7099","tax_sm-category":"Adult Day Programs","id":"aahq5eqpbic1","address":"2 KENSINGTON RD.","geo_precision":"range","state":"CA"},"type":"Feature","geometry":{"type":"Point","coordinates":[-122.566347,37.968371]}},{"properties":{"name":"CEDARS TEXTILE ARTS CENTER","city":"SAN RAFAEL","zip":"94901","geo_score":0.916,"phone":"(415) 453-4240","tax_sm-category":"Adult Day Programs","id":"aahq5ecsuj0g","address":"2470 5TH AVENUE","geo_precision":"range","state":"CA"},"type":"Feature","geometry":{"type":"Point","coordinates":[-122.552583,37.985148]}},{"properties":{"name":"CH&amp;S ENTERPRISE DAY SERVICE","city":"NOVATO","zip":"94949","geo_score":1.0,"phone":"(415) 883-4048","tax_sm-category":"Adult Day Programs","id":"aahq5ej7mynv","address":"405 NORMAN DRIVE","geo_precision":"range","state":"CA"},"type":"Feature","geometry":{"type":"Point","coordinates":[-122.545317,38.069811]}},{"properties":{"name":"MARIN DAY ACTIVITY CENTER","city":"SAN RAFAEL","zip":"94903","geo_score":1.0,"phone":"(415) 507-0692","tax_sm-category":"Adult Day Programs","id":"aahq5enprtdn","address":"3833 REDWOOD HIGHWAY","geo_precision":"range","state":"CA"},"type":"Feature","geometry":{"type":"Point","coordinates":[-122.539937,38.006869]}},{"properties":{"name":"MARIN VENTURES","city":"SAN RAFAEL","zip":"94903","geo_score":1.0,"phone":"(415) 472-4961","tax_sm-category":"Adult Day Programs","id":"aahq5ej1akxj","address":"350 MERRYDALE ROAD","geo_precision":"range","state":"CA"},"type":"Feature","geometry":{"type":"Point","coordinates":[-122.537989,37.999567]}},{"properties":{"name":"OFI-NOVA","city":"SAN RAFAEL","zip":"94901","geo_score":1.0,"phone":"(415) 721-7772","tax_sm-category":"Adult Day Programs","id":"aahq5ekfv2ol","address":"20 H STREET","geo_precision":"range","state":"CA"},"type":"Feature","geometry":{"type":"Point","coordinates":[-122.538401,37.974987]}},{"properties":{"name":"SENIOR ACCESS AT SKYVIEW","city":"SAN RAFAEL","zip":"94903","geo_score":0.61,"phone":"(415) 491-2500","tax_sm-category":"Adult Day Programs","id":"aahq5eld3cbw","address":"70 SKYVIEW TERRACE, BLDG B","geo_precision":"street","state":"CA"},"type":"Feature","geometry":{"type":"Point","coordinates":[-122.550075,38.022335]}},{"properties":{"name":"SENIOR ACCESS-BELVEDERE","city":"BELVEDERE","zip":"94920","geo_score":1.0,"phone":"(415) 491-2500","tax_sm-category":"Adult Day Programs","id":"aahq5ep57ovz","address":"3 BAYVIEW AVENUE","geo_precision":"range","state":"CA"},"type":"Feature","geometry":{"type":"Point","coordinates":[-122.47048,37.876589]}},{"properties":{"name":"B AND L LEE DAY PROGRAM","city":"SAN MATEO","zip":"94403","geo_score":0.941,"phone":"(408) 250-2543","tax_sm-category":"Adult Day Programs","id":"aahq5em40cc5","address":"191 WEST 25TH AVENUE","geo_precision":"range","state":"CA"},"type":"Feature","geometry":{"type":"Point","coordinates":[-122.307126,37.543726]}},{"properties":{"name":"COMMUNITY GATEPATH","city":"SAN CARLOS","zip":"94070","geo_score":0.67,"phone":"(650) 259-8500","tax_sm-category":"Adult Day Programs","id":"aahq5emizem5","address":"951 INDUSTRIAL ROAD, SUITE E","geo_precision":"street","state":"CA"},"type":"Feature","geometry":{"type":"Point","coordinates":[-122.257804,37.511943]}},{"properties":{"name":"COMMUNITY GATEPATH","city":"DALY CITY","zip":"94015","geo_score":0.812,"phone":"(650) 259-8500","tax_sm-category":"Adult Day Programs","id":"aahq5eh1n58r","address":"60 CHRISTOPHER COURT","geo_precision":"range","state":"CA"},"type":"Feature","geometry":{"type":"Point","coordinates":[-122.493222,37.688418]}},{"properties":{"name":"FAMILY HOUSING AND ADULT RESOURCES, INC. ADULT DAY","city":"SAN MATEO","zip":"94403","geo_score":0.941,"phone":"(650) 403-0403","tax_sm-category":"Adult Day Programs","id":"aahq5ek983o1","address":"205 WEST 20TH AVENUE","geo_precision":"range","state":"CA"},"type":"Feature","geometry":{"type":"Point","coordinates":[-122.313421,37.547341]}},{"properties":{"name":"FHAR- EMPLOYENT SUPPORT SERVICES","city":"SAN MATEO","zip":"94403","geo_score":0.854,"phone":"(650) 403-0403","tax_sm-category":"Adult Day Programs","id":"aahq5edu8z18","address":"20 EAST 20TH STREET","geo_precision":"range","state":"CA"},"type":"Feature","geometry":{"type":"Point","coordinates":[-122.309268,37.548454]}},{"properties":{"name":"FOCUS DAY PROGRAM","city":"SAN BRUNO","zip":"94066","geo_score":1.0,"phone":"(650) 589-2948","tax_sm-category":"Adult Day Programs","id":"aahq5ej0ytym","address":"715 SAN MATEO AVE.","geo_precision":"range","state":"CA"},"type":"Feature","geometry":{"type":"Point","coordinates":[-122.411408,37.629435]}},{"properties":{"name":"FOCUS DAY PROGRAM II","city":"SAN CARLOS","zip":"94070","geo_score":0.67,"phone":"(650) 594-9100","tax_sm-category":"Adult Day Programs","id":"aahq5ee5efue","address":"870 INDUSTRIAL ROAD, SUITE C","geo_precision":"street","state":"CA"},"type":"Feature","geometry":{"type":"Point","coordinates":[-122.257804,37.511943]}},{"properties":{"name":"FOCUS DAY PROGRAM III","city":"BURLINGAME","zip":"94010","geo_score":1.0,"phone":"(650) 347-4780","tax_sm-category":"Adult Day Programs","id":"aahq5erx9niv","address":"755 CALIFORNIA DRIVE","geo_precision":"range","state":"CA"},"type":"Feature","geometry":{"type":"Point","coordinates":[-122.352707,37.582761]}},{"properties":{"name":"HORIZON ADULT DAY PROGRAM","city":"SOUTH SAN FRANCISCO","zip":"94080","geo_score":0.513,"phone":"(650) 952-5165","tax_sm-category":"Adult Day Programs","id":"aahq5er6lwte","address":"3500 CALLAN BLVD.,STE. 100&amp;101","geo_precision":"street","state":"CA"},"type":"Feature","geometry":{"type":"Point","coordinates":[-122.452269,37.659057]}},{"properties":{"name":"MENLO PARK DAY ACTIVITY CENTER","city":"MENLO PARK","zip":"94025","geo_score":0.619,"phone":"(650) 216-6986","tax_sm-category":"Adult Day Programs","id":"aahq5eg1z15m","address":"3641 HAVEN AVENUE, STE.A","geo_precision":"street","state":"CA"},"type":"Feature","geometry":{"type":"Point","coordinates":[-122.186557,37.486217]}},{"properties":{"name":"NDS-COWAN","city":"BURLINGAME","zip":"94010","geo_score":0.625,"phone":"(626) 808-5260","tax_sm-category":"Adult Day Programs","id":"aahq5eqn7knv","address":"890 COWAN ROAD, SUITE H","geo_precision":"street","state":"CA"},"type":"Feature","geometry":{"type":"Point","coordinates":[-122.373666,37.603277]}},{"properties":{"name":"NDS-OGDEN","city":"BURLINGAME","zip":"94010","geo_score":1.0,"phone":"(626) 808-5260","tax_sm-category":"Adult Day Programs","id":"aahq5ejgic2v","address":"1814 OGDEN DRIVE","geo_precision":"range","state":"CA"},"type":"Feature","geometry":{"type":"Point","coordinates":[-122.387146,37.592625]}},{"properties":{"name":"PARTNERS FOR INDEPENDENCE- INCLUSION CTR.","city":"BURLINGAME","zip":"94010","geo_score":1.0,"phone":"(510) 706-1468","tax_sm-category":"Adult Day Programs","id":"aahq5ehlk1c3","address":"1608 GILBRETH ROAD","geo_precision":"range","state":"CA"},"type":"Feature","geometry":{"type":"Point","coordinates":[-122.371858,37.59756]}},{"properties":{"name":"PFI INCLUSION CENTER","city":"SAN MATEO","zip":"94403","geo_score":0.614,"phone":"(650) 312-1218","tax_sm-category":"Adult Day Programs","id":"aahq5ehh070p","address":"150 W. 20TH AVENUE","geo_precision":"street","state":"CA"},"type":"Feature","geometry":{"type":"Point","coordinates":[-122.310802,37.548052]}},{"properties":{"name":"ROSENER HOUSE ADULT DAY SERVICE","city":"MENLO PARK","zip":"94025","geo_score":1.0,"phone":"(650) 322-0126","tax_sm-category":"Adult Day Programs","id":"aahq5eldetls","address":"500 ARBOR ROAD","geo_precision":"range","state":"CA"},"type":"Feature","geometry":{"type":"Point","coordinates":[-122.184282,37.444303]}},{"properties":{"name":"SAN CARLOS ADULT DAY SUPPORT CENTER","city":"SAN CARLOS","zip":"94070","geo_score":1.0,"phone":"(650) 592-9325","tax_sm-category":"Adult Day Programs","id":"aahq5enukn2t","address":"787 WALNUT STREET","geo_precision":"range","state":"CA"},"type":"Feature","geometry":{"type":"Point","coordinates":[-122.260295,37.504406]}},{"properties":{"name":"SOCIAL DYNAMICS, A LIFE STEPS FOUNDATION.INC.PROG","city":"BURLINGAME","zip":"94010","geo_score":1.0,"phone":"(650) 259-1808","tax_sm-category":"Adult Day Programs","id":"aahq5ennkj43","address":"828C MAHLER ROAD","geo_precision":"range","state":"CA"},"type":"Feature","geometry":{"type":"Point","coordinates":[-122.368248,37.596334]}},{"properties":{"name":"SOCIAL VOCATIONAL SERVICES INC.","city":"SOUTH SAN FRANCISCO","zip":"94080","geo_score":1.0,"phone":"(650) 877-7255","tax_sm-category":"Adult Day Programs","id":"aahq5edze4pm","address":"860 DUBUQUE AVENUE","geo_precision":"range","state":"CA"},"type":"Feature","geometry":{"type":"Point","coordinates":[-122.402816,37.660929]}},{"properties":{"name":"SOUTH SAN FRANCISCO ADULT DAY CARE CENTER","city":"SOUTH SAN FRANCISCO","zip":"94080","geo_score":1.0,"phone":"(650) 829-3824","tax_sm-category":"Adult Day Programs","id":"aahq5el2byma","address":"601 GRAND AVENUE","geo_precision":"range","state":"CA"},"type":"Feature","geometry":{"type":"Point","coordinates":[-122.421728,37.657735]}},{"properties":{"name":"SVS DALY CITY SKILLS CENTER","city":"DALY CITY","zip":"94015","geo_score":0.916,"phone":"(650) 757-4977","tax_sm-category":"Adult Day Programs","id":"aahq5eg1rxqo","address":"312 90TH STREET","geo_precision":"range","state":"CA"},"type":"Feature","geometry":{"type":"Point","coordinates":[-122.474258,37.691177]}},{"properties":{"name":"SVS, SAN MATEO ADULT DAY PROGRAM","city":"SAN MATEO","zip":"94402","geo_score":0.602,"phone":"(650) 375-1713","tax_sm-category":"Adult Day Programs","id":"aahq5ejp9kxa","address":"914 S. CLAREMONT STREET","geo_precision":"street","state":"CA"},"type":"Feature","geometry":{"type":"Point","coordinates":[-122.319312,37.565227]}},{"properties":{"name":"A &amp; T TRAINING CENTER","city":"SANTA CLARA","zip":"95051","geo_score":1.0,"phone":"(408) 900-8940","tax_sm-category":"Adult Day Programs","id":"aahq5ehv7tkw","address":"3269 KIFER RD.","geo_precision":"range","state":"CA"},"type":"Feature","geometry":{"type":"Point","coordinates":[-121.985746,37.37406]}},{"properties":{"name":"ABILITIES UNITED L.E.A.R.N.","city":"PALO ALTO","zip":"94303","geo_score":1.0,"phone":"(650) 494-0550","tax_sm-category":"Adult Day Programs","id":"aahq5enaq8fg","address":"3864 MIDDLEFIELD ROAD","geo_precision":"range","state":"CA"},"type":"Feature","geometry":{"type":"Point","coordinates":[-122.110498,37.420388]}},{"properties":{"name":"AIM HIGHER INC.","city":"SUNNYVALE","zip":"94089","geo_score":0.927,"phone":"(916) 599-5200","tax_sm-category":"Adult Day Programs","id":"aahq5eezxz97","address":"1237 REAMWOOD DRIVE","geo_precision":"range","state":"CA"},"type":"Feature","geometry":{"type":"Point","coordinates":[-121.988609,37.404813]}},{"properties":{"name":"AIM HIGHER, INC.","city":"SAN JOSE","zip":"95119","geo_score":0.707,"phone":"(916) 599-5200","tax_sm-category":"Adult Day Programs","id":"aahq5esjvar1","address":"90 GREAT OAKS BLVD., STE. #101","geo_precision":"range","state":"CA"},"type":"Feature","geometry":{"type":"Point","coordinates":[-121.779818,37.232952]}},{"properties":{"name":"APOLLO ADULT DAY PROGRAM","city":"SAN JOSE","zip":"95112","geo_score":0.935,"phone":"(408) 926-9577","tax_sm-category":"Adult Day Programs","id":"aahq5es0uhjh","address":"303 NORTH 15TH STREET","geo_precision":"range","state":"CA"},"type":"Feature","geometry":{"type":"Point","coordinates":[-121.881128,37.349382]}},{"properties":{"name":"APOLLO ADULT DAY PROGRAM","city":"SAN JOSE","zip":"95127","geo_score":0.971,"phone":"(408) 926-9577","tax_sm-category":"Adult Day Programs","id":"aahq5ed5inrn","address":"242 LA PALA DRIVE","geo_precision":"range","state":"CA"},"type":"Feature","geometry":{"type":"Point","coordinates":[-121.829117,37.378056]}},{"properties":{"name":"BEYOND POTENTIAL LEARNING CENTER","city":"MILPITAS","zip":"95035","geo_score":1.0,"phone":"(408) 438-0377","tax_sm-category":"Adult Day Programs","id":"aahq5egbs7pi","address":"1753 SOUTH MAIN STREET","geo_precision":"range","state":"CA"},"type":"Feature","geometry":{"type":"Point","coordinates":[-121.90297,37.407546]}},{"properties":{"name":"CAMPBELL DAY ACTIVITY CENTER","city":"CAMPBELL","zip":"95008","geo_score":0.6,"phone":"(408) 378-6464","tax_sm-category":"Adult Day Programs","id":"aahq5erw0l3v","address":"195 E. SUNNY OAKS AVE","geo_precision":"street","state":"CA"},"type":"Feature","geometry":{"type":"Point","coordinates":[-121.94988,37.2725]}},{"properties":{"name":"CELEBRATION ADULT DAY ACTIVITY CENTER","city":"SAN JOSE","zip":"95128","geo_score":0.707,"phone":"(408) 247-0136","tax_sm-category":"Adult Day Programs","id":"aahq5ehuyc52","address":"1190 SO. BASCOM AVE. #105","geo_precision":"range","state":"CA"},"type":"Feature","geometry":{"type":"Point","coordinates":[-121.932047,37.325799]}},{"properties":{"name":"CREATIVE MIND DAY PROGRAM","city":"GILROY","zip":"95020","geo_score":1.0,"phone":"(408) 427-9260","tax_sm-category":"Adult Day Programs","id":"aahq5edv9h4e","address":"7425 EIGLEBERRY STREET","geo_precision":"range","state":"CA"},"type":"Feature","geometry":{"type":"Point","coordinates":[-121.570524,37.007625]}},{"properties":{"name":"DAY BREAK CAREGIVER SUPPORT SERVICES","city":"SAN JOSE","zip":"95135","geo_score":1.0,"phone":"(408) 270-4900","tax_sm-category":"Adult Day Programs","id":"aahq5elw84gh","address":"5111 SAN FELIPE ROAD","geo_precision":"range","state":"CA"},"type":"Feature","geometry":{"type":"Point","coordinates":[-121.766761,37.293013]}},{"properties":{"name":"DAY BREAK III RESPITE &amp; CAREGIVER SUPPORT SVCS.","city":"SUNNYVALE","zip":"94086","geo_score":1.0,"phone":"(408) 325-5237","tax_sm-category":"Adult Day Programs","id":"aahq5ekr0xlm","address":"535 OLD SAN FRANCISCO RD.","geo_precision":"range","state":"CA"},"type":"Feature","geometry":{"type":"Point","coordinates":[-122.024541,37.36762]}},{"properties":{"name":"EMPLOY AMERICA","city":"SAN JOSE","zip":"95123","geo_score":0.571,"phone":"(408) 574-3950","tax_sm-category":"Adult Day Programs","id":"aahq5efslu53","address":"124 BLOSSOM HILL RD, STE. F","geo_precision":"street","state":"CA"},"type":"Feature","geometry":{"type":"Point","coordinates":[-121.811286,37.251994]}},{"properties":{"name":"EVERGREEN ADULT DEVELOPMENT CENTER","city":"SAN JOSE","zip":"95121","geo_score":0.371,"phone":"(408) 578-1280","tax_sm-category":"Adult Day Programs","id":"aahq5eosum9c","address":"2887 MCLAUGHLIN AVENUE,BLDG. A","geo_precision":"street","state":"CA"},"type":"Feature","geometry":{"type":"Point","coordinates":[-121.83693,37.363969]}},{"properties":{"name":"GREATER OPPORTUNITIES","city":"SAN JOSE","zip":"95127","geo_score":1.0,"phone":"(408) 272-3629","tax_sm-category":"Adult Day Programs","id":"aahq5el6n11u","address":"2842-60 STORY ROAD","geo_precision":"range","state":"CA"},"type":"Feature","geometry":{"type":"Point","coordinates":[-121.822958,37.353475]}},{"properties":{"name":"GREEN OAK DEVELOPMENTAL CENTER III","city":"SAN JOSE","zip":"95133","geo_score":0.585,"phone":"(510) 676-4569","tax_sm-category":"Adult Day Programs","id":"aahq5enrh29n","address":"645 GIGUERE COURT","geo_precision":"zip","state":"CA"},"type":"Feature","geometry":{"type":"Point","coordinates":[-121.864265,37.372239]}},{"properties":{"name":"HOPE REHABILITATION SERVICES - PARKMOOR","city":"SAN JOSE","zip":"95128","geo_score":0.809,"phone":"(408) 282-0449","tax_sm-category":"Adult Day Programs","id":"aahq5ep2tu0g","address":"1555 PARKMOOR AVENUE","geo_precision":"street","state":"CA"},"type":"Feature","geometry":{"type":"Point","coordinates":[-121.918875,37.317131]}},{"properties":{"name":"HOPE SERVICES - CLOVE","city":"SAN JOSE","zip":"95128","geo_score":1.0,"phone":"(408) 282-0456","tax_sm-category":"Adult Day Programs","id":"aahq5ejczxxw","address":"2300 CLOVE DRIVE","geo_precision":"range","state":"CA"},"type":"Feature","geometry":{"type":"Point","coordinates":[-121.936441,37.312505]}},{"properties":{"name":"HOPE SERVICES-LAS COLINAS ADULT DAY PROGRAMS","city":"SAN JOSE","zip":"95119","geo_score":1.0,"phone":"(408) 284-2850","tax_sm-category":"Adult Day Programs","id":"aahq5enb2svx","address":"30 LAS COLINAS LANE","geo_precision":"range","state":"CA"},"type":"Feature","geometry":{"type":"Point","coordinates":[-121.778343,37.237285]}},{"properties":{"name":"LEARNING SERVICES DAY TREATMENT ACTIVITY PROGRAM","city":"GILROY","zip":"95020","geo_score":1.0,"phone":"(408) 848-4379","tax_sm-category":"Adult Day Programs","id":"aahq5en4hcuq","address":"10855 DE BRUIN WAY","geo_precision":"range","state":"CA"},"type":"Feature","geometry":{"type":"Point","coordinates":[-121.605322,37.050888]}},{"properties":{"name":"LIVE OAK ADULT DAY SERVICES","city":"LOS GATOS","zip":"95030","geo_score":0.707,"phone":"(408) 354-4782","tax_sm-category":"Adult Day Programs","id":"aahq5ef70k25","address":"111 CHURCH STREET, RM. #7","geo_precision":"range","state":"CA"},"type":"Feature","geometry":{"type":"Point","coordinates":[-121.977152,37.221633]}},{"properties":{"name":"LIVE OAK ADULT DAY SERVICES","city":"CUPERTINO","zip":"95014","geo_score":0.585,"phone":"(408) 973-0905","tax_sm-category":"Adult Day Programs","id":"aahq5ecnwrri","address":"20920 MCCLELLAN ROAD","geo_precision":"zip","state":"CA"},"type":"Feature","geometry":{"type":"Point","coordinates":[-121.705327,37.189396]}},{"properties":{"name":"LIVE OAK ADULT DAY SERVICES","city":"SAN JOSE","zip":"95125","geo_score":1.0,"phone":"(408) 971-9363","tax_sm-category":"Adult Day Programs","id":"aahq5es5sdd7","address":"1147 MINNESOTA AVE.","geo_precision":"range","state":"CA"},"type":"Feature","geometry":{"type":"Point","coordinates":[-121.89893,37.302941]}},{"properties":{"name":"LIVE OAK ADULT DAY SERVICES- WHEELER MANOR","city":"GILROY","zip":"95020","geo_score":0.707,"phone":"(408) 354-4782","tax_sm-category":"Adult Day Programs","id":"aahq5es0acke","address":"651 WEST SIXTH STREET, STE. #2","geo_precision":"range","state":"CA"},"type":"Feature","geometry":{"type":"Point","coordinates":[-121.56862,37.00682]}},{"properties":{"name":"MISSION BAY LAS COLINAS","city":"SAN JOSE","zip":"95119","geo_score":1.0,"phone":"(408) 661-4883","tax_sm-category":"Adult Day Programs","id":"aahq5eifkasa","address":"50 LAS COLINAS LANE","geo_precision":"range","state":"CA"},"type":"Feature","geometry":{"type":"Point","coordinates":[-121.777886,37.237906]}},{"properties":{"name":"MISSION BAY, INC.","city":"SAN JOSE","zip":"95131","geo_score":1.0,"phone":"(408) 433-3303","tax_sm-category":"Adult Day Programs","id":"aahq5ehcvd3d","address":"980 RINCON CIR.","geo_precision":"range","state":"CA"},"type":"Feature","geometry":{"type":"Point","coordinates":[-121.909554,37.397467]}},{"properties":{"name":"MMS BEHAVIORAL DAY PROGRAM, INC.","city":"MORGAN HILL","zip":"95037","geo_score":1.0,"phone":"(408) 778-5600","tax_sm-category":"Adult Day Programs","id":"aahq5eq31xpd","address":"18980 MONTEREY ROAD","geo_precision":"range","state":"CA"},"type":"Feature","geometry":{"type":"Point","coordinates":[-121.67168,37.150639]}},{"properties":{"name":"MORGAN AUTISM CENTER","city":"SAN JOSE","zip":"95128","geo_score":1.0,"phone":"(408) 241-8161","tax_sm-category":"Adult Day Programs","id":"aahq5esj2i7l","address":"2280 KENWOOD AVE","geo_precision":"range","state":"CA"},"type":"Feature","geometry":{"type":"Point","coordinates":[-121.9415,37.332629]}},{"properties":{"name":"MOVING FORWARD","city":"SANTA CLARA","zip":"95050","geo_score":1.0,"phone":"(408) 607-7465","tax_sm-category":"Adult Day Programs","id":"aahq5epgblsw","address":"1840 BENTON ST.","geo_precision":"range","state":"CA"},"type":"Feature","geometry":{"type":"Point","coordinates":[-121.954499,37.347275]}},{"properties":{"name":"MULTIPLE INTELLIGENCE TRAINING CENTER","city":"SAN JOSE","zip":"95127","geo_score":1.0,"phone":"(408) 254-9241","tax_sm-category":"Adult Day Programs","id":"aahq5ej6f57t","address":"3737 MADELINE DRIVE","geo_precision":"range","state":"CA"},"type":"Feature","geometry":{"type":"Point","coordinates":[-121.826726,37.375901]}},{"properties":{"name":"PIEDMONT ADULT DAY PROGRAM (PADPRO)","city":"SAN JOSE","zip":"95131","geo_score":0.317,"phone":"(408) 347-0402","tax_sm-category":"Adult Day Programs","id":"aahq5ecqt53t","address":"1325-1333 PIEDMONT RD #109-110","geo_precision":"street","state":"CA"},"type":"Feature","geometry":{"type":"Point","coordinates":[-121.842475,37.390705]}},{"properties":{"name":"RESPITE &amp; RESEARCH FOR ALZHEIMER'S DISEASE","city":"SAN JOSE","zip":"95128","geo_score":1.0,"phone":"(408) 279-7515","tax_sm-category":"Adult Day Programs","id":"aahq5esp7slu","address":"2380 ENBORG LANE","geo_precision":"range","state":"CA"},"type":"Feature","geometry":{"type":"Point","coordinates":[-121.935314,37.311107]}},{"properties":{"name":"SARAHCARE OF CAMPBELL","city":"CAMPBELL","zip":"95008","geo_score":1.0,"phone":"(408) 374-2273","tax_sm-category":"Adult Day Programs","id":"aahq5ecojja4","address":"450 MARATHON DRIVE","geo_precision":"range","state":"CA"},"type":"Feature","geometry":{"type":"Point","coordinates":[-121.965217,37.293195]}},{"properties":{"name":"SARATOGA ADULT CARE CENTER","city":"SARATOGA","zip":"95070","geo_score":1.0,"phone":"(408) 868-1262","tax_sm-category":"Adult Day Programs","id":"aahq5ei9tkko","address":"19655 ALLENDALE AVENUE","geo_precision":"range","state":"CA"},"type":"Feature","geometry":{"type":"Point","coordinates":[-122.01457,37.266893]}},{"properties":{"name":"SOCIAL VOCATIONAL SERVICES, INC.","city":"SANTA CLARA","zip":"95054","geo_score":1.0,"phone":"(408) 727-3370","tax_sm-category":"Adult Day Programs","id":"aahq5eex3ldv","address":"471 GIANNI STREET","geo_precision":"range","state":"CA"},"type":"Feature","geometry":{"type":"Point","coordinates":[-121.944917,37.379988]}},{"properties":{"name":"SOUTH VALLEY RESOURCE CENTER","city":"GILROY","zip":"95020","geo_score":0.512,"phone":"(408) 847-9738","tax_sm-category":"Adult Day Programs","id":"aahq5eqij1sf","address":"5810 OBATA WAY #1","geo_precision":"street","state":"CA"},"type":"Feature","geometry":{"type":"Point","coordinates":[-121.5493,36.984339]}},{"properties":{"name":"SVS GILROY ADULT DAY PROGRAM","city":"GILROY","zip":"95020","geo_score":1.0,"phone":"(408) 843-9630","tax_sm-category":"Adult Day Programs","id":"aahq5ehgbo3r","address":"7101 MONTEREY ROAD","geo_precision":"range","state":"CA"},"type":"Feature","geometry":{"type":"Point","coordinates":[-121.56712,37.00324]}},{"properties":{"name":"W.A.T.C.INCORPORATED(WREN AVENUE TRAINING CENTER)","city":"GILROY","zip":"95020","geo_score":1.0,"phone":"(408) 472-2059","tax_sm-category":"Adult Day Programs","id":"aahq5epnk3hc","address":"7888 WREN AVE. BLDG A-111","geo_precision":"street","state":"CA"},"type":"Feature","geometry":{"type":"Point","coordinates":[-121.58801,37.001039]}},{"properties":{"name":"YU-AI KAI SENIOR DAY SERVICES","city":"SAN JOSE","zip":"95112","geo_score":0.927,"phone":"(408) 294-2505","tax_sm-category":"Adult Day Programs","id":"aahq5ess00sq","address":"588 NORTH FOURTH STREET","geo_precision":"range","state":"CA"},"type":"Feature","geometry":{"type":"Point","coordinates":[-121.893975,37.346563]}}],"is_temporal":false,"author":{"url":"","metadata":"","contact_name":"","contact_address":"","source":"","contact_phone":""},"source":"","pagination":{"sort":null,"start":0,"total":132,"limit":1000000},"state":"complete","tags":"","published":"2014-08-16T14:44:27-04:00","id":301646}