{"type":"FeatureCollection","data_type":"Dataset","url_type":null,"permissions":[{"permissions":{"download":true,"view":true},"group_id":"everyone"}],"classification":null,"title":"FY13 PS","count":80,"stream_id":301886,"contributor":{"url":"http://geocommons.com/users/51639","name":"kcbacksnack"},"data_attributes":null,"calculation_params":null,"icon_link":null,"link":"http://geocommons.com/overlays/301886.json","extent":[-95.959,38.3602,-93.7745,39.9034],"geometry_types":["point"],"unique_name":null,"name":"FY13 PS","feature_count":80,"description":"","next_feature":null,"is_raster":false,"short_classification":"Y","stats":{},"features":[{"properties":{"program type":"Project Strength","city":"Kansas City","zip":"66101","host name":"8th Street YMCA","geo_score":1.0,"id":"aaih785wyb0m","address":"900 North 8th Street","geo_precision":"range","state":"KS"},"type":"Feature","geometry":{"type":"Point","coordinates":[-94.629562,39.115553]}},{"properties":{"program type":"Project Strength","city":"Kansas City","zip":"64129","host name":"Agency Class","geo_score":1.0,"id":"aaih78e29an9","address":"3801 Topping Avenue","geo_precision":"range","state":"MO"},"type":"Feature","geometry":{"type":"Point","coordinates":[-94.516741,39.05384]}},{"properties":{"program type":"Project Strength","city":"Blue Springs","zip":"64013","host name":"Autumn Place Apartments","geo_score":0.805,"id":"aaih78avv6n9","address":"1300 NW Candletree Drive","geo_precision":"range","state":"MO"},"type":"Feature","geometry":{"type":"Point","coordinates":[-94.299557,39.030395]}},{"properties":{"program type":"Project Strength","city":"Lawrence","zip":"66044","host name":"Babcock Place","geo_score":1.0,"id":"aaih787uzotm","address":"1700 Massachusetts Street","geo_precision":"range","state":"KS"},"type":"Feature","geometry":{"type":"Point","coordinates":[-95.2359,38.950071]}},{"properties":{"program type":"Project Strength","city":"Lawrence","zip":"66044","host name":"Ballard Community Services-Ballard Center","geo_score":1.0,"id":"aaih789uydcy","address":"708 Elm Street","geo_precision":"range","state":"KS"},"type":"Feature","geometry":{"type":"Point","coordinates":[-95.219429,38.976861]}},{"properties":{"program type":"Project Strength","city":"Lawrence","zip":"66044","host name":"Bert Nash Community Mental Health Center","geo_score":1.0,"id":"aaih782mla68","address":"200 Maine Street","geo_precision":"range","state":"KS"},"type":"Feature","geometry":{"type":"Point","coordinates":[-95.247605,38.980322]}},{"properties":{"program type":"Project Strength","city":"Kansas City","zip":"64111","host name":"Big Brothers Big Sisters","geo_score":1.0,"id":"aaih78ha9wpw","address":"3908 Washington Street","geo_precision":"range","state":"MO"},"type":"Feature","geometry":{"type":"Point","coordinates":[-94.591613,39.056169]}},{"properties":{"program type":"Project Strength","city":"Carbondale","zip":"66414","host name":"Carbondale Church of Christian Fellowship","geo_score":1.0,"id":"aaih78hcdy88","address":"430 Commercial Street","geo_precision":"range","state":"KS"},"type":"Feature","geometry":{"type":"Point","coordinates":[-95.684928,38.815276]}},{"properties":{"program type":"Project Strength","city":"Kansas City","zip":"66102","host name":"Caring Hearts Personal Home Services","geo_score":1.0,"id":"aaih783a1zx1","address":"1234 State Avenue","geo_precision":"range","state":"KS"},"type":"Feature","geometry":{"type":"Point","coordinates":[-94.642688,39.116469]}},{"properties":{"program type":"Project Strength","city":"Kansas City","zip":"64106","host name":"Chouteau Courts Family Empowerment Program","geo_score":1.0,"id":"aaih78f7foux","address":"586 Tracy Avenue","geo_precision":"range","state":"MO"},"type":"Feature","geometry":{"type":"Point","coordinates":[-94.56675,39.107262]}},{"properties":{"program type":"Project Strength","city":"Rossville","zip":"66533","host name":"Citizen Potawatomie Nation- Senior Support Network","geo_score":0.585,"id":"aaih78dklkq1","address":"806 Nishnabe Trail","geo_precision":"zip","state":"KS"},"type":"Feature","geometry":{"type":"Point","coordinates":[-95.959031,39.158392]}},{"properties":{"program type":"Project Strength","city":"Countryside","zip":"66202","host name":"City of Mission Parks and Recreation","geo_score":0.834,"id":"aaih78c58txf","address":"6200 Martway","geo_precision":"range","state":"KS"},"type":"Feature","geometry":{"type":"Point","coordinates":[-94.657229,39.019885]}},{"properties":{"program type":"Project Strength","city":"Topeka","zip":"66607","host name":"City of Topeka Housing &amp; Neighborhood Development","geo_score":0.932,"id":"aaih78equ2a7","address":"620 SE Madison","geo_precision":"range","state":"KS"},"type":"Feature","geometry":{"type":"Point","coordinates":[-95.669475,39.049414]}},{"properties":{"program type":"Project Strength","city":"Lawrence","zip":"66047","host name":"Clinton Place Apartments","geo_score":1.0,"id":"aaih78eiocgs","address":"2125 Clinton Parkway","geo_precision":"range","state":"KS"},"type":"Feature","geometry":{"type":"Point","coordinates":[-95.261212,38.94262]}},{"properties":{"program type":"Project Strength","city":"Lawrence","zip":"66049","host name":"Cottonwood","geo_score":0.559,"id":"aaih78an5et8","address":"1029 New Hampshire","geo_precision":"street","state":"KS"},"type":"Feature","geometry":{"type":"Point","coordinates":[-95.33489,38.964138]}},{"properties":{"program type":"Project Strength","city":"Lawrence","zip":"66047","host name":"Cottonwood Inc","geo_score":0.837,"id":"aaih78b326ia","address":"2801 West 31st Street","geo_precision":"street","state":"KS"},"type":"Feature","geometry":{"type":"Point","coordinates":[-95.266263,38.928129]}},{"properties":{"program type":"Project Strength","city":"Kansas City","zip":"66101-","host name":"Crossline Towers","geo_score":0.805,"id":"aaih785fdxu4","address":"1021 North 7th Street","geo_precision":"street","state":"KS"},"type":"Feature","geometry":{"type":"Point","coordinates":[-94.627046,39.132822]}},{"properties":{"program type":"Project Strength","city":"Lawrence","zip":"66046","host name":"DCAP","geo_score":0.512,"id":"aaih78a024et","address":"2518 Ridge Court #101","geo_precision":"street","state":"KS"},"type":"Feature","geometry":{"type":"Point","coordinates":[-95.258136,38.941745]}},{"properties":{"program type":"Project Strength","city":"Kansas City","zip":"64106","host name":"Don Bosco Senior Center","geo_score":1.0,"id":"aaih78fuebm9","address":"580 Campbell Street","geo_precision":"range","state":"MO"},"type":"Feature","geometry":{"type":"Point","coordinates":[-94.572623,39.107838]}},{"properties":{"program type":"Project Strength","city":"Kansas City","zip":"66103","host name":"El Centro at Waterstone Apartments","geo_score":1.0,"id":"aaih78970jsa","address":"1100 County Line Road","geo_precision":"range","state":"KS"},"type":"Feature","geometry":{"type":"Point","coordinates":[-94.637613,39.044061]}},{"properties":{"program type":"Project Strength","city":"Clinton","zip":"64735","host name":"FAITH Inc.","geo_score":0.927,"id":"aaih78hk9a7c","address":"1007 South 2nd Street","geo_precision":"range","state":"MO"},"type":"Feature","geometry":{"type":"Point","coordinates":[-93.774531,38.36019]}},{"properties":{"program type":"Project Strength","city":"Kansas City","zip":"64108","host name":"Family Focus Center","geo_score":0.92,"id":"aaih7825sv7b","address":"1829 Madison Street","geo_precision":"range","state":"MO"},"type":"Feature","geometry":{"type":"Point","coordinates":[-94.59461,39.089956]}},{"properties":{"program type":"Project Strength","city":"Kansas City","zip":"64124","host name":"Father Hix Center","geo_score":1.0,"id":"aaih7877fvtw","address":"309 Benton Boulevard","geo_precision":"range","state":"MO"},"type":"Feature","geometry":{"type":"Point","coordinates":[-94.544303,39.110906]}},{"properties":{"program type":"Project Strength","city":"Topeka","zip":"66607","host name":"Fellowship &amp; Faith Ministry","geo_score":1.0,"id":"aaih78cuzd0u","address":"708 SE Lime Street","geo_precision":"range","state":"KS"},"type":"Feature","geometry":{"type":"Point","coordinates":[-95.658959,39.044803]}},{"properties":{"program type":"Project Strength","city":"Topeka","zip":"66604","host name":"First Apartments","geo_score":0.941,"id":"aaih78di53e0","address":"3805 SW 18th Street","geo_precision":"range","state":"KS"},"type":"Feature","geometry":{"type":"Point","coordinates":[-95.724853,39.034934]}},{"properties":{"program type":"Project Strength","city":"Blue Springs","zip":"64015","host name":"Friendship Manor","geo_score":0.782,"id":"aaih78db9p7r","address":"917 North Summit Street","geo_precision":"street","state":"MO"},"type":"Feature","geometry":{"type":"Point","coordinates":[-94.272287,39.019484]}},{"properties":{"program type":"Project Strength","city":"Kansas City","zip":"64123","host name":"Gladstone Academy","geo_score":0.667,"id":"aaih78cwoyra","address":"322 Lawn","geo_precision":"street","state":"MO"},"type":"Feature","geometry":{"type":"Point","coordinates":[-94.526835,39.112733]}},{"properties":{"program type":"Project Strength","city":"Kansas City","zip":"66102","host name":"Grandview Park Presbyterian Church","geo_score":1.0,"id":"aaih787dkz86","address":"1613 Wilson Boulevard","geo_precision":"range","state":"KS"},"type":"Feature","geometry":{"type":"Point","coordinates":[-94.648085,39.104029]}},{"properties":{"program type":"Project Strength","city":"Kansas City","zip":"64130","host name":"Greater Mount Zion Missionary Baptist Church","geo_score":1.0,"id":"aaih78djtnkq","address":"4600 Cleveland Avenue","geo_precision":"range","state":"MO"},"type":"Feature","geometry":{"type":"Point","coordinates":[-94.540467,39.041399]}},{"properties":{"program type":"Project Strength","city":"Kansas City","zip":"64129","host name":"Harvesters Missouri","geo_score":1.0,"id":"aaih784aqm4b","address":"3801 Topping Avenue","geo_precision":"range","state":"MO"},"type":"Feature","geometry":{"type":"Point","coordinates":[-94.516741,39.05384]}},{"properties":{"program type":"Project Strength","city":"Topeka","zip":"66603","host name":"Harvesters Topeka","geo_score":1.0,"id":"aaih7838nq9u","address":"215 Southeast Quincy Street","geo_precision":"range","state":"KS"},"type":"Feature","geometry":{"type":"Point","coordinates":[-95.669502,39.056747]}},{"properties":{"program type":"Project Strength","city":"Independence","zip":"64058","host name":"Hawthorne Place Family Center","geo_score":0.688,"id":"aaih788ac4a7","address":"16995 East Dover Drive","geo_precision":"street","state":"Mo"},"type":"Feature","geometry":{"type":"Point","coordinates":[-94.354497,39.142072]}},{"properties":{"program type":"Project Strength","city":"Lawrence","zip":"66046","host name":"Heartland Community Health","geo_score":0.549,"id":"aaih78dwriqu","address":"1 Riverfront Plaza","geo_precision":"street","state":"KS"},"type":"Feature","geometry":{"type":"Point","coordinates":[-95.235185,38.987255]}},{"properties":{"program type":"Project Strength","city":"Independence","zip":"64050","host name":"Hocker Heights","geo_score":0.585,"id":"aaih78fvu4sq","address":"401 Hocker Terrace","geo_precision":"zip","state":"MO"},"type":"Feature","geometry":{"type":"Point","coordinates":[-94.305504,39.186115]}},{"properties":{"program type":"Project Strength","city":"Holden","zip":"64040","host name":"Holden Community of Christ","geo_score":0.902,"id":"aaih78c0f497","address":"401 South Pine","geo_precision":"range","state":"MO"},"type":"Feature","geometry":{"type":"Point","coordinates":[-93.988647,38.715865]}},{"properties":{"program type":"Project Strength","city":"Kansas City","zip":"64111-","host name":"Hyde Park Apts.","geo_score":1.0,"id":"aaih78i1b4x0","address":"336 West 36th Street","geo_precision":"range","state":"MO"},"type":"Feature","geometry":{"type":"Point","coordinates":[-94.590102,39.062216]}},{"properties":{"program type":"Project Strength","city":"Topeka","zip":"66605","host name":"I Care Inc.","geo_score":1.0,"id":"aaih78f8yjx5","address":"2914 SE Michigan Avenue","geo_precision":"range","state":"KS"},"type":"Feature","geometry":{"type":"Point","coordinates":[-95.658603,39.013702]}},{"properties":{"program type":"Project Strength","city":"Independence","zip":"64056","host name":"Independence Towers Club","geo_score":1.0,"id":"aaih78g0mmq6","address":"728 North Jennings Road","geo_precision":"range","state":"MO"},"type":"Feature","geometry":{"type":"Point","coordinates":[-94.374527,39.117697]}},{"properties":{"program type":"Project Strength","city":"Kansas City","zip":"64106","host name":"Jackson County Drug Court","geo_score":0.846,"id":"aaih78iaxhix","address":"1305 Locust Street Suite 100","geo_precision":"range","state":"MO"},"type":"Feature","geometry":{"type":"Point","coordinates":[-94.577431,39.097625]}},{"properties":{"program type":"Project Strength","city":"Olathe","zip":"66061","host name":"Johnson County Family Literacy","geo_score":0.932,"id":"aaih78eld2z6","address":"520 South Harrison","geo_precision":"range","state":"KS"},"type":"Feature","geometry":{"type":"Point","coordinates":[-94.815937,38.876698]}},{"properties":{"program type":"Project Strength","city":"Kansas City","zip":"64128","host name":"Kansas City Veterans Hospital","geo_score":1.0,"id":"aaih784v8ci4","address":"4801 East Linwood Boulevard","geo_precision":"range","state":"MO"},"type":"Feature","geometry":{"type":"Point","coordinates":[-94.528222,39.067274]}},{"properties":{"program type":"Project Strength","city":"Kansas City","zip":"66101","host name":"KCK Public Library- Main Branch","geo_score":1.0,"id":"aaih788uovim","address":"625 Minnesota Avenue","geo_precision":"range","state":"KS"},"type":"Feature","geometry":{"type":"Point","coordinates":[-94.626099,39.115486]}},{"properties":{"program type":"Project Strength","city":"Kansas City","zip":"66160","host name":"KU Med","geo_score":0.805,"id":"aaih785g79xa","address":"3901 Rainbow Boulevard","geo_precision":"range","state":"KS"},"type":"Feature","geometry":{"type":"Point","coordinates":[-94.611806,39.056219]}},{"properties":{"program type":"Project Strength","city":"Lawrence","zip":"66047","host name":"Lawrence- Douglas County Health Department","geo_score":0.619,"id":"aaih78cgd7gg","address":"200 Maine, Suite B","geo_precision":"street","state":"KS"},"type":"Feature","geometry":{"type":"Point","coordinates":[-95.279313,38.949763]}},{"properties":{"program type":"Project Strength","city":"Independence","zip":"64058","host name":"Lewis &amp; Clark Academy","geo_score":1.0,"id":"aaih789r87o0","address":"2101 North Twyman Road","geo_precision":"range","state":"MO"},"type":"Feature","geometry":{"type":"Point","coordinates":[-94.292086,39.138297]}},{"properties":{"program type":"Project Strength","city":"Kansas City","zip":"64113","host name":"Light House","geo_score":1.0,"id":"aaih78bmh8gd","address":"400 West Meyer Boulevard","geo_precision":"range","state":"MO"},"type":"Feature","geometry":{"type":"Point","coordinates":[-94.594066,39.012274]}},{"properties":{"program type":"Project Strength","city":"Kansas City","zip":"64128","host name":"Linwood YMCA","geo_score":0.805,"id":"aaih786qguh8","address":"3800 Linwood Boulevard","geo_precision":"street","state":"MO"},"type":"Feature","geometry":{"type":"Point","coordinates":[-94.525776,39.067183]}},{"properties":{"program type":"Project Strength","city":"Kansas City","zip":"66102","host name":"M.E. Pearson Elementary","geo_score":1.0,"id":"aaih78akmgol","address":"310 North 11th Street","geo_precision":"range","state":"KS"},"type":"Feature","geometry":{"type":"Point","coordinates":[-94.638168,39.10871]}},{"properties":{"program type":"Project Strength","city":"Kansas City","zip":"66102","host name":"Mason Memorial","geo_score":1.0,"id":"aaih78bsaswg","address":"3333 Wood Avenue","geo_precision":"range","state":"KS"},"type":"Feature","geometry":{"type":"Point","coordinates":[-94.670091,39.123911]}},{"properties":{"program type":"Project Strength","city":"Kansas City","zip":"64109-","host name":"New Start","geo_score":1.0,"id":"aaih787omtbu","address":"3511 Forest Avenue","geo_precision":"range","state":"MO"},"type":"Feature","geometry":{"type":"Point","coordinates":[-94.570542,39.061591]}},{"properties":{"program type":"Project Strength","city":"Kansas City","zip":"64127","host name":"Nowlin Hall","geo_score":0.927,"id":"aaih78geilpu","address":"1905 Hardesty Street","geo_precision":"range","state":"MO"},"type":"Feature","geometry":{"type":"Point","coordinates":[-94.519635,39.086989]}},{"properties":{"program type":"Project Strength","city":"Independence","zip":"64050","host name":"Olde Oak Tree","geo_score":0.545,"id":"aaih78eq7u1r","address":"13975 East 35th Street","geo_precision":"street","state":"MO"},"type":"Feature","geometry":{"type":"Point","coordinates":[-94.377727,39.05589]}},{"properties":{"program type":"Project Strength","city":"Kansas City","zip":"64134","host name":"Opportunities Pavillion","geo_score":1.0,"id":"aaih78ad79d7","address":"11600 Holiday Drive","geo_precision":"range","state":"MO"},"type":"Feature","geometry":{"type":"Point","coordinates":[-94.514607,38.914553]}},{"properties":{"program type":"Project Strength","city":"Merriam","zip":"66204","host name":"Overland Park Farmers Market","geo_score":0.85,"id":"aaih78i1ic5j","address":"7315 West 79th Street","geo_precision":"range","state":"KS"},"type":"Feature","geometry":{"type":"Point","coordinates":[-94.671025,38.98581]}},{"properties":{"program type":"Project Strength","city":"Peculiar","zip":"64701","host name":"Peculiar Outreach Center","geo_score":0.532,"id":"aaih78iide3n","address":"242 C Highway","geo_precision":"street","state":"MO"},"type":"Feature","geometry":{"type":"Point","coordinates":[-94.226768,38.658795]}},{"properties":{"program type":"Project Strength","city":"Kansas City","zip":"66101","host name":"Project EAGLE","geo_score":0.775,"id":"aaih7854m0gp","address":"444 Minnesota Avenue Suite 100","geo_precision":"range","state":"KS"},"type":"Feature","geometry":{"type":"Point","coordinates":[-94.621371,39.115625]}},{"properties":{"program type":"Project Strength","city":"Kansas City","zip":"64134","host name":"ReDiscover Mental Health","geo_score":0.806,"id":"aaih783m5xwx","address":"6801 East 117th Street","geo_precision":"street","state":"MO"},"type":"Feature","geometry":{"type":"Point","coordinates":[-94.51041,38.911456]}},{"properties":{"program type":"Project Strength","city":"Kansas City","zip":"64138","host name":"Richard C. Green Sr. Family YMCA","geo_score":0.797,"id":"aaih783v69ys","address":"10301 East 350 Highway","geo_precision":"range","state":"MO"},"type":"Feature","geometry":{"type":"Point","coordinates":[-94.462301,38.983986]}},{"properties":{"program type":"Project Strength","city":"Harrisonville","zip":"64701","host name":"Ridgewood Hills","geo_score":1.0,"id":"aaih7886wnna","address":"300 Ridgewood Court","geo_precision":"range","state":"MO"},"type":"Feature","geometry":{"type":"Point","coordinates":[-94.330128,38.653411]}},{"properties":{"program type":"Project Strength","city":"Topeka","zip":"66604","host name":"Rose Villa Hope House","geo_score":0.947,"id":"aaih78dna5f5","address":"915 SW 10th Avenue","geo_precision":"range","state":"KS"},"type":"Feature","geometry":{"type":"Point","coordinates":[-95.688533,39.049174]}},{"properties":{"program type":"Project Strength","city":"Kansas City","zip":"64130","host name":"Running Back Giving Back Foundation","geo_score":0.902,"id":"aaih78ag21qn","address":"4435 Prospect","geo_precision":"range","state":"MO"},"type":"Feature","geometry":{"type":"Point","coordinates":[-94.55406,39.045231]}},{"properties":{"program type":"Project Strength","city":"Sabetha","zip":"66534","host name":"Sabetha Community Food Pantry","geo_score":1.0,"id":"aaih788m8mqd","address":"808 Main Street","geo_precision":"range","state":"KS"},"type":"Feature","geometry":{"type":"Point","coordinates":[-95.80013,39.903434]}},{"properties":{"program type":"Project Strength","city":"Merriam","zip":"66204","host name":"SafeHome","geo_score":0.857,"id":"aaih787yjk57","address":"P.O. Box 4563","geo_precision":"zip","state":"KS"},"type":"Feature","geometry":{"type":"Point","coordinates":[-94.683188,38.974815]}},{"properties":{"program type":"Project Strength","city":"Topeka","zip":"66604","host name":"Scott Magnet Elementary School","geo_score":0.805,"id":"aaih78b85slo","address":"401 SE Market Street","geo_precision":"range","state":"KS"},"type":"Feature","geometry":{"type":"Point","coordinates":[-95.64797,39.047426]}},{"properties":{"program type":"Project Strength","city":"Shawnee","zip":"66214","host name":"Shawanoe Elementary School (SES)","geo_score":0.883,"id":"aaih788uc5rq","address":"11230 West 75th Street","geo_precision":"range","state":"KS"},"type":"Feature","geometry":{"type":"Point","coordinates":[-94.716741,38.99296]}},{"properties":{"program type":"Project Strength","city":"Kansas City","zip":"64127-","host name":"Sheffield Family Life Center","geo_score":1.0,"id":"aaih78fbeux1","address":"5700 Winner Road","geo_precision":"range","state":"MO"},"type":"Feature","geometry":{"type":"Point","coordinates":[-94.515312,39.100996]}},{"properties":{"program type":"Project Strength","city":"Topeka","zip":"66604","host name":"Sheldon Head Start","geo_score":0.727,"id":"aaih783as52v","address":"115 SW Seabrook","geo_precision":"street","state":"KS"},"type":"Feature","geometry":{"type":"Point","coordinates":[-95.727159,39.047511]}},{"properties":{"program type":"Project Strength","city":"Topeka","zip":"66611","host name":"Sheltered Living Inc.","geo_score":0.941,"id":"aaih78836tz8","address":"2126 SW 36th Street","geo_precision":"range","state":"KS"},"type":"Feature","geometry":{"type":"Point","coordinates":[-95.704007,39.002486]}},{"properties":{"program type":"Project Strength","city":"Independence","zip":"64055-","host name":"Southview Manor","geo_score":0.807,"id":"aaih78drh2g8","address":"2600 Hub Drive","geo_precision":"street","state":"MO"},"type":"Feature","geometry":{"type":"Point","coordinates":[-94.380952,39.075722]}},{"properties":{"program type":"Project Strength","city":"Kansas City","zip":"64138","host name":"St. Lukes United Methodist Church","geo_score":0.5,"id":"aaih78570p0x","address":"9420 James A. Reed Road","geo_precision":"street","state":"MO"},"type":"Feature","geometry":{"type":"Point","coordinates":[-94.564506,39.334185]}},{"properties":{"program type":"Project Strength","city":"Kansas City","zip":"64133-","host name":"Temple Heights","geo_score":1.0,"id":"aaih784n5sm3","address":"5540 Blue Ridge Cutoff","geo_precision":"range","state":"MO"},"type":"Feature","geometry":{"type":"Point","coordinates":[-94.481644,39.020878]}},{"properties":{"program type":"Project Strength","city":"Kansas City","zip":"64110","host name":"The Woodlands at Citadel","geo_score":1.0,"id":"aaih78i6f32v","address":"1770 Citadel Drive","geo_precision":"range","state":"MO"},"type":"Feature","geometry":{"type":"Point","coordinates":[-94.565616,39.01585]}},{"properties":{"program type":"Project Strength","city":"Kansas City","zip":"64108-","host name":"Truman Medical Center Behavioral Health","geo_score":0.932,"id":"aaih78eiirn4","address":"2211 Charlotte Avenue","geo_precision":"range","state":"MO"},"type":"Feature","geometry":{"type":"Point","coordinates":[-94.574564,39.085215]}},{"properties":{"program type":"Project Strength","city":"Kansas City","zip":"64131","host name":"University Academy","geo_score":1.0,"id":"aaih78daif8a","address":"6801 Holmes Road","geo_precision":"range","state":"MO"},"type":"Feature","geometry":{"type":"Point","coordinates":[-94.57972,39.002618]}},{"properties":{"program type":"Project Strength","city":"Avondale","zip":"64117","host name":"Villas at Kensington Court","geo_score":0.805,"id":"aaih789i3j6a","address":"6451 NE 43rd Terrace","geo_precision":"street","state":"MO"},"type":"Feature","geometry":{"type":"Point","coordinates":[-94.512198,39.172364]}},{"properties":{"program type":"Project Strength","city":"Kansas City","zip":"64108","host name":"Vine Street Manor","geo_score":1.0,"id":"aaih789w76s3","address":"2300 Vine Street","geo_precision":"range","state":"MO"},"type":"Feature","geometry":{"type":"Point","coordinates":[-94.563711,39.083438]}},{"properties":{"program type":"Project Strength","city":"Gladstone","zip":"64165","host name":"Vineyard Church Food Pantry","geo_score":0.427,"id":"aaih78dk3jcp","address":"12300 NW Trafficway","geo_precision":"street","state":"MO"},"type":"Feature","geometry":{"type":"Point","coordinates":[-94.77028,39.266687]}},{"properties":{"program type":"Project Strength","city":"Louisburg","zip":"66053-","host name":"Wea Creek Apartments","geo_score":0.741,"id":"aaih78bmkdeg","address":"888 Autumn Place","geo_precision":"street","state":"KS"},"type":"Feature","geometry":{"type":"Point","coordinates":[-94.663868,38.615567]}},{"properties":{"program type":"Project Strength","city":"Kansas City","zip":"64111-","host name":"Westport House","geo_score":1.0,"id":"aaih789hzjir","address":"4020 Mill Street","geo_precision":"range","state":"MO"},"type":"Feature","geometry":{"type":"Point","coordinates":[-94.592482,39.052668]}},{"properties":{"program type":"Project Strength","city":"Kansas City","zip":"64136","host name":"Willow Estates","geo_score":0.585,"id":"aaih78hfkszd","address":"4800 South Hocker Road","geo_precision":"zip","state":"MO"},"type":"Feature","geometry":{"type":"Point","coordinates":[-94.39896,39.009602]}}],"is_temporal":false,"author":{"url":"","metadata":"","contact_name":"","contact_address":"","source":"","contact_phone":""},"source":"","pagination":{"sort":null,"start":0,"total":80,"limit":1000000},"state":"complete","tags":"","published":"2014-08-16T15:06:42-04:00","id":301886}