{"type":"FeatureCollection","data_type":"Dataset","url_type":null,"permissions":[{"permissions":{"download":true,"view":true},"group_id":"everyone"}],"classification":null,"title":"Johnston County Fire Resources","count":30,"stream_id":301835,"contributor":{"url":"http://geocommons.com/users/57079","name":"firenews"},"data_attributes":null,"calculation_params":null,"icon_link":null,"link":"http://geocommons.com/overlays/301835.json","extent":[-78.6365,35.3202,-78.0622,35.7427],"geometry_types":["point"],"unique_name":null,"name":"Johnston County Fire Resources","feature_count":30,"description":"Johnston County, NC fire resources. Used by FDmaps.com","next_feature":null,"is_raster":false,"short_classification":"Y","stats":{"latitude":{"max":35.742747,"mean":35.5283373333333,"variance":0.0141571880476782,"stdev":0.118983982315597,"median":35.53652,"min":35.320241},"id":{"max":10170,"mean":9786.5,"variance":1474331.15517241,"stdev":1214.2203898685,"median":10104,"min":5317},"longitude":{"max":-78.062191,"mean":-78.3648681666667,"variance":0.0240155289484885,"stdev":0.154969445209333,"median":-78.355816,"min":-78.636505}},"features":[{"properties":{"name":"50-210 Community Sta 1","latitude":35.512029,"county":"Johnston","id":"aaiedgmw455s","longitude":-78.579725,"address":"50 Greenleaf Rd, \nAngier, NC"},"type":"Feature","geometry":{"type":"Point","coordinates":[-78.579725,35.512029]}},{"properties":{"name":"50-210 Community Sta 2","latitude":35.560129,"county":"Johnston","id":"aaiedgq7r250","longitude":-78.636505,"address":"3715 Jackson King Rd, \nWillow Spring, NC"},"type":"Feature","geometry":{"type":"Point","coordinates":[-78.636505,35.560129]}},{"properties":{"name":"Antioch","latitude":35.695062,"county":"Johnston","id":"aaiedgjsqbgm","longitude":-78.246069,"address":"8604 State Hwy 39, \nMiddlesex, NC"},"type":"Feature","geometry":{"type":"Point","coordinates":[-78.246069,35.695062]}},{"properties":{"name":"Archer Lodge","latitude":35.690978,"county":"Johnston","id":"aaiedgijc2en","longitude":-78.37871,"address":"6483 Covered Bridge Rd, \nClayton, NC"},"type":"Feature","geometry":{"type":"Point","coordinates":[-78.37871,35.690978]}},{"properties":{"name":"Benson","latitude":35.377534,"county":"Johnston","id":"aaiedgq5aruf","longitude":-78.547951,"address":"313 South Elm St, \nBenson, NC"},"type":"Feature","geometry":{"type":"Point","coordinates":[-78.547951,35.377534]}},{"properties":{"name":"Bentonville","latitude":35.32034,"county":"Johnston","id":"aaiedgeley2g","longitude":-78.279709,"address":"3167 Harper House Rd, \nFour Oaks, NC"},"type":"Feature","geometry":{"type":"Point","coordinates":[-78.279709,35.32034]}},{"properties":{"name":"Blackmon's Crossroads","latitude":35.366913,"county":"Johnston","id":"aaiedgg3czdz","longitude":-78.436205,"address":"5813 State Hwy 96 South, \nFour Oaks, NC"},"type":"Feature","geometry":{"type":"Point","coordinates":[-78.436205,35.366913]}},{"properties":{"name":"Brogden","latitude":35.430926,"county":"Johnston","id":"aaiedgslo9i4","longitude":-78.248651,"address":"7236 Brogden Rd, \nSmithfield, NC"},"type":"Feature","geometry":{"type":"Point","coordinates":[-78.248651,35.430926]}},{"properties":{"name":"Clayton Sta 1","latitude":35.654038,"county":"Johnston","id":"aaiedgmrmr93","longitude":-78.464197,"address":"325 West Horne St, \nClayton, NC"},"type":"Feature","geometry":{"type":"Point","coordinates":[-78.464197,35.654038]}},{"properties":{"name":"Clayton Sta 2","latitude":35.641903,"county":"Johnston","id":"aaiedghuelll","longitude":-78.431676,"address":"800 State Hwy 42 East, \nClayton, NC"},"type":"Feature","geometry":{"type":"Point","coordinates":[-78.431676,35.641903]}},{"properties":{"name":"Cleveland Sta 1","latitude":35.566894,"county":"Johnston","id":"aaiedgjyy2ee","longitude":-78.531034,"address":"9039 Cleveland Rd, \nClayton, NC"},"type":"Feature","geometry":{"type":"Point","coordinates":[-78.531034,35.566894]}},{"properties":{"name":"Cleveland Sta 2","latitude":35.608951,"county":"Johnston","id":"aaiedglei00v","longitude":-78.579891,"address":"13279 Cleveland Rd, \nGarner, NC"},"type":"Feature","geometry":{"type":"Point","coordinates":[-78.579891,35.608951]}},{"properties":{"name":"Corinth-Holder Sta 1","latitude":35.732722,"county":"Johnston","id":"aaiedgisar8g","longitude":-78.301016,"address":"5734 Lake Wendell Rd, \nZebulon, NC"},"type":"Feature","geometry":{"type":"Point","coordinates":[-78.301016,35.732722]}},{"properties":{"name":"Corinth-Holder Sta 2","latitude":35.742747,"county":"Johnston","id":"aaiedgnhjr8c","longitude":-78.257054,"address":"11432 State Hwy 39, \nZebulon, NC"},"type":"Feature","geometry":{"type":"Point","coordinates":[-78.257054,35.742747]}},{"properties":{"name":"Elevation","latitude":35.454275,"county":"Johnston","id":"aaiedgeoc6ct","longitude":-78.528732,"address":"1825 Federal Rd, \nBenson, NC"},"type":"Feature","geometry":{"type":"Point","coordinates":[-78.528732,35.454275]}},{"properties":{"name":"Four Oaks","latitude":35.442858,"county":"Johnston","id":"aaiedgqoub0l","longitude":-78.426543,"address":"301 Keen Street, \nFour Oaks, NC"},"type":"Feature","geometry":{"type":"Point","coordinates":[-78.426543,35.442858]}},{"properties":{"name":"Kenly","latitude":35.594244,"county":"Johnston","id":"aaiedgkvuu5l","longitude":-78.12502,"address":"101 West 1st Street, \nKenly, NC"},"type":"Feature","geometry":{"type":"Point","coordinates":[-78.12502,35.594244]}},{"properties":{"name":"Meadow","latitude":35.320241,"county":"Johnston","id":"aaiedgm7thvy","longitude":-78.454893,"address":"7409 State Hwy 50 South, \nBenson, NC"},"type":"Feature","geometry":{"type":"Point","coordinates":[-78.454893,35.320241]}},{"properties":{"name":"Micro","latitude":35.562241,"county":"Johnston","id":"aaiedgme49wn","longitude":-78.204205,"address":"102 West Main Street, \nMicro, NC"},"type":"Feature","geometry":{"type":"Point","coordinates":[-78.204205,35.562241]}},{"properties":{"name":"Pine Level","latitude":35.513444,"county":"Johnston","id":"aaiedgr7xq62","longitude":-78.245069,"address":"110 West Main St, \nSelma, NC"},"type":"Feature","geometry":{"type":"Point","coordinates":[-78.245069,35.513444]}},{"properties":{"name":"Princeton","latitude":35.469347,"county":"Johnston","id":"aaiedgr0qd2s","longitude":-78.162745,"address":"501 Doctor Donnie H Jones Jr Rd, \nPrinceton, NC"},"type":"Feature","geometry":{"type":"Point","coordinates":[-78.162745,35.469347]}},{"properties":{"name":"Selma","latitude":35.53652,"county":"Johnston","id":"aaiedgjfor10","longitude":-78.281568,"address":"201 North Webb Street, \nSelma, NC"},"type":"Feature","geometry":{"type":"Point","coordinates":[-78.281568,35.53652]}},{"properties":{"name":"Smithfield","latitude":35.509814,"county":"Johnston","id":"aaiedghp03i3","longitude":-78.344918,"address":"111 S 4th Street, \nSmithfield, NC"},"type":"Feature","geometry":{"type":"Point","coordinates":[-78.344918,35.509814]}},{"properties":{"name":"Sta 12 - Nahunta","latitude":35.508392,"county":"Wayne County Sta 12","id":"aaiedgfcs4la","longitude":-78.062191,"address":"3058 Nahunta Rd, \nGoldsboro, NC"},"type":"Feature","geometry":{"type":"Point","coordinates":[-78.062191,35.508392]}},{"properties":{"name":"Sta 14 - Oakland","latitude":35.409799,"county":"Wayne County Sta 14","id":"aaiedgo4c0wh","longitude":-78.127492,"address":"674 Oakland Church Rd, \nGoldsboro, NC"},"type":"Feature","geometry":{"type":"Point","coordinates":[-78.127492,35.409799]}},{"properties":{"name":"Strickland's Crossroads","latitude":35.36682,"county":"Johnston","id":"aaiedgkbx91k","longitude":-78.364671,"address":"2706 Strickland's Crossroads Rd, \nFour Oaks, NC"},"type":"Feature","geometry":{"type":"Point","coordinates":[-78.364671,35.36682]}},{"properties":{"name":"Thanksgiving","latitude":35.659772,"county":"Johnston","id":"aaiedgg8cn0t","longitude":-78.309689,"address":"2375 Thanksgiving Fire Road, \nSelma, NC"},"type":"Feature","geometry":{"type":"Point","coordinates":[-78.309689,35.659772]}},{"properties":{"name":"West Johnston","latitude":35.480029,"county":"Johnston","id":"aaiedglfmtwc","longitude":-78.608985,"address":"5503 Old Fairground Rd, \nAngier, NC"},"type":"Feature","geometry":{"type":"Point","coordinates":[-78.608985,35.480029]}},{"properties":{"name":"Wilson's Mills Sta 1","latitude":35.584328,"county":"Johnston","id":"aaiedgrl7z0s","longitude":-78.355816,"address":"145 Fire Department Rd, \nClayton, NC"},"type":"Feature","geometry":{"type":"Point","coordinates":[-78.355816,35.584328]}},{"properties":{"name":"Wilson's Mills Sta 2","latitude":35.53683,"county":"Johnston","id":"aaiedgee1tc6","longitude":-78.425115,"address":"2850 Cleveland Rd, \nSmithfield, NC"},"type":"Feature","geometry":{"type":"Point","coordinates":[-78.425115,35.53683]}}],"is_temporal":false,"author":{"url":"","metadata":"","contact_name":"","contact_address":"","source":"","contact_phone":""},"source":"","pagination":{"sort":null,"start":0,"total":30,"limit":1000000},"state":"complete","tags":"carolina,county,fdmaps,fdmaps.com,fire,johnston,north","published":"2012-12-04T17:00:00Z","id":301835}