{"type":"FeatureCollection","data_type":"Dataset","url_type":null,"permissions":[{"permissions":{"download":true,"view":true},"group_id":"everyone"}],"classification":null,"title":"FY13 Teens","count":5,"stream_id":302415,"contributor":{"url":"http://geocommons.com/users/51639","name":"kcbacksnack"},"data_attributes":null,"calculation_params":null,"icon_link":null,"link":"http://geocommons.com/overlays/302415.json","extent":[-95.7273,38.8874,-94.4777,39.0675],"geometry_types":["point"],"unique_name":null,"name":"FY13 Teens","feature_count":5,"description":"","next_feature":null,"is_raster":false,"short_classification":"Y","stats":{},"features":[{"properties":{"program type":"Teens","city":"Olathe","zip":"66062","host name":"California Trail Middle School","geo_score":1.0,"id":"aajb5czn2e9f","address":"13775 West 133rd Street","geo_precision":"range","state":"KS"},"type":"Feature","geometry":{"type":"Point","coordinates":[-94.745175,38.887377]}},{"properties":{"program type":"Teens","city":"Kansas City","zip":"64111","host name":"Cristo Rey High School","geo_score":0.895,"id":"aajb5d4cjg6i","address":"211 West Linwood","geo_precision":"range","state":"MO"},"type":"Feature","geometry":{"type":"Point","coordinates":[-94.589073,39.06746]}},{"properties":{"program type":"Teens","city":"Kansas City","zip":"64134","host name":"Crittenton Childrens Center","geo_score":1.0,"id":"aajb5d6cmrn9","address":"10918 Elm Avenue","geo_precision":"range","state":"MO"},"type":"Feature","geometry":{"type":"Point","coordinates":[-94.477713,38.927042]}},{"properties":{"program type":"Teens","city":"Leawood","zip":"66206","host name":"Johnson County Mental Health","geo_score":0.805,"id":"aajb5d4lr9di","address":"6000 Lamar Avenue","geo_precision":"range","state":"KS"},"type":"Feature","geometry":{"type":"Point","coordinates":[-94.658363,39.018577]}},{"properties":{"program type":"Teens","city":"Topeka","zip":"66604","host name":"Kansas Childrens Discovery Center","geo_score":0.947,"id":"aajb5d445t7r","address":"4400 SW 10th Avenue","geo_precision":"range","state":"KS"},"type":"Feature","geometry":{"type":"Point","coordinates":[-95.727326,39.051286]}}],"is_temporal":false,"author":{"url":"","metadata":"","contact_name":"","contact_address":"","source":"","contact_phone":""},"source":"","pagination":{"sort":null,"start":0,"total":5,"limit":1000000},"state":"complete","tags":"","published":"2014-08-16T15:53:13-04:00","id":302415}