{"type":"FeatureCollection","data_type":"Dataset","url_type":null,"permissions":[{"permissions":{"download":true,"edit":true,"view":true},"group_id":56815},{"permissions":{"download":true,"view":true},"group_id":"everyone"}],"classification":null,"title":"ARC_Feeding_DR 145-13","count":25,"stream_id":302978,"contributor":{"url":"http://geocommons.com/users/37170","name":"lfuentes"},"data_attributes":null,"calculation_params":null,"icon_link":null,"link":"http://geocommons.com/overlays/302978.json","extent":[-77.6469,40.5376,-73.1024,43.2773],"geometry_types":["point"],"unique_name":null,"name":"ARC_Feeding_DR 145-13","feature_count":25,"description":"F - Fixed\r\n\r\nM - Mobile\r\n\r\nD - Drop Point","next_feature":null,"is_raster":false,"short_classification":"Y","stats":{},"features":[{"properties":{"city":"Staten Island","geo_score":0.883,"type m, f, or d":"D","id":"aak8muxnw3kd","address":"239 Fiungerboard Rd.","geo_precision":"range","state":"New York"},"type":"Feature","geometry":{"type":"Point","coordinates":[-74.068833,40.604987]}},{"properties":{"city":"Staten Island","geo_score":0.902,"type m, f, or d":"D","id":"aak8mvaa1ohq","address":"125 Todt Hill Rd","geo_precision":"range","state":"New York"},"type":"Feature","geometry":{"type":"Point","coordinates":[-74.117411,40.609427]}},{"properties":{"city":"Staten Island","geo_score":0.902,"type m, f, or d":"D","id":"aak8mv8lw6m9","address":"104 Hett Ave.","geo_precision":"range","state":"New York"},"type":"Feature","geometry":{"type":"Point","coordinates":[-74.104725,40.561636]}},{"properties":{"city":"Staten Island","geo_score":0.714,"type m, f, or d":"D","id":"aak8mv8nn92h","address":null,"geo_precision":"city","state":"New York"},"type":"Feature","geometry":{"type":"Point","coordinates":[-77.646948,43.277284]}},{"properties":{"city":"Staten Island","geo_score":0.902,"type m, f, or d":"D","id":"aak8mv9achv8","address":"4212 Hylan Blvd","geo_precision":"range","state":"New York"},"type":"Feature","geometry":{"type":"Point","coordinates":[-74.150149,40.537564]}},{"properties":{"city":"Staten Island","geo_score":0.902,"type m, f, or d":"D","id":"aak8mv8fke9s","address":"1126 Olympia Blvd","geo_precision":"range","state":"New York"},"type":"Feature","geometry":{"type":"Point","coordinates":[-74.09494,40.570728]}},{"properties":{"city":"Staten Island","geo_score":0.902,"type m, f, or d":"D","id":"aak8muvx11a1","address":"483 Midland Ave","geo_precision":"range","state":"New York"},"type":"Feature","geometry":{"type":"Point","coordinates":[-74.096667,40.574407]}},{"properties":{"city":"Staten Island","geo_score":0.902,"type m, f, or d":"D","id":"aak8mv4kp2kp","address":"50 Cedar Grove Ave","geo_precision":"range","state":"New York"},"type":"Feature","geometry":{"type":"Point","coordinates":[-74.098614,40.56333]}},{"properties":{"city":"Staten Island","geo_score":0.902,"type m, f, or d":"D","id":"aak8muzu2fnk","address":"450 Midland Ave","geo_precision":"range","state":"New York"},"type":"Feature","geometry":{"type":"Point","coordinates":[-74.097126,40.574426]}},{"properties":{"city":"Staten Island","geo_score":0.902,"type m, f, or d":"D","id":"aak8muumh1fk","address":"859 Patterson Ave.","geo_precision":"range","state":"New York"},"type":"Feature","geometry":{"type":"Point","coordinates":[-74.092017,40.570507]}},{"properties":{"city":"Staten Island","geo_score":0.902,"type m, f, or d":"D","id":"aak8muw3m63x","address":"101 Sand Lane","geo_precision":"range","state":"New York"},"type":"Feature","geometry":{"type":"Point","coordinates":[-74.070638,40.597181]}},{"properties":{"city":"Staten Island","geo_score":0.286,"type m, f, or d":"D","id":"aak8muyiitob","address":"408 N. Path Rd","geo_precision":"street","state":"New York"},"type":"Feature","geometry":{"type":"Point","coordinates":[-73.102397,40.909987]}},{"properties":{"city":"Staten Island","geo_score":0.902,"type m, f, or d":"D","id":"aak8mvasofqo","address":"79 Vanderbilt Ave","geo_precision":"range","state":"New York"},"type":"Feature","geometry":{"type":"Point","coordinates":[-74.074574,40.621659]}},{"properties":{"city":"Staten Island","geo_score":0.78,"type m, f, or d":"D","id":"aak8mvauf0va","address":"11 Olympia","geo_precision":"range","state":"New York"},"type":"Feature","geometry":{"type":"Point","coordinates":[-74.068527,40.592861]}},{"properties":{"city":"Staten Island","geo_score":0.847,"type m, f, or d":"M","id":"aak8mv121ljr","address":"1000 Father Capodano Ave","geo_precision":"range","state":"New York"},"type":"Feature","geometry":{"type":"Point","coordinates":[-74.088628,40.572394]}},{"properties":{"city":"Staten Island","geo_score":0.714,"type m, f, or d":"M","id":"aak8mv6g50d9","address":null,"geo_precision":"city","state":"New York"},"type":"Feature","geometry":{"type":"Point","coordinates":[-77.646948,43.277284]}},{"properties":{"city":"Staten Island","geo_score":0.902,"type m, f, or d":"M","id":"aak8muwzjkyq","address":"99 Cedar Grove Ave","geo_precision":"range","state":"New York"},"type":"Feature","geometry":{"type":"Point","coordinates":[-74.099887,40.562135]}},{"properties":{"city":"Staten Island","geo_score":0.902,"type m, f, or d":"M","id":"aak8mv5slx39","address":"188 Milton Ave","geo_precision":"range","state":"New York"},"type":"Feature","geometry":{"type":"Point","coordinates":[-74.107649,40.560718]}},{"properties":{"city":"Staten Island","geo_score":0.902,"type m, f, or d":"M","id":"aak8mv3sd4kr","address":"292 Seaview Ave","geo_precision":"range","state":"New York"},"type":"Feature","geometry":{"type":"Point","coordinates":[-74.093225,40.587169]}},{"properties":{"city":"Staten Island","geo_score":0.902,"type m, f, or d":"M","id":"aak8mv42yqmu","address":"145 Finley Ave","geo_precision":"range","state":"New York"},"type":"Feature","geometry":{"type":"Point","coordinates":[-74.104885,40.563117]}},{"properties":{"city":"Staten Island","geo_score":0.902,"type m, f, or d":"M","id":"aak8mv61mzi4","address":"242 Chesterton Ave.","geo_precision":"range","state":"New York"},"type":"Feature","geometry":{"type":"Point","coordinates":[-74.12828,40.559091]}},{"properties":{"city":"Staten Island","geo_score":0.902,"type m, f, or d":"M","id":"aak8mv38dvhk","address":"121 Jefferson St","geo_precision":"range","state":"New York"},"type":"Feature","geometry":{"type":"Point","coordinates":[-74.099602,40.588579]}},{"properties":{"city":"Staten Island","geo_score":0.902,"type m, f, or d":"M","id":"aak8mva8xeeg","address":"278 Jefferson Ave","geo_precision":"range","state":"New York"},"type":"Feature","geometry":{"type":"Point","coordinates":[-74.097098,40.580246]}},{"properties":{"city":"Staten Island","geo_score":0.902,"type m, f, or d":"M","id":"aak8mv2ntjq5","address":"80 Grayson St.","geo_precision":"range","state":"New York"},"type":"Feature","geometry":{"type":"Point","coordinates":[-74.123365,40.555729]}},{"properties":{"city":"Staten Island","geo_score":0.902,"type m, f, or d":"M","id":"aak8muyt0d63","address":"1800 Richmond Rd.","geo_precision":"range","state":"New York"},"type":"Feature","geometry":{"type":"Point","coordinates":[-74.105258,40.585923]}}],"is_temporal":false,"author":{"url":"","metadata":"","contact_name":"","contact_address":"","source":"","contact_phone":""},"source":"","pagination":{"sort":null,"start":0,"total":25,"limit":1000000},"state":"complete","tags":"sandy","published":"2014-08-16T16:22:51-04:00","id":302978}