{"type":"FeatureCollection","data_type":"Dataset","url_type":null,"permissions":[{"permissions":{"download":true,"view":true},"group_id":"everyone"}],"classification":null,"title":"CA Facilities Master","count":37,"stream_id":303014,"contributor":{"url":"http://geocommons.com/users/56415","name":"djjohnson6204455"},"data_attributes":null,"calculation_params":null,"icon_link":null,"link":"http://geocommons.com/overlays/303014.json","extent":[-122.427,32.719,-115.549,40.6291],"geometry_types":["point"],"unique_name":null,"name":"CA Facilities Master","feature_count":37,"description":"","next_feature":null,"is_raster":false,"short_classification":"Y","stats":{},"features":[{"properties":{"city":"American Canyon","facility type":"Plant","zip":"94503","region":"Northwest","geo_score":1.0,"facility name":"American Canyon","id":"aakbyo4gukxp","address":"1201 Commerce Blvd","geo_precision":"range","state":"CA"},"type":"Feature","geometry":{"type":"Point","coordinates":[-122.271947,38.191617]}},{"properties":{"city":"American Canyon","facility type":"Warehouse","zip":"94503","region":"Northwest","geo_score":1.0,"facility name":"Amcan Whse.","id":"aakbyo6m67qd","address":"700 Hanna Drive","geo_precision":"range","state":"CA"},"type":"Feature","geometry":{"type":"Point","coordinates":[-122.267387,38.192789]}},{"properties":{"city":"Anaheim","facility type":"Plant","zip":"92806","region":"West","geo_score":0.607,"facility name":"Anaheim","id":"aakbyodub098","address":"2121 E. Winston Rd.","geo_precision":"street","state":"CA"},"type":"Feature","geometry":{"type":"Point","coordinates":[-117.893602,33.814462]}},{"properties":{"city":"Bakersfield","facility type":"DC","zip":"93313","region":"West","geo_score":0.526,"facility name":"Bakersfield","id":"aakbyoc6f8rr","address":"4320 Ride Street","geo_precision":"street","state":"CA"},"type":"Feature","geometry":{"type":"Point","coordinates":[-119.149404,35.350812]}},{"properties":{"city":"Bishop","facility type":"DB","zip":"93514","region":"West","geo_score":1.0,"facility name":"Bishop","id":"aakbyojlwhix","address":"286 West Pine St.","geo_precision":"range","state":"CA"},"type":"Feature","geometry":{"type":"Point","coordinates":[-118.396244,37.363876]}},{"properties":{"city":"Chino","facility type":"Warehouse","zip":"91710","region":"West","geo_score":0.945,"facility name":"Chino Warehouse","id":"aakbyoi9w8ly","address":"14326 Monte Vista Ave","geo_precision":"range","state":"CA"},"type":"Feature","geometry":{"type":"Point","coordinates":[-117.697772,33.994147]}},{"properties":{"city":"City of Industry","facility type":"DC","zip":"91746","region":"West","geo_score":0.455,"facility name":"City of Industry","id":"aakbyoi3gc9z","address":"13255 E. Amar Rd","geo_precision":"street","state":"CA"},"type":"Feature","geometry":{"type":"Point","coordinates":[-117.986017,34.059827]}},{"properties":{"city":"Coachella","facility type":"DC","zip":"92236","region":"West","geo_score":0.805,"facility name":"Coachella","id":"aakbyo60v3th","address":"86375 Industrial Way","geo_precision":"street","state":"CA"},"type":"Feature","geometry":{"type":"Point","coordinates":[-116.14815,33.66768]}},{"properties":{"city":"Dinuba","facility type":"Plant","zip":"93618","region":"Northwest","geo_score":1.0,"facility name":"Dinuba","id":"aakbyo83epa0","address":"1900 East Davis Drive","geo_precision":"range","state":"CA"},"type":"Feature","geometry":{"type":"Point","coordinates":[-119.37763,36.556145]}},{"properties":{"city":"Downey","facility type":"Combo","zip":"90241","region":"West","geo_score":1.0,"facility name":"Downey","id":"aakbyojj43n0","address":"11536 Patton Road","geo_precision":"range","state":"CA"},"type":"Feature","geometry":{"type":"Point","coordinates":[-118.129247,33.935058]}},{"properties":{"city":"El Centro","facility type":"DC","zip":"92243","region":"West","geo_score":0.927,"facility name":"El Centro","id":"aakbyo6h2lvi","address":"126 South Third St.","geo_precision":"range","state":"CA"},"type":"Feature","geometry":{"type":"Point","coordinates":[-115.548876,32.792564]}},{"properties":{"city":"Fresno","facility type":"DC","zip":"93725","region":"West","geo_score":1.0,"facility name":"Fresno","id":"aakbyo8to354","address":"3220 East Malaga Ave.","geo_precision":"range","state":"CA"},"type":"Feature","geometry":{"type":"Point","coordinates":[-119.727075,36.670847]}},{"properties":{"city":"Half Moon Bay","facility type":"Office","zip":"94019","region":null,"geo_score":1.0,"facility name":"Odwalla HQ","id":"aakbyogexxev","address":"120 Stone Pine Rd.","geo_precision":"range","state":"CA"},"type":"Feature","geometry":{"type":"Point","coordinates":[-122.427482,37.466683]}},{"properties":{"city":"Irvine","facility type":"Office","zip":"92614","region":"West","geo_score":0.902,"facility name":"Foodservice Off.","id":"aakbyo6yre7r","address":"3 Park Plaza","geo_precision":"street","state":"CA"},"type":"Feature","geometry":{"type":"Point","coordinates":[-117.837863,33.677196]}},{"properties":{"city":"Lancaster","facility type":"DC","zip":"93534","region":"West","geo_score":0.362,"facility name":"Lancaster CA","id":"aakbyodu6t27","address":"1123 West Avenue L-14","geo_precision":"street","state":"CA"},"type":"Feature","geometry":{"type":"Point","coordinates":[-117.818555,35.670345]}},{"properties":{"city":"Los Angeles","facility type":"Combo","zip":"90021","region":"West","geo_score":1.0,"facility name":"Los Angeles","id":"aakbyo5jqw8t","address":"1334 South Central Ave.","geo_precision":"range","state":"CA"},"type":"Feature","geometry":{"type":"Point","coordinates":[-118.246555,34.028704]}},{"properties":{"city":"Los Angeles","facility type":"Office","zip":"90017","region":"West","geo_score":0.649,"facility name":"RS West Region","id":"aakbyogkjfty","address":"700 So. Flower Street","geo_precision":"street","state":"CA"},"type":"Feature","geometry":{"type":"Point","coordinates":[-118.251945,34.055188]}},{"properties":{"city":"Montebello","facility type":"Cooler Svc.","zip":"90640","region":null,"geo_score":0.902,"facility name":"Montebello","id":"aakbyod98cio","address":"666 Union Avenue","geo_precision":"range","state":"CA"},"type":"Feature","geometry":{"type":"Point","coordinates":[-118.120755,33.978302]}},{"properties":{"city":"Oceanside","facility type":"DC","zip":"92056","region":"West","geo_score":0.604,"facility name":"Oceanside","id":"aakbyodeponi","address":"3900 Ocean Ranch Blvd.","geo_precision":"street","state":"CA"},"type":"Feature","geometry":{"type":"Point","coordinates":[-117.266521,33.233475]}},{"properties":{"city":"Ontario","facility type":"Plant","zip":"91761","region":"West","geo_score":1.0,"facility name":"Ontario","id":"aakbyof1wkm4","address":"1650 S Vintage Ave","geo_precision":"range","state":"CA"},"type":"Feature","geometry":{"type":"Point","coordinates":[-117.533052,34.044446]}},{"properties":{"city":"Orange","facility type":"DC","zip":"92865","region":"West","geo_score":0.92,"facility name":"Orange","id":"aakbyocs5jkh","address":"700 West Grove St.","geo_precision":"range","state":"CA"},"type":"Feature","geometry":{"type":"Point","coordinates":[-117.859028,33.820893]}},{"properties":{"city":"Rancho Cucamonga","facility type":"DC","zip":"91730","region":"West","geo_score":0.902,"facility name":"Rancho","id":"aakbyocy9j5l","address":"10670 Sixth St.","geo_precision":"range","state":"CA"},"type":"Feature","geometry":{"type":"Point","coordinates":[-117.575741,34.084692]}},{"properties":{"city":"Redding","facility type":"Cooler Svc.","zip":"96003","region":null,"geo_score":1.0,"facility name":null,"id":"aakbyoh29mvu","address":"1580 Beltline Road","geo_precision":"range","state":"CA"},"type":"Feature","geometry":{"type":"Point","coordinates":[-122.389592,40.629074]}},{"properties":{"city":"Salinas","facility type":"DC","zip":"93905","region":"West","geo_score":1.0,"facility name":"Salinas","id":"aakbyog8dd37","address":"715 Vandenberg Street","geo_precision":"range","state":"CA"},"type":"Feature","geometry":{"type":"Point","coordinates":[-121.606757,36.658832]}},{"properties":{"city":"San Diego","facility type":"Combo","zip":"92102","region":"West","geo_score":0.916,"facility name":"San Diego","id":"aakbyo8paeuz","address":"1348 47th Street","geo_precision":"range","state":"CA"},"type":"Feature","geometry":{"type":"Point","coordinates":[-117.093639,32.718955]}},{"properties":{"city":"San Leandro","facility type":"Combo","zip":"94577","region":"Northwest","geo_score":1.0,"facility name":"San Leandro","id":"aakbyo3vqvhg","address":"2077 Pike Ave","geo_precision":"range","state":"CA"},"type":"Feature","geometry":{"type":"Point","coordinates":[-122.165315,37.69684]}},{"properties":{"city":"San Leandro","facility type":"Cooler Svc.","zip":"94577","region":"Northwest","geo_score":0.89,"facility name":null,"id":"aakbyojl4xnq","address":"2025 Pike St.","geo_precision":"range","state":"CA"},"type":"Feature","geometry":{"type":"Point","coordinates":[-122.166519,37.696367]}},{"properties":{"city":"San Ramon","facility type":"Office","zip":"94583","region":"Northwest","geo_score":1.0,"facility name":null,"id":"aakbyoh32kph","address":"2603 Camino Ramon","geo_precision":"range","state":"CA"},"type":"Feature","geometry":{"type":"Point","coordinates":[-121.959785,37.767011]}},{"properties":{"city":"Santa Maria","facility type":"DC","zip":"93455","region":"West","geo_score":0.92,"facility name":"Santa Maria","id":"aakbyobx878k","address":"1000 Fairway Drive","geo_precision":"range","state":"CA"},"type":"Feature","geometry":{"type":"Point","coordinates":[-120.456632,34.913479]}},{"properties":{"city":"Sylmar","facility type":"DC","zip":"91342","region":"West","geo_score":1.0,"facility name":"Sylmar","id":"aakbyo3yjlcb","address":"12925 Bradley Ave.","geo_precision":"range","state":"CA"},"type":"Feature","geometry":{"type":"Point","coordinates":[-118.461441,34.306342]}},{"properties":{"city":"Torrance (Carson)","facility type":"DC","zip":"90502","region":"West","geo_score":0.948,"facility name":"Carson","id":"aakbyoelbz2e","address":"19875 Pacific Gateway Drive","geo_precision":"range","state":"CA"},"type":"Feature","geometry":{"type":"Point","coordinates":[-118.295356,33.850479]}},{"properties":{"city":"Ventura","facility type":"DC","zip":"93003","region":"West","geo_score":1.0,"facility name":"Ventura","id":"aakbyo5vnxtn","address":"5335 Walker St.","geo_precision":"range","state":"CA"},"type":"Feature","geometry":{"type":"Point","coordinates":[-119.217166,34.256476]}},{"properties":{"city":"Victorville","facility type":"DB","zip":"92392","region":"West","geo_score":1.0,"facility name":"Victorville","id":"aakbyo3n7bbz","address":"15346 Anacapa Road","geo_precision":"range","state":"CA"},"type":"Feature","geometry":{"type":"Point","coordinates":[-117.327337,34.504825]}},{"properties":{"city":"Visalia","facility type":"Cooler Svc.","zip":"93291","region":null,"geo_score":0.865,"facility name":"Visalia","id":"aakbyo3znaqo","address":"7918 W Doe Suite C","geo_precision":"range","state":"CA"},"type":"Feature","geometry":{"type":"Point","coordinates":[-119.375186,36.346095]}},{"properties":{"city":"Victorville","facility type":"Plant","zip":"92394","region":"West","geo_score":0.581,"facility name":"Victorville Plant(Dr. Pepper)","id":"aakbyofpz706","address":"18180 Gateway Drive","geo_precision":"street","state":"CA"},"type":"Feature","geometry":{"type":"Point","coordinates":[-116.960413,34.357478]}},{"properties":{"city":"Sacramento","facility type":"Plant","zip":"95815","region":"Northwest","geo_score":1.0,"facility name":"Sacramento (Dr. Pepper)","id":"aakbyo7wimv6","address":"2670 Land Avenue","geo_precision":"range","state":"CA"},"type":"Feature","geometry":{"type":"Point","coordinates":[-121.434473,38.616822]}},{"properties":{"city":"Vernon","facility type":"Plant","zip":"90058","region":"West","geo_score":0.74,"facility name":"Vernon (Dr. Pepper)","id":"aakbyob2exff","address":"3220 East 26th Street","geo_precision":"street","state":"CA"},"type":"Feature","geometry":{"type":"Point","coordinates":[-118.22566,34.014334]}}],"is_temporal":false,"author":{"url":"","metadata":"","contact_name":"","contact_address":"","source":"","contact_phone":""},"source":"","pagination":{"sort":null,"start":0,"total":37,"limit":1000000},"state":"complete","tags":"","published":"2014-08-16T16:31:12-04:00","id":303014}