{"type":"FeatureCollection","data_type":"Dataset Analysis","url_type":null,"permissions":[{"permissions":{"download":true,"view":true},"group_id":"everyone"}],"classification":null,"title":"Intersection of 'CA Cities with 50,000 + Pop.' and 'CA Facilities Master 20 Mile Radius'","count":286,"stream_id":303017,"contributor":{"url":"http://geocommons.com/users/56415","name":"djjohnson6204455"},"data_attributes":null,"calculation_params":[{"calculation":"intersect","input":{"ds1":"303013","merge":"combine","ds2":"303015"}}],"icon_link":null,"link":"http://geocommons.com/overlays/303017.json","extent":[-122.457,32.6712,-116.036,40.6757],"geometry_types":["point"],"unique_name":null,"name":"Intersection of 'CA Cities with 50,000 + Pop.' and 'CA Facilities Master 20 Mile Radius'","feature_count":286,"description":"Dataset created by the intersection of 1) CA Cities with 50,000 + Pop. and 2) CA Facilities Master 20 Mile Radius","next_feature":null,"is_raster":false,"short_classification":"Y","stats":{"geo_score_2":{"max":0.714,"mean":0.713999999999999,"variance":1.23692005972154e-30,"stdev":1.11216907874727e-15,"median":0.714,"min":0.714},"geo_score":{"max":1.0,"mean":0.696318181818181,"variance":0.0272194808612441,"stdev":0.164983274489398,"median":0.607,"min":0.607}},"features":[{"properties":{"column_4":null,"city":"American Canyon","city_2":"Alameda","geo_score_2":0.714,"facility type":"Plant","zip":"94503","region":"Northwest","county":"Alameda","geo_precision_2":"city","state_2":"CA","geo_score":1.0,"facility name":"American Canyon","id":"aakc47oo3sig","address":"1201 Commerce Blvd","geo_precision":"range","state":"CA"},"type":"Feature","geometry":{"type":"Point","coordinates":[-122.264779,37.770563]}},{"properties":{"column_4":null,"city":"American Canyon","city_2":"Alameda","geo_score_2":0.714,"facility type":"Plant","zip":"94503","region":"Northwest","county":"Alameda","geo_precision_2":"city","state_2":"CA","geo_score":1.0,"facility name":"American Canyon","id":"aakc47k0zgdp","address":"1201 Commerce Blvd","geo_precision":"range","state":"CA"},"type":"Feature","geometry":{"type":"Point","coordinates":[-122.264779,37.770563]}},{"properties":{"column_4":null,"city":"Anaheim","city_2":"Alhambra","geo_score_2":0.714,"facility type":"Plant","zip":"92806","region":"West","county":"Los Angeles","geo_precision_2":"city","state_2":"CA","geo_score":0.607,"facility name":"Anaheim","id":"aakc47ktyvq8","address":"2121 E. Winston Rd.","geo_precision":"street","state":"CA"},"type":"Feature","geometry":{"type":"Point","coordinates":[-118.298662,33.786594]}},{"properties":{"column_4":null,"city":"Anaheim","city_2":"Alhambra","geo_score_2":0.714,"facility type":"Plant","zip":"92806","region":"West","county":"Los Angeles","geo_precision_2":"city","state_2":"CA","geo_score":0.607,"facility name":"Anaheim","id":"aakc47ji3fnl","address":"2121 E. Winston Rd.","geo_precision":"street","state":"CA"},"type":"Feature","geometry":{"type":"Point","coordinates":[-118.298662,33.786594]}},{"properties":{"column_4":null,"city":"Half Moon Bay","city_2":"Alhambra","geo_score_2":0.714,"facility type":"Office","zip":"94019","region":null,"county":"Los Angeles","geo_precision_2":"city","state_2":"CA","geo_score":1.0,"facility name":"Odwalla HQ","id":"aakc47vdh42t","address":"120 Stone Pine Rd.","geo_precision":"range","state":"CA"},"type":"Feature","geometry":{"type":"Point","coordinates":[-118.298662,33.786594]}},{"properties":{"column_4":null,"city":"Anaheim","city_2":"Alhambra","geo_score_2":0.714,"facility type":"Plant","zip":"92806","region":"West","county":"Los Angeles","geo_precision_2":"city","state_2":"CA","geo_score":0.607,"facility name":"Anaheim","id":"aakc47w910uf","address":"2121 E. Winston Rd.","geo_precision":"street","state":"CA"},"type":"Feature","geometry":{"type":"Point","coordinates":[-118.298662,33.786594]}},{"properties":{"column_4":null,"city":"Anaheim","city_2":"Alhambra","geo_score_2":0.714,"facility type":"Plant","zip":"92806","region":"West","county":"Los Angeles","geo_precision_2":"city","state_2":"CA","geo_score":0.607,"facility name":"Anaheim","id":"aakc47lx5zjy","address":"2121 E. Winston Rd.","geo_precision":"street","state":"CA"},"type":"Feature","geometry":{"type":"Point","coordinates":[-118.298662,33.786594]}},{"properties":{"column_4":null,"city":"Anaheim","city_2":"Alhambra","geo_score_2":0.714,"facility type":"Plant","zip":"92806","region":"West","county":"Los Angeles","geo_precision_2":"city","state_2":"CA","geo_score":0.607,"facility name":"Anaheim","id":"aakc47wqjvov","address":"2121 E. Winston Rd.","geo_precision":"street","state":"CA"},"type":"Feature","geometry":{"type":"Point","coordinates":[-118.298662,33.786594]}},{"properties":{"column_4":null,"city":"Anaheim","city_2":"Anaheim","geo_score_2":0.714,"facility type":"Plant","zip":"92806","region":"West","county":"Orange","geo_precision_2":"city","state_2":"CA","geo_score":0.607,"facility name":"Anaheim","id":"aakc47p0izi1","address":"2121 E. Winston Rd.","geo_precision":"street","state":"CA"},"type":"Feature","geometry":{"type":"Point","coordinates":[-117.769442,33.640302]}},{"properties":{"column_4":null,"city":"Anaheim","city_2":"Anaheim","geo_score_2":0.714,"facility type":"Plant","zip":"92806","region":"West","county":"Orange","geo_precision_2":"city","state_2":"CA","geo_score":0.607,"facility name":"Anaheim","id":"aakc47oowt27","address":"2121 E. Winston Rd.","geo_precision":"street","state":"CA"},"type":"Feature","geometry":{"type":"Point","coordinates":[-117.769442,33.640302]}},{"properties":{"column_4":null,"city":"Anaheim","city_2":"Anaheim","geo_score_2":0.714,"facility type":"Plant","zip":"92806","region":"West","county":"Orange","geo_precision_2":"city","state_2":"CA","geo_score":0.607,"facility name":"Anaheim","id":"aakc47s8crky","address":"2121 E. Winston Rd.","geo_precision":"street","state":"CA"},"type":"Feature","geometry":{"type":"Point","coordinates":[-117.769442,33.640302]}},{"properties":{"column_4":null,"city":"American Canyon","city_2":"Antioch","geo_score_2":0.714,"facility type":"Plant","zip":"94503","region":"Northwest","county":"Contra Costa","geo_precision_2":"city","state_2":"CA","geo_score":1.0,"facility name":"American Canyon","id":"aakc47j034e8","address":"1201 Commerce Blvd","geo_precision":"range","state":"CA"},"type":"Feature","geometry":{"type":"Point","coordinates":[-121.906748,37.931997]}},{"properties":{"column_4":null,"city":"American Canyon","city_2":"Arcadia","geo_score_2":0.714,"facility type":"Plant","zip":"94503","region":"Northwest","county":"Los Angeles","geo_precision_2":"city","state_2":"CA","geo_score":1.0,"facility name":"American Canyon","id":"aakc47thsm58","address":"1201 Commerce Blvd","geo_precision":"range","state":"CA"},"type":"Feature","geometry":{"type":"Point","coordinates":[-121.383092,38.610452]}},{"properties":{"column_4":null,"city":"Anaheim","city_2":"Bakersfield","geo_score_2":0.714,"facility type":"Plant","zip":"92806","region":"West","county":"Kern","geo_precision_2":"city","state_2":"CA","geo_score":0.607,"facility name":"Anaheim","id":"aakc47v2q3ig","address":"2121 E. Winston Rd.","geo_precision":"street","state":"CA"},"type":"Feature","geometry":{"type":"Point","coordinates":[-119.007662,35.483501]}},{"properties":{"column_4":null,"city":"Anaheim","city_2":"Bellflower","geo_score_2":0.714,"facility type":"Plant","zip":"92806","region":"West","county":"Los Angeles","geo_precision_2":"city","state_2":"CA","geo_score":0.607,"facility name":"Anaheim","id":"aakc47r00rwu","address":"2121 E. Winston Rd.","geo_precision":"street","state":"CA"},"type":"Feature","geometry":{"type":"Point","coordinates":[-118.12965,33.888014]}},{"properties":{"column_4":null,"city":"Anaheim","city_2":"Bellflower","geo_score_2":0.714,"facility type":"Plant","zip":"92806","region":"West","county":"Los Angeles","geo_precision_2":"city","state_2":"CA","geo_score":0.607,"facility name":"Anaheim","id":"aakc47myr9rl","address":"2121 E. Winston Rd.","geo_precision":"street","state":"CA"},"type":"Feature","geometry":{"type":"Point","coordinates":[-118.12965,33.888014]}},{"properties":{"column_4":null,"city":"Anaheim","city_2":"Bellflower","geo_score_2":0.714,"facility type":"Plant","zip":"92806","region":"West","county":"Los Angeles","geo_precision_2":"city","state_2":"CA","geo_score":0.607,"facility name":"Anaheim","id":"aakc47kuyf9u","address":"2121 E. Winston Rd.","geo_precision":"street","state":"CA"},"type":"Feature","geometry":{"type":"Point","coordinates":[-118.12965,33.888014]}},{"properties":{"column_4":null,"city":"Anaheim","city_2":"Bellflower","geo_score_2":0.714,"facility type":"Plant","zip":"92806","region":"West","county":"Los Angeles","geo_precision_2":"city","state_2":"CA","geo_score":0.607,"facility name":"Anaheim","id":"aakc47r3u0sw","address":"2121 E. Winston Rd.","geo_precision":"street","state":"CA"},"type":"Feature","geometry":{"type":"Point","coordinates":[-118.12965,33.888014]}},{"properties":{"column_4":null,"city":"Half Moon Bay","city_2":"Bellflower","geo_score_2":0.714,"facility type":"Office","zip":"94019","region":null,"county":"Los Angeles","geo_precision_2":"city","state_2":"CA","geo_score":1.0,"facility name":"Odwalla HQ","id":"aakc47rzwsba","address":"120 Stone Pine Rd.","geo_precision":"range","state":"CA"},"type":"Feature","geometry":{"type":"Point","coordinates":[-118.12965,33.888014]}},{"properties":{"column_4":null,"city":"Anaheim","city_2":"Bellflower","geo_score_2":0.714,"facility type":"Plant","zip":"92806","region":"West","county":"Los Angeles","geo_precision_2":"city","state_2":"CA","geo_score":0.607,"facility name":"Anaheim","id":"aakc47tlqwbt","address":"2121 E. Winston Rd.","geo_precision":"street","state":"CA"},"type":"Feature","geometry":{"type":"Point","coordinates":[-118.12965,33.888014]}},{"properties":{"column_4":null,"city":"Anaheim","city_2":"Bellflower","geo_score_2":0.714,"facility type":"Plant","zip":"92806","region":"West","county":"Los Angeles","geo_precision_2":"city","state_2":"CA","geo_score":0.607,"facility name":"Anaheim","id":"aakc47j6rz3g","address":"2121 E. Winston Rd.","geo_precision":"street","state":"CA"},"type":"Feature","geometry":{"type":"Point","coordinates":[-118.12965,33.888014]}},{"properties":{"column_4":null,"city":"Anaheim","city_2":"Bellflower","geo_score_2":0.714,"facility type":"Plant","zip":"92806","region":"West","county":"Los Angeles","geo_precision_2":"city","state_2":"CA","geo_score":0.607,"facility name":"Anaheim","id":"aakc47kcskav","address":"2121 E. Winston Rd.","geo_precision":"street","state":"CA"},"type":"Feature","geometry":{"type":"Point","coordinates":[-118.12965,33.888014]}},{"properties":{"column_4":null,"city":"Anaheim","city_2":"Bellflower","geo_score_2":0.714,"facility type":"Plant","zip":"92806","region":"West","county":"Los Angeles","geo_precision_2":"city","state_2":"CA","geo_score":0.607,"facility name":"Anaheim","id":"aakc47nk49v5","address":"2121 E. Winston Rd.","geo_precision":"street","state":"CA"},"type":"Feature","geometry":{"type":"Point","coordinates":[-118.12965,33.888014]}},{"properties":{"column_4":null,"city":"Anaheim","city_2":"Brentwood","geo_score_2":0.714,"facility type":"Plant","zip":"92806","region":"West","county":"Contra Costa","geo_precision_2":"city","state_2":"CA","geo_score":0.607,"facility name":"Anaheim","id":"aakc47m0aaf8","address":"2121 E. Winston Rd.","geo_precision":"street","state":"CA"},"type":"Feature","geometry":{"type":"Point","coordinates":[-118.473969,34.051954]}},{"properties":{"column_4":null,"city":"Anaheim","city_2":"Brentwood","geo_score_2":0.714,"facility type":"Plant","zip":"92806","region":"West","county":"Contra Costa","geo_precision_2":"city","state_2":"CA","geo_score":0.607,"facility name":"Anaheim","id":"aakc47tp3xnl","address":"2121 E. Winston Rd.","geo_precision":"street","state":"CA"},"type":"Feature","geometry":{"type":"Point","coordinates":[-118.473969,34.051954]}},{"properties":{"column_4":null,"city":"Anaheim","city_2":"Brentwood","geo_score_2":0.714,"facility type":"Plant","zip":"92806","region":"West","county":"Contra Costa","geo_precision_2":"city","state_2":"CA","geo_score":0.607,"facility name":"Anaheim","id":"aakc47iv38q6","address":"2121 E. Winston Rd.","geo_precision":"street","state":"CA"},"type":"Feature","geometry":{"type":"Point","coordinates":[-118.473969,34.051954]}},{"properties":{"column_4":null,"city":"Anaheim","city_2":"Brentwood","geo_score_2":0.714,"facility type":"Plant","zip":"92806","region":"West","county":"Contra Costa","geo_precision_2":"city","state_2":"CA","geo_score":0.607,"facility name":"Anaheim","id":"aakc47kxeg8v","address":"2121 E. Winston Rd.","geo_precision":"street","state":"CA"},"type":"Feature","geometry":{"type":"Point","coordinates":[-118.473969,34.051954]}},{"properties":{"column_4":null,"city":"Anaheim","city_2":"Brentwood","geo_score_2":0.714,"facility type":"Plant","zip":"92806","region":"West","county":"Contra Costa","geo_precision_2":"city","state_2":"CA","geo_score":0.607,"facility name":"Anaheim","id":"aakc47k0dhx6","address":"2121 E. Winston Rd.","geo_precision":"street","state":"CA"},"type":"Feature","geometry":{"type":"Point","coordinates":[-118.473969,34.051954]}},{"properties":{"column_4":null,"city":"Anaheim","city_2":"Buena Park","geo_score_2":0.714,"facility type":"Plant","zip":"92806","region":"West","county":"Orange","geo_precision_2":"city","state_2":"CA","geo_score":0.607,"facility name":"Anaheim","id":"aakc47hxed9h","address":"2121 E. Winston Rd.","geo_precision":"street","state":"CA"},"type":"Feature","geometry":{"type":"Point","coordinates":[-117.769442,33.640302]}},{"properties":{"column_4":null,"city":"Anaheim","city_2":"Buena Park","geo_score_2":0.714,"facility type":"Plant","zip":"92806","region":"West","county":"Orange","geo_precision_2":"city","state_2":"CA","geo_score":0.607,"facility name":"Anaheim","id":"aakc47sy4t99","address":"2121 E. Winston Rd.","geo_precision":"street","state":"CA"},"type":"Feature","geometry":{"type":"Point","coordinates":[-117.769442,33.640302]}},{"properties":{"column_4":null,"city":"Anaheim","city_2":"Buena Park","geo_score_2":0.714,"facility type":"Plant","zip":"92806","region":"West","county":"Orange","geo_precision_2":"city","state_2":"CA","geo_score":0.607,"facility name":"Anaheim","id":"aakc47x3urif","address":"2121 E. Winston Rd.","geo_precision":"street","state":"CA"},"type":"Feature","geometry":{"type":"Point","coordinates":[-117.769442,33.640302]}},{"properties":{"column_4":null,"city":"Anaheim","city_2":"Burbank","geo_score_2":0.714,"facility type":"Plant","zip":"92806","region":"West","county":"Los Angeles","geo_precision_2":"city","state_2":"CA","geo_score":0.607,"facility name":"Anaheim","id":"aakc47t09apm","address":"2121 E. Winston Rd.","geo_precision":"street","state":"CA"},"type":"Feature","geometry":{"type":"Point","coordinates":[-118.298662,33.786594]}},{"properties":{"column_4":null,"city":"Anaheim","city_2":"Burbank","geo_score_2":0.714,"facility type":"Plant","zip":"92806","region":"West","county":"Los Angeles","geo_precision_2":"city","state_2":"CA","geo_score":0.607,"facility name":"Anaheim","id":"aakc47mtbjdm","address":"2121 E. Winston Rd.","geo_precision":"street","state":"CA"},"type":"Feature","geometry":{"type":"Point","coordinates":[-118.298662,33.786594]}},{"properties":{"column_4":null,"city":"Half Moon Bay","city_2":"Burbank","geo_score_2":0.714,"facility type":"Office","zip":"94019","region":null,"county":"Los Angeles","geo_precision_2":"city","state_2":"CA","geo_score":1.0,"facility name":"Odwalla HQ","id":"aakc47nll2w7","address":"120 Stone Pine Rd.","geo_precision":"range","state":"CA"},"type":"Feature","geometry":{"type":"Point","coordinates":[-118.298662,33.786594]}},{"properties":{"column_4":null,"city":"Anaheim","city_2":"Burbank","geo_score_2":0.714,"facility type":"Plant","zip":"92806","region":"West","county":"Los Angeles","geo_precision_2":"city","state_2":"CA","geo_score":0.607,"facility name":"Anaheim","id":"aakc47v1sc5t","address":"2121 E. Winston Rd.","geo_precision":"street","state":"CA"},"type":"Feature","geometry":{"type":"Point","coordinates":[-118.298662,33.786594]}},{"properties":{"column_4":null,"city":"Anaheim","city_2":"Burbank","geo_score_2":0.714,"facility type":"Plant","zip":"92806","region":"West","county":"Los Angeles","geo_precision_2":"city","state_2":"CA","geo_score":0.607,"facility name":"Anaheim","id":"aakc47r7cxn9","address":"2121 E. Winston Rd.","geo_precision":"street","state":"CA"},"type":"Feature","geometry":{"type":"Point","coordinates":[-118.298662,33.786594]}},{"properties":{"column_4":null,"city":"Anaheim","city_2":"Burbank","geo_score_2":0.714,"facility type":"Plant","zip":"92806","region":"West","county":"Los Angeles","geo_precision_2":"city","state_2":"CA","geo_score":0.607,"facility name":"Anaheim","id":"aakc47k6sjt0","address":"2121 E. Winston Rd.","geo_precision":"street","state":"CA"},"type":"Feature","geometry":{"type":"Point","coordinates":[-118.298662,33.786594]}},{"properties":{"column_4":null,"city":"Anaheim","city_2":"Camarillo","geo_score_2":0.714,"facility type":"Plant","zip":"92806","region":"West","county":"Ventura","geo_precision_2":"city","state_2":"CA","geo_score":0.607,"facility name":"Anaheim","id":"aakc47hjzrm5","address":"2121 E. Winston Rd.","geo_precision":"street","state":"CA"},"type":"Feature","geometry":{"type":"Point","coordinates":[-119.084253,34.307783]}},{"properties":{"column_4":null,"city":"Anaheim","city_2":"Cathedral City","geo_score_2":0.714,"facility type":"Plant","zip":"92806","region":"West","county":"Riverside","geo_precision_2":"city","state_2":"CA","geo_score":0.607,"facility name":"Anaheim","id":"aakc47mg6hmw","address":"2121 E. Winston Rd.","geo_precision":"street","state":"CA"},"type":"Feature","geometry":{"type":"Point","coordinates":[-116.277152,33.647301]}},{"properties":{"column_4":null,"city":"American Canyon","city_2":"Citrus Heights","geo_score_2":0.714,"facility type":"Plant","zip":"94503","region":"Northwest","county":"Sacramento","geo_precision_2":"city","state_2":"CA","geo_score":1.0,"facility name":"American Canyon","id":"aakc47qy65nb","address":"1201 Commerce Blvd","geo_precision":"range","state":"CA"},"type":"Feature","geometry":{"type":"Point","coordinates":[-121.26736,38.689802]}},{"properties":{"column_4":null,"city":"Anaheim","city_2":"Clovis","geo_score_2":0.714,"facility type":"Plant","zip":"92806","region":"West","county":"Fresno","geo_precision_2":"city","state_2":"CA","geo_score":0.607,"facility name":"Anaheim","id":"aakc47igwdfp","address":"2121 E. Winston Rd.","geo_precision":"street","state":"CA"},"type":"Feature","geometry":{"type":"Point","coordinates":[-119.592146,36.832583]}},{"properties":{"column_4":null,"city":"Anaheim","city_2":"Colton","geo_score_2":0.714,"facility type":"Plant","zip":"92806","region":"West","county":"San Bernardino","geo_precision_2":"city","state_2":"CA","geo_score":0.607,"facility name":"Anaheim","id":"aakc47j0bqm7","address":"2121 E. Winston Rd.","geo_precision":"street","state":"CA"},"type":"Feature","geometry":{"type":"Point","coordinates":[-116.900557,34.151161]}},{"properties":{"column_4":null,"city":"American Canyon","city_2":"Concord","geo_score_2":0.714,"facility type":"Plant","zip":"94503","region":"Northwest","county":"Contra Costa","geo_precision_2":"city","state_2":"CA","geo_score":1.0,"facility name":"American Canyon","id":"aakc47oamx8f","address":"1201 Commerce Blvd","geo_precision":"range","state":"CA"},"type":"Feature","geometry":{"type":"Point","coordinates":[-122.022872,37.953672]}},{"properties":{"column_4":null,"city":"Anaheim","city_2":"Corona","geo_score_2":0.714,"facility type":"Plant","zip":"92806","region":"West","county":"Riverside","geo_precision_2":"city","state_2":"CA","geo_score":0.607,"facility name":"Anaheim","id":"aakc47stje5a","address":"2121 E. Winston Rd.","geo_precision":"street","state":"CA"},"type":"Feature","geometry":{"type":"Point","coordinates":[-116.055617,33.752886]}},{"properties":{"column_4":null,"city":"Anaheim","city_2":"Delano","geo_score_2":0.714,"facility type":"Plant","zip":"92806","region":"West","county":"Kern","geo_precision_2":"city","state_2":"CA","geo_score":0.607,"facility name":"Anaheim","id":"aakc47q2a77l","address":"2121 E. Winston Rd.","geo_precision":"street","state":"CA"},"type":"Feature","geometry":{"type":"Point","coordinates":[-118.905173,35.294405]}},{"properties":{"column_4":null,"city":"Anaheim","city_2":"Diamond Bar","geo_score_2":0.714,"facility type":"Plant","zip":"92806","region":"West","county":"Los Angeles","geo_precision_2":"city","state_2":"CA","geo_score":0.607,"facility name":"Anaheim","id":"aakc47l9n860","address":"2121 E. Winston Rd.","geo_precision":"street","state":"CA"},"type":"Feature","geometry":{"type":"Point","coordinates":[-118.298662,33.786594]}},{"properties":{"column_4":null,"city":"Anaheim","city_2":"Diamond Bar","geo_score_2":0.714,"facility type":"Plant","zip":"92806","region":"West","county":"Los Angeles","geo_precision_2":"city","state_2":"CA","geo_score":0.607,"facility name":"Anaheim","id":"aakc47mqgr3g","address":"2121 E. Winston Rd.","geo_precision":"street","state":"CA"},"type":"Feature","geometry":{"type":"Point","coordinates":[-118.298662,33.786594]}},{"properties":{"column_4":null,"city":"Half Moon Bay","city_2":"Diamond Bar","geo_score_2":0.714,"facility type":"Office","zip":"94019","region":null,"county":"Los Angeles","geo_precision_2":"city","state_2":"CA","geo_score":1.0,"facility name":"Odwalla HQ","id":"aakc47tu2ms4","address":"120 Stone Pine Rd.","geo_precision":"range","state":"CA"},"type":"Feature","geometry":{"type":"Point","coordinates":[-118.298662,33.786594]}},{"properties":{"column_4":null,"city":"Anaheim","city_2":"Diamond Bar","geo_score_2":0.714,"facility type":"Plant","zip":"92806","region":"West","county":"Los Angeles","geo_precision_2":"city","state_2":"CA","geo_score":0.607,"facility name":"Anaheim","id":"aakc47hhwhya","address":"2121 E. Winston Rd.","geo_precision":"street","state":"CA"},"type":"Feature","geometry":{"type":"Point","coordinates":[-118.298662,33.786594]}},{"properties":{"column_4":null,"city":"Anaheim","city_2":"Diamond Bar","geo_score_2":0.714,"facility type":"Plant","zip":"92806","region":"West","county":"Los Angeles","geo_precision_2":"city","state_2":"CA","geo_score":0.607,"facility name":"Anaheim","id":"aakc47pfpdvs","address":"2121 E. Winston Rd.","geo_precision":"street","state":"CA"},"type":"Feature","geometry":{"type":"Point","coordinates":[-118.298662,33.786594]}},{"properties":{"column_4":null,"city":"Anaheim","city_2":"Diamond Bar","geo_score_2":0.714,"facility type":"Plant","zip":"92806","region":"West","county":"Los Angeles","geo_precision_2":"city","state_2":"CA","geo_score":0.607,"facility name":"Anaheim","id":"aakc47ubeirx","address":"2121 E. Winston Rd.","geo_precision":"street","state":"CA"},"type":"Feature","geometry":{"type":"Point","coordinates":[-118.298662,33.786594]}},{"properties":{"column_4":null,"city":"Anaheim","city_2":"El Cajon","geo_score_2":0.714,"facility type":"Plant","zip":"92806","region":"West","county":"San Diego","geo_precision_2":"city","state_2":"CA","geo_score":0.607,"facility name":"Anaheim","id":"aakc47o9b0km","address":"2121 E. Winston Rd.","geo_precision":"street","state":"CA"},"type":"Feature","geometry":{"type":"Point","coordinates":[-117.041287,32.865113]}},{"properties":{"column_4":null,"city":"Anaheim","city_2":"Escondido","geo_score_2":0.714,"facility type":"Plant","zip":"92806","region":"West","county":"San Diego","geo_precision_2":"city","state_2":"CA","geo_score":0.607,"facility name":"Anaheim","id":"aakc47jp20ft","address":"2121 E. Winston Rd.","geo_precision":"street","state":"CA"},"type":"Feature","geometry":{"type":"Point","coordinates":[-117.36865,33.181704]}},{"properties":{"column_4":null,"city":"American Canyon","city_2":"Fairfield","geo_score_2":0.714,"facility type":"Plant","zip":"94503","region":"Northwest","county":"Solano","geo_precision_2":"city","state_2":"CA","geo_score":1.0,"facility name":"American Canyon","id":"aakc47rqg2g3","address":"1201 Commerce Blvd","geo_precision":"range","state":"CA"},"type":"Feature","geometry":{"type":"Point","coordinates":[-122.020276,38.278428]}},{"properties":{"column_4":null,"city":"American Canyon","city_2":"Fairfield","geo_score_2":0.714,"facility type":"Plant","zip":"94503","region":"Northwest","county":"Solano","geo_precision_2":"city","state_2":"CA","geo_score":1.0,"facility name":"American Canyon","id":"aakc47rhorh5","address":"1201 Commerce Blvd","geo_precision":"range","state":"CA"},"type":"Feature","geometry":{"type":"Point","coordinates":[-122.020276,38.278428]}},{"properties":{"column_4":null,"city":"American Canyon","city_2":"Folsom","geo_score_2":0.714,"facility type":"Plant","zip":"94503","region":"Northwest","county":"Sacramento","geo_precision_2":"city","state_2":"CA","geo_score":1.0,"facility name":"American Canyon","id":"aakc47vbnq8v","address":"1201 Commerce Blvd","geo_precision":"range","state":"CA"},"type":"Feature","geometry":{"type":"Point","coordinates":[-121.310796,38.594181]}},{"properties":{"column_4":null,"city":"Anaheim","city_2":"Fullerton","geo_score_2":0.714,"facility type":"Plant","zip":"92806","region":"West","county":"Orange","geo_precision_2":"city","state_2":"CA","geo_score":0.607,"facility name":"Anaheim","id":"aakc47lzbpmp","address":"2121 E. Winston Rd.","geo_precision":"street","state":"CA"},"type":"Feature","geometry":{"type":"Point","coordinates":[-117.925338,33.870292]}},{"properties":{"column_4":null,"city":"Anaheim","city_2":"Fullerton","geo_score_2":0.714,"facility type":"Plant","zip":"92806","region":"West","county":"Orange","geo_precision_2":"city","state_2":"CA","geo_score":0.607,"facility name":"Anaheim","id":"aakc47pfnmhb","address":"2121 E. Winston Rd.","geo_precision":"street","state":"CA"},"type":"Feature","geometry":{"type":"Point","coordinates":[-117.925338,33.870292]}},{"properties":{"column_4":null,"city":"Anaheim","city_2":"Fullerton","geo_score_2":0.714,"facility type":"Plant","zip":"92806","region":"West","county":"Orange","geo_precision_2":"city","state_2":"CA","geo_score":0.607,"facility name":"Anaheim","id":"aakc47qlrrcv","address":"2121 E. Winston Rd.","geo_precision":"street","state":"CA"},"type":"Feature","geometry":{"type":"Point","coordinates":[-117.925338,33.870292]}},{"properties":{"column_4":null,"city":"Anaheim","city_2":"Fullerton","geo_score_2":0.714,"facility type":"Plant","zip":"92806","region":"West","county":"Orange","geo_precision_2":"city","state_2":"CA","geo_score":0.607,"facility name":"Anaheim","id":"aakc47i2n7il","address":"2121 E. Winston Rd.","geo_precision":"street","state":"CA"},"type":"Feature","geometry":{"type":"Point","coordinates":[-117.925338,33.870292]}},{"properties":{"column_4":null,"city":"Half Moon Bay","city_2":"Fullerton","geo_score_2":0.714,"facility type":"Office","zip":"94019","region":null,"county":"Orange","geo_precision_2":"city","state_2":"CA","geo_score":1.0,"facility name":"Odwalla HQ","id":"aakc47mw1tjd","address":"120 Stone Pine Rd.","geo_precision":"range","state":"CA"},"type":"Feature","geometry":{"type":"Point","coordinates":[-117.925338,33.870292]}},{"properties":{"column_4":null,"city":"Anaheim","city_2":"Fullerton","geo_score_2":0.714,"facility type":"Plant","zip":"92806","region":"West","county":"Orange","geo_precision_2":"city","state_2":"CA","geo_score":0.607,"facility name":"Anaheim","id":"aakc47kil0q2","address":"2121 E. Winston Rd.","geo_precision":"street","state":"CA"},"type":"Feature","geometry":{"type":"Point","coordinates":[-117.925338,33.870292]}},{"properties":{"column_4":null,"city":"Anaheim","city_2":"Fullerton","geo_score_2":0.714,"facility type":"Plant","zip":"92806","region":"West","county":"Orange","geo_precision_2":"city","state_2":"CA","geo_score":0.607,"facility name":"Anaheim","id":"aakc47weowgn","address":"2121 E. Winston Rd.","geo_precision":"street","state":"CA"},"type":"Feature","geometry":{"type":"Point","coordinates":[-117.925338,33.870292]}},{"properties":{"column_4":null,"city":"Anaheim","city_2":"Garden Grove","geo_score_2":0.714,"facility type":"Plant","zip":"92806","region":"West","county":"Orange","geo_precision_2":"city","state_2":"CA","geo_score":0.607,"facility name":"Anaheim","id":"aakc47ilhm1q","address":"2121 E. Winston Rd.","geo_precision":"street","state":"CA"},"type":"Feature","geometry":{"type":"Point","coordinates":[-118.295256,33.888315]}},{"properties":{"column_4":null,"city":"Anaheim","city_2":"Garden Grove","geo_score_2":0.714,"facility type":"Plant","zip":"92806","region":"West","county":"Orange","geo_precision_2":"city","state_2":"CA","geo_score":0.607,"facility name":"Anaheim","id":"aakc47ud3zfb","address":"2121 E. Winston Rd.","geo_precision":"street","state":"CA"},"type":"Feature","geometry":{"type":"Point","coordinates":[-118.295256,33.888315]}},{"properties":{"column_4":null,"city":"Half Moon Bay","city_2":"Garden Grove","geo_score_2":0.714,"facility type":"Office","zip":"94019","region":null,"county":"Orange","geo_precision_2":"city","state_2":"CA","geo_score":1.0,"facility name":"Odwalla HQ","id":"aakc47vzqqp0","address":"120 Stone Pine Rd.","geo_precision":"range","state":"CA"},"type":"Feature","geometry":{"type":"Point","coordinates":[-118.295256,33.888315]}},{"properties":{"column_4":null,"city":"Anaheim","city_2":"Garden Grove","geo_score_2":0.714,"facility type":"Plant","zip":"92806","region":"West","county":"Orange","geo_precision_2":"city","state_2":"CA","geo_score":0.607,"facility name":"Anaheim","id":"aakc47xhqbxh","address":"2121 E. Winston Rd.","geo_precision":"street","state":"CA"},"type":"Feature","geometry":{"type":"Point","coordinates":[-118.295256,33.888315]}},{"properties":{"column_4":null,"city":"Anaheim","city_2":"Garden Grove","geo_score_2":0.714,"facility type":"Plant","zip":"92806","region":"West","county":"Orange","geo_precision_2":"city","state_2":"CA","geo_score":0.607,"facility name":"Anaheim","id":"aakc47p1mlh1","address":"2121 E. Winston Rd.","geo_precision":"street","state":"CA"},"type":"Feature","geometry":{"type":"Point","coordinates":[-118.295256,33.888315]}},{"properties":{"column_4":null,"city":"Anaheim","city_2":"Garden Grove","geo_score_2":0.714,"facility type":"Plant","zip":"92806","region":"West","county":"Orange","geo_precision_2":"city","state_2":"CA","geo_score":0.607,"facility name":"Anaheim","id":"aakc47lgjkf5","address":"2121 E. Winston Rd.","geo_precision":"street","state":"CA"},"type":"Feature","geometry":{"type":"Point","coordinates":[-118.295256,33.888315]}},{"properties":{"column_4":null,"city":"Anaheim","city_2":"Gardena","geo_score_2":0.714,"facility type":"Plant","zip":"92806","region":"West","county":"Los Angeles","geo_precision_2":"city","state_2":"CA","geo_score":0.607,"facility name":"Anaheim","id":"aakc47qz3wdk","address":"2121 E. Winston Rd.","geo_precision":"street","state":"CA"},"type":"Feature","geometry":{"type":"Point","coordinates":[-118.295256,33.888315]}},{"properties":{"column_4":null,"city":"Anaheim","city_2":"Gardena","geo_score_2":0.714,"facility type":"Plant","zip":"92806","region":"West","county":"Los Angeles","geo_precision_2":"city","state_2":"CA","geo_score":0.607,"facility name":"Anaheim","id":"aakc47unck12","address":"2121 E. Winston Rd.","geo_precision":"street","state":"CA"},"type":"Feature","geometry":{"type":"Point","coordinates":[-118.295256,33.888315]}},{"properties":{"column_4":null,"city":"Half Moon Bay","city_2":"Gardena","geo_score_2":0.714,"facility type":"Office","zip":"94019","region":null,"county":"Los Angeles","geo_precision_2":"city","state_2":"CA","geo_score":1.0,"facility name":"Odwalla HQ","id":"aakc47xg1wx3","address":"120 Stone Pine Rd.","geo_precision":"range","state":"CA"},"type":"Feature","geometry":{"type":"Point","coordinates":[-118.295256,33.888315]}},{"properties":{"column_4":null,"city":"Anaheim","city_2":"Gardena","geo_score_2":0.714,"facility type":"Plant","zip":"92806","region":"West","county":"Los Angeles","geo_precision_2":"city","state_2":"CA","geo_score":0.607,"facility name":"Anaheim","id":"aakc47phs9xu","address":"2121 E. Winston Rd.","geo_precision":"street","state":"CA"},"type":"Feature","geometry":{"type":"Point","coordinates":[-118.295256,33.888315]}},{"properties":{"column_4":null,"city":"Anaheim","city_2":"Gardena","geo_score_2":0.714,"facility type":"Plant","zip":"92806","region":"West","county":"Los Angeles","geo_precision_2":"city","state_2":"CA","geo_score":0.607,"facility name":"Anaheim","id":"aakc47wiy0ji","address":"2121 E. Winston Rd.","geo_precision":"street","state":"CA"},"type":"Feature","geometry":{"type":"Point","coordinates":[-118.295256,33.888315]}},{"properties":{"column_4":null,"city":"Anaheim","city_2":"Gardena","geo_score_2":0.714,"facility type":"Plant","zip":"92806","region":"West","county":"Los Angeles","geo_precision_2":"city","state_2":"CA","geo_score":0.607,"facility name":"Anaheim","id":"aakc47obrmrc","address":"2121 E. Winston Rd.","geo_precision":"street","state":"CA"},"type":"Feature","geometry":{"type":"Point","coordinates":[-118.295256,33.888315]}},{"properties":{"column_4":null,"city":"Anaheim","city_2":"Glendale","geo_score_2":0.714,"facility type":"Plant","zip":"92806","region":"West","county":"Los Angeles","geo_precision_2":"city","state_2":"CA","geo_score":0.607,"facility name":"Anaheim","id":"aakc47jxlsi8","address":"2121 E. Winston Rd.","geo_precision":"street","state":"CA"},"type":"Feature","geometry":{"type":"Point","coordinates":[-118.298662,33.786594]}},{"properties":{"column_4":null,"city":"Anaheim","city_2":"Glendale","geo_score_2":0.714,"facility type":"Plant","zip":"92806","region":"West","county":"Los Angeles","geo_precision_2":"city","state_2":"CA","geo_score":0.607,"facility name":"Anaheim","id":"aakc47kurx9t","address":"2121 E. Winston Rd.","geo_precision":"street","state":"CA"},"type":"Feature","geometry":{"type":"Point","coordinates":[-118.298662,33.786594]}},{"properties":{"column_4":null,"city":"Half Moon Bay","city_2":"Glendale","geo_score_2":0.714,"facility type":"Office","zip":"94019","region":null,"county":"Los Angeles","geo_precision_2":"city","state_2":"CA","geo_score":1.0,"facility name":"Odwalla HQ","id":"aakc47t018at","address":"120 Stone Pine Rd.","geo_precision":"range","state":"CA"},"type":"Feature","geometry":{"type":"Point","coordinates":[-118.298662,33.786594]}},{"properties":{"column_4":null,"city":"Anaheim","city_2":"Glendale","geo_score_2":0.714,"facility type":"Plant","zip":"92806","region":"West","county":"Los Angeles","geo_precision_2":"city","state_2":"CA","geo_score":0.607,"facility name":"Anaheim","id":"aakc47maa255","address":"2121 E. Winston Rd.","geo_precision":"street","state":"CA"},"type":"Feature","geometry":{"type":"Point","coordinates":[-118.298662,33.786594]}},{"properties":{"column_4":null,"city":"Anaheim","city_2":"Glendale","geo_score_2":0.714,"facility type":"Plant","zip":"92806","region":"West","county":"Los Angeles","geo_precision_2":"city","state_2":"CA","geo_score":0.607,"facility name":"Anaheim","id":"aakc47kf7uaj","address":"2121 E. Winston Rd.","geo_precision":"street","state":"CA"},"type":"Feature","geometry":{"type":"Point","coordinates":[-118.298662,33.786594]}},{"properties":{"column_4":null,"city":"Anaheim","city_2":"Glendale","geo_score_2":0.714,"facility type":"Plant","zip":"92806","region":"West","county":"Los Angeles","geo_precision_2":"city","state_2":"CA","geo_score":0.607,"facility name":"Anaheim","id":"aakc47koty9s","address":"2121 E. Winston Rd.","geo_precision":"street","state":"CA"},"type":"Feature","geometry":{"type":"Point","coordinates":[-118.298662,33.786594]}},{"properties":{"column_4":null,"city":"Anaheim","city_2":"Glendora","geo_score_2":0.714,"facility type":"Plant","zip":"92806","region":"West","county":"Los Angeles","geo_precision_2":"city","state_2":"CA","geo_score":0.607,"facility name":"Anaheim","id":"aakc47tdgy28","address":"2121 E. Winston Rd.","geo_precision":"street","state":"CA"},"type":"Feature","geometry":{"type":"Point","coordinates":[-118.298662,33.786594]}},{"properties":{"column_4":null,"city":"Anaheim","city_2":"Glendora","geo_score_2":0.714,"facility type":"Plant","zip":"92806","region":"West","county":"Los Angeles","geo_precision_2":"city","state_2":"CA","geo_score":0.607,"facility name":"Anaheim","id":"aakc47mvz9x8","address":"2121 E. Winston Rd.","geo_precision":"street","state":"CA"},"type":"Feature","geometry":{"type":"Point","coordinates":[-118.298662,33.786594]}},{"properties":{"column_4":null,"city":"Half Moon Bay","city_2":"Glendora","geo_score_2":0.714,"facility type":"Office","zip":"94019","region":null,"county":"Los Angeles","geo_precision_2":"city","state_2":"CA","geo_score":1.0,"facility name":"Odwalla HQ","id":"aakc47wdcx8f","address":"120 Stone Pine Rd.","geo_precision":"range","state":"CA"},"type":"Feature","geometry":{"type":"Point","coordinates":[-118.298662,33.786594]}},{"properties":{"column_4":null,"city":"Anaheim","city_2":"Glendora","geo_score_2":0.714,"facility type":"Plant","zip":"92806","region":"West","county":"Los Angeles","geo_precision_2":"city","state_2":"CA","geo_score":0.607,"facility name":"Anaheim","id":"aakc47k96yxx","address":"2121 E. Winston Rd.","geo_precision":"street","state":"CA"},"type":"Feature","geometry":{"type":"Point","coordinates":[-118.298662,33.786594]}},{"properties":{"column_4":null,"city":"Anaheim","city_2":"Glendora","geo_score_2":0.714,"facility type":"Plant","zip":"92806","region":"West","county":"Los Angeles","geo_precision_2":"city","state_2":"CA","geo_score":0.607,"facility name":"Anaheim","id":"aakc47nqxcr6","address":"2121 E. Winston Rd.","geo_precision":"street","state":"CA"},"type":"Feature","geometry":{"type":"Point","coordinates":[-118.298662,33.786594]}},{"properties":{"column_4":null,"city":"Anaheim","city_2":"Glendora","geo_score_2":0.714,"facility type":"Plant","zip":"92806","region":"West","county":"Los Angeles","geo_precision_2":"city","state_2":"CA","geo_score":0.607,"facility name":"Anaheim","id":"aakc47snurdw","address":"2121 E. Winston Rd.","geo_precision":"street","state":"CA"},"type":"Feature","geometry":{"type":"Point","coordinates":[-118.298662,33.786594]}},{"properties":{"column_4":null,"city":"Anaheim","city_2":"Hawthorne","geo_score_2":0.714,"facility type":"Plant","zip":"92806","region":"West","county":"Los Angeles","geo_precision_2":"city","state_2":"CA","geo_score":0.607,"facility name":"Anaheim","id":"aakc47wwzajs","address":"2121 E. Winston Rd.","geo_precision":"street","state":"CA"},"type":"Feature","geometry":{"type":"Point","coordinates":[-118.298662,33.786594]}},{"properties":{"column_4":null,"city":"Anaheim","city_2":"Hawthorne","geo_score_2":0.714,"facility type":"Plant","zip":"92806","region":"West","county":"Los Angeles","geo_precision_2":"city","state_2":"CA","geo_score":0.607,"facility name":"Anaheim","id":"aakc47uvgtyy","address":"2121 E. Winston Rd.","geo_precision":"street","state":"CA"},"type":"Feature","geometry":{"type":"Point","coordinates":[-118.298662,33.786594]}},{"properties":{"column_4":null,"city":"Half Moon Bay","city_2":"Hawthorne","geo_score_2":0.714,"facility type":"Office","zip":"94019","region":null,"county":"Los Angeles","geo_precision_2":"city","state_2":"CA","geo_score":1.0,"facility name":"Odwalla HQ","id":"aakc47i0dqh8","address":"120 Stone Pine Rd.","geo_precision":"range","state":"CA"},"type":"Feature","geometry":{"type":"Point","coordinates":[-118.298662,33.786594]}},{"properties":{"column_4":null,"city":"Anaheim","city_2":"Hawthorne","geo_score_2":0.714,"facility type":"Plant","zip":"92806","region":"West","county":"Los Angeles","geo_precision_2":"city","state_2":"CA","geo_score":0.607,"facility name":"Anaheim","id":"aakc47o4unjd","address":"2121 E. Winston Rd.","geo_precision":"street","state":"CA"},"type":"Feature","geometry":{"type":"Point","coordinates":[-118.298662,33.786594]}},{"properties":{"column_4":null,"city":"Anaheim","city_2":"Hawthorne","geo_score_2":0.714,"facility type":"Plant","zip":"92806","region":"West","county":"Los Angeles","geo_precision_2":"city","state_2":"CA","geo_score":0.607,"facility name":"Anaheim","id":"aakc47oxeidq","address":"2121 E. Winston Rd.","geo_precision":"street","state":"CA"},"type":"Feature","geometry":{"type":"Point","coordinates":[-118.298662,33.786594]}},{"properties":{"column_4":null,"city":"Anaheim","city_2":"Hawthorne","geo_score_2":0.714,"facility type":"Plant","zip":"92806","region":"West","county":"Los Angeles","geo_precision_2":"city","state_2":"CA","geo_score":0.607,"facility name":"Anaheim","id":"aakc47scusn5","address":"2121 E. Winston Rd.","geo_precision":"street","state":"CA"},"type":"Feature","geometry":{"type":"Point","coordinates":[-118.298662,33.786594]}},{"properties":{"column_4":null,"city":"American Canyon","city_2":"Hayward","geo_score_2":0.714,"facility type":"Plant","zip":"94503","region":"Northwest","county":"Alameda","geo_precision_2":"city","state_2":"CA","geo_score":1.0,"facility name":"American Canyon","id":"aakc47p651js","address":"1201 Commerce Blvd","geo_precision":"range","state":"CA"},"type":"Feature","geometry":{"type":"Point","coordinates":[-121.921498,37.680181]}},{"properties":{"column_4":null,"city":"American Canyon","city_2":"Hayward","geo_score_2":0.714,"facility type":"Plant","zip":"94503","region":"Northwest","county":"Alameda","geo_precision_2":"city","state_2":"CA","geo_score":1.0,"facility name":"American Canyon","id":"aakc47v76sx9","address":"1201 Commerce Blvd","geo_precision":"range","state":"CA"},"type":"Feature","geometry":{"type":"Point","coordinates":[-121.921498,37.680181]}},{"properties":{"column_4":null,"city":"American Canyon","city_2":"Hayward","geo_score_2":0.714,"facility type":"Plant","zip":"94503","region":"Northwest","county":"Alameda","geo_precision_2":"city","state_2":"CA","geo_score":1.0,"facility name":"American Canyon","id":"aakc47r4owpb","address":"1201 Commerce Blvd","geo_precision":"range","state":"CA"},"type":"Feature","geometry":{"type":"Point","coordinates":[-121.921498,37.680181]}},{"properties":{"column_4":null,"city":"Anaheim","city_2":"Indio","geo_score_2":0.714,"facility type":"Plant","zip":"92806","region":"West","county":"Riverside","geo_precision_2":"city","state_2":"CA","geo_score":0.607,"facility name":"Anaheim","id":"aakc47sbqpzb","address":"2121 E. Winston Rd.","geo_precision":"street","state":"CA"},"type":"Feature","geometry":{"type":"Point","coordinates":[-116.035705,33.728721]}},{"properties":{"column_4":null,"city":"Anaheim","city_2":"Inglewood","geo_score_2":0.714,"facility type":"Plant","zip":"92806","region":"West","county":"Los Angeles","geo_precision_2":"city","state_2":"CA","geo_score":0.607,"facility name":"Anaheim","id":"aakc47qxo3as","address":"2121 E. Winston Rd.","geo_precision":"street","state":"CA"},"type":"Feature","geometry":{"type":"Point","coordinates":[-118.298662,33.786594]}},{"properties":{"column_4":null,"city":"Anaheim","city_2":"Inglewood","geo_score_2":0.714,"facility type":"Plant","zip":"92806","region":"West","county":"Los Angeles","geo_precision_2":"city","state_2":"CA","geo_score":0.607,"facility name":"Anaheim","id":"aakc47vjkyzi","address":"2121 E. Winston Rd.","geo_precision":"street","state":"CA"},"type":"Feature","geometry":{"type":"Point","coordinates":[-118.298662,33.786594]}},{"properties":{"column_4":null,"city":"Half Moon Bay","city_2":"Inglewood","geo_score_2":0.714,"facility type":"Office","zip":"94019","region":null,"county":"Los Angeles","geo_precision_2":"city","state_2":"CA","geo_score":1.0,"facility name":"Odwalla HQ","id":"aakc47mjbs68","address":"120 Stone Pine Rd.","geo_precision":"range","state":"CA"},"type":"Feature","geometry":{"type":"Point","coordinates":[-118.298662,33.786594]}},{"properties":{"column_4":null,"city":"Anaheim","city_2":"Inglewood","geo_score_2":0.714,"facility type":"Plant","zip":"92806","region":"West","county":"Los Angeles","geo_precision_2":"city","state_2":"CA","geo_score":0.607,"facility name":"Anaheim","id":"aakc47i6cza3","address":"2121 E. Winston Rd.","geo_precision":"street","state":"CA"},"type":"Feature","geometry":{"type":"Point","coordinates":[-118.298662,33.786594]}},{"properties":{"column_4":null,"city":"Anaheim","city_2":"Inglewood","geo_score_2":0.714,"facility type":"Plant","zip":"92806","region":"West","county":"Los Angeles","geo_precision_2":"city","state_2":"CA","geo_score":0.607,"facility name":"Anaheim","id":"aakc47wksk4n","address":"2121 E. Winston Rd.","geo_precision":"street","state":"CA"},"type":"Feature","geometry":{"type":"Point","coordinates":[-118.298662,33.786594]}},{"properties":{"column_4":null,"city":"Anaheim","city_2":"Inglewood","geo_score_2":0.714,"facility type":"Plant","zip":"92806","region":"West","county":"Los Angeles","geo_precision_2":"city","state_2":"CA","geo_score":0.607,"facility name":"Anaheim","id":"aakc47tz9shg","address":"2121 E. Winston Rd.","geo_precision":"street","state":"CA"},"type":"Feature","geometry":{"type":"Point","coordinates":[-118.298662,33.786594]}},{"properties":{"column_4":null,"city":"Anaheim","city_2":"Irvine","geo_score_2":0.714,"facility type":"Plant","zip":"92806","region":"West","county":"Orange","geo_precision_2":"city","state_2":"CA","geo_score":0.607,"facility name":"Anaheim","id":"aakc47ovip4g","address":"2121 E. Winston Rd.","geo_precision":"street","state":"CA"},"type":"Feature","geometry":{"type":"Point","coordinates":[-117.72222,33.718018]}},{"properties":{"column_4":null,"city":"Anaheim","city_2":"Irvine","geo_score_2":0.714,"facility type":"Plant","zip":"92806","region":"West","county":"Orange","geo_precision_2":"city","state_2":"CA","geo_score":0.607,"facility name":"Anaheim","id":"aakc47rdizow","address":"2121 E. Winston Rd.","geo_precision":"street","state":"CA"},"type":"Feature","geometry":{"type":"Point","coordinates":[-117.72222,33.718018]}},{"properties":{"column_4":null,"city":"Anaheim","city_2":"Irvine","geo_score_2":0.714,"facility type":"Plant","zip":"92806","region":"West","county":"Orange","geo_precision_2":"city","state_2":"CA","geo_score":0.607,"facility name":"Anaheim","id":"aakc47oq819x","address":"2121 E. Winston Rd.","geo_precision":"street","state":"CA"},"type":"Feature","geometry":{"type":"Point","coordinates":[-117.72222,33.718018]}},{"properties":{"column_4":null,"city":"Anaheim","city_2":"Irvine","geo_score_2":0.714,"facility type":"Plant","zip":"92806","region":"West","county":"Orange","geo_precision_2":"city","state_2":"CA","geo_score":0.607,"facility name":"Anaheim","id":"aakc47v2s9qo","address":"2121 E. Winston Rd.","geo_precision":"street","state":"CA"},"type":"Feature","geometry":{"type":"Point","coordinates":[-117.72222,33.718018]}},{"properties":{"column_4":null,"city":"Anaheim","city_2":"La Habra","geo_score_2":0.714,"facility type":"Plant","zip":"92806","region":"West","county":"Orange","geo_precision_2":"city","state_2":"CA","geo_score":0.607,"facility name":"Anaheim","id":"aakc47smsx4l","address":"2121 E. Winston Rd.","geo_precision":"street","state":"CA"},"type":"Feature","geometry":{"type":"Point","coordinates":[-117.769442,33.640302]}},{"properties":{"column_4":null,"city":"Anaheim","city_2":"La Habra","geo_score_2":0.714,"facility type":"Plant","zip":"92806","region":"West","county":"Orange","geo_precision_2":"city","state_2":"CA","geo_score":0.607,"facility name":"Anaheim","id":"aakc47qkuuw9","address":"2121 E. Winston Rd.","geo_precision":"street","state":"CA"},"type":"Feature","geometry":{"type":"Point","coordinates":[-117.769442,33.640302]}},{"properties":{"column_4":null,"city":"Anaheim","city_2":"La Habra","geo_score_2":0.714,"facility type":"Plant","zip":"92806","region":"West","county":"Orange","geo_precision_2":"city","state_2":"CA","geo_score":0.607,"facility name":"Anaheim","id":"aakc47t0y8fy","address":"2121 E. Winston Rd.","geo_precision":"street","state":"CA"},"type":"Feature","geometry":{"type":"Point","coordinates":[-117.769442,33.640302]}},{"properties":{"column_4":null,"city":"Anaheim","city_2":"La Mesa","geo_score_2":0.714,"facility type":"Plant","zip":"92806","region":"West","county":"San Diego","geo_precision_2":"city","state_2":"CA","geo_score":0.607,"facility name":"Anaheim","id":"aakc47wwb3j4","address":"2121 E. Winston Rd.","geo_precision":"street","state":"CA"},"type":"Feature","geometry":{"type":"Point","coordinates":[-116.998102,32.76105]}},{"properties":{"column_4":null,"city":"Anaheim","city_2":"Laguna Niguel","geo_score_2":0.714,"facility type":"Plant","zip":"92806","region":"West","county":"Orange","geo_precision_2":"city","state_2":"CA","geo_score":0.607,"facility name":"Anaheim","id":"aakc47x38tnt","address":"2121 E. Winston Rd.","geo_precision":"street","state":"CA"},"type":"Feature","geometry":{"type":"Point","coordinates":[-117.769442,33.640302]}},{"properties":{"column_4":null,"city":"Anaheim","city_2":"Laguna Niguel","geo_score_2":0.714,"facility type":"Plant","zip":"92806","region":"West","county":"Orange","geo_precision_2":"city","state_2":"CA","geo_score":0.607,"facility name":"Anaheim","id":"aakc47w8w0rx","address":"2121 E. Winston Rd.","geo_precision":"street","state":"CA"},"type":"Feature","geometry":{"type":"Point","coordinates":[-117.769442,33.640302]}},{"properties":{"column_4":null,"city":"Anaheim","city_2":"Laguna Niguel","geo_score_2":0.714,"facility type":"Plant","zip":"92806","region":"West","county":"Orange","geo_precision_2":"city","state_2":"CA","geo_score":0.607,"facility name":"Anaheim","id":"aakc47us9mb6","address":"2121 E. Winston Rd.","geo_precision":"street","state":"CA"},"type":"Feature","geometry":{"type":"Point","coordinates":[-117.769442,33.640302]}},{"properties":{"column_4":null,"city":"Anaheim","city_2":"Lakewood","geo_score_2":0.714,"facility type":"Plant","zip":"92806","region":"West","county":"Los Angeles","geo_precision_2":"city","state_2":"CA","geo_score":0.607,"facility name":"Anaheim","id":"aakc47nwg424","address":"2121 E. Winston Rd.","geo_precision":"street","state":"CA"},"type":"Feature","geometry":{"type":"Point","coordinates":[-118.298662,33.786594]}},{"properties":{"column_4":null,"city":"Anaheim","city_2":"Lakewood","geo_score_2":0.714,"facility type":"Plant","zip":"92806","region":"West","county":"Los Angeles","geo_precision_2":"city","state_2":"CA","geo_score":0.607,"facility name":"Anaheim","id":"aakc47t01h6j","address":"2121 E. Winston Rd.","geo_precision":"street","state":"CA"},"type":"Feature","geometry":{"type":"Point","coordinates":[-118.298662,33.786594]}},{"properties":{"column_4":null,"city":"Half Moon Bay","city_2":"Lakewood","geo_score_2":0.714,"facility type":"Office","zip":"94019","region":null,"county":"Los Angeles","geo_precision_2":"city","state_2":"CA","geo_score":1.0,"facility name":"Odwalla HQ","id":"aakc47v7wag6","address":"120 Stone Pine Rd.","geo_precision":"range","state":"CA"},"type":"Feature","geometry":{"type":"Point","coordinates":[-118.298662,33.786594]}},{"properties":{"column_4":null,"city":"Anaheim","city_2":"Lakewood","geo_score_2":0.714,"facility type":"Plant","zip":"92806","region":"West","county":"Los Angeles","geo_precision_2":"city","state_2":"CA","geo_score":0.607,"facility name":"Anaheim","id":"aakc47x567n9","address":"2121 E. Winston Rd.","geo_precision":"street","state":"CA"},"type":"Feature","geometry":{"type":"Point","coordinates":[-118.298662,33.786594]}},{"properties":{"column_4":null,"city":"Anaheim","city_2":"Lakewood","geo_score_2":0.714,"facility type":"Plant","zip":"92806","region":"West","county":"Los Angeles","geo_precision_2":"city","state_2":"CA","geo_score":0.607,"facility name":"Anaheim","id":"aakc47j24e9s","address":"2121 E. Winston Rd.","geo_precision":"street","state":"CA"},"type":"Feature","geometry":{"type":"Point","coordinates":[-118.298662,33.786594]}},{"properties":{"column_4":null,"city":"Anaheim","city_2":"Lakewood","geo_score_2":0.714,"facility type":"Plant","zip":"92806","region":"West","county":"Los Angeles","geo_precision_2":"city","state_2":"CA","geo_score":0.607,"facility name":"Anaheim","id":"aakc47l9oy8i","address":"2121 E. Winston Rd.","geo_precision":"street","state":"CA"},"type":"Feature","geometry":{"type":"Point","coordinates":[-118.298662,33.786594]}},{"properties":{"column_4":null,"city":"Anaheim","city_2":"Lancaster","geo_score_2":0.714,"facility type":"Plant","zip":"92806","region":"West","county":"Los Angeles","geo_precision_2":"city","state_2":"CA","geo_score":0.607,"facility name":"Anaheim","id":"aakc47q16oom","address":"2121 E. Winston Rd.","geo_precision":"street","state":"CA"},"type":"Feature","geometry":{"type":"Point","coordinates":[-118.298662,33.786594]}},{"properties":{"column_4":null,"city":"Anaheim","city_2":"Lancaster","geo_score_2":0.714,"facility type":"Plant","zip":"92806","region":"West","county":"Los Angeles","geo_precision_2":"city","state_2":"CA","geo_score":0.607,"facility name":"Anaheim","id":"aakc47ouok0q","address":"2121 E. Winston Rd.","geo_precision":"street","state":"CA"},"type":"Feature","geometry":{"type":"Point","coordinates":[-118.298662,33.786594]}},{"properties":{"column_4":null,"city":"Half Moon Bay","city_2":"Lancaster","geo_score_2":0.714,"facility type":"Office","zip":"94019","region":null,"county":"Los Angeles","geo_precision_2":"city","state_2":"CA","geo_score":1.0,"facility name":"Odwalla HQ","id":"aakc47jtmrfm","address":"120 Stone Pine Rd.","geo_precision":"range","state":"CA"},"type":"Feature","geometry":{"type":"Point","coordinates":[-118.298662,33.786594]}},{"properties":{"column_4":null,"city":"Anaheim","city_2":"Lancaster","geo_score_2":0.714,"facility type":"Plant","zip":"92806","region":"West","county":"Los Angeles","geo_precision_2":"city","state_2":"CA","geo_score":0.607,"facility name":"Anaheim","id":"aakc47ttmlmn","address":"2121 E. Winston Rd.","geo_precision":"street","state":"CA"},"type":"Feature","geometry":{"type":"Point","coordinates":[-118.298662,33.786594]}},{"properties":{"column_4":null,"city":"Anaheim","city_2":"Lancaster","geo_score_2":0.714,"facility type":"Plant","zip":"92806","region":"West","county":"Los Angeles","geo_precision_2":"city","state_2":"CA","geo_score":0.607,"facility name":"Anaheim","id":"aakc47pgmiwz","address":"2121 E. Winston Rd.","geo_precision":"street","state":"CA"},"type":"Feature","geometry":{"type":"Point","coordinates":[-118.298662,33.786594]}},{"properties":{"column_4":null,"city":"Anaheim","city_2":"Lancaster","geo_score_2":0.714,"facility type":"Plant","zip":"92806","region":"West","county":"Los Angeles","geo_precision_2":"city","state_2":"CA","geo_score":0.607,"facility name":"Anaheim","id":"aakc47ui10r5","address":"2121 E. Winston Rd.","geo_precision":"street","state":"CA"},"type":"Feature","geometry":{"type":"Point","coordinates":[-118.298662,33.786594]}},{"properties":{"column_4":null,"city":"American Canyon","city_2":"Livermore","geo_score_2":0.714,"facility type":"Plant","zip":"94503","region":"Northwest","county":"Alameda","geo_precision_2":"city","state_2":"CA","geo_score":1.0,"facility name":"American Canyon","id":"aakc47kv8vpq","address":"1201 Commerce Blvd","geo_precision":"range","state":"CA"},"type":"Feature","geometry":{"type":"Point","coordinates":[-121.91605,37.676781]}},{"properties":{"column_4":null,"city":"American Canyon","city_2":"Livermore","geo_score_2":0.714,"facility type":"Plant","zip":"94503","region":"Northwest","county":"Alameda","geo_precision_2":"city","state_2":"CA","geo_score":1.0,"facility name":"American Canyon","id":"aakc47kod86p","address":"1201 Commerce Blvd","geo_precision":"range","state":"CA"},"type":"Feature","geometry":{"type":"Point","coordinates":[-121.91605,37.676781]}},{"properties":{"column_4":null,"city":"American Canyon","city_2":"Livermore","geo_score_2":0.714,"facility type":"Plant","zip":"94503","region":"Northwest","county":"Alameda","geo_precision_2":"city","state_2":"CA","geo_score":1.0,"facility name":"American Canyon","id":"aakc47ktx9it","address":"1201 Commerce Blvd","geo_precision":"range","state":"CA"},"type":"Feature","geometry":{"type":"Point","coordinates":[-121.91605,37.676781]}},{"properties":{"column_4":null,"city":"Anaheim","city_2":"Menifee","geo_score_2":0.714,"facility type":"Plant","zip":"92806","region":"West","county":"Riverside","geo_precision_2":"city","state_2":"CA","geo_score":0.607,"facility name":"Anaheim","id":"aakc47jq127c","address":"2121 E. Winston Rd.","geo_precision":"street","state":"CA"},"type":"Feature","geometry":{"type":"Point","coordinates":[-116.055617,33.752886]}},{"properties":{"column_4":null,"city":"Anaheim","city_2":"Montebello","geo_score_2":0.714,"facility type":"Plant","zip":"92806","region":"West","county":"Los Angeles","geo_precision_2":"city","state_2":"CA","geo_score":0.607,"facility name":"Anaheim","id":"aakc47rfm7m6","address":"2121 E. Winston Rd.","geo_precision":"street","state":"CA"},"type":"Feature","geometry":{"type":"Point","coordinates":[-118.298662,33.786594]}},{"properties":{"column_4":null,"city":"Anaheim","city_2":"Montebello","geo_score_2":0.714,"facility type":"Plant","zip":"92806","region":"West","county":"Los Angeles","geo_precision_2":"city","state_2":"CA","geo_score":0.607,"facility name":"Anaheim","id":"aakc47wx2e3h","address":"2121 E. Winston Rd.","geo_precision":"street","state":"CA"},"type":"Feature","geometry":{"type":"Point","coordinates":[-118.298662,33.786594]}},{"properties":{"column_4":null,"city":"Half Moon Bay","city_2":"Montebello","geo_score_2":0.714,"facility type":"Office","zip":"94019","region":null,"county":"Los Angeles","geo_precision_2":"city","state_2":"CA","geo_score":1.0,"facility name":"Odwalla HQ","id":"aakc47ubnqa1","address":"120 Stone Pine Rd.","geo_precision":"range","state":"CA"},"type":"Feature","geometry":{"type":"Point","coordinates":[-118.298662,33.786594]}},{"properties":{"column_4":null,"city":"Anaheim","city_2":"Montebello","geo_score_2":0.714,"facility type":"Plant","zip":"92806","region":"West","county":"Los Angeles","geo_precision_2":"city","state_2":"CA","geo_score":0.607,"facility name":"Anaheim","id":"aakc47lcrlnx","address":"2121 E. Winston Rd.","geo_precision":"street","state":"CA"},"type":"Feature","geometry":{"type":"Point","coordinates":[-118.298662,33.786594]}},{"properties":{"column_4":null,"city":"Anaheim","city_2":"Montebello","geo_score_2":0.714,"facility type":"Plant","zip":"92806","region":"West","county":"Los Angeles","geo_precision_2":"city","state_2":"CA","geo_score":0.607,"facility name":"Anaheim","id":"aakc47xdvvlo","address":"2121 E. Winston Rd.","geo_precision":"street","state":"CA"},"type":"Feature","geometry":{"type":"Point","coordinates":[-118.298662,33.786594]}},{"properties":{"column_4":null,"city":"Anaheim","city_2":"Montebello","geo_score_2":0.714,"facility type":"Plant","zip":"92806","region":"West","county":"Los Angeles","geo_precision_2":"city","state_2":"CA","geo_score":0.607,"facility name":"Anaheim","id":"aakc47jb0sc4","address":"2121 E. Winston Rd.","geo_precision":"street","state":"CA"},"type":"Feature","geometry":{"type":"Point","coordinates":[-118.298662,33.786594]}},{"properties":{"column_4":null,"city":"Anaheim","city_2":"Moreno Valley","geo_score_2":0.714,"facility type":"Plant","zip":"92806","region":"West","county":"Riverside","geo_precision_2":"city","state_2":"CA","geo_score":0.607,"facility name":"Anaheim","id":"aakc47ps9zrq","address":"2121 E. Winston Rd.","geo_precision":"street","state":"CA"},"type":"Feature","geometry":{"type":"Point","coordinates":[-117.906451,34.005568]}},{"properties":{"column_4":null,"city":"Anaheim","city_2":"Moreno Valley","geo_score_2":0.714,"facility type":"Plant","zip":"92806","region":"West","county":"Riverside","geo_precision_2":"city","state_2":"CA","geo_score":0.607,"facility name":"Anaheim","id":"aakc47sfx954","address":"2121 E. Winston Rd.","geo_precision":"street","state":"CA"},"type":"Feature","geometry":{"type":"Point","coordinates":[-117.906451,34.005568]}},{"properties":{"column_4":null,"city":"Anaheim","city_2":"Moreno Valley","geo_score_2":0.714,"facility type":"Plant","zip":"92806","region":"West","county":"Riverside","geo_precision_2":"city","state_2":"CA","geo_score":0.607,"facility name":"Anaheim","id":"aakc47n1duhx","address":"2121 E. Winston Rd.","geo_precision":"street","state":"CA"},"type":"Feature","geometry":{"type":"Point","coordinates":[-117.906451,34.005568]}},{"properties":{"column_4":null,"city":"Half Moon Bay","city_2":"Moreno Valley","geo_score_2":0.714,"facility type":"Office","zip":"94019","region":null,"county":"Riverside","geo_precision_2":"city","state_2":"CA","geo_score":1.0,"facility name":"Odwalla HQ","id":"aakc47wf9mow","address":"120 Stone Pine Rd.","geo_precision":"range","state":"CA"},"type":"Feature","geometry":{"type":"Point","coordinates":[-117.906451,34.005568]}},{"properties":{"column_4":null,"city":"Anaheim","city_2":"Moreno Valley","geo_score_2":0.714,"facility type":"Plant","zip":"92806","region":"West","county":"Riverside","geo_precision_2":"city","state_2":"CA","geo_score":0.607,"facility name":"Anaheim","id":"aakc47l3vbiq","address":"2121 E. Winston Rd.","geo_precision":"street","state":"CA"},"type":"Feature","geometry":{"type":"Point","coordinates":[-117.906451,34.005568]}},{"properties":{"column_4":null,"city":"Anaheim","city_2":"Moreno Valley","geo_score_2":0.714,"facility type":"Plant","zip":"92806","region":"West","county":"Riverside","geo_precision_2":"city","state_2":"CA","geo_score":0.607,"facility name":"Anaheim","id":"aakc47kikxkc","address":"2121 E. Winston Rd.","geo_precision":"street","state":"CA"},"type":"Feature","geometry":{"type":"Point","coordinates":[-117.906451,34.005568]}},{"properties":{"column_4":null,"city":"Anaheim","city_2":"National City","geo_score_2":0.714,"facility type":"Plant","zip":"92806","region":"West","county":"San Diego","geo_precision_2":"city","state_2":"CA","geo_score":0.607,"facility name":"Anaheim","id":"aakc47ili568","address":"2121 E. Winston Rd.","geo_precision":"street","state":"CA"},"type":"Feature","geometry":{"type":"Point","coordinates":[-117.084353,32.671194]}},{"properties":{"column_4":null,"city":"Anaheim","city_2":"Newport Beach","geo_score_2":0.714,"facility type":"Plant","zip":"92806","region":"West","county":"Orange","geo_precision_2":"city","state_2":"CA","geo_score":0.607,"facility name":"Anaheim","id":"aakc47nnf00w","address":"2121 E. Winston Rd.","geo_precision":"street","state":"CA"},"type":"Feature","geometry":{"type":"Point","coordinates":[-117.928947,33.61891]}},{"properties":{"column_4":null,"city":"Anaheim","city_2":"Newport Beach","geo_score_2":0.714,"facility type":"Plant","zip":"92806","region":"West","county":"Orange","geo_precision_2":"city","state_2":"CA","geo_score":0.607,"facility name":"Anaheim","id":"aakc47l3t6xy","address":"2121 E. Winston Rd.","geo_precision":"street","state":"CA"},"type":"Feature","geometry":{"type":"Point","coordinates":[-117.928947,33.61891]}},{"properties":{"column_4":null,"city":"Anaheim","city_2":"Newport Beach","geo_score_2":0.714,"facility type":"Plant","zip":"92806","region":"West","county":"Orange","geo_precision_2":"city","state_2":"CA","geo_score":0.607,"facility name":"Anaheim","id":"aakc47rt8ou5","address":"2121 E. Winston Rd.","geo_precision":"street","state":"CA"},"type":"Feature","geometry":{"type":"Point","coordinates":[-117.928947,33.61891]}},{"properties":{"column_4":null,"city":"Anaheim","city_2":"Norwalk","geo_score_2":0.714,"facility type":"Plant","zip":"92806","region":"West","county":"Los Angeles","geo_precision_2":"city","state_2":"CA","geo_score":0.607,"facility name":"Anaheim","id":"aakc47tepvh6","address":"2121 E. Winston Rd.","geo_precision":"street","state":"CA"},"type":"Feature","geometry":{"type":"Point","coordinates":[-118.076549,33.906763]}},{"properties":{"column_4":null,"city":"Anaheim","city_2":"Norwalk","geo_score_2":0.714,"facility type":"Plant","zip":"92806","region":"West","county":"Los Angeles","geo_precision_2":"city","state_2":"CA","geo_score":0.607,"facility name":"Anaheim","id":"aakc47ukpjuf","address":"2121 E. Winston Rd.","geo_precision":"street","state":"CA"},"type":"Feature","geometry":{"type":"Point","coordinates":[-118.076549,33.906763]}},{"properties":{"column_4":null,"city":"Anaheim","city_2":"Norwalk","geo_score_2":0.714,"facility type":"Plant","zip":"92806","region":"West","county":"Los Angeles","geo_precision_2":"city","state_2":"CA","geo_score":0.607,"facility name":"Anaheim","id":"aakc47jmvqo8","address":"2121 E. Winston Rd.","geo_precision":"street","state":"CA"},"type":"Feature","geometry":{"type":"Point","coordinates":[-118.076549,33.906763]}},{"properties":{"column_4":null,"city":"Anaheim","city_2":"Norwalk","geo_score_2":0.714,"facility type":"Plant","zip":"92806","region":"West","county":"Los Angeles","geo_precision_2":"city","state_2":"CA","geo_score":0.607,"facility name":"Anaheim","id":"aakc47t8mj86","address":"2121 E. Winston Rd.","geo_precision":"street","state":"CA"},"type":"Feature","geometry":{"type":"Point","coordinates":[-118.076549,33.906763]}},{"properties":{"column_4":null,"city":"Half Moon Bay","city_2":"Norwalk","geo_score_2":0.714,"facility type":"Office","zip":"94019","region":null,"county":"Los Angeles","geo_precision_2":"city","state_2":"CA","geo_score":1.0,"facility name":"Odwalla HQ","id":"aakc47teb6ig","address":"120 Stone Pine Rd.","geo_precision":"range","state":"CA"},"type":"Feature","geometry":{"type":"Point","coordinates":[-118.076549,33.906763]}},{"properties":{"column_4":null,"city":"Anaheim","city_2":"Norwalk","geo_score_2":0.714,"facility type":"Plant","zip":"92806","region":"West","county":"Los Angeles","geo_precision_2":"city","state_2":"CA","geo_score":0.607,"facility name":"Anaheim","id":"aakc47obygcb","address":"2121 E. Winston Rd.","geo_precision":"street","state":"CA"},"type":"Feature","geometry":{"type":"Point","coordinates":[-118.076549,33.906763]}},{"properties":{"column_4":null,"city":"Anaheim","city_2":"Norwalk","geo_score_2":0.714,"facility type":"Plant","zip":"92806","region":"West","county":"Los Angeles","geo_precision_2":"city","state_2":"CA","geo_score":0.607,"facility name":"Anaheim","id":"aakc47ta6mko","address":"2121 E. Winston Rd.","geo_precision":"street","state":"CA"},"type":"Feature","geometry":{"type":"Point","coordinates":[-118.076549,33.906763]}},{"properties":{"column_4":null,"city":"Anaheim","city_2":"Norwalk","geo_score_2":0.714,"facility type":"Plant","zip":"92806","region":"West","county":"Los Angeles","geo_precision_2":"city","state_2":"CA","geo_score":0.607,"facility name":"Anaheim","id":"aakc47rd3hmh","address":"2121 E. Winston Rd.","geo_precision":"street","state":"CA"},"type":"Feature","geometry":{"type":"Point","coordinates":[-118.076549,33.906763]}},{"properties":{"column_4":null,"city":"Anaheim","city_2":"Norwalk","geo_score_2":0.714,"facility type":"Plant","zip":"92806","region":"West","county":"Los Angeles","geo_precision_2":"city","state_2":"CA","geo_score":0.607,"facility name":"Anaheim","id":"aakc47jqze3b","address":"2121 E. Winston Rd.","geo_precision":"street","state":"CA"},"type":"Feature","geometry":{"type":"Point","coordinates":[-118.076549,33.906763]}},{"properties":{"column_4":null,"city":"Anaheim","city_2":"Orange","geo_score_2":0.714,"facility type":"Plant","zip":"92806","region":"West","county":"Orange","geo_precision_2":"city","state_2":"CA","geo_score":0.607,"facility name":"Anaheim","id":"aakc47p9eumj","address":"2121 E. Winston Rd.","geo_precision":"street","state":"CA"},"type":"Feature","geometry":{"type":"Point","coordinates":[-117.853112,33.787795]}},{"properties":{"column_4":null,"city":"Anaheim","city_2":"Orange","geo_score_2":0.714,"facility type":"Plant","zip":"92806","region":"West","county":"Orange","geo_precision_2":"city","state_2":"CA","geo_score":0.607,"facility name":"Anaheim","id":"aakc47tm9ze6","address":"2121 E. Winston Rd.","geo_precision":"street","state":"CA"},"type":"Feature","geometry":{"type":"Point","coordinates":[-117.853112,33.787795]}},{"properties":{"column_4":null,"city":"Anaheim","city_2":"Orange","geo_score_2":0.714,"facility type":"Plant","zip":"92806","region":"West","county":"Orange","geo_precision_2":"city","state_2":"CA","geo_score":0.607,"facility name":"Anaheim","id":"aakc47trzw5o","address":"2121 E. Winston Rd.","geo_precision":"street","state":"CA"},"type":"Feature","geometry":{"type":"Point","coordinates":[-117.853112,33.787795]}},{"properties":{"column_4":null,"city":"Anaheim","city_2":"Orange","geo_score_2":0.714,"facility type":"Plant","zip":"92806","region":"West","county":"Orange","geo_precision_2":"city","state_2":"CA","geo_score":0.607,"facility name":"Anaheim","id":"aakc47ihl9yc","address":"2121 E. Winston Rd.","geo_precision":"street","state":"CA"},"type":"Feature","geometry":{"type":"Point","coordinates":[-117.853112,33.787795]}},{"properties":{"column_4":null,"city":"Anaheim","city_2":"Palmdale","geo_score_2":0.714,"facility type":"Plant","zip":"92806","region":"West","county":"Los Angeles","geo_precision_2":"city","state_2":"CA","geo_score":0.607,"facility name":"Anaheim","id":"aakc47n2sugx","address":"2121 E. Winston Rd.","geo_precision":"street","state":"CA"},"type":"Feature","geometry":{"type":"Point","coordinates":[-118.298662,33.786594]}},{"properties":{"column_4":null,"city":"Anaheim","city_2":"Palmdale","geo_score_2":0.714,"facility type":"Plant","zip":"92806","region":"West","county":"Los Angeles","geo_precision_2":"city","state_2":"CA","geo_score":0.607,"facility name":"Anaheim","id":"aakc47mlcyol","address":"2121 E. Winston Rd.","geo_precision":"street","state":"CA"},"type":"Feature","geometry":{"type":"Point","coordinates":[-118.298662,33.786594]}},{"properties":{"column_4":null,"city":"Half Moon Bay","city_2":"Palmdale","geo_score_2":0.714,"facility type":"Office","zip":"94019","region":null,"county":"Los Angeles","geo_precision_2":"city","state_2":"CA","geo_score":1.0,"facility name":"Odwalla HQ","id":"aakc47n6xji4","address":"120 Stone Pine Rd.","geo_precision":"range","state":"CA"},"type":"Feature","geometry":{"type":"Point","coordinates":[-118.298662,33.786594]}},{"properties":{"column_4":null,"city":"Anaheim","city_2":"Palmdale","geo_score_2":0.714,"facility type":"Plant","zip":"92806","region":"West","county":"Los Angeles","geo_precision_2":"city","state_2":"CA","geo_score":0.607,"facility name":"Anaheim","id":"aakc47q6khpe","address":"2121 E. Winston Rd.","geo_precision":"street","state":"CA"},"type":"Feature","geometry":{"type":"Point","coordinates":[-118.298662,33.786594]}},{"properties":{"column_4":null,"city":"Anaheim","city_2":"Palmdale","geo_score_2":0.714,"facility type":"Plant","zip":"92806","region":"West","county":"Los Angeles","geo_precision_2":"city","state_2":"CA","geo_score":0.607,"facility name":"Anaheim","id":"aakc47jt2vur","address":"2121 E. Winston Rd.","geo_precision":"street","state":"CA"},"type":"Feature","geometry":{"type":"Point","coordinates":[-118.298662,33.786594]}},{"properties":{"column_4":null,"city":"Anaheim","city_2":"Palmdale","geo_score_2":0.714,"facility type":"Plant","zip":"92806","region":"West","county":"Los Angeles","geo_precision_2":"city","state_2":"CA","geo_score":0.607,"facility name":"Anaheim","id":"aakc47hzhiix","address":"2121 E. Winston Rd.","geo_precision":"street","state":"CA"},"type":"Feature","geometry":{"type":"Point","coordinates":[-118.298662,33.786594]}},{"properties":{"column_4":null,"city":"Anaheim","city_2":"Paramount","geo_score_2":0.714,"facility type":"Plant","zip":"92806","region":"West","county":"Los Angeles","geo_precision_2":"city","state_2":"CA","geo_score":0.607,"facility name":"Anaheim","id":"aakc47h3unr3","address":"2121 E. Winston Rd.","geo_precision":"street","state":"CA"},"type":"Feature","geometry":{"type":"Point","coordinates":[-118.165152,33.899015]}},{"properties":{"column_4":null,"city":"Anaheim","city_2":"Paramount","geo_score_2":0.714,"facility type":"Plant","zip":"92806","region":"West","county":"Los Angeles","geo_precision_2":"city","state_2":"CA","geo_score":0.607,"facility name":"Anaheim","id":"aakc47of4o8u","address":"2121 E. Winston Rd.","geo_precision":"street","state":"CA"},"type":"Feature","geometry":{"type":"Point","coordinates":[-118.165152,33.899015]}},{"properties":{"column_4":null,"city":"Anaheim","city_2":"Paramount","geo_score_2":0.714,"facility type":"Plant","zip":"92806","region":"West","county":"Los Angeles","geo_precision_2":"city","state_2":"CA","geo_score":0.607,"facility name":"Anaheim","id":"aakc47kbj1fs","address":"2121 E. Winston Rd.","geo_precision":"street","state":"CA"},"type":"Feature","geometry":{"type":"Point","coordinates":[-118.165152,33.899015]}},{"properties":{"column_4":null,"city":"Half Moon Bay","city_2":"Paramount","geo_score_2":0.714,"facility type":"Office","zip":"94019","region":null,"county":"Los Angeles","geo_precision_2":"city","state_2":"CA","geo_score":1.0,"facility name":"Odwalla HQ","id":"aakc47kfuyuh","address":"120 Stone Pine Rd.","geo_precision":"range","state":"CA"},"type":"Feature","geometry":{"type":"Point","coordinates":[-118.165152,33.899015]}},{"properties":{"column_4":null,"city":"Anaheim","city_2":"Paramount","geo_score_2":0.714,"facility type":"Plant","zip":"92806","region":"West","county":"Los Angeles","geo_precision_2":"city","state_2":"CA","geo_score":0.607,"facility name":"Anaheim","id":"aakc47t4z0ed","address":"2121 E. Winston Rd.","geo_precision":"street","state":"CA"},"type":"Feature","geometry":{"type":"Point","coordinates":[-118.165152,33.899015]}},{"properties":{"column_4":null,"city":"Anaheim","city_2":"Paramount","geo_score_2":0.714,"facility type":"Plant","zip":"92806","region":"West","county":"Los Angeles","geo_precision_2":"city","state_2":"CA","geo_score":0.607,"facility name":"Anaheim","id":"aakc47vjkjg3","address":"2121 E. Winston Rd.","geo_precision":"street","state":"CA"},"type":"Feature","geometry":{"type":"Point","coordinates":[-118.165152,33.899015]}},{"properties":{"column_4":null,"city":"Anaheim","city_2":"Paramount","geo_score_2":0.714,"facility type":"Plant","zip":"92806","region":"West","county":"Los Angeles","geo_precision_2":"city","state_2":"CA","geo_score":0.607,"facility name":"Anaheim","id":"aakc47pq44pa","address":"2121 E. Winston Rd.","geo_precision":"street","state":"CA"},"type":"Feature","geometry":{"type":"Point","coordinates":[-118.165152,33.899015]}},{"properties":{"column_4":null,"city":"Anaheim","city_2":"Paramount","geo_score_2":0.714,"facility type":"Plant","zip":"92806","region":"West","county":"Los Angeles","geo_precision_2":"city","state_2":"CA","geo_score":0.607,"facility name":"Anaheim","id":"aakc47wohsz5","address":"2121 E. Winston Rd.","geo_precision":"street","state":"CA"},"type":"Feature","geometry":{"type":"Point","coordinates":[-118.165152,33.899015]}},{"properties":{"column_4":null,"city":"Anaheim","city_2":"Pasadena","geo_score_2":0.714,"facility type":"Plant","zip":"92806","region":"West","county":"Los Angeles","geo_precision_2":"city","state_2":"CA","geo_score":0.607,"facility name":"Anaheim","id":"aakc47i9qhdr","address":"2121 E. Winston Rd.","geo_precision":"street","state":"CA"},"type":"Feature","geometry":{"type":"Point","coordinates":[-118.298662,33.786594]}},{"properties":{"column_4":null,"city":"Anaheim","city_2":"Pasadena","geo_score_2":0.714,"facility type":"Plant","zip":"92806","region":"West","county":"Los Angeles","geo_precision_2":"city","state_2":"CA","geo_score":0.607,"facility name":"Anaheim","id":"aakc47jy7ia2","address":"2121 E. Winston Rd.","geo_precision":"street","state":"CA"},"type":"Feature","geometry":{"type":"Point","coordinates":[-118.298662,33.786594]}},{"properties":{"column_4":null,"city":"Half Moon Bay","city_2":"Pasadena","geo_score_2":0.714,"facility type":"Office","zip":"94019","region":null,"county":"Los Angeles","geo_precision_2":"city","state_2":"CA","geo_score":1.0,"facility name":"Odwalla HQ","id":"aakc47wk93ev","address":"120 Stone Pine Rd.","geo_precision":"range","state":"CA"},"type":"Feature","geometry":{"type":"Point","coordinates":[-118.298662,33.786594]}},{"properties":{"column_4":null,"city":"Anaheim","city_2":"Pasadena","geo_score_2":0.714,"facility type":"Plant","zip":"92806","region":"West","county":"Los Angeles","geo_precision_2":"city","state_2":"CA","geo_score":0.607,"facility name":"Anaheim","id":"aakc47tbvch1","address":"2121 E. Winston Rd.","geo_precision":"street","state":"CA"},"type":"Feature","geometry":{"type":"Point","coordinates":[-118.298662,33.786594]}},{"properties":{"column_4":null,"city":"Anaheim","city_2":"Pasadena","geo_score_2":0.714,"facility type":"Plant","zip":"92806","region":"West","county":"Los Angeles","geo_precision_2":"city","state_2":"CA","geo_score":0.607,"facility name":"Anaheim","id":"aakc47x70n55","address":"2121 E. Winston Rd.","geo_precision":"street","state":"CA"},"type":"Feature","geometry":{"type":"Point","coordinates":[-118.298662,33.786594]}},{"properties":{"column_4":null,"city":"Anaheim","city_2":"Pasadena","geo_score_2":0.714,"facility type":"Plant","zip":"92806","region":"West","county":"Los Angeles","geo_precision_2":"city","state_2":"CA","geo_score":0.607,"facility name":"Anaheim","id":"aakc47ts8jiy","address":"2121 E. Winston Rd.","geo_precision":"street","state":"CA"},"type":"Feature","geometry":{"type":"Point","coordinates":[-118.298662,33.786594]}},{"properties":{"column_4":null,"city":"Anaheim","city_2":"Perris","geo_score_2":0.714,"facility type":"Plant","zip":"92806","region":"West","county":"Riverside","geo_precision_2":"city","state_2":"CA","geo_score":0.607,"facility name":"Anaheim","id":"aakc47rn959o","address":"2121 E. Winston Rd.","geo_precision":"street","state":"CA"},"type":"Feature","geometry":{"type":"Point","coordinates":[-116.055617,33.752886]}},{"properties":{"column_4":null,"city":"Anaheim","city_2":"Pico Rivera","geo_score_2":0.714,"facility type":"Plant","zip":"92806","region":"West","county":"Los Angeles","geo_precision_2":"city","state_2":"CA","geo_score":0.607,"facility name":"Anaheim","id":"aakc47pwvgkh","address":"2121 E. Winston Rd.","geo_precision":"street","state":"CA"},"type":"Feature","geometry":{"type":"Point","coordinates":[-118.612032,34.377498]}},{"properties":{"column_4":null,"city":"American Canyon","city_2":"Pittsburg","geo_score_2":0.714,"facility type":"Plant","zip":"94503","region":"Northwest","county":"Contra Costa","geo_precision_2":"city","state_2":"CA","geo_score":1.0,"facility name":"American Canyon","id":"aakc47l6e7vw","address":"1201 Commerce Blvd","geo_precision":"range","state":"CA"},"type":"Feature","geometry":{"type":"Point","coordinates":[-121.917219,38.00307]}},{"properties":{"column_4":null,"city":"Anaheim","city_2":"Placentia","geo_score_2":0.714,"facility type":"Plant","zip":"92806","region":"West","county":"Orange","geo_precision_2":"city","state_2":"CA","geo_score":0.607,"facility name":"Anaheim","id":"aakc47obakx5","address":"2121 E. Winston Rd.","geo_precision":"street","state":"CA"},"type":"Feature","geometry":{"type":"Point","coordinates":[-117.870336,33.872237]}},{"properties":{"column_4":null,"city":"Anaheim","city_2":"Placentia","geo_score_2":0.714,"facility type":"Plant","zip":"92806","region":"West","county":"Orange","geo_precision_2":"city","state_2":"CA","geo_score":0.607,"facility name":"Anaheim","id":"aakc47kscu3g","address":"2121 E. Winston Rd.","geo_precision":"street","state":"CA"},"type":"Feature","geometry":{"type":"Point","coordinates":[-117.870336,33.872237]}},{"properties":{"column_4":null,"city":"Anaheim","city_2":"Placentia","geo_score_2":0.714,"facility type":"Plant","zip":"92806","region":"West","county":"Orange","geo_precision_2":"city","state_2":"CA","geo_score":0.607,"facility name":"Anaheim","id":"aakc47qywza9","address":"2121 E. Winston Rd.","geo_precision":"street","state":"CA"},"type":"Feature","geometry":{"type":"Point","coordinates":[-117.870336,33.872237]}},{"properties":{"column_4":null,"city":"Anaheim","city_2":"Placentia","geo_score_2":0.714,"facility type":"Plant","zip":"92806","region":"West","county":"Orange","geo_precision_2":"city","state_2":"CA","geo_score":0.607,"facility name":"Anaheim","id":"aakc47qievsc","address":"2121 E. Winston Rd.","geo_precision":"street","state":"CA"},"type":"Feature","geometry":{"type":"Point","coordinates":[-117.870336,33.872237]}},{"properties":{"column_4":null,"city":"Half Moon Bay","city_2":"Placentia","geo_score_2":0.714,"facility type":"Office","zip":"94019","region":null,"county":"Orange","geo_precision_2":"city","state_2":"CA","geo_score":1.0,"facility name":"Odwalla HQ","id":"aakc47ja0q9g","address":"120 Stone Pine Rd.","geo_precision":"range","state":"CA"},"type":"Feature","geometry":{"type":"Point","coordinates":[-117.870336,33.872237]}},{"properties":{"column_4":null,"city":"Anaheim","city_2":"Placentia","geo_score_2":0.714,"facility type":"Plant","zip":"92806","region":"West","county":"Orange","geo_precision_2":"city","state_2":"CA","geo_score":0.607,"facility name":"Anaheim","id":"aakc47mgse6b","address":"2121 E. Winston Rd.","geo_precision":"street","state":"CA"},"type":"Feature","geometry":{"type":"Point","coordinates":[-117.870336,33.872237]}},{"properties":{"column_4":null,"city":"Anaheim","city_2":"Placentia","geo_score_2":0.714,"facility type":"Plant","zip":"92806","region":"West","county":"Orange","geo_precision_2":"city","state_2":"CA","geo_score":0.607,"facility name":"Anaheim","id":"aakc47mdtgea","address":"2121 E. Winston Rd.","geo_precision":"street","state":"CA"},"type":"Feature","geometry":{"type":"Point","coordinates":[-117.870336,33.872237]}},{"properties":{"column_4":null,"city":"Anaheim","city_2":"Pomona","geo_score_2":0.714,"facility type":"Plant","zip":"92806","region":"West","county":"Los Angeles","geo_precision_2":"city","state_2":"CA","geo_score":0.607,"facility name":"Anaheim","id":"aakc47pxwwjk","address":"2121 E. Winston Rd.","geo_precision":"street","state":"CA"},"type":"Feature","geometry":{"type":"Point","coordinates":[-118.298662,33.786594]}},{"properties":{"column_4":null,"city":"Anaheim","city_2":"Pomona","geo_score_2":0.714,"facility type":"Plant","zip":"92806","region":"West","county":"Los Angeles","geo_precision_2":"city","state_2":"CA","geo_score":0.607,"facility name":"Anaheim","id":"aakc47tbtvk1","address":"2121 E. Winston Rd.","geo_precision":"street","state":"CA"},"type":"Feature","geometry":{"type":"Point","coordinates":[-118.298662,33.786594]}},{"properties":{"column_4":null,"city":"Half Moon Bay","city_2":"Pomona","geo_score_2":0.714,"facility type":"Office","zip":"94019","region":null,"county":"Los Angeles","geo_precision_2":"city","state_2":"CA","geo_score":1.0,"facility name":"Odwalla HQ","id":"aakc47l9n4id","address":"120 Stone Pine Rd.","geo_precision":"range","state":"CA"},"type":"Feature","geometry":{"type":"Point","coordinates":[-118.298662,33.786594]}},{"properties":{"column_4":null,"city":"Anaheim","city_2":"Pomona","geo_score_2":0.714,"facility type":"Plant","zip":"92806","region":"West","county":"Los Angeles","geo_precision_2":"city","state_2":"CA","geo_score":0.607,"facility name":"Anaheim","id":"aakc47lc3kon","address":"2121 E. Winston Rd.","geo_precision":"street","state":"CA"},"type":"Feature","geometry":{"type":"Point","coordinates":[-118.298662,33.786594]}},{"properties":{"column_4":null,"city":"Anaheim","city_2":"Pomona","geo_score_2":0.714,"facility type":"Plant","zip":"92806","region":"West","county":"Los Angeles","geo_precision_2":"city","state_2":"CA","geo_score":0.607,"facility name":"Anaheim","id":"aakc47latl7a","address":"2121 E. Winston Rd.","geo_precision":"street","state":"CA"},"type":"Feature","geometry":{"type":"Point","coordinates":[-118.298662,33.786594]}},{"properties":{"column_4":null,"city":"Anaheim","city_2":"Pomona","geo_score_2":0.714,"facility type":"Plant","zip":"92806","region":"West","county":"Los Angeles","geo_precision_2":"city","state_2":"CA","geo_score":0.607,"facility name":"Anaheim","id":"aakc47hwypv0","address":"2121 E. Winston Rd.","geo_precision":"street","state":"CA"},"type":"Feature","geometry":{"type":"Point","coordinates":[-118.298662,33.786594]}},{"properties":{"column_4":null,"city":"American Canyon","city_2":"Rancho Cordova","geo_score_2":0.714,"facility type":"Plant","zip":"94503","region":"Northwest","county":"Sacramento","geo_precision_2":"city","state_2":"CA","geo_score":1.0,"facility name":"American Canyon","id":"aakc47l3atzy","address":"1201 Commerce Blvd","geo_precision":"range","state":"CA"},"type":"Feature","geometry":{"type":"Point","coordinates":[-121.270426,38.597705]}},{"properties":{"column_4":null,"city":"Half Moon Bay","city_2":"Redding","geo_score_2":0.714,"facility type":"Office","zip":"94019","region":null,"county":"Shasta","geo_precision_2":"city","state_2":"CA","geo_score":1.0,"facility name":"Odwalla HQ","id":"aakc47hk8qzj","address":"120 Stone Pine Rd.","geo_precision":"range","state":"CA"},"type":"Feature","geometry":{"type":"Point","coordinates":[-122.456982,40.675738]}},{"properties":{"column_4":null,"city":"American Canyon","city_2":"Richmond","geo_score_2":0.714,"facility type":"Plant","zip":"94503","region":"Northwest","county":"Contra Costa","geo_precision_2":"city","state_2":"CA","geo_score":1.0,"facility name":"American Canyon","id":"aakc47v491gl","address":"1201 Commerce Blvd","geo_precision":"range","state":"CA"},"type":"Feature","geometry":{"type":"Point","coordinates":[-122.384032,37.947523]}},{"properties":{"column_4":null,"city":"American Canyon","city_2":"Richmond","geo_score_2":0.714,"facility type":"Plant","zip":"94503","region":"Northwest","county":"Contra Costa","geo_precision_2":"city","state_2":"CA","geo_score":1.0,"facility name":"American Canyon","id":"aakc47o56vbd","address":"1201 Commerce Blvd","geo_precision":"range","state":"CA"},"type":"Feature","geometry":{"type":"Point","coordinates":[-122.384032,37.947523]}},{"properties":{"column_4":null,"city":"Anaheim","city_2":"Rosemead","geo_score_2":0.714,"facility type":"Plant","zip":"92806","region":"West","county":"Los Angeles","geo_precision_2":"city","state_2":"CA","geo_score":0.607,"facility name":"Anaheim","id":"aakc47wpkrhr","address":"2121 E. Winston Rd.","geo_precision":"street","state":"CA"},"type":"Feature","geometry":{"type":"Point","coordinates":[-118.298662,33.786594]}},{"properties":{"column_4":null,"city":"Anaheim","city_2":"Rosemead","geo_score_2":0.714,"facility type":"Plant","zip":"92806","region":"West","county":"Los Angeles","geo_precision_2":"city","state_2":"CA","geo_score":0.607,"facility name":"Anaheim","id":"aakc47izqjhi","address":"2121 E. Winston Rd.","geo_precision":"street","state":"CA"},"type":"Feature","geometry":{"type":"Point","coordinates":[-118.298662,33.786594]}},{"properties":{"column_4":null,"city":"Half Moon Bay","city_2":"Rosemead","geo_score_2":0.714,"facility type":"Office","zip":"94019","region":null,"county":"Los Angeles","geo_precision_2":"city","state_2":"CA","geo_score":1.0,"facility name":"Odwalla HQ","id":"aakc47iz7izh","address":"120 Stone Pine Rd.","geo_precision":"range","state":"CA"},"type":"Feature","geometry":{"type":"Point","coordinates":[-118.298662,33.786594]}},{"properties":{"column_4":null,"city":"Anaheim","city_2":"Rosemead","geo_score_2":0.714,"facility type":"Plant","zip":"92806","region":"West","county":"Los Angeles","geo_precision_2":"city","state_2":"CA","geo_score":0.607,"facility name":"Anaheim","id":"aakc47qa2q95","address":"2121 E. Winston Rd.","geo_precision":"street","state":"CA"},"type":"Feature","geometry":{"type":"Point","coordinates":[-118.298662,33.786594]}},{"properties":{"column_4":null,"city":"Anaheim","city_2":"Rosemead","geo_score_2":0.714,"facility type":"Plant","zip":"92806","region":"West","county":"Los Angeles","geo_precision_2":"city","state_2":"CA","geo_score":0.607,"facility name":"Anaheim","id":"aakc47w1epsr","address":"2121 E. Winston Rd.","geo_precision":"street","state":"CA"},"type":"Feature","geometry":{"type":"Point","coordinates":[-118.298662,33.786594]}},{"properties":{"column_4":null,"city":"Anaheim","city_2":"Rosemead","geo_score_2":0.714,"facility type":"Plant","zip":"92806","region":"West","county":"Los Angeles","geo_precision_2":"city","state_2":"CA","geo_score":0.607,"facility name":"Anaheim","id":"aakc47hu1w2i","address":"2121 E. Winston Rd.","geo_precision":"street","state":"CA"},"type":"Feature","geometry":{"type":"Point","coordinates":[-118.298662,33.786594]}},{"properties":{"column_4":null,"city":"American Canyon","city_2":"Roseville","geo_score_2":0.714,"facility type":"Plant","zip":"94503","region":"Northwest","county":"Placer","geo_precision_2":"city","state_2":"CA","geo_score":1.0,"facility name":"American Canyon","id":"aakc47imep9e","address":"1201 Commerce Blvd","geo_precision":"range","state":"CA"},"type":"Feature","geometry":{"type":"Point","coordinates":[-121.25603,38.74073]}},{"properties":{"column_4":null,"city":"American Canyon","city_2":"Sacramento","geo_score_2":0.714,"facility type":"Plant","zip":"94503","region":"Northwest","county":"Sacramento","geo_precision_2":"city","state_2":"CA","geo_score":1.0,"facility name":"American Canyon","id":"aakc47sw2z7o","address":"1201 Commerce Blvd","geo_precision":"range","state":"CA"},"type":"Feature","geometry":{"type":"Point","coordinates":[-121.555406,38.380456]}},{"properties":{"column_4":null,"city":"Anaheim","city_2":"San Bernardino","geo_score_2":0.714,"facility type":"Plant","zip":"92806","region":"West","county":"San Bernardino","geo_precision_2":"city","state_2":"CA","geo_score":0.607,"facility name":"Anaheim","id":"aakc47s4ze75","address":"2121 E. Winston Rd.","geo_precision":"street","state":"CA"},"type":"Feature","geometry":{"type":"Point","coordinates":[-117.289765,34.108345]}},{"properties":{"column_4":null,"city":"Anaheim","city_2":"San Bernardino","geo_score_2":0.714,"facility type":"Plant","zip":"92806","region":"West","county":"San Bernardino","geo_precision_2":"city","state_2":"CA","geo_score":0.607,"facility name":"Anaheim","id":"aakc47ra8w4w","address":"2121 E. Winston Rd.","geo_precision":"street","state":"CA"},"type":"Feature","geometry":{"type":"Point","coordinates":[-117.289765,34.108345]}},{"properties":{"column_4":null,"city":"Anaheim","city_2":"San Clemente","geo_score_2":0.714,"facility type":"Plant","zip":"92806","region":"West","county":"Orange","geo_precision_2":"city","state_2":"CA","geo_score":0.607,"facility name":"Anaheim","id":"aakc47uhk20b","address":"2121 E. Winston Rd.","geo_precision":"street","state":"CA"},"type":"Feature","geometry":{"type":"Point","coordinates":[-117.616082,33.568923]}},{"properties":{"column_4":null,"city":"Anaheim","city_2":"San Diego","geo_score_2":0.714,"facility type":"Plant","zip":"92806","region":"West","county":"San Diego","geo_precision_2":"city","state_2":"CA","geo_score":0.607,"facility name":"Anaheim","id":"aakc47lx9p8l","address":"2121 E. Winston Rd.","geo_precision":"street","state":"CA"},"type":"Feature","geometry":{"type":"Point","coordinates":[-117.174366,32.7211]}},{"properties":{"column_4":null,"city":"American Canyon","city_2":"San Leandro","geo_score_2":0.714,"facility type":"Plant","zip":"94503","region":"Northwest","county":"Alameda","geo_precision_2":"city","state_2":"CA","geo_score":1.0,"facility name":"American Canyon","id":"aakc47qzblwe","address":"1201 Commerce Blvd","geo_precision":"range","state":"CA"},"type":"Feature","geometry":{"type":"Point","coordinates":[-122.158621,37.715629]}},{"properties":{"column_4":null,"city":"American Canyon","city_2":"San Leandro","geo_score_2":0.714,"facility type":"Plant","zip":"94503","region":"Northwest","county":"Alameda","geo_precision_2":"city","state_2":"CA","geo_score":1.0,"facility name":"American Canyon","id":"aakc47wao5jb","address":"1201 Commerce Blvd","geo_precision":"range","state":"CA"},"type":"Feature","geometry":{"type":"Point","coordinates":[-122.158621,37.715629]}},{"properties":{"column_4":null,"city":"American Canyon","city_2":"San Leandro","geo_score_2":0.714,"facility type":"Plant","zip":"94503","region":"Northwest","county":"Alameda","geo_precision_2":"city","state_2":"CA","geo_score":1.0,"facility name":"American Canyon","id":"aakc47qena1j","address":"1201 Commerce Blvd","geo_precision":"range","state":"CA"},"type":"Feature","geometry":{"type":"Point","coordinates":[-122.158621,37.715629]}},{"properties":{"column_4":null,"city":"Anaheim","city_2":"San Marcos","geo_score_2":0.714,"facility type":"Plant","zip":"92806","region":"West","county":"San Diego","geo_precision_2":"city","state_2":"CA","geo_score":0.607,"facility name":"Anaheim","id":"aakc47qqs30b","address":"2121 E. Winston Rd.","geo_precision":"street","state":"CA"},"type":"Feature","geometry":{"type":"Point","coordinates":[-117.215112,33.099573]}},{"properties":{"column_4":null,"city":"Half Moon Bay","city_2":"San Mateo","geo_score_2":0.714,"facility type":"Office","zip":"94019","region":null,"county":"San Mateo","geo_precision_2":"city","state_2":"CA","geo_score":1.0,"facility name":"Odwalla HQ","id":"aakc47vwry4t","address":"120 Stone Pine Rd.","geo_precision":"range","state":"CA"},"type":"Feature","geometry":{"type":"Point","coordinates":[-122.32253,37.573485]}},{"properties":{"column_4":null,"city":"American Canyon","city_2":"San Mateo","geo_score_2":0.714,"facility type":"Plant","zip":"94503","region":"Northwest","county":"San Mateo","geo_precision_2":"city","state_2":"CA","geo_score":1.0,"facility name":"American Canyon","id":"aakc47jc0cjo","address":"1201 Commerce Blvd","geo_precision":"range","state":"CA"},"type":"Feature","geometry":{"type":"Point","coordinates":[-122.32253,37.573485]}},{"properties":{"column_4":null,"city":"American Canyon","city_2":"San Mateo","geo_score_2":0.714,"facility type":"Plant","zip":"94503","region":"Northwest","county":"San Mateo","geo_precision_2":"city","state_2":"CA","geo_score":1.0,"facility name":"American Canyon","id":"aakc47uy13qa","address":"1201 Commerce Blvd","geo_precision":"range","state":"CA"},"type":"Feature","geometry":{"type":"Point","coordinates":[-122.32253,37.573485]}},{"properties":{"column_4":null,"city":"Anaheim","city_2":"Santa Barbara","geo_score_2":0.714,"facility type":"Plant","zip":"92806","region":"West","county":"Santa Barbara","geo_precision_2":"city","state_2":"CA","geo_score":0.607,"facility name":"Anaheim","id":"aakc47o5qr0j","address":"2121 E. Winston Rd.","geo_precision":"street","state":"CA"},"type":"Feature","geometry":{"type":"Point","coordinates":[-116.994511,32.843956]}},{"properties":{"column_4":null,"city":"Anaheim","city_2":"Santa Clara","geo_score_2":0.714,"facility type":"Plant","zip":"92806","region":"West","county":"Santa Clara","geo_precision_2":"city","state_2":"CA","geo_score":0.607,"facility name":"Anaheim","id":"aakc47q8fuaw","address":"2121 E. Winston Rd.","geo_precision":"street","state":"CA"},"type":"Feature","geometry":{"type":"Point","coordinates":[-118.298662,33.786594]}},{"properties":{"column_4":null,"city":"Anaheim","city_2":"Santa Clara","geo_score_2":0.714,"facility type":"Plant","zip":"92806","region":"West","county":"Santa Clara","geo_precision_2":"city","state_2":"CA","geo_score":0.607,"facility name":"Anaheim","id":"aakc47ibgb91","address":"2121 E. Winston Rd.","geo_precision":"street","state":"CA"},"type":"Feature","geometry":{"type":"Point","coordinates":[-118.298662,33.786594]}},{"properties":{"column_4":null,"city":"Half Moon Bay","city_2":"Santa Clara","geo_score_2":0.714,"facility type":"Office","zip":"94019","region":null,"county":"Santa Clara","geo_precision_2":"city","state_2":"CA","geo_score":1.0,"facility name":"Odwalla HQ","id":"aakc47sp3ici","address":"120 Stone Pine Rd.","geo_precision":"range","state":"CA"},"type":"Feature","geometry":{"type":"Point","coordinates":[-118.298662,33.786594]}},{"properties":{"column_4":null,"city":"Anaheim","city_2":"Santa Clara","geo_score_2":0.714,"facility type":"Plant","zip":"92806","region":"West","county":"Santa Clara","geo_precision_2":"city","state_2":"CA","geo_score":0.607,"facility name":"Anaheim","id":"aakc47n9hj8d","address":"2121 E. Winston Rd.","geo_precision":"street","state":"CA"},"type":"Feature","geometry":{"type":"Point","coordinates":[-118.298662,33.786594]}},{"properties":{"column_4":null,"city":"Anaheim","city_2":"Santa Clara","geo_score_2":0.714,"facility type":"Plant","zip":"92806","region":"West","county":"Santa Clara","geo_precision_2":"city","state_2":"CA","geo_score":0.607,"facility name":"Anaheim","id":"aakc47vkhze7","address":"2121 E. Winston Rd.","geo_precision":"street","state":"CA"},"type":"Feature","geometry":{"type":"Point","coordinates":[-118.298662,33.786594]}},{"properties":{"column_4":null,"city":"Anaheim","city_2":"Santa Clara","geo_score_2":0.714,"facility type":"Plant","zip":"92806","region":"West","county":"Santa Clara","geo_precision_2":"city","state_2":"CA","geo_score":0.607,"facility name":"Anaheim","id":"aakc47m8cs9z","address":"2121 E. Winston Rd.","geo_precision":"street","state":"CA"},"type":"Feature","geometry":{"type":"Point","coordinates":[-118.298662,33.786594]}},{"properties":{"column_4":null,"city":"Anaheim","city_2":"Santa Clarita","geo_score_2":0.714,"facility type":"Plant","zip":"92806","region":"West","county":"Los Angeles","geo_precision_2":"city","state_2":"CA","geo_score":0.607,"facility name":"Anaheim","id":"aakc47im8mvs","address":"2121 E. Winston Rd.","geo_precision":"street","state":"CA"},"type":"Feature","geometry":{"type":"Point","coordinates":[-118.298662,33.786594]}},{"properties":{"column_4":null,"city":"Anaheim","city_2":"Santa Clarita","geo_score_2":0.714,"facility type":"Plant","zip":"92806","region":"West","county":"Los Angeles","geo_precision_2":"city","state_2":"CA","geo_score":0.607,"facility name":"Anaheim","id":"aakc47huenu8","address":"2121 E. Winston Rd.","geo_precision":"street","state":"CA"},"type":"Feature","geometry":{"type":"Point","coordinates":[-118.298662,33.786594]}},{"properties":{"column_4":null,"city":"Half Moon Bay","city_2":"Santa Clarita","geo_score_2":0.714,"facility type":"Office","zip":"94019","region":null,"county":"Los Angeles","geo_precision_2":"city","state_2":"CA","geo_score":1.0,"facility name":"Odwalla HQ","id":"aakc47vllm3p","address":"120 Stone Pine Rd.","geo_precision":"range","state":"CA"},"type":"Feature","geometry":{"type":"Point","coordinates":[-118.298662,33.786594]}},{"properties":{"column_4":null,"city":"Anaheim","city_2":"Santa Clarita","geo_score_2":0.714,"facility type":"Plant","zip":"92806","region":"West","county":"Los Angeles","geo_precision_2":"city","state_2":"CA","geo_score":0.607,"facility name":"Anaheim","id":"aakc47rl99v7","address":"2121 E. Winston Rd.","geo_precision":"street","state":"CA"},"type":"Feature","geometry":{"type":"Point","coordinates":[-118.298662,33.786594]}},{"properties":{"column_4":null,"city":"Anaheim","city_2":"Santa Clarita","geo_score_2":0.714,"facility type":"Plant","zip":"92806","region":"West","county":"Los Angeles","geo_precision_2":"city","state_2":"CA","geo_score":0.607,"facility name":"Anaheim","id":"aakc47s934mt","address":"2121 E. Winston Rd.","geo_precision":"street","state":"CA"},"type":"Feature","geometry":{"type":"Point","coordinates":[-118.298662,33.786594]}},{"properties":{"column_4":null,"city":"Anaheim","city_2":"Santa Clarita","geo_score_2":0.714,"facility type":"Plant","zip":"92806","region":"West","county":"Los Angeles","geo_precision_2":"city","state_2":"CA","geo_score":0.607,"facility name":"Anaheim","id":"aakc47o9ukm4","address":"2121 E. Winston Rd.","geo_precision":"street","state":"CA"},"type":"Feature","geometry":{"type":"Point","coordinates":[-118.298662,33.786594]}},{"properties":{"column_4":null,"city":"Anaheim","city_2":"Santa Maria","geo_score_2":0.714,"facility type":"Plant","zip":"92806","region":"West","county":"Santa Barbara","geo_precision_2":"city","state_2":"CA","geo_score":0.607,"facility name":"Anaheim","id":"aakc47ow663d","address":"2121 E. Winston Rd.","geo_precision":"street","state":"CA"},"type":"Feature","geometry":{"type":"Point","coordinates":[-116.994511,32.843956]}},{"properties":{"column_4":null,"city":"Anaheim","city_2":"Santa Monica","geo_score_2":0.714,"facility type":"Plant","zip":"92806","region":"West","county":"Los Angeles","geo_precision_2":"city","state_2":"CA","geo_score":0.607,"facility name":"Anaheim","id":"aakc47larov0","address":"2121 E. Winston Rd.","geo_precision":"street","state":"CA"},"type":"Feature","geometry":{"type":"Point","coordinates":[-116.994511,32.843956]}},{"properties":{"column_4":null,"city":"Anaheim","city_2":"Santee","geo_score_2":0.714,"facility type":"Plant","zip":"92806","region":"West","county":"San Diego","geo_precision_2":"city","state_2":"CA","geo_score":0.607,"facility name":"Anaheim","id":"aakc47j4js47","address":"2121 E. Winston Rd.","geo_precision":"street","state":"CA"},"type":"Feature","geometry":{"type":"Point","coordinates":[-116.994511,32.843956]}},{"properties":{"column_4":null,"city":"Anaheim","city_2":"South San Francisco","geo_score_2":0.714,"facility type":"Plant","zip":"92806","region":"West","county":"San Mateo","geo_precision_2":"city","state_2":"CA","geo_score":0.607,"facility name":"Anaheim","id":"aakc47u5s3nc","address":"2121 E. Winston Rd.","geo_precision":"street","state":"CA"},"type":"Feature","geometry":{"type":"Point","coordinates":[-118.298662,33.786594]}},{"properties":{"column_4":null,"city":"Anaheim","city_2":"South San Francisco","geo_score_2":0.714,"facility type":"Plant","zip":"92806","region":"West","county":"San Mateo","geo_precision_2":"city","state_2":"CA","geo_score":0.607,"facility name":"Anaheim","id":"aakc47oxxo6d","address":"2121 E. Winston Rd.","geo_precision":"street","state":"CA"},"type":"Feature","geometry":{"type":"Point","coordinates":[-118.298662,33.786594]}},{"properties":{"column_4":null,"city":"Half Moon Bay","city_2":"South San Francisco","geo_score_2":0.714,"facility type":"Office","zip":"94019","region":null,"county":"San Mateo","geo_precision_2":"city","state_2":"CA","geo_score":1.0,"facility name":"Odwalla HQ","id":"aakc47w1ho5y","address":"120 Stone Pine Rd.","geo_precision":"range","state":"CA"},"type":"Feature","geometry":{"type":"Point","coordinates":[-118.298662,33.786594]}},{"properties":{"column_4":null,"city":"Anaheim","city_2":"South San Francisco","geo_score_2":0.714,"facility type":"Plant","zip":"92806","region":"West","county":"San Mateo","geo_precision_2":"city","state_2":"CA","geo_score":0.607,"facility name":"Anaheim","id":"aakc47o6w85a","address":"2121 E. Winston Rd.","geo_precision":"street","state":"CA"},"type":"Feature","geometry":{"type":"Point","coordinates":[-118.298662,33.786594]}},{"properties":{"column_4":null,"city":"Anaheim","city_2":"South San Francisco","geo_score_2":0.714,"facility type":"Plant","zip":"92806","region":"West","county":"San Mateo","geo_precision_2":"city","state_2":"CA","geo_score":0.607,"facility name":"Anaheim","id":"aakc47l5zll6","address":"2121 E. Winston Rd.","geo_precision":"street","state":"CA"},"type":"Feature","geometry":{"type":"Point","coordinates":[-118.298662,33.786594]}},{"properties":{"column_4":null,"city":"Anaheim","city_2":"South San Francisco","geo_score_2":0.714,"facility type":"Plant","zip":"92806","region":"West","county":"San Mateo","geo_precision_2":"city","state_2":"CA","geo_score":0.607,"facility name":"Anaheim","id":"aakc47nfuqgj","address":"2121 E. Winston Rd.","geo_precision":"street","state":"CA"},"type":"Feature","geometry":{"type":"Point","coordinates":[-118.298662,33.786594]}},{"properties":{"column_4":null,"city":"Anaheim","city_2":"Sunnyvale","geo_score_2":0.714,"facility type":"Plant","zip":"92806","region":"West","county":"Santa Clara","geo_precision_2":"city","state_2":"CA","geo_score":0.607,"facility name":"Anaheim","id":"aakc47qou3g8","address":"2121 E. Winston Rd.","geo_precision":"street","state":"CA"},"type":"Feature","geometry":{"type":"Point","coordinates":[-118.298662,33.786594]}},{"properties":{"column_4":null,"city":"Anaheim","city_2":"Sunnyvale","geo_score_2":0.714,"facility type":"Plant","zip":"92806","region":"West","county":"Santa Clara","geo_precision_2":"city","state_2":"CA","geo_score":0.607,"facility name":"Anaheim","id":"aakc47knj38x","address":"2121 E. Winston Rd.","geo_precision":"street","state":"CA"},"type":"Feature","geometry":{"type":"Point","coordinates":[-118.298662,33.786594]}},{"properties":{"column_4":null,"city":"Half Moon Bay","city_2":"Sunnyvale","geo_score_2":0.714,"facility type":"Office","zip":"94019","region":null,"county":"Santa Clara","geo_precision_2":"city","state_2":"CA","geo_score":1.0,"facility name":"Odwalla HQ","id":"aakc47n35iah","address":"120 Stone Pine Rd.","geo_precision":"range","state":"CA"},"type":"Feature","geometry":{"type":"Point","coordinates":[-118.298662,33.786594]}},{"properties":{"column_4":null,"city":"Anaheim","city_2":"Sunnyvale","geo_score_2":0.714,"facility type":"Plant","zip":"92806","region":"West","county":"Santa Clara","geo_precision_2":"city","state_2":"CA","geo_score":0.607,"facility name":"Anaheim","id":"aakc47h7czck","address":"2121 E. Winston Rd.","geo_precision":"street","state":"CA"},"type":"Feature","geometry":{"type":"Point","coordinates":[-118.298662,33.786594]}},{"properties":{"column_4":null,"city":"Anaheim","city_2":"Sunnyvale","geo_score_2":0.714,"facility type":"Plant","zip":"92806","region":"West","county":"Santa Clara","geo_precision_2":"city","state_2":"CA","geo_score":0.607,"facility name":"Anaheim","id":"aakc47m9esre","address":"2121 E. Winston Rd.","geo_precision":"street","state":"CA"},"type":"Feature","geometry":{"type":"Point","coordinates":[-118.298662,33.786594]}},{"properties":{"column_4":null,"city":"Anaheim","city_2":"Sunnyvale","geo_score_2":0.714,"facility type":"Plant","zip":"92806","region":"West","county":"Santa Clara","geo_precision_2":"city","state_2":"CA","geo_score":0.607,"facility name":"Anaheim","id":"aakc47pm70y1","address":"2121 E. Winston Rd.","geo_precision":"street","state":"CA"},"type":"Feature","geometry":{"type":"Point","coordinates":[-118.298662,33.786594]}},{"properties":{"column_4":null,"city":"Anaheim","city_2":"Temecula","geo_score_2":0.714,"facility type":"Plant","zip":"92806","region":"West","county":"Riverside","geo_precision_2":"city","state_2":"CA","geo_score":0.607,"facility name":"Anaheim","id":"aakc47ntm9az","address":"2121 E. Winston Rd.","geo_precision":"street","state":"CA"},"type":"Feature","geometry":{"type":"Point","coordinates":[-116.055617,33.752886]}},{"properties":{"column_4":null,"city":"Anaheim","city_2":"Thousand Oaks","geo_score_2":0.714,"facility type":"Plant","zip":"92806","region":"West","county":"Ventura","geo_precision_2":"city","state_2":"CA","geo_score":0.607,"facility name":"Anaheim","id":"aakc47mepg3f","address":"2121 E. Winston Rd.","geo_precision":"street","state":"CA"},"type":"Feature","geometry":{"type":"Point","coordinates":[-120.594892,35.118865]}},{"properties":{"column_4":null,"city":"Anaheim","city_2":"Torrance","geo_score_2":0.714,"facility type":"Plant","zip":"92806","region":"West","county":"Los Angeles","geo_precision_2":"city","state_2":"CA","geo_score":0.607,"facility name":"Anaheim","id":"aakc47wobx3e","address":"2121 E. Winston Rd.","geo_precision":"street","state":"CA"},"type":"Feature","geometry":{"type":"Point","coordinates":[-118.303805,33.835665]}},{"properties":{"column_4":null,"city":"Anaheim","city_2":"Torrance","geo_score_2":0.714,"facility type":"Plant","zip":"92806","region":"West","county":"Los Angeles","geo_precision_2":"city","state_2":"CA","geo_score":0.607,"facility name":"Anaheim","id":"aakc47m7b3wt","address":"2121 E. Winston Rd.","geo_precision":"street","state":"CA"},"type":"Feature","geometry":{"type":"Point","coordinates":[-118.303805,33.835665]}},{"properties":{"column_4":null,"city":"Half Moon Bay","city_2":"Torrance","geo_score_2":0.714,"facility type":"Office","zip":"94019","region":null,"county":"Los Angeles","geo_precision_2":"city","state_2":"CA","geo_score":1.0,"facility name":"Odwalla HQ","id":"aakc47ihlkpx","address":"120 Stone Pine Rd.","geo_precision":"range","state":"CA"},"type":"Feature","geometry":{"type":"Point","coordinates":[-118.303805,33.835665]}},{"properties":{"column_4":null,"city":"Anaheim","city_2":"Torrance","geo_score_2":0.714,"facility type":"Plant","zip":"92806","region":"West","county":"Los Angeles","geo_precision_2":"city","state_2":"CA","geo_score":0.607,"facility name":"Anaheim","id":"aakc47h1fq0g","address":"2121 E. Winston Rd.","geo_precision":"street","state":"CA"},"type":"Feature","geometry":{"type":"Point","coordinates":[-118.303805,33.835665]}},{"properties":{"column_4":null,"city":"Anaheim","city_2":"Torrance","geo_score_2":0.714,"facility type":"Plant","zip":"92806","region":"West","county":"Los Angeles","geo_precision_2":"city","state_2":"CA","geo_score":0.607,"facility name":"Anaheim","id":"aakc47jj2qx5","address":"2121 E. Winston Rd.","geo_precision":"street","state":"CA"},"type":"Feature","geometry":{"type":"Point","coordinates":[-118.303805,33.835665]}},{"properties":{"column_4":null,"city":"Anaheim","city_2":"Torrance","geo_score_2":0.714,"facility type":"Plant","zip":"92806","region":"West","county":"Los Angeles","geo_precision_2":"city","state_2":"CA","geo_score":0.607,"facility name":"Anaheim","id":"aakc47tjmjq1","address":"2121 E. Winston Rd.","geo_precision":"street","state":"CA"},"type":"Feature","geometry":{"type":"Point","coordinates":[-118.303805,33.835665]}},{"properties":{"column_4":null,"city":"Half Moon Bay","city_2":"Tulare","geo_score_2":0.714,"facility type":"Office","zip":"94019","region":null,"county":"Tulare","geo_precision_2":"city","state_2":"CA","geo_score":1.0,"facility name":"Odwalla HQ","id":"aakc47k71kao","address":"120 Stone Pine Rd.","geo_precision":"range","state":"CA"},"type":"Feature","geometry":{"type":"Point","coordinates":[-119.299856,36.133527]}},{"properties":{"column_4":null,"city":"Anaheim","city_2":"Tustin","geo_score_2":0.714,"facility type":"Plant","zip":"92806","region":"West","county":"Orange","geo_precision_2":"city","state_2":"CA","geo_score":0.607,"facility name":"Anaheim","id":"aakc47ms5pa5","address":"2121 E. Winston Rd.","geo_precision":"street","state":"CA"},"type":"Feature","geometry":{"type":"Point","coordinates":[-117.826166,33.745851]}},{"properties":{"column_4":null,"city":"Anaheim","city_2":"Tustin","geo_score_2":0.714,"facility type":"Plant","zip":"92806","region":"West","county":"Orange","geo_precision_2":"city","state_2":"CA","geo_score":0.607,"facility name":"Anaheim","id":"aakc47wvdoah","address":"2121 E. Winston Rd.","geo_precision":"street","state":"CA"},"type":"Feature","geometry":{"type":"Point","coordinates":[-117.826166,33.745851]}},{"properties":{"column_4":null,"city":"Anaheim","city_2":"Tustin","geo_score_2":0.714,"facility type":"Plant","zip":"92806","region":"West","county":"Orange","geo_precision_2":"city","state_2":"CA","geo_score":0.607,"facility name":"Anaheim","id":"aakc47rk0889","address":"2121 E. Winston Rd.","geo_precision":"street","state":"CA"},"type":"Feature","geometry":{"type":"Point","coordinates":[-117.826166,33.745851]}},{"properties":{"column_4":null,"city":"Anaheim","city_2":"Tustin","geo_score_2":0.714,"facility type":"Plant","zip":"92806","region":"West","county":"Orange","geo_precision_2":"city","state_2":"CA","geo_score":0.607,"facility name":"Anaheim","id":"aakc47r93oxz","address":"2121 E. Winston Rd.","geo_precision":"street","state":"CA"},"type":"Feature","geometry":{"type":"Point","coordinates":[-117.826166,33.745851]}},{"properties":{"column_4":null,"city":"American Canyon","city_2":"Union City","geo_score_2":0.714,"facility type":"Plant","zip":"94503","region":"Northwest","county":"Alameda","geo_precision_2":"city","state_2":"CA","geo_score":1.0,"facility name":"American Canyon","id":"aakc47vso1tb","address":"1201 Commerce Blvd","geo_precision":"range","state":"CA"},"type":"Feature","geometry":{"type":"Point","coordinates":[-121.97362,37.589084]}},{"properties":{"column_4":null,"city":"American Canyon","city_2":"Union City","geo_score_2":0.714,"facility type":"Plant","zip":"94503","region":"Northwest","county":"Alameda","geo_precision_2":"city","state_2":"CA","geo_score":1.0,"facility name":"American Canyon","id":"aakc47hrj98q","address":"1201 Commerce Blvd","geo_precision":"range","state":"CA"},"type":"Feature","geometry":{"type":"Point","coordinates":[-121.97362,37.589084]}},{"properties":{"column_4":null,"city":"American Canyon","city_2":"Union City","geo_score_2":0.714,"facility type":"Plant","zip":"94503","region":"Northwest","county":"Alameda","geo_precision_2":"city","state_2":"CA","geo_score":1.0,"facility name":"American Canyon","id":"aakc47or6ji7","address":"1201 Commerce Blvd","geo_precision":"range","state":"CA"},"type":"Feature","geometry":{"type":"Point","coordinates":[-121.97362,37.589084]}},{"properties":{"column_4":null,"city":"American Canyon","city_2":"Vallejo","geo_score_2":0.714,"facility type":"Plant","zip":"94503","region":"Northwest","county":"Solano","geo_precision_2":"city","state_2":"CA","geo_score":1.0,"facility name":"American Canyon","id":"aakc47s4yinp","address":"1201 Commerce Blvd","geo_precision":"range","state":"CA"},"type":"Feature","geometry":{"type":"Point","coordinates":[-122.264316,38.107945]}},{"properties":{"column_4":null,"city":"American Canyon","city_2":"Vallejo","geo_score_2":0.714,"facility type":"Plant","zip":"94503","region":"Northwest","county":"Solano","geo_precision_2":"city","state_2":"CA","geo_score":1.0,"facility name":"American Canyon","id":"aakc47l7gcx0","address":"1201 Commerce Blvd","geo_precision":"range","state":"CA"},"type":"Feature","geometry":{"type":"Point","coordinates":[-122.264316,38.107945]}},{"properties":{"column_4":null,"city":"Anaheim","city_2":"Ventura","geo_score_2":0.714,"facility type":"Plant","zip":"92806","region":"West","county":"Ventura","geo_precision_2":"city","state_2":"CA","geo_score":0.607,"facility name":"Anaheim","id":"aakc47u0wdxg","address":"2121 E. Winston Rd.","geo_precision":"street","state":"CA"},"type":"Feature","geometry":{"type":"Point","coordinates":[-119.358352,34.330829]}},{"properties":{"column_4":null,"city":"Half Moon Bay","city_2":"Visalia","geo_score_2":0.714,"facility type":"Office","zip":"94019","region":null,"county":"Tulare","geo_precision_2":"city","state_2":"CA","geo_score":1.0,"facility name":"Odwalla HQ","id":"aakc47rnheuv","address":"120 Stone Pine Rd.","geo_precision":"range","state":"CA"},"type":"Feature","geometry":{"type":"Point","coordinates":[-119.355559,36.13188]}},{"properties":{"column_4":null,"city":"Anaheim","city_2":"West Covina","geo_score_2":0.714,"facility type":"Plant","zip":"92806","region":"West","county":"Los Angeles","geo_precision_2":"city","state_2":"CA","geo_score":0.607,"facility name":"Anaheim","id":"aakc47sg8jqb","address":"2121 E. Winston Rd.","geo_precision":"street","state":"CA"},"type":"Feature","geometry":{"type":"Point","coordinates":[-118.298662,33.786594]}},{"properties":{"column_4":null,"city":"Anaheim","city_2":"West Covina","geo_score_2":0.714,"facility type":"Plant","zip":"92806","region":"West","county":"Los Angeles","geo_precision_2":"city","state_2":"CA","geo_score":0.607,"facility name":"Anaheim","id":"aakc47txmj4y","address":"2121 E. Winston Rd.","geo_precision":"street","state":"CA"},"type":"Feature","geometry":{"type":"Point","coordinates":[-118.298662,33.786594]}},{"properties":{"column_4":null,"city":"Half Moon Bay","city_2":"West Covina","geo_score_2":0.714,"facility type":"Office","zip":"94019","region":null,"county":"Los Angeles","geo_precision_2":"city","state_2":"CA","geo_score":1.0,"facility name":"Odwalla HQ","id":"aakc47ko9kq1","address":"120 Stone Pine Rd.","geo_precision":"range","state":"CA"},"type":"Feature","geometry":{"type":"Point","coordinates":[-118.298662,33.786594]}},{"properties":{"column_4":null,"city":"Anaheim","city_2":"West Covina","geo_score_2":0.714,"facility type":"Plant","zip":"92806","region":"West","county":"Los Angeles","geo_precision_2":"city","state_2":"CA","geo_score":0.607,"facility name":"Anaheim","id":"aakc47ncmv4t","address":"2121 E. Winston Rd.","geo_precision":"street","state":"CA"},"type":"Feature","geometry":{"type":"Point","coordinates":[-118.298662,33.786594]}},{"properties":{"column_4":null,"city":"Anaheim","city_2":"West Covina","geo_score_2":0.714,"facility type":"Plant","zip":"92806","region":"West","county":"Los Angeles","geo_precision_2":"city","state_2":"CA","geo_score":0.607,"facility name":"Anaheim","id":"aakc47i5vnba","address":"2121 E. Winston Rd.","geo_precision":"street","state":"CA"},"type":"Feature","geometry":{"type":"Point","coordinates":[-118.298662,33.786594]}},{"properties":{"column_4":null,"city":"Anaheim","city_2":"West Covina","geo_score_2":0.714,"facility type":"Plant","zip":"92806","region":"West","county":"Los Angeles","geo_precision_2":"city","state_2":"CA","geo_score":0.607,"facility name":"Anaheim","id":"aakc47ww5vht","address":"2121 E. Winston Rd.","geo_precision":"street","state":"CA"},"type":"Feature","geometry":{"type":"Point","coordinates":[-118.298662,33.786594]}},{"properties":{"column_4":null,"city":"Anaheim","city_2":"Westminster","geo_score_2":0.714,"facility type":"Plant","zip":"92806","region":"West","county":"Orange","geo_precision_2":"city","state_2":"CA","geo_score":0.607,"facility name":"Anaheim","id":"aakc47h2lmwp","address":"2121 E. Winston Rd.","geo_precision":"street","state":"CA"},"type":"Feature","geometry":{"type":"Point","coordinates":[-118.302296,33.941404]}},{"properties":{"column_4":null,"city":"Anaheim","city_2":"Westminster","geo_score_2":0.714,"facility type":"Plant","zip":"92806","region":"West","county":"Orange","geo_precision_2":"city","state_2":"CA","geo_score":0.607,"facility name":"Anaheim","id":"aakc47n3flti","address":"2121 E. Winston Rd.","geo_precision":"street","state":"CA"},"type":"Feature","geometry":{"type":"Point","coordinates":[-118.302296,33.941404]}},{"properties":{"column_4":null,"city":"Half Moon Bay","city_2":"Westminster","geo_score_2":0.714,"facility type":"Office","zip":"94019","region":null,"county":"Orange","geo_precision_2":"city","state_2":"CA","geo_score":1.0,"facility name":"Odwalla HQ","id":"aakc47jzeeg9","address":"120 Stone Pine Rd.","geo_precision":"range","state":"CA"},"type":"Feature","geometry":{"type":"Point","coordinates":[-118.302296,33.941404]}},{"properties":{"column_4":null,"city":"Anaheim","city_2":"Westminster","geo_score_2":0.714,"facility type":"Plant","zip":"92806","region":"West","county":"Orange","geo_precision_2":"city","state_2":"CA","geo_score":0.607,"facility name":"Anaheim","id":"aakc47v34mbd","address":"2121 E. Winston Rd.","geo_precision":"street","state":"CA"},"type":"Feature","geometry":{"type":"Point","coordinates":[-118.302296,33.941404]}},{"properties":{"column_4":null,"city":"Anaheim","city_2":"Westminster","geo_score_2":0.714,"facility type":"Plant","zip":"92806","region":"West","county":"Orange","geo_precision_2":"city","state_2":"CA","geo_score":0.607,"facility name":"Anaheim","id":"aakc47rqfjua","address":"2121 E. Winston Rd.","geo_precision":"street","state":"CA"},"type":"Feature","geometry":{"type":"Point","coordinates":[-118.302296,33.941404]}},{"properties":{"column_4":null,"city":"Anaheim","city_2":"Westminster","geo_score_2":0.714,"facility type":"Plant","zip":"92806","region":"West","county":"Orange","geo_precision_2":"city","state_2":"CA","geo_score":0.607,"facility name":"Anaheim","id":"aakc47s93s08","address":"2121 E. Winston Rd.","geo_precision":"street","state":"CA"},"type":"Feature","geometry":{"type":"Point","coordinates":[-118.302296,33.941404]}},{"properties":{"column_4":null,"city":"Anaheim","city_2":"Whittier","geo_score_2":0.714,"facility type":"Plant","zip":"92806","region":"West","county":"Los Angeles","geo_precision_2":"city","state_2":"CA","geo_score":0.607,"facility name":"Anaheim","id":"aakc47kzc018","address":"2121 E. Winston Rd.","geo_precision":"street","state":"CA"},"type":"Feature","geometry":{"type":"Point","coordinates":[-118.0441,34.004311]}},{"properties":{"column_4":null,"city":"Anaheim","city_2":"Whittier","geo_score_2":0.714,"facility type":"Plant","zip":"92806","region":"West","county":"Los Angeles","geo_precision_2":"city","state_2":"CA","geo_score":0.607,"facility name":"Anaheim","id":"aakc47p65eqz","address":"2121 E. Winston Rd.","geo_precision":"street","state":"CA"},"type":"Feature","geometry":{"type":"Point","coordinates":[-118.0441,34.004311]}},{"properties":{"column_4":null,"city":"Anaheim","city_2":"Whittier","geo_score_2":0.714,"facility type":"Plant","zip":"92806","region":"West","county":"Los Angeles","geo_precision_2":"city","state_2":"CA","geo_score":0.607,"facility name":"Anaheim","id":"aakc47qnmps2","address":"2121 E. Winston Rd.","geo_precision":"street","state":"CA"},"type":"Feature","geometry":{"type":"Point","coordinates":[-118.0441,34.004311]}},{"properties":{"column_4":null,"city":"Half Moon Bay","city_2":"Whittier","geo_score_2":0.714,"facility type":"Office","zip":"94019","region":null,"county":"Los Angeles","geo_precision_2":"city","state_2":"CA","geo_score":1.0,"facility name":"Odwalla HQ","id":"aakc47ssiekj","address":"120 Stone Pine Rd.","geo_precision":"range","state":"CA"},"type":"Feature","geometry":{"type":"Point","coordinates":[-118.0441,34.004311]}},{"properties":{"column_4":null,"city":"Anaheim","city_2":"Whittier","geo_score_2":0.714,"facility type":"Plant","zip":"92806","region":"West","county":"Los Angeles","geo_precision_2":"city","state_2":"CA","geo_score":0.607,"facility name":"Anaheim","id":"aakc47qqj46y","address":"2121 E. Winston Rd.","geo_precision":"street","state":"CA"},"type":"Feature","geometry":{"type":"Point","coordinates":[-118.0441,34.004311]}},{"properties":{"column_4":null,"city":"Anaheim","city_2":"Whittier","geo_score_2":0.714,"facility type":"Plant","zip":"92806","region":"West","county":"Los Angeles","geo_precision_2":"city","state_2":"CA","geo_score":0.607,"facility name":"Anaheim","id":"aakc47v0z1ve","address":"2121 E. Winston Rd.","geo_precision":"street","state":"CA"},"type":"Feature","geometry":{"type":"Point","coordinates":[-118.0441,34.004311]}},{"properties":{"column_4":null,"city":"Anaheim","city_2":"Whittier","geo_score_2":0.714,"facility type":"Plant","zip":"92806","region":"West","county":"Los Angeles","geo_precision_2":"city","state_2":"CA","geo_score":0.607,"facility name":"Anaheim","id":"aakc47x95plx","address":"2121 E. Winston Rd.","geo_precision":"street","state":"CA"},"type":"Feature","geometry":{"type":"Point","coordinates":[-118.0441,34.004311]}},{"properties":{"column_4":null,"city":"Anaheim","city_2":"Whittier","geo_score_2":0.714,"facility type":"Plant","zip":"92806","region":"West","county":"Los Angeles","geo_precision_2":"city","state_2":"CA","geo_score":0.607,"facility name":"Anaheim","id":"aakc47m5dl9b","address":"2121 E. Winston Rd.","geo_precision":"street","state":"CA"},"type":"Feature","geometry":{"type":"Point","coordinates":[-118.0441,34.004311]}}],"is_temporal":false,"author":{"url":null,"metadata":null,"contact_name":null,"contact_address":null,"source":null,"contact_phone":null},"source":null,"pagination":{"sort":null,"start":0,"total":286,"limit":1000000},"state":"complete","tags":"","published":"2014-08-16T16:33:12-04:00","id":303017}