{"type":"FeatureCollection","data_type":"Dataset","url_type":null,"permissions":[{"permissions":{"download":true,"view":true},"group_id":"everyone"}],"classification":null,"title":"Hospitals in Ghana","count":277,"stream_id":303136,"contributor":{"url":"http://geocommons.com/users/54256","name":"mwdcsend"},"data_attributes":null,"calculation_params":null,"icon_link":null,"link":"http://geocommons.com/overlays/303136.json","extent":[-2.78549,4.8856,1.1691,10.8387],"geometry_types":["point"],"unique_name":null,"name":"Hospitals in Ghana","feature_count":277,"description":"","next_feature":null,"is_raster":false,"short_classification":"Y","stats":{"latitude":{"max":10.83872,"variance":1.04299157759767,"mean":6.3063884806867,"stdev":1.02126959104718,"min":4.8856,"median":6.06849},"longitude":{"max":1.1691,"variance":0.794921692989521,"mean":-0.861963133047209,"stdev":0.891583811534014,"min":-2.78549,"median":-0.63719}},"features":[{"properties":{"latitude":10.1697,"region":"Upper West","district":"Nadowli","facilityname":"Ahmadiya Mission Hospital","type":"Hospital","ownership":"Islamic","town":"Kaleo","longitude":-2.54172,"id":"aaknm84vz8n3"},"type":"Feature","geometry":{"type":"Point","coordinates":[-2.54172,10.1697]}},{"properties":{"latitude":6.61879,"region":"Ashanti","district":"Asante-Akim North Municipal","facilityname":"Adom Hospital","type":"Hospital","ownership":"Private","town":"Akratiebesa","longitude":-1.19202,"id":"aaknm821bm7h"},"type":"Feature","geometry":{"type":"Point","coordinates":[-1.19202,6.61879]}},{"properties":{"latitude":6.79618,"region":"Ashanti","district":"Asante-Akim North Municipal","facilityname":"Agogo Presby Hospital","type":"Hospital","ownership":"CHAG","town":"Agogo","longitude":-1.08529,"id":"aaknm8501rys"},"type":"Feature","geometry":{"type":"Point","coordinates":[-1.08529,6.79618]}},{"properties":{"latitude":6.84534,"region":"Ashanti","district":"Sekyere East","facilityname":"Ahmadiya Muslim Hospital","type":"Hospital","ownership":"Private","town":"Effiduase","longitude":-1.38366,"id":"aaknm8ec9qpr"},"type":"Feature","geometry":{"type":"Point","coordinates":[-1.38366,6.84534]}},{"properties":{"latitude":6.50986,"region":"Ashanti","district":"Bekwai Municipal","facilityname":"Ahmadiyaa Mission Hospital","type":"Hospital","ownership":"Private","town":"Kokofu","longitude":-1.53649,"id":"aaknm8fvtw8b"},"type":"Feature","geometry":{"type":"Point","coordinates":[-1.53649,6.50986]}},{"properties":{"latitude":6.45491,"region":"Ashanti","district":"Bekwai Municipal","facilityname":"Ahwene Memorial Hospital","type":"Hospital","ownership":"Private","town":"Bekwai","longitude":-1.57071,"id":"aaknm84shrrw"},"type":"Feature","geometry":{"type":"Point","coordinates":[-1.57071,6.45491]}},{"properties":{"latitude":6.43966,"region":"Ashanti","district":"Bekwai Municipal","facilityname":"Akomaa Memorial Hospital","type":"Hospital","ownership":"CHAG","town":"Kortwia","longitude":-1.53837,"id":"aaknm83hbgk2"},"type":"Feature","geometry":{"type":"Point","coordinates":[-1.53837,6.43966]}},{"properties":{"latitude":6.55872,"region":"Ashanti","district":"Bosomtwe","facilityname":"St. Micheal Hospital","type":"Hospital","ownership":"CHAG","town":"Pramso","longitude":-1.51247,"id":"aaknm8ao2kf9"},"type":"Feature","geometry":{"type":"Point","coordinates":[-1.51247,6.55872]}},{"properties":{"latitude":6.1131,"region":"Ashanti","district":"Obuasi Municipal","facilityname":"Bryant  Mission Hospital","type":"Hospital","ownership":"Private","town":"Boete","longitude":-1.3844,"id":"aaknm8cq04zp"},"type":"Feature","geometry":{"type":"Point","coordinates":[-1.3844,6.1131]}},{"properties":{"latitude":6.72086,"region":"Ashanti","district":"Ejisu-Juaben Municipal","facilityname":"Dakopon Hospital","type":"Hospital","ownership":"Private","town":"Kwamo","longitude":-1.49322,"id":"aaknm8bk0odx"},"type":"Feature","geometry":{"type":"Point","coordinates":[-1.49322,6.72086]}},{"properties":{"latitude":7.0,"region":"Ashanti","district":"Atwima-Nwabiagya","facilityname":"Everest Hospital","type":"Hospital","ownership":"Private","town":"Achiase","longitude":-2.0,"id":"aaknm8elgsac"},"type":"Feature","geometry":{"type":"Point","coordinates":[-2.0,7.0]}},{"properties":{"latitude":6.81614,"region":"Ashanti","district":"Afigya-Kwabre","facilityname":"Family Care Hospital","type":"Hospital","ownership":"Private","town":"Mowre","longitude":-1.47675,"id":"aaknm8entae7"},"type":"Feature","geometry":{"type":"Point","coordinates":[-1.47675,6.81614]}},{"properties":{"latitude":6.66903,"region":"Ashanti","district":"Ejisu-Juaben Municipal","facilityname":"Global Evangelical Mission Hospital","type":"Hospital","ownership":"CHAG","town":"Apromase","longitude":-1.49298,"id":"aaknm87qibsi"},"type":"Feature","geometry":{"type":"Point","coordinates":[-1.49298,6.66903]}},{"properties":{"latitude":6.49903,"region":"Ashanti","district":"Bekwai Municipal","facilityname":"Kokofu General Hospital","type":"Hospital","ownership":"Government","town":"Kokofu","longitude":-1.52254,"id":"aaknm87jxr0f"},"type":"Feature","geometry":{"type":"Point","coordinates":[-1.52254,6.49903]}},{"properties":{"latitude":7.04621,"region":"Ashanti","district":"Mampong Municipal","facilityname":"Mampong Quality Hospital","type":"Hospital","ownership":"Private","town":"Mampong","longitude":-1.40195,"id":"aaknm89omumx"},"type":"Feature","geometry":{"type":"Point","coordinates":[-1.40195,7.04621]}},{"properties":{"latitude":6.82076,"region":"Ashanti","district":"Ahafo-Ano South","facilityname":"Mankranso Hospital","type":"Hospital","ownership":"Government","town":"Mankranso","longitude":-1.86278,"id":"aaknm8fm2pff"},"type":"Feature","geometry":{"type":"Point","coordinates":[-1.86278,6.82076]}},{"properties":{"latitude":7.0,"region":"Ashanti","district":"Atwima-Nwabiagya","facilityname":"Nkawie/Toase Hospital","type":"Hospital","ownership":"Government","town":"Nkawie","longitude":-2.0,"id":"aaknm81j4c69"},"type":"Feature","geometry":{"type":"Point","coordinates":[-2.0,7.0]}},{"properties":{"latitude":6.1213,"region":"Ashanti","district":"Obuasi Municipal","facilityname":"Obuasi Government Hospital","type":"Hospital","ownership":"Government","town":"Obuasi","longitude":-1.4105,"id":"aaknm8eng4k5"},"type":"Feature","geometry":{"type":"Point","coordinates":[-1.4105,6.1213]}},{"properties":{"latitude":7.05213,"region":"Ashanti","district":"Sekyere South","facilityname":"Salvation Army Clinic","type":"Hospital","ownership":"CHAG","town":"Wiamoase","longitude":-1.52521,"id":"aaknm8arnfzr"},"type":"Feature","geometry":{"type":"Point","coordinates":[-1.52521,7.05213]}},{"properties":{"latitude":6.3104,"region":"Ashanti","district":"Bekwai Municipal","facilityname":"SDA Hospital","type":"Hospital","ownership":"CHAG","town":"Dominase","longitude":-1.3911,"id":"aaknm85cc9qc"},"type":"Feature","geometry":{"type":"Point","coordinates":[-1.3911,6.3104]}},{"properties":{"latitude":6.68001,"region":"Ashanti","district":"Ejisu-Juaben Municipal","facilityname":"SDA Hospital","type":"Hospital","ownership":"CHAG","town":"Onwe","longitude":-1.54161,"id":"aaknm88088gv"},"type":"Feature","geometry":{"type":"Point","coordinates":[-1.54161,6.68001]}},{"properties":{"latitude":7.05322,"region":"Ashanti","district":"Sekyere South","facilityname":"SDA Hospital Asamang","type":"Hospital","ownership":"CHAG","town":"Asamang","longitude":-1.50964,"id":"aaknm8ekvt8f"},"type":"Feature","geometry":{"type":"Point","coordinates":[-1.50964,7.05322]}},{"properties":{"latitude":6.90258,"region":"Ashanti","district":"Sekyere South","facilityname":"SDA Hospital Wiamoase","type":"Hospital","ownership":"CHAG","town":"Wiamose","longitude":-1.43311,"id":"aaknm8cyksmz"},"type":"Feature","geometry":{"type":"Point","coordinates":[-1.43311,6.90258]}},{"properties":{"latitude":6.20723,"region":"Ashanti","district":"Obuasi Municipal","facilityname":"St. Jude Hospital  Ltd.","type":"Hospital","ownership":"Private","town":"Bedieso-Obuasi","longitude":-1.68137,"id":"aaknm8gdemi8"},"type":"Feature","geometry":{"type":"Point","coordinates":[-1.68137,6.20723]}},{"properties":{"latitude":7.53953,"region":"Ashanti","district":"Ejura Sekyeredumasi","facilityname":"St. Luke Hospital Kasei","type":"Hospital","ownership":"CHAG","town":"Kasei","longitude":-1.34637,"id":"aaknm852mxn8"},"type":"Feature","geometry":{"type":"Point","coordinates":[-1.34637,7.53953]}},{"properties":{"latitude":6.41337,"region":"Ashanti","district":"Amansie West","facilityname":"St. Martin's  Hospital","type":"Hospital","ownership":"CHAG","town":"Agroyesum","longitude":-1.88154,"id":"aaknm8as01fu"},"type":"Feature","geometry":{"type":"Point","coordinates":[-1.88154,6.41337]}},{"properties":{"latitude":6.93135,"region":"Ashanti","district":"Offinso Municipal","facilityname":"St. Patricks Hospital","type":"Hospital","ownership":"CHAG","town":"Offinso","longitude":-1.68167,"id":"aaknm8ghhlz2"},"type":"Feature","geometry":{"type":"Point","coordinates":[-1.68167,6.93135]}},{"properties":{"latitude":6.34331,"region":"Ashanti","district":"Amansie Central","facilityname":"St. Peters' Hospital","type":"Hospital","ownership":"CHAG","town":"Jacobu","longitude":-1.66669,"id":"aaknm8gfnzl1"},"type":"Feature","geometry":{"type":"Point","coordinates":[-1.66669,6.34331]}},{"properties":{"latitude":6.72023,"region":"Ashanti","district":"Ejisu-Juaben Municipal","facilityname":"Super Care Hospital","type":"Hospital","ownership":"Private","town":"Krapa-Ejisu","longitude":-1.48104,"id":"aaknm855o98w"},"type":"Feature","geometry":{"type":"Point","coordinates":[-1.48104,6.72023]}},{"properties":{"latitude":6.86802,"region":"Ashanti","district":"Sekyere Afram Plains","facilityname":"Westphalian Hospital Complex","type":"Hospital","ownership":"Private","town":"Oyoko","longitude":-1.39049,"id":"aaknm835l9oy"},"type":"Feature","geometry":{"type":"Point","coordinates":[-1.39049,6.86802]}},{"properties":{"latitude":null,"region":"Ashanti","district":"Asante-Akim South","facilityname":"Juaso SABS Hospital","type":"Hospital","ownership":"Private","town":"Juaso","longitude":null,"id":"aaknm8fg7dqm"},"type":"Feature","geometry":null},{"properties":{"latitude":null,"region":"Ashanti","district":"Mampong Municipal","facilityname":"Mampong Government Hospital","type":"Hospital","ownership":"Government","town":"Mampong","longitude":null,"id":"aaknm877qp4x"},"type":"Feature","geometry":null},{"properties":{"latitude":null,"region":"Ashanti","district":"Mampong Municipal","facilityname":"Mampong Quality Hospital","type":"Hospital","ownership":"Private","town":"Mampong","longitude":null,"id":"aaknm8dew8p8"},"type":"Feature","geometry":null},{"properties":{"latitude":null,"region":"Ashanti","district":"Sekyere East","facilityname":"Asokore Ahmadyya Muslem Hospital","type":"Hospital","ownership":"Islamic","town":"Asokore","longitude":null,"id":"aaknm86odozr"},"type":"Feature","geometry":null},{"properties":{"latitude":null,"region":"Ashanti","district":"Asante-Akim North Municipal","facilityname":"Konongo Adom Hospital","type":"Hospital","ownership":"Private","town":"Konongo","longitude":null,"id":"aaknm87gbymq"},"type":"Feature","geometry":null},{"properties":{"latitude":6.81527,"region":"Ashanti","district":"Kumasi Metropolitan","facilityname":"Abrafi Memorial Hospital","type":"Hospital","ownership":"Private","town":"Dichemso","longitude":-1.59589,"id":"aaknm8d158rw"},"type":"Feature","geometry":{"type":"Point","coordinates":[-1.59589,6.81527]}},{"properties":{"latitude":6.75486,"region":"Ashanti","district":"Kumasi Metropolitan","facilityname":"Adabie Hospital","type":"Hospital","ownership":"Private","town":"Atonsu","longitude":-1.52744,"id":"aaknm8724p9h"},"type":"Feature","geometry":{"type":"Point","coordinates":[-1.52744,6.75486]}},{"properties":{"latitude":6.74246,"region":"Ashanti","district":"Kumasi Metropolitan","facilityname":"Ahmadiya Hospital","type":"Hospital","ownership":"Private","town":"Sepe Timpon","longitude":-1.55877,"id":"aaknm8asfixj"},"type":"Feature","geometry":{"type":"Point","coordinates":[-1.55877,6.74246]}},{"properties":{"latitude":6.77928,"region":"Ashanti","district":"Kumasi Metropolitan","facilityname":"Amoah Memorial Hospital","type":"Hospital","ownership":"Private","town":"Pankrono","longitude":-1.49126,"id":"aaknm8e3eppx"},"type":"Feature","geometry":{"type":"Point","coordinates":[-1.49126,6.77928]}},{"properties":{"latitude":6.66518,"region":"Ashanti","district":"Kumasi Metropolitan","facilityname":"Animwaa Medical Centre","type":"Hospital","ownership":"Private","town":"Amena","longitude":-1.53521,"id":"aaknm82b4b44"},"type":"Feature","geometry":{"type":"Point","coordinates":[-1.53521,6.66518]}},{"properties":{"latitude":6.65207,"region":"Ashanti","district":"Kumasi Metropolitan","facilityname":"Atasemanso Hospital","type":"Hospital","ownership":"Private","town":"Atasemanso","longitude":-1.63318,"id":"aaknm82blu86"},"type":"Feature","geometry":{"type":"Point","coordinates":[-1.63318,6.65207]}},{"properties":{"latitude":6.74975,"region":"Ashanti","district":"Kumasi Metropolitan","facilityname":"Atsyor Hospital Complex","type":"Hospital","ownership":"Private","town":"Ataafoa-Pankrono","longitude":-1.61764,"id":"aaknm8cq74sx"},"type":"Feature","geometry":{"type":"Point","coordinates":[-1.61764,6.74975]}},{"properties":{"latitude":6.70634,"region":"Ashanti","district":"Kumasi Metropolitan","facilityname":"Boatemaa Memorial Hospital","type":"Hospital","ownership":"Private","town":"Asawase","longitude":-1.60494,"id":"aaknm839wvhc"},"type":"Feature","geometry":{"type":"Point","coordinates":[-1.60494,6.70634]}},{"properties":{"latitude":6.68453,"region":"Ashanti","district":"Kumasi Metropolitan","facilityname":"Bomso Specialist Hospital","type":"Hospital","ownership":"Private","town":"Bomso","longitude":-1.57888,"id":"aaknm89izv65"},"type":"Feature","geometry":{"type":"Point","coordinates":[-1.57888,6.68453]}},{"properties":{"latitude":6.71818,"region":"Ashanti","district":"Kumasi Metropolitan","facilityname":"Charity Hospital","type":"Hospital","ownership":"Private","town":"Kropo","longitude":-1.64221,"id":"aaknm8bb1kst"},"type":"Feature","geometry":{"type":"Point","coordinates":[-1.64221,6.71818]}},{"properties":{"latitude":6.68016,"region":"Ashanti","district":"Kumasi Metropolitan","facilityname":"City Hospital","type":"Hospital","ownership":"Private","town":"Stadium","longitude":-1.60371,"id":"aaknm8gcg4g6"},"type":"Feature","geometry":{"type":"Point","coordinates":[-1.60371,6.68016]}},{"properties":{"latitude":6.72651,"region":"Ashanti","district":"Kumasi Metropolitan","facilityname":"County Hospital","type":"Hospital","ownership":"Private","town":"Abrepo","longitude":-1.65796,"id":"aaknm86hz2nz"},"type":"Feature","geometry":{"type":"Point","coordinates":[-1.65796,6.72651]}},{"properties":{"latitude":6.69488,"region":"Ashanti","district":"Kumasi Metropolitan","facilityname":"Gloria Memorial Hospital","type":"Hospital","ownership":"Private","town":"Akwatialine","longitude":-1.60754,"id":"aaknm8e22ost"},"type":"Feature","geometry":{"type":"Point","coordinates":[-1.60754,6.69488]}},{"properties":{"latitude":6.71107,"region":"Ashanti","district":"Kumasi Metropolitan","facilityname":"Hebrona Hospital","type":"Hospital","ownership":"Private","town":"Abrepo Junction","longitude":-1.63417,"id":"aaknm8fdtlws"},"type":"Feature","geometry":{"type":"Point","coordinates":[-1.63417,6.71107]}},{"properties":{"latitude":6.73951,"region":"Ashanti","district":"Kumasi Metropolitan","facilityname":"Keffam Hospital","type":"Hospital","ownership":"Private","town":"Buokrom Estate","longitude":-1.59561,"id":"aaknm82speh9"},"type":"Feature","geometry":{"type":"Point","coordinates":[-1.59561,6.73951]}},{"properties":{"latitude":6.68409,"region":"Ashanti","district":"Kumasi Metropolitan","facilityname":"KNUST Hospital","type":"Hospital","ownership":"Quasi-Government","town":"Ayigya","longitude":-1.57378,"id":"aaknm897zbu4"},"type":"Feature","geometry":{"type":"Point","coordinates":[-1.57378,6.68409]}},{"properties":{"latitude":6.69529,"region":"Ashanti","district":"Kumasi Metropolitan","facilityname":"Kyei Memorial Hospital","type":"Hospital","ownership":"Private","town":"Akwatialine","longitude":-1.61002,"id":"aaknm82dmbmn"},"type":"Feature","geometry":{"type":"Point","coordinates":[-1.61002,6.69529]}},{"properties":{"latitude":6.70396,"region":"Ashanti","district":"Kumasi Metropolitan","facilityname":"Manhyia Government Hospital","type":"Hospital","ownership":"Government","town":"Manhyia","longitude":-1.61191,"id":"aaknm88ftvjf"},"type":"Feature","geometry":{"type":"Point","coordinates":[-1.61191,6.70396]}},{"properties":{"latitude":6.69316,"region":"Ashanti","district":"Kumasi Metropolitan","facilityname":"Maternal and Child Health Hospital","type":"Hospital","ownership":"Government","town":"Adum","longitude":-1.62531,"id":"aaknm868qgxw"},"type":"Feature","geometry":{"type":"Point","coordinates":[-1.62531,6.69316]}},{"properties":{"latitude":6.70534,"region":"Ashanti","district":"Kumasi Metropolitan","facilityname":"Mbrom Hospital","type":"Hospital","ownership":"Private","town":"Mbrom Dichemso","longitude":-1.62392,"id":"aaknm81udpkm"},"type":"Feature","geometry":{"type":"Point","coordinates":[-1.62392,6.70534]}},{"properties":{"latitude":6.72976,"region":"Ashanti","district":"Kumasi Metropolitan","facilityname":"Naka and St. Ama Hospital","type":"Hospital","ownership":"Private","town":"Buokrom","longitude":-1.58603,"id":"aaknm8dn8ota"},"type":"Feature","geometry":{"type":"Point","coordinates":[-1.58603,6.72976]}},{"properties":{"latitude":6.64842,"region":"Ashanti","district":"Kumasi Metropolitan","facilityname":"New Era Millennium Hospital","type":"Hospital","ownership":"Private","town":"Bokro-Atonsu","longitude":-1.59076,"id":"aaknm88iu6vq"},"type":"Feature","geometry":{"type":"Point","coordinates":[-1.59076,6.64842]}},{"properties":{"latitude":6.69967,"region":"Ashanti","district":"Kumasi Metropolitan","facilityname":"New Town Hospital","type":"Hospital","ownership":"Private","town":"Ashanti Town","longitude":-1.61925,"id":"aaknm86s1on5"},"type":"Feature","geometry":{"type":"Point","coordinates":[-1.61925,6.69967]}},{"properties":{"latitude":6.69904,"region":"Ashanti","district":"Kumasi Metropolitan","facilityname":"Peace and Love Hospital","type":"Hospital","ownership":"Private","town":"Oduom","longitude":-1.54041,"id":"aaknm8337nk7"},"type":"Feature","geometry":{"type":"Point","coordinates":[-1.54041,6.69904]}},{"properties":{"latitude":6.67289,"region":"Ashanti","district":"Kumasi Metropolitan","facilityname":"Poku Transport Hospital","type":"Hospital","ownership":"Private","town":"Asokwa","longitude":-1.60181,"id":"aaknm89wrobd"},"type":"Feature","geometry":{"type":"Point","coordinates":[-1.60181,6.67289]}},{"properties":{"latitude":6.69654,"region":"Ashanti","district":"Kumasi Metropolitan","facilityname":"Quality Health Care Ltd.","type":"Hospital","ownership":"Private","town":"Kentinkrono","longitude":-1.55216,"id":"aaknm8dyqnhx"},"type":"Feature","geometry":{"type":"Point","coordinates":[-1.55216,6.69654]}},{"properties":{"latitude":6.63657,"region":"Ashanti","district":"Kumasi Metropolitan","facilityname":"Queens Hospital","type":"Hospital","ownership":"Private","town":"Dompoase","longitude":-1.58818,"id":"aaknm8bau24s"},"type":"Feature","geometry":{"type":"Point","coordinates":[-1.58818,6.63657]}},{"properties":{"latitude":6.73026,"region":"Ashanti","district":"Kumasi Metropolitan","facilityname":"Rophi Hospital","type":"Hospital","ownership":"Private","town":"Old Tafo","longitude":-1.61204,"id":"aaknm86eei4g"},"type":"Feature","geometry":{"type":"Point","coordinates":[-1.61204,6.73026]}},{"properties":{"latitude":6.70301,"region":"Ashanti","district":"Kumasi Metropolitan","facilityname":"Safo Adu Hosptal","type":"Hospital","ownership":"Private","town":"Manhyia","longitude":-1.61371,"id":"aaknm82f5ng9"},"type":"Feature","geometry":{"type":"Point","coordinates":[-1.61371,6.70301]}},{"properties":{"latitude":6.74196,"region":"Ashanti","district":"Kumasi Metropolitan","facilityname":"Siaw Larbi Hospital","type":"Hospital","ownership":"Private","town":"Mile 4 - Tafo","longitude":-1.61304,"id":"aaknm827bzee"},"type":"Feature","geometry":{"type":"Point","coordinates":[-1.61304,6.74196]}},{"properties":{"latitude":6.70008,"region":"Ashanti","district":"Kumasi Metropolitan","facilityname":"Siloam Hospital","type":"Hospital","ownership":"Private","town":"Kwadaso","longitude":-1.66115,"id":"aaknm887t28p"},"type":"Feature","geometry":{"type":"Point","coordinates":[-1.66115,6.70008]}},{"properties":{"latitude":6.72642,"region":"Ashanti","district":"Kumasi Metropolitan","facilityname":"St. Anthony Hospital","type":"Hospital","ownership":"Private","town":"Asuogya","longitude":-1.64531,"id":"aaknm81hztsr"},"type":"Feature","geometry":{"type":"Point","coordinates":[-1.64531,6.72642]}},{"properties":{"latitude":6.67022,"region":"Ashanti","district":"Kumasi Metropolitan","facilityname":"St. Marku's Hospital","type":"Hospital","ownership":"Private","town":"Asokwa","longitude":-1.60013,"id":"aaknm8787euo"},"type":"Feature","geometry":{"type":"Point","coordinates":[-1.60013,6.67022]}},{"properties":{"latitude":6.70243,"region":"Ashanti","district":"Kumasi Metropolitan","facilityname":"Suntreso Government Hospital","type":"Hospital","ownership":"Government","town":"Suntreso","longitude":-1.64223,"id":"aaknm8geuc91"},"type":"Feature","geometry":{"type":"Point","coordinates":[-1.64223,6.70243]}},{"properties":{"latitude":6.72554,"region":"Ashanti","district":"Kumasi Metropolitan","facilityname":"Tafo Government Hospital","type":"Hospital","ownership":"Government","town":"Tafo","longitude":-1.61317,"id":"aaknm8650fyz"},"type":"Feature","geometry":{"type":"Point","coordinates":[-1.61317,6.72554]}},{"properties":{"latitude":6.69042,"region":"Ashanti","district":"Kumasi Metropolitan","facilityname":"Trust Care Specialist Hospital","type":"Hospital","ownership":"Private","town":"South Suntreso","longitude":-1.63979,"id":"aaknm82l2czw"},"type":"Feature","geometry":{"type":"Point","coordinates":[-1.63979,6.69042]}},{"properties":{"latitude":6.67157,"region":"Ashanti","district":"Kumasi Metropolitan","facilityname":"Twumasi Memorial Hospital","type":"Hospital","ownership":"Private","town":"Asokwa","longitude":-1.60489,"id":"aaknm86juwy6"},"type":"Feature","geometry":{"type":"Point","coordinates":[-1.60489,6.67157]}},{"properties":{"latitude":6.65263,"region":"Ashanti","district":"Kumasi Metropolitan","facilityname":"Washie Hospital","type":"Hospital","ownership":"Private","town":"Ahodwo Kumasi","longitude":-1.61921,"id":"aaknm82eemqn"},"type":"Feature","geometry":{"type":"Point","coordinates":[-1.61921,6.65263]}},{"properties":{"latitude":6.70013,"region":"Ashanti","district":"Kumasi Metropolitan","facilityname":"Wilben Dental Clinic","type":"Hospital","ownership":"Private","town":"Dr. Mensah - Ash Town","longitude":-1.61951,"id":"aaknm8a4uy7x"},"type":"Feature","geometry":{"type":"Point","coordinates":[-1.61951,6.70013]}},{"properties":{"latitude":6.70875,"region":"Ashanti","district":"Kumasi Metropolitan","facilityname":"Wisdom Hospital","type":"Hospital","ownership":"Private","town":"Dichemso","longitude":-1.61056,"id":"aaknm8egd77v"},"type":"Feature","geometry":{"type":"Point","coordinates":[-1.61056,6.70875]}},{"properties":{"latitude":null,"region":"Ashanti","district":"Kumasi Metropolitan","facilityname":"Asawasi Boakye Dunkwa Hospital","type":"Hospital","ownership":"Private","town":"Asawasi","longitude":null,"id":"aaknm83vy3fb"},"type":"Feature","geometry":null},{"properties":{"latitude":null,"region":"Ashanti","district":"Kumasi Metropolitan","facilityname":"Effah Hospital","type":"Hospital","ownership":"Private","town":"Buokrom Estate","longitude":null,"id":"aaknm8bi8qjq"},"type":"Feature","geometry":null},{"properties":{"latitude":null,"region":"Ashanti","district":"Kumasi Metropolitan","facilityname":"Allen Hospital","type":"Hospital","ownership":"Private","town":"Dichemso","longitude":null,"id":"aaknm8di6lni"},"type":"Feature","geometry":null},{"properties":{"latitude":null,"region":"Ashanti","district":"Kumasi Metropolitan","facilityname":"Abrepo County Hospital","type":"Hospital","ownership":"Private","town":"Abrepo","longitude":null,"id":"aaknm87nop0l"},"type":"Feature","geometry":null},{"properties":{"latitude":null,"region":"Ashanti","district":"Kumasi Metropolitan","facilityname":"SDA Hospital","type":"Hospital","ownership":"Private","town":"Kwadaso","longitude":null,"id":"aaknm89rrhzw"},"type":"Feature","geometry":null},{"properties":{"latitude":null,"region":"Ashanti","district":"Kumasi Metropolitan","facilityname":"Patasi Suame Nkwanta Hospital","type":"Hospital","ownership":"Private","town":"Patasi","longitude":null,"id":"aaknm8boa2gv"},"type":"Feature","geometry":null},{"properties":{"latitude":null,"region":"Ashanti","district":"Kumasi Metropolitan","facilityname":"Asafo Agyei Hospital","type":"Hospital","ownership":"Private","town":"Daaban","longitude":null,"id":"aaknm8gzjzeq"},"type":"Feature","geometry":null},{"properties":{"latitude":null,"region":"Ashanti","district":"Kumasi Metropolitan","facilityname":"Adiebeba Hospital","type":"Hospital","ownership":"Private","town":"Adiebeba","longitude":null,"id":"aaknm85o6mex"},"type":"Feature","geometry":null},{"properties":{"latitude":null,"region":"Ashanti","district":"Kumasi Metropolitan","facilityname":"Ahodwo Washie Hospital","type":"Hospital","ownership":"Private","town":"Ahodwo","longitude":null,"id":"aaknm87xl76d"},"type":"Feature","geometry":null},{"properties":{"latitude":null,"region":"Ashanti","district":"Kumasi Metropolitan","facilityname":"Hebrona Hospital","type":"Hospital","ownership":"Private","town":"Sokoban","longitude":null,"id":"aaknm81jk17v"},"type":"Feature","geometry":null},{"properties":{"latitude":null,"region":"Ashanti","district":"Kumasi Metropolitan","facilityname":"Agyei Eli Hospital","type":"Hospital","ownership":"Private","town":"Sokoban","longitude":null,"id":"aaknm89h3wk7"},"type":"Feature","geometry":null},{"properties":{"latitude":null,"region":"Ashanti","district":"Kumasi Metropolitan","facilityname":"Boampong Hospital","type":"Hospital","ownership":"Private","town":"Santasi","longitude":null,"id":"aaknm8fy9ovn"},"type":"Feature","geometry":null},{"properties":{"latitude":null,"region":"Ashanti","district":"Kumasi Metropolitan","facilityname":"Neuro-Psych Hospital","type":"Hospital","ownership":"Private","town":"Pankrono","longitude":null,"id":"aaknm8agunyt"},"type":"Feature","geometry":null},{"properties":{"latitude":null,"region":"Ashanti","district":"Afigya-Kwabre","facilityname":"PACKS Hospital","type":"Hospital","ownership":"Private","town":"Afrancho","longitude":null,"id":"aaknm899or3u"},"type":"Feature","geometry":null},{"properties":{"latitude":null,"region":"Ashanti","district":"Afigya-Kwabre","facilityname":"Hilltop Hospital","type":"Hospital","ownership":"Private","town":"Buoho","longitude":null,"id":"aaknm86iuldl"},"type":"Feature","geometry":null},{"properties":{"latitude":6.93279,"region":"Brong Ahafo","district":"Asutifi","facilityname":"St.Elizabeth Hospital","type":"Hospital","ownership":"CHAG","town":"Hwidiem","longitude":-2.35805,"id":"aaknm882zxhw"},"type":"Feature","geometry":{"type":"Point","coordinates":[-2.35805,6.93279]}},{"properties":{"latitude":7.44372,"region":"Brong Ahafo","district":"Berekum Municipal","facilityname":"Bre Nye Kwa Hospital","type":"Hospital","ownership":"Government","town":"Berekum","longitude":-2.59325,"id":"aaknm87y58up"},"type":"Feature","geometry":{"type":"Point","coordinates":[-2.59325,7.44372]}},{"properties":{"latitude":7.44325,"region":"Brong Ahafo","district":"Berekum Municipal","facilityname":"Holy Family Hospital","type":"Hospital","ownership":"Private","town":"Berekum","longitude":-2.58806,"id":"aaknm83khr13"},"type":"Feature","geometry":{"type":"Point","coordinates":[-2.58806,7.44325]}},{"properties":{"latitude":7.58599,"region":"Brong Ahafo","district":"Jaman South","facilityname":"St. Mary's Hospital","type":"Hospital","ownership":"Private","town":"Drobo","longitude":-2.78549,"id":"aaknm8hkut80"},"type":"Feature","geometry":{"type":"Point","coordinates":[-2.78549,7.58599]}},{"properties":{"latitude":7.57152,"region":"Brong Ahafo","district":"Nkoranza","facilityname":"St. Theresa's Hospital","type":"Hospital","ownership":"Private","town":"Nkoranza","longitude":-1.70406,"id":"aaknm88wzdaa"},"type":"Feature","geometry":{"type":"Point","coordinates":[-1.70406,7.57152]}},{"properties":{"latitude":8.22936,"region":"Brong Ahafo","district":"Pru","facilityname":"Mathias Hospital","type":"Hospital","ownership":"Government","town":"Yeji","longitude":-0.6551,"id":"aaknm8bggsak"},"type":"Feature","geometry":{"type":"Point","coordinates":[-0.6551,8.22936]}},{"properties":{"latitude":7.34301,"region":"Brong Ahafo","district":"Sunyani","facilityname":"Nkwabeng Hospital","type":"Hospital","ownership":"Private","town":"Sunyani","longitude":-2.32741,"id":"aaknm8enf4oj"},"type":"Feature","geometry":{"type":"Point","coordinates":[-2.32741,7.34301]}},{"properties":{"latitude":7.32669,"region":"Brong Ahafo","district":"Sunyani","facilityname":"Owusu Memorial Hospital","type":"Hospital","ownership":"Private","town":"Sunyani","longitude":-2.33267,"id":"aaknm84fxud4"},"type":"Feature","geometry":{"type":"Point","coordinates":[-2.33267,7.32669]}},{"properties":{"latitude":7.17559,"region":"Brong Ahafo","district":"Tano North","facilityname":"St. John of God Hospital","type":"Hospital","ownership":"Government","town":"Duayaw Nkwanta","longitude":-2.0967,"id":"aaknm8gbs6bl"},"type":"Feature","geometry":{"type":"Point","coordinates":[-2.0967,7.17559]}},{"properties":{"latitude":7.58611,"region":"Brong Ahafo","district":"Techiman","facilityname":"Ahamadiya Moslem Hospital","type":"Hospital","ownership":"Private","town":"Techiman","longitude":-1.9317,"id":"aaknm89xvkof"},"type":"Feature","geometry":{"type":"Point","coordinates":[-1.9317,7.58611]}},{"properties":{"latitude":7.56288,"region":"Brong Ahafo","district":"Techiman","facilityname":"Opoku Agyeman Hospital","type":"Hospital","ownership":"Government","town":"Techiman","longitude":-1.93692,"id":"aaknm8bgilha"},"type":"Feature","geometry":{"type":"Point","coordinates":[-1.93692,7.56288]}},{"properties":{"latitude":7.59193,"region":"Brong Ahafo","district":"Techiman","facilityname":"Holy Family Hospital","type":"Hospital","ownership":"CHAG","town":"Techiman","longitude":-1.93944,"id":"aaknm8glhdq1"},"type":"Feature","geometry":{"type":"Point","coordinates":[-1.93944,7.59193]}},{"properties":{"latitude":7.73854,"region":"Brong Ahafo","district":"Wenchi","facilityname":"Wencgi Methodist Hospital","type":"Hospital","ownership":"CHAG","town":"Wenchi","longitude":-2.111,"id":"aaknm8ei716p"},"type":"Feature","geometry":{"type":"Point","coordinates":[-2.111,7.73854]}},{"properties":{"latitude":7.73964,"region":"Brong Ahafo","district":"Wenchi","facilityname":"Emil Memorial Hospital","type":"Hospital","ownership":"Government","town":"Wenchi","longitude":-2.09488,"id":"aaknm8f6miqc"},"type":"Feature","geometry":{"type":"Point","coordinates":[-2.09488,7.73964]}},{"properties":{"latitude":null,"region":"Brong Ahafo","district":"Sene","facilityname":"Kwame Danso Hospital","type":"Hospital","ownership":"Government","town":"Kwame Danso","longitude":null,"id":"aaknm84nj19s"},"type":"Feature","geometry":null},{"properties":{"latitude":null,"region":"Brong Ahafo","district":"Sunyani Municipal","facilityname":"SDA Hospital","type":"Hospital","ownership":"Private","town":"Sunyani","longitude":null,"id":"aaknm8dlhaph"},"type":"Feature","geometry":null},{"properties":{"latitude":null,"region":"Brong Ahafo","district":"Asunafo North Municipal","facilityname":"Ahmadiyya Muslim Hospital","type":"Hospital","ownership":"Muslim","town":"Mim","longitude":null,"id":"aaknm899c2p3"},"type":"Feature","geometry":null},{"properties":{"latitude":null,"region":"Brong Ahafo","district":"Sene","facilityname":"Kwame Danso Hospital","type":"Hospital","ownership":"Government","town":"Kwame Danso","longitude":null,"id":"aaknm829w3zq"},"type":"Feature","geometry":null},{"properties":{"latitude":null,"region":"Brong Ahafo","district":"Sunyani Municipal","facilityname":"SDA Hospital","type":"Hospital","ownership":"CHAG","town":"Sunyani","longitude":null,"id":"aaknm8dq5gaz"},"type":"Feature","geometry":null},{"properties":{"latitude":5.58063,"region":"Central","district":"Asikuma-Odoben-Brakwa","facilityname":"Our Lady of Grace","type":"Hospital","ownership":"CHAG","town":"Breman Asikuma","longitude":-0.99655,"id":"aaknm8dhgjjx"},"type":"Feature","geometry":{"type":"Point","coordinates":[-0.99655,5.58063]}},{"properties":{"latitude":null,"region":"Central","district":"Mfantseman","facilityname":"Mercy Maternity &amp; Fistula Women Centre","type":"Hospital","ownership":"Private","town":null,"longitude":null,"id":"aaknm83eb7bw"},"type":"Feature","geometry":null},{"properties":{"latitude":5.96779,"region":"Central","district":"Upper Denkyira East","facilityname":"St. Mark Hospital","type":"Hospital","ownership":"Private","town":"Atechem","longitude":-1.79029,"id":"aaknm8hgqqug"},"type":"Feature","geometry":{"type":"Point","coordinates":[-1.79029,5.96779]}},{"properties":{"latitude":5.53852,"region":"Central","district":"Agona West Municipal","facilityname":"Ahmadiyya Muslim Hospital.","type":"Hospital","ownership":"CHAG","town":"Swedru","longitude":-0.69956,"id":"aaknm896v9mn"},"type":"Feature","geometry":{"type":"Point","coordinates":[-0.69956,5.53852]}},{"properties":{"latitude":5.12535,"region":"Central","district":"Cape Coast Metropolitan","facilityname":"Baiden Ghartey Memorial Hospital","type":"Hospital","ownership":"Private","town":"Pedu","longitude":-1.27525,"id":"aaknm87yyxor"},"type":"Feature","geometry":{"type":"Point","coordinates":[-1.27525,5.12535]}},{"properties":{"latitude":5.10537,"region":"Central","district":"Cape Coast Metropolitan","facilityname":"U.C.C Hospital","type":"Hospital","ownership":"Government","town":"Cape Coast","longitude":-1.28298,"id":"aaknm8g13ibl"},"type":"Feature","geometry":{"type":"Point","coordinates":[-1.28298,5.10537]}},{"properties":{"latitude":null,"region":"Central","district":"Efutu Municipal","facilityname":"Baptist Hospital","type":"Hospital","ownership":"CHAG","town":"Winneba","longitude":null,"id":"aaknm89xf55u"},"type":"Feature","geometry":null},{"properties":{"latitude":5.36621,"region":"Central","district":"Efutu Municipal","facilityname":"Klimovic Memorial Hospital","type":"Hospital","ownership":"Private","town":"Winneba","longitude":-0.63719,"id":"aaknm8am70pc"},"type":"Feature","geometry":{"type":"Point","coordinates":[-0.63719,5.36621]}},{"properties":{"latitude":5.28142,"region":"Central","district":"Gomoa West","facilityname":"Apam Catholic Hospital","type":"Hospital","ownership":"CHAG","town":"Apam","longitude":-0.73909,"id":"aaknm8bna889"},"type":"Feature","geometry":{"type":"Point","coordinates":[-0.73909,5.28142]}},{"properties":{"latitude":5.1506,"region":"Central","district":"Komenda-Edina-Eguafo-Abirem Municipal","facilityname":"Ankaful Leprosy/General Hospital","type":"Hospital","ownership":"Government","town":"Ankaful","longitude":-1.31776,"id":"aaknm8d15slm"},"type":"Feature","geometry":{"type":"Point","coordinates":[-1.31776,5.1506]}},{"properties":{"latitude":5.82287,"region":"Eastern","district":"Akwapim South","facilityname":"Adoagire Hospital","type":"Hospital","ownership":"CHAG","town":"Adoagire","longitude":-0.36002,"id":"aaknm88q52vk"},"type":"Feature","geometry":{"type":"Point","coordinates":[-0.36002,5.82287]}},{"properties":{"latitude":5.81964,"region":"Eastern","district":"Akwapim South","facilityname":"Newlife Hospital","type":"Hospital","ownership":"Private","town":"Adoagire","longitude":-0.35514,"id":"aaknm84yuiom"},"type":"Feature","geometry":{"type":"Point","coordinates":[-0.35514,5.81964]}},{"properties":{"latitude":5.80684,"region":"Eastern","district":"Akwapim South","facilityname":"Complex Hospital","type":"Hospital","ownership":"Private","town":"Nsawam","longitude":-0.34604,"id":"aaknm86g7ng3"},"type":"Feature","geometry":{"type":"Point","coordinates":[-0.34604,5.80684]}},{"properties":{"latitude":6.25618,"region":"Eastern","district":"Asuogyamang","facilityname":"VRA Hospital","type":"Hospital","ownership":"Quasi-Government","town":"Akosombo","longitude":0.07077,"id":"aaknm8h3bvw2"},"type":"Feature","geometry":{"type":"Point","coordinates":[0.07077,6.25618]}},{"properties":{"latitude":6.23163,"region":"Eastern","district":"East Akim","facilityname":"Tafo Governmentt Hospital","type":"Hospital","ownership":"Government","town":"Tafo","longitude":-0.3662,"id":"aaknm88wp9gu"},"type":"Feature","geometry":{"type":"Point","coordinates":[-0.3662,6.23163]}},{"properties":{"latitude":6.03247,"region":"Eastern","district":"Kwaebibirem","facilityname":"GCD Hospital","type":"Hospital","ownership":"Quasi-Government","town":"Akwatia","longitude":-0.80719,"id":"aaknm85zqc4v"},"type":"Feature","geometry":{"type":"Point","coordinates":[-0.80719,6.03247]}},{"properties":{"latitude":6.04714,"region":"Eastern","district":"Kwaebibirem","facilityname":"St. Dominic Hospital","type":"Hospital","ownership":"CHAG","town":"Akwatia","longitude":-0.79787,"id":"aaknm8gwyafo"},"type":"Feature","geometry":{"type":"Point","coordinates":[-0.79787,6.04714]}},{"properties":{"latitude":6.555733,"region":"Eastern","district":"Kwahu South","facilityname":"Sabs Hospital","type":"Hospital","ownership":"Private","town":"Achiase","longitude":-0.780117,"id":"aaknm8aj7b74"},"type":"Feature","geometry":{"type":"Point","coordinates":[-0.780117,6.555733]}},{"properties":{"latitude":6.55288,"region":"Eastern","district":"Kwahu West","facilityname":"Agyakwa Hospital","type":"Hospital","ownership":"Private","town":"Domiabra","longitude":-0.76662,"id":"aaknm8dizcim"},"type":"Feature","geometry":{"type":"Point","coordinates":[-0.76662,6.55288]}},{"properties":{"latitude":6.09765,"region":"Eastern","district":"Manya Krobo","facilityname":"Akuse Government Hospital","type":"Hospital","ownership":"Government","town":"Akuse","longitude":0.125167,"id":"aaknm8bxumxo"},"type":"Feature","geometry":{"type":"Point","coordinates":[0.125167,6.09765]}},{"properties":{"latitude":6.40154,"region":"Eastern","district":"Manya Krobo","facilityname":"Asesewa Hospital","type":"Hospital","ownership":"Government","town":"Asesewa","longitude":-0.14682,"id":"aaknm8d75mmk"},"type":"Feature","geometry":{"type":"Point","coordinates":[-0.14682,6.40154]}},{"properties":{"latitude":6.14498,"region":"Eastern","district":"Manya Krobo","facilityname":"St Martins Hospital","type":"Hospital","ownership":"CHAG","town":"Agormanya","longitude":-0.01469,"id":"aaknm85xnr31"},"type":"Feature","geometry":{"type":"Point","coordinates":[-0.01469,6.14498]}},{"properties":{"latitude":6.11547,"region":"Eastern","district":"New Juaben","facilityname":"St Josephs Hospital","type":"Hospital","ownership":"CHAG","town":"Koforidua","longitude":-0.24288,"id":"aaknm888gw2h"},"type":"Feature","geometry":{"type":"Point","coordinates":[-0.24288,6.11547]}},{"properties":{"latitude":5.62922,"region":"Greater Accra","district":"Ga East","facilityname":"Achimota Hospital","type":"Hospital","ownership":"Government","town":"Atomic","longitude":-0.21476,"id":"aaknm83xi34k"},"type":"Feature","geometry":{"type":"Point","coordinates":[-0.21476,5.62922]}},{"properties":{"latitude":5.69028,"region":"Greater Accra","district":"Tema Metropolitan","facilityname":"Afenyo Memorial Hospital","type":"Hospital","ownership":"Private","town":"Ashaiman","longitude":-0.03417,"id":"aaknm8bipsbz"},"type":"Feature","geometry":{"type":"Point","coordinates":[-0.03417,5.69028]}},{"properties":{"latitude":5.61371,"region":"Greater Accra","district":"Accra Metropolitan","facilityname":"Al-ayar Clinic &amp; Maternity Home","type":"Hospital","ownership":"Private","town":"Akweteman","longitude":-0.24046,"id":"aaknm891buox"},"type":"Feature","geometry":{"type":"Point","coordinates":[-0.24046,5.61371]}},{"properties":{"latitude":5.59055,"region":"Greater Accra","district":"Ga West","facilityname":"Amoah Memorial Hospital","type":"Hospital","ownership":"Private","town":"Awoshie (last stop)","longitude":-0.28732,"id":"aaknm86xub5z"},"type":"Feature","geometry":{"type":"Point","coordinates":[-0.28732,5.59055]}},{"properties":{"latitude":5.69028,"region":"Greater Accra","district":"Tema Metropolitan","facilityname":"Apenyo Memorial Hospital","type":"Hospital","ownership":"Private","town":"Ashaiman","longitude":-0.03417,"id":"aaknm8azmadh"},"type":"Feature","geometry":{"type":"Point","coordinates":[-0.03417,5.69028]}},{"properties":{"latitude":5.61148,"region":"Greater Accra","district":"Accra Metropolitan","facilityname":"Asamoah Clinic","type":"Hospital","ownership":"Private","town":"Abelemkpe","longitude":-0.22208,"id":"aaknm84luanh"},"type":"Feature","geometry":{"type":"Point","coordinates":[-0.22208,5.61148]}},{"properties":{"latitude":5.64073,"region":"Greater Accra","district":"Accra Metropolitan","facilityname":"Asare Odei Hospital","type":"Hospital","ownership":"Private","town":"East Legon","longitude":-0.16868,"id":"aaknm86zhue8"},"type":"Feature","geometry":{"type":"Point","coordinates":[-0.16868,5.64073]}},{"properties":{"latitude":5.55005,"region":"Greater Accra","district":"Accra Metropolitan","facilityname":"Bart-Plange Memorial Clinic","type":"Hospital","ownership":"Private","town":"Agbogbloshie","longitude":-0.22199,"id":"aaknm8ea5ywa"},"type":"Feature","geometry":{"type":"Point","coordinates":[-0.22199,5.55005]}},{"properties":{"latitude":5.6681,"region":"Greater Accra","district":"Tema Metropolitan","facilityname":"Bengali Hospital","type":"Hospital","ownership":"Private","town":"Tema Community 11","longitude":-0.02051,"id":"aaknm832a7gy"},"type":"Feature","geometry":{"type":"Point","coordinates":[-0.02051,5.6681]}},{"properties":{"latitude":5.58418,"region":"Greater Accra","district":"Accra Metropolitan","facilityname":"Bennette Memorial Clinic","type":"Hospital","ownership":"Private","town":"New Town","longitude":-0.20844,"id":"aaknm86v58hm"},"type":"Feature","geometry":{"type":"Point","coordinates":[-0.20844,5.58418]}},{"properties":{"latitude":5.6667,"region":"Greater Accra","district":"Ga East","facilityname":"Bennette Memorial Clinic","type":"Hospital","ownership":"Private","town":"Madina","longitude":-0.15996,"id":"aaknm8fwolsi"},"type":"Feature","geometry":{"type":"Point","coordinates":[-0.15996,5.6667]}},{"properties":{"latitude":5.53599,"region":"Greater Accra","district":"Accra Metropolitan","facilityname":"Biomedical Department","type":"Hospital","ownership":"Government","town":"Korle-bu","longitude":-0.22959,"id":"aaknm8gbrarp"},"type":"Feature","geometry":{"type":"Point","coordinates":[-0.22959,5.53599]}},{"properties":{"latitude":5.69263,"region":"Greater Accra","district":"Tema Metropolitan","facilityname":"Bukom Ellphkwei Hospital","type":"Hospital","ownership":"Private","town":"Ashaiman","longitude":-0.02201,"id":"aaknm8aqnj50"},"type":"Feature","geometry":{"type":"Point","coordinates":[-0.02201,5.69263]}},{"properties":{"latitude":5.61495,"region":"Greater Accra","district":"Accra Metropolitan","facilityname":"Clecom Memorial Specialist Hospital","type":"Hospital","ownership":"Private","town":"Dzorwulu","longitude":-0.19474,"id":"aaknm87cfyn9"},"type":"Feature","geometry":{"type":"Point","coordinates":[-0.19474,5.61495]}},{"properties":{"latitude":5.65332,"region":"Greater Accra","district":"Tema Metropolitan","facilityname":"Caiquo Hospital","type":"Hospital","ownership":"Private","town":"Tema Community 10","longitude":-0.02255,"id":"aaknm81wyq0f"},"type":"Feature","geometry":{"type":"Point","coordinates":[-0.02255,5.65332]}},{"properties":{"latitude":5.60656,"region":"Greater Accra","district":"Accra Metropolitan","facilityname":"Christian Medical Centre","type":"Hospital","ownership":"CHAG","town":"Nungua","longitude":-0.07769,"id":"aaknm8dyh45n"},"type":"Feature","geometry":{"type":"Point","coordinates":[-0.07769,5.60656]}},{"properties":{"latitude":5.57172,"region":"Greater Accra","district":"Accra Metropolitan","facilityname":"Cocoa Clinic","type":"Hospital","ownership":"Quasi-Government","town":"North Kaneshie","longitude":-0.2357,"id":"aaknm8dp5vwn"},"type":"Feature","geometry":{"type":"Point","coordinates":[-0.2357,5.57172]}},{"properties":{"latitude":5.63344,"region":"Greater Accra","district":"Tema Metropolitan","facilityname":"Binney Medical Centre","type":"Hospital","ownership":"Private","town":"Tema Community 2","longitude":-0.00936,"id":"aaknm8gmvj75"},"type":"Feature","geometry":{"type":"Point","coordinates":[-0.00936,5.63344]}},{"properties":{"latitude":5.59917,"region":"Greater Accra","district":"Accra Metropolitan","facilityname":"Blessings Clinic","type":"Hospital","ownership":"Private","town":"Tesano","longitude":-0.2325,"id":"aaknm89srmcu"},"type":"Feature","geometry":{"type":"Point","coordinates":[-0.2325,5.59917]}},{"properties":{"latitude":5.6831,"region":"Greater Accra","district":"Tema Metropolitan","facilityname":"Darben Clinic","type":"Hospital","ownership":"Private","town":"Ashaiman","longitude":0.03603,"id":"aaknm81unt5a"},"type":"Feature","geometry":{"type":"Point","coordinates":[0.03603,5.6831]}},{"properties":{"latitude":5.60821,"region":"Greater Accra","district":"Ga West","facilityname":"Deseret Hospital","type":"Hospital","ownership":"Private","town":"Antiaku (near north kwashieman)","longitude":-0.27876,"id":"aaknm8ep8a1i"},"type":"Feature","geometry":{"type":"Point","coordinates":[-0.27876,5.60821]}},{"properties":{"latitude":5.63002,"region":"Greater Accra","district":"Accra Metropolitan","facilityname":"East Legon Clinic","type":"Hospital","ownership":"Private","town":"East Legon","longitude":-0.17534,"id":"aaknm8acoi99"},"type":"Feature","geometry":{"type":"Point","coordinates":[-0.17534,5.63002]}},{"properties":{"latitude":5.5803,"region":"Greater Accra","district":"Accra Metropolitan","facilityname":"Eden Specialist Hospital","type":"Hospital","ownership":"Private","town":"North Kaneshie","longitude":-0.22805,"id":"aaknm89cw44e"},"type":"Feature","geometry":{"type":"Point","coordinates":[-0.22805,5.5803]}},{"properties":{"latitude":5.56096,"region":"Greater Accra","district":"Accra Metropolitan","facilityname":"El-Rapha Clinic","type":"Hospital","ownership":"Private","town":"Mataheko","longitude":-0.24662,"id":"aaknm8hwk6n2"},"type":"Feature","geometry":{"type":"Point","coordinates":[-0.24662,5.56096]}},{"properties":{"latitude":5.57916,"region":"Greater Accra","district":"Accra Metropolitan","facilityname":"Eye Gye Nyame Clinic","type":"Hospital","ownership":"Private","town":"Nima (Mallam atta gutter. market road)","longitude":-0.20364,"id":"aaknm847malk"},"type":"Feature","geometry":{"type":"Point","coordinates":[-0.20364,5.57916]}},{"properties":{"latitude":5.57727,"region":"Greater Accra","district":"Accra Metropolitan","facilityname":"Faith Evangelical Hospital","type":"Hospital","ownership":"Private","town":"Bubuashie","longitude":-0.23709,"id":"aaknm89cwl9j"},"type":"Feature","geometry":{"type":"Point","coordinates":[-0.23709,5.57727]}},{"properties":{"latitude":5.54547,"region":"Greater Accra","district":"Accra Metropolitan","facilityname":"Family Health Hospital","type":"Hospital","ownership":"Private","town":"Korle-bu (before mortuary turn right to korlebu flats)","longitude":-0.22981,"id":"aaknm88gup1s"},"type":"Feature","geometry":{"type":"Point","coordinates":[-0.22981,5.54547]}},{"properties":{"latitude":5.68042,"region":"Greater Accra","district":"Ga East","facilityname":"Doku Memorial Clinic","type":"Hospital","ownership":"Private","town":"Madina","longitude":-0.16565,"id":"aaknm86mxxrq"},"type":"Feature","geometry":{"type":"Point","coordinates":[-0.16565,5.68042]}},{"properties":{"latitude":5.61261,"region":"Greater Accra","district":"Accra Metropolitan","facilityname":"Egon German Clinic","type":"Hospital","ownership":"Private","town":"Abelemkpe","longitude":-0.21417,"id":"aaknm8d8is1u"},"type":"Feature","geometry":{"type":"Point","coordinates":[-0.21417,5.61261]}},{"properties":{"latitude":5.59978,"region":"Greater Accra","district":"Accra Metropolitan","facilityname":"Faith Medical Centre","type":"Hospital","ownership":"Private","town":"Alajo (near T junction)","longitude":-0.21767,"id":"aaknm82di1bs"},"type":"Feature","geometry":{"type":"Point","coordinates":[-0.21767,5.59978]}},{"properties":{"latitude":5.53282,"region":"Greater Accra","district":"Accra Metropolitan","facilityname":"Fire Medical Centre (Old site)","type":"Hospital","ownership":"Government","town":"James Town","longitude":-0.2177,"id":"aaknm8att0mc"},"type":"Feature","geometry":{"type":"Point","coordinates":[-0.2177,5.53282]}},{"properties":{"latitude":5.55989,"region":"Greater Accra","district":"Accra Metropolitan","facilityname":"Gak Clinic","type":"Hospital","ownership":"Private","town":"Osu (Nyaniba Estate)","longitude":-0.174,"id":"aaknm8d53l0k"},"type":"Feature","geometry":{"type":"Point","coordinates":[-0.174,5.55989]}},{"properties":{"latitude":5.69705,"region":"Greater Accra","district":"Tema Metropolitan","facilityname":"Gloria Family Health Centre","type":"Hospital","ownership":"Private","town":"Adenta","longitude":-0.17367,"id":"aaknm84jnjgm"},"type":"Feature","geometry":{"type":"Point","coordinates":[-0.17367,5.69705]}},{"properties":{"latitude":5.71866,"region":"Greater Accra","district":"Ga East","facilityname":"Greater Grace Hospital","type":"Hospital","ownership":"Private","town":"Pantang hosp road","longitude":-0.17425,"id":"aaknm83tte6h"},"type":"Feature","geometry":{"type":"Point","coordinates":[-0.17425,5.71866]}},{"properties":{"latitude":5.58254,"region":"Greater Accra","district":"Accra Metropolitan","facilityname":"Hajj Abdulai Yaro's Memorial Clinic","type":"Hospital","ownership":"CHAG","town":"Nima","longitude":-0.19682,"id":"aaknm8gp7wdv"},"type":"Feature","geometry":{"type":"Point","coordinates":[-0.19682,5.58254]}},{"properties":{"latitude":5.67152,"region":"Greater Accra","district":"Ga East","facilityname":"Harmony Clinic","type":"Hospital","ownership":"Private","town":"Madina","longitude":-0.17373,"id":"aaknm8deiop9"},"type":"Feature","geometry":{"type":"Point","coordinates":[-0.17373,5.67152]}},{"properties":{"latitude":5.5867,"region":"Greater Accra","district":"Accra Metropolitan","facilityname":"Holy Trinity Medical Centre","type":"Hospital","ownership":"Private","town":"North Kaneshie","longitude":-0.23519,"id":"aaknm85fzst7"},"type":"Feature","geometry":{"type":"Point","coordinates":[-0.23519,5.5867]}},{"properties":{"latitude":5.568,"region":"Greater Accra","district":"Accra Metropolitan","facilityname":"Iran Clinic","type":"Hospital","ownership":"CHAG","town":"Circle","longitude":-0.21248,"id":"aaknm84uv93y"},"type":"Feature","geometry":{"type":"Point","coordinates":[-0.21248,5.568]}},{"properties":{"latitude":5.61151,"region":"Greater Accra","district":"Accra Metropolitan","facilityname":"Johpat Hospital","type":"Hospital","ownership":"Private","town":"Dzorwulu","longitude":-0.19963,"id":"aaknm86femvs"},"type":"Feature","geometry":{"type":"Point","coordinates":[-0.19963,5.61151]}},{"properties":{"latitude":5.62549,"region":"Greater Accra","district":"Tema Metropolitan","facilityname":"Jubail Specialist Hospital","type":"Hospital","ownership":"Private","town":"Sakumano Estate","longitude":-0.05216,"id":"aaknm856gso8"},"type":"Feature","geometry":{"type":"Point","coordinates":[-0.05216,5.62549]}},{"properties":{"latitude":5.53092,"region":"Greater Accra","district":"Accra Metropolitan","facilityname":"Karikari Brobbey Hospital","type":"Hospital","ownership":"Private","town":"Agege (Agege road -Karikari area)","longitude":-0.26149,"id":"aaknm8a1o5sq"},"type":"Feature","geometry":{"type":"Point","coordinates":[-0.26149,5.53092]}},{"properties":{"latitude":5.59277,"region":"Greater Accra","district":"Accra Metropolitan","facilityname":"King David Hospital","type":"Hospital","ownership":"Private","town":"Kotobabi","longitude":-0.20588,"id":"aaknm87p899j"},"type":"Feature","geometry":{"type":"Point","coordinates":[-0.20588,5.59277]}},{"properties":{"latitude":5.57419,"region":"Greater Accra","district":"Accra Metropolitan","facilityname":"Kumorji Hospital","type":"Hospital","ownership":"Private","town":"Cantoments","longitude":-0.18263,"id":"aaknm88unbtd"},"type":"Feature","geometry":{"type":"Point","coordinates":[-0.18263,5.57419]}},{"properties":{"latitude":5.55538,"region":"Greater Accra","district":"Accra Metropolitan","facilityname":"La General Hospital","type":"Hospital","ownership":"Government","town":"La","longitude":-0.16657,"id":"aaknm83fllme"},"type":"Feature","geometry":{"type":"Point","coordinates":[-0.16657,5.55538]}},{"properties":{"latitude":5.5923,"region":"Greater Accra","district":"Accra Metropolitan","facilityname":"Lakeside Clinic","type":"Hospital","ownership":"Private","town":"Tesano","longitude":-0.23136,"id":"aaknm8bf7eja"},"type":"Feature","geometry":{"type":"Point","coordinates":[-0.23136,5.5923]}},{"properties":{"latitude":5.60851,"region":"Greater Accra","district":"Accra Metropolitan","facilityname":"Lapaz Community Clinic","type":"Hospital","ownership":"Private","town":"Abaka Lapas","longitude":-0.25349,"id":"aaknm8hihc4n"},"type":"Feature","geometry":{"type":"Point","coordinates":[-0.25349,5.60851]}},{"properties":{"latitude":5.54944,"region":"Greater Accra","district":"Accra Metropolitan","facilityname":"Link Road Hospital","type":"Hospital","ownership":"Private","town":"Lartebiokorshie","longitude":-0.24093,"id":"aaknm899zaec"},"type":"Feature","geometry":{"type":"Point","coordinates":[-0.24093,5.54944]}},{"properties":{"latitude":5.59342,"region":"Greater Accra","district":"Accra Metropolitan","facilityname":"Megavest Medical Centre","type":"Hospital","ownership":"Private","town":"North Kaneshie","longitude":-0.24423,"id":"aaknm8cmsot7"},"type":"Feature","geometry":{"type":"Point","coordinates":[-0.24423,5.59342]}},{"properties":{"latitude":5.59958,"region":"Greater Accra","district":"Accra Metropolitan","facilityname":"Mab Medicare Centre","type":"Hospital","ownership":"Private","town":"Nyamekye (Darkuman)","longitude":-0.25417,"id":"aaknm8462rn2"},"type":"Feature","geometry":{"type":"Point","coordinates":[-0.25417,5.59958]}},{"properties":{"latitude":5.60706,"region":"Greater Accra","district":"Accra Metropolitan","facilityname":"Manna Mission Hospital","type":"Hospital","ownership":"CHAG","town":"Teshie","longitude":-0.10872,"id":"aaknm860p6q3"},"type":"Feature","geometry":{"type":"Point","coordinates":[-0.10872,5.60706]}},{"properties":{"latitude":5.61023,"region":"Greater Accra","district":"Accra Metropolitan","facilityname":"Martin Memorial Hospital","type":"Hospital","ownership":"Private","town":"Dzorwulu","longitude":-0.20448,"id":"aaknm82x44rl"},"type":"Feature","geometry":{"type":"Point","coordinates":[-0.20448,5.61023]}},{"properties":{"latitude":5.61284,"region":"Greater Accra","district":"Accra Metropolitan","facilityname":"Medifem Hospital","type":"Hospital","ownership":"Private","town":"Dzorwulu","longitude":-0.20209,"id":"aaknm86w9vcc"},"type":"Feature","geometry":{"type":"Point","coordinates":[-0.20209,5.61284]}},{"properties":{"latitude":5.61731,"region":"Greater Accra","district":"Accra Metropolitan","facilityname":"Midway Clinic Ltd","type":"Hospital","ownership":"Private","town":"Abofu (Achimota)","longitude":-0.22646,"id":"aaknm8gi0n9e"},"type":"Feature","geometry":{"type":"Point","coordinates":[-0.22646,5.61731]}},{"properties":{"latitude":5.66743,"region":"Greater Accra","district":"Ga East","facilityname":"Modern Atomic Clinic","type":"Hospital","ownership":"Private","town":"Atomic Road","longitude":-0.20819,"id":"aaknm8a7z37n"},"type":"Feature","geometry":{"type":"Point","coordinates":[-0.20819,5.66743]}},{"properties":{"latitude":5.60616,"region":"Greater Accra","district":"Accra Metropolitan","facilityname":"Motorway Clinic","type":"Hospital","ownership":"Private","town":"Abeka Lapas","longitude":-0.25137,"id":"aaknm8b1isye"},"type":"Feature","geometry":{"type":"Point","coordinates":[-0.25137,5.60616]}},{"properties":{"latitude":5.56431,"region":"Greater Accra","district":"Accra Metropolitan","facilityname":"Mercy Clinic","type":"Hospital","ownership":"Private","town":"Mataheko","longitude":-0.24764,"id":"aaknm8dqbh54"},"type":"Feature","geometry":{"type":"Point","coordinates":[-0.24764,5.56431]}},{"properties":{"latitude":5.65793,"region":"Greater Accra","district":"Tema Metropolitan","facilityname":"Narh Bita Hospital","type":"Hospital","ownership":"Private","town":"Tema Community 4","longitude":-0.01062,"id":"aaknm8d6148p"},"type":"Feature","geometry":{"type":"Point","coordinates":[-0.01062,5.65793]}},{"properties":{"latitude":5.6293,"region":"Greater Accra","district":"Accra Metropolitan","facilityname":"New Achimota Clinic","type":"Hospital","ownership":"Private","town":"New Achimota (mile 7)","longitude":-0.24781,"id":"aaknm8fdkcx3"},"type":"Feature","geometry":{"type":"Point","coordinates":[-0.24781,5.6293]}},{"properties":{"latitude":5.55031,"region":"Greater Accra","district":"Accra Metropolitan","facilityname":"Nightingale Clinic","type":"Hospital","ownership":"Private","town":"Dansoman (Sahara)","longitude":-0.26737,"id":"aaknm896x4cv"},"type":"Feature","geometry":{"type":"Point","coordinates":[-0.26737,5.55031]}},{"properties":{"latitude":5.66923,"region":"Greater Accra","district":"Ga East","facilityname":"North Legon Hospital","type":"Hospital","ownership":"Private","town":"North Legon (off Atomic Energy Road)","longitude":-0.18228,"id":"aaknm85eruqp"},"type":"Feature","geometry":{"type":"Point","coordinates":[-0.18228,5.66923]}},{"properties":{"latitude":5.57275,"region":"Greater Accra","district":"Accra Metropolitan","facilityname":"North Ridge Clinic","type":"Hospital","ownership":"Private","town":"North Ridge","longitude":-0.19852,"id":"aaknm8f30j8u"},"type":"Feature","geometry":{"type":"Point","coordinates":[-0.19852,5.57275]}},{"properties":{"latitude":5.56451,"region":"Greater Accra","district":"Accra Metropolitan","facilityname":"Opoku Ware Clinic","type":"Hospital","ownership":"Private","town":"Dansoman","longitude":-0.27354,"id":"aaknm849yxk8"},"type":"Feature","geometry":{"type":"Point","coordinates":[-0.27354,5.56451]}},{"properties":{"latitude":5.64266,"region":"Greater Accra","district":"Tema Metropolitan","facilityname":"Port Medical Centre","type":"Hospital","ownership":"Private","town":"Tema Community 1","longitude":0.00126,"id":"aaknm86uwetw"},"type":"Feature","geometry":{"type":"Point","coordinates":[0.00126,5.64266]}},{"properties":{"latitude":5.71511,"region":"Greater Accra","district":"Ga East","facilityname":"Pantang Hospital","type":"Hospital","ownership":"Government","town":"Pantang","longitude":-0.18802,"id":"aaknm8crjvaa"},"type":"Feature","geometry":{"type":"Point","coordinates":[-0.18802,5.71511]}},{"properties":{"latitude":5.5446,"region":"Greater Accra","district":"Accra Metropolitan","facilityname":"PML Hospital","type":"Hospital","ownership":"Government","town":"Paladium","longitude":-0.21302,"id":"aaknm8cyu05p"},"type":"Feature","geometry":{"type":"Point","coordinates":[-0.21302,5.5446]}},{"properties":{"latitude":5.56835,"region":"Greater Accra","district":"Accra Metropolitan","facilityname":"Police Hospital","type":"Hospital","ownership":"Quasi-Government","town":"Cantoments","longitude":-0.18145,"id":"aaknm86hiq22"},"type":"Feature","geometry":{"type":"Point","coordinates":[-0.18145,5.56835]}},{"properties":{"latitude":5.57571,"region":"Greater Accra","district":"Accra Metropolitan","facilityname":"Queen's Medical Centre","type":"Hospital","ownership":"Private","town":"Kokomlemle","longitude":-0.20762,"id":"aaknm89a5w1n"},"type":"Feature","geometry":{"type":"Point","coordinates":[-0.20762,5.57571]}},{"properties":{"latitude":5.6576,"region":"Greater Accra","district":"Ga East","facilityname":"Taifa Medical Centre","type":"Hospital","ownership":"Private","town":"Taifa","longitude":-0.25345,"id":"aaknm85cxxob"},"type":"Feature","geometry":{"type":"Point","coordinates":[-0.25345,5.6576]}},{"properties":{"latitude":5.65216,"region":"Greater Accra","district":"Tema Metropolitan","facilityname":"Provita Specialist Hospital","type":"Hospital","ownership":"Private","town":"Tema Community 6","longitude":-0.0198,"id":"aaknm846han8"},"type":"Feature","geometry":{"type":"Point","coordinates":[-0.0198,5.65216]}},{"properties":{"latitude":5.56238,"region":"Greater Accra","district":"Accra Metropolitan","facilityname":"Ridge Hospital","type":"Hospital","ownership":"Government","town":"Ridge","longitude":-0.1987,"id":"aaknm81x12mc"},"type":"Feature","geometry":{"type":"Point","coordinates":[-0.1987,5.56238]}},{"properties":{"latitude":5.62224,"region":"Greater Accra","district":"Tema Metropolitan","facilityname":"Sakumono Community Clinic","type":"Hospital","ownership":"Private","town":"Sakumano Estate","longitude":-0.06281,"id":"aaknm8887u1s"},"type":"Feature","geometry":{"type":"Point","coordinates":[-0.06281,5.62224]}},{"properties":{"latitude":5.5947,"region":"Greater Accra","district":"Accra Metropolitan","facilityname":"Salvation Army Urban Aid Clinic","type":"Hospital","ownership":"CHAG","town":"Maamobi (near market)","longitude":-0.19169,"id":"aaknm866l4wx"},"type":"Feature","geometry":{"type":"Point","coordinates":[-0.19169,5.5947]}},{"properties":{"latitude":5.59232,"region":"Greater Accra","district":"Accra Metropolitan","facilityname":"Sape Agbo Memorial Hospital","type":"Hospital","ownership":"Private","town":"New Town","longitude":-0.20804,"id":"aaknm8402qh3"},"type":"Feature","geometry":{"type":"Point","coordinates":[-0.20804,5.59232]}},{"properties":{"latitude":5.55408,"region":"Greater Accra","district":"Accra Metropolitan","facilityname":"SIC Bob Freeman Clinic","type":"Hospital","ownership":"Quasi-Government","town":"Adabraka (near Goil headoffice)","longitude":-0.20889,"id":"aaknm8c4iuua"},"type":"Feature","geometry":{"type":"Point","coordinates":[-0.20889,5.55408]}},{"properties":{"latitude":5.55408,"region":"Greater Accra","district":"Tema Metropolitan","facilityname":"SIC Bob Freeman Clinic","type":"Hospital","ownership":"Quasi-Government","town":"Adabraka (near Goil headoffice)","longitude":-0.20889,"id":"aaknm8edk7a6"},"type":"Feature","geometry":{"type":"Point","coordinates":[-0.20889,5.55408]}},{"properties":{"latitude":5.56507,"region":"Greater Accra","district":"Accra Metropolitan","facilityname":"Specialist Hospital &amp; Family Planning Centre","type":"Hospital","ownership":"Private","town":"Dansoman (SSNIT flats)","longitude":-0.27309,"id":"aaknm85h94ki"},"type":"Feature","geometry":{"type":"Point","coordinates":[-0.27309,5.56507]}},{"properties":{"latitude":5.64954,"region":"Greater Accra","district":"Tema Metropolitan","facilityname":"St Anthony's Clinic","type":"Hospital","ownership":"Private","town":"Tema Community 1","longitude":-0.00299,"id":"aaknm8ar6d32"},"type":"Feature","geometry":{"type":"Point","coordinates":[-0.00299,5.64954]}},{"properties":{"latitude":5.63286,"region":"Greater Accra","district":"Accra Metropolitan","facilityname":"St Mathew's Clinic","type":"Hospital","ownership":"Private","town":"New Achimota (mile 7)","longitude":-0.24057,"id":"aaknm84idhr2"},"type":"Feature","geometry":{"type":"Point","coordinates":[-0.24057,5.63286]}},{"properties":{"latitude":5.64811,"region":"Greater Accra","district":"Tema Metropolitan","facilityname":"St Nicholas Hospital","type":"Hospital","ownership":"Private","town":"Tema Community 5","longitude":-0.01317,"id":"aaknm876d7wr"},"type":"Feature","geometry":{"type":"Point","coordinates":[-0.01317,5.64811]}},{"properties":{"latitude":5.59448,"region":"Greater Accra","district":"Accra Metropolitan","facilityname":"Sulemana Memorial Hospital Ltd (formerly Islamic Foundation Clinic)","type":"Hospital","ownership":"Private","town":"Maamobi","longitude":-0.19546,"id":"aaknm8578igc"},"type":"Feature","geometry":{"type":"Point","coordinates":[-0.19546,5.59448]}},{"properties":{"latitude":5.59448,"region":"Greater Accra","district":"Tema Metropolitan","facilityname":"Sulemana Memorial Hospital Ltd (formerly Islamic Foundation Clinic)","type":"Hospital","ownership":"Private","town":"Maamobi","longitude":-0.19546,"id":"aaknm8e437bb"},"type":"Feature","geometry":{"type":"Point","coordinates":[-0.19546,5.59448]}},{"properties":{"latitude":5.67387,"region":"Greater Accra","district":"Tema Metropolitan","facilityname":"Tema General Hospital","type":"Hospital","ownership":"Government","town":"Tema","longitude":-0.02496,"id":"aaknm88i8bh8"},"type":"Feature","geometry":{"type":"Point","coordinates":[-0.02496,5.67387]}},{"properties":{"latitude":5.6656,"region":"Greater Accra","district":"Tema Metropolitan","facilityname":"Tema Women's Hospital","type":"Hospital","ownership":"Private","town":"Tema Community 10","longitude":-0.01902,"id":"aaknm8cg1a1k"},"type":"Feature","geometry":{"type":"Point","coordinates":[-0.01902,5.6656]}},{"properties":{"latitude":5.58483,"region":"Greater Accra","district":"Accra Metropolitan","facilityname":"The Rock Hospital","type":"Hospital","ownership":"Private","town":"Odorkor","longitude":-0.2627,"id":"aaknm84297f2"},"type":"Feature","geometry":{"type":"Point","coordinates":[-0.2627,5.58483]}},{"properties":{"latitude":5.56244,"region":"Greater Accra","district":"Accra Metropolitan","facilityname":"Trust Hospital (SSNIT Hospital)","type":"Hospital","ownership":"Quasi-Government","town":"Osu","longitude":-0.18174,"id":"aaknm8462ida"},"type":"Feature","geometry":{"type":"Point","coordinates":[-0.18174,5.56244]}},{"properties":{"latitude":5.57818,"region":"Greater Accra","district":"Accra Metropolitan","facilityname":"Unicorn Memorial Clinic","type":"Hospital","ownership":"Private","town":"Teshie","longitude":-0.11181,"id":"aaknm8g0srgh"},"type":"Feature","geometry":{"type":"Point","coordinates":[-0.11181,5.57818]}},{"properties":{"latitude":5.65141,"region":"Greater Accra","district":"Accra Metropolitan","facilityname":"University Hospital (Legon Hospital)","type":"Hospital","ownership":"Quasi-Government","town":"Legon","longitude":-0.17794,"id":"aaknm8edqm0n"},"type":"Feature","geometry":{"type":"Point","coordinates":[-0.17794,5.65141]}},{"properties":{"latitude":5.66886,"region":"Greater Accra","district":"Tema Metropolitan","facilityname":"Valco Hospital","type":"Hospital","ownership":"Private","town":"Tema Heavy Industrial Town","longitude":0.03468,"id":"aaknm8azowca"},"type":"Feature","geometry":{"type":"Point","coordinates":[0.03468,5.66886]}},{"properties":{"latitude":5.5518,"region":"Greater Accra","district":"Accra Metropolitan","facilityname":"Vicon Specialist Hospital / Mat home","type":"Hospital","ownership":"Private","town":"Dansoman (Sahara)","longitude":-0.26671,"id":"aaknm8b5ez4e"},"type":"Feature","geometry":{"type":"Point","coordinates":[-0.26671,5.5518]}},{"properties":{"latitude":null,"region":"Greater Accra","district":"Accra Metropolitan","facilityname":"Twumasi-Waah Memorial Hospital","type":"Hospital","ownership":"Private","town":"East Legon (before America house road)","longitude":null,"id":"aaknm8gzi59b"},"type":"Feature","geometry":null},{"properties":{"latitude":null,"region":"Greater Accra","district":"Accra Metropolitan","facilityname":"Family Health Ltd.","type":"Hospital","ownership":"Private","town":"Teshie","longitude":null,"id":"aaknm82lgw1r"},"type":"Feature","geometry":null},{"properties":{"latitude":null,"region":"Greater Accra","district":"Accra Metropolitan","facilityname":"C &amp; J Medicare","type":"Hospital","ownership":"Private","town":"Tudu","longitude":null,"id":"aaknm8g08xj4"},"type":"Feature","geometry":null},{"properties":{"latitude":null,"region":"Greater Accra","district":"Accra Metropolitan","facilityname":"Obenfo Hospital","type":"Hospital","ownership":"Private","town":"Mataheko","longitude":null,"id":"aaknm8fozbp4"},"type":"Feature","geometry":null},{"properties":{"latitude":null,"region":"Greater Accra","district":"Accra Metropolitan","facilityname":"Achimota Hospital","type":"Hospital","ownership":"Government","town":"Achimota","longitude":null,"id":"aaknm8dabtli"},"type":"Feature","geometry":null},{"properties":{"latitude":null,"region":"Greater Accra","district":"Ga East","facilityname":"Van Medical Centre","type":"Hospital","ownership":"Private","town":"Ashongman","longitude":null,"id":"aaknm8aucafs"},"type":"Feature","geometry":null},{"properties":{"latitude":null,"region":"Greater Accra","district":"Ga East","facilityname":"Jilac Specialist Hospital","type":"Hospital","ownership":"Private","town":"Dome","longitude":null,"id":"aaknm8dtl3po"},"type":"Feature","geometry":null},{"properties":{"latitude":null,"region":"Greater Accra","district":"Ga West","facilityname":"Holy Dove Hospital","type":"Hospital","ownership":"Private","town":"New Achimota","longitude":null,"id":"aaknm850r3xo"},"type":"Feature","geometry":null},{"properties":{"latitude":10.56562,"region":"Northern","district":"Bunkpurugu-Yunyuo","facilityname":"Binde  Rural  Hospital","type":"Hospital","ownership":"CHAG","town":"Binde","longitude":-0.02876,"id":"aaknm82e5fmr"},"type":"Feature","geometry":{"type":"Point","coordinates":[-0.02876,10.56562]}},{"properties":{"latitude":8.4505,"region":"Northern","district":"East Gonja","facilityname":"Oti River Hospital","type":"Hospital","ownership":"Government","town":"Nkanchina","longitude":-0.07582,"id":"aaknm845ags4"},"type":"Feature","geometry":{"type":"Point","coordinates":[-0.07582,8.4505]}},{"properties":{"latitude":9.70965,"region":"Northern","district":"Saboba-Chereponi","facilityname":"Saboba Medical Centre","type":"Hospital","ownership":"CHAG","town":"Saboba","longitude":0.31924,"id":"aaknm86a51vz"},"type":"Feature","geometry":{"type":"Point","coordinates":[0.31924,9.70965]}},{"properties":{"latitude":9.61862,"region":"Northern","district":"Savelugu-Nanton","facilityname":"Savelugu  Hospital","type":"Hospital","ownership":"Government","town":"Savelugu","longitude":-0.82929,"id":"aaknm8g1jh45"},"type":"Feature","geometry":{"type":"Point","coordinates":[-0.82929,9.61862]}},{"properties":{"latitude":9.44817,"region":"Northern","district":"Tamale Metropolitan","facilityname":"Tania Specialist","type":"Hospital","ownership":"Government","town":"Jusonayilli","longitude":-0.84884,"id":"aaknm8g0yq65"},"type":"Feature","geometry":{"type":"Point","coordinates":[-0.84884,9.44817]}},{"properties":{"latitude":9.39974,"region":"Northern","district":"Tamale Metropolitan","facilityname":"SDA Hospital","type":"Hospital","ownership":"CHAG","town":"Tamale","longitude":-0.8318,"id":"aaknm89535m1"},"type":"Feature","geometry":{"type":"Point","coordinates":[-0.8318,9.39974]}},{"properties":{"latitude":null,"region":"Northern","district":"Gushegu","facilityname":"Gushegu Hospital","type":"Hospital","ownership":"Government","town":"Gushiegu","longitude":null,"id":"aaknm8c24031"},"type":"Feature","geometry":null},{"properties":{"latitude":null,"region":"Northern","district":"Tamale Metropolitan","facilityname":"Tania Specialist Hospital","type":"Hospital","ownership":"Private","town":"Kanvilli","longitude":null,"id":"aaknm8efvtdm"},"type":"Feature","geometry":null},{"properties":{"latitude":10.83872,"region":"Upper West","district":"Lawra","facilityname":"Nandom Hospital","type":"Hospital","ownership":"CHAG","town":"Konyugang","longitude":-2.7722,"id":"aaknm87v2h5g"},"type":"Feature","geometry":{"type":"Point","coordinates":[-2.7722,10.83872]}},{"properties":{"latitude":10.04861,"region":"Upper West","district":"Wa Municipal","facilityname":"Arch Bishop Dery Memorial Hospital","type":"Hospital","ownership":"Private","town":"Konta","longitude":-2.49245,"id":"aaknm8gathau"},"type":"Feature","geometry":{"type":"Point","coordinates":[-2.49245,10.04861]}},{"properties":{"latitude":10.08028,"region":"Upper West","district":"Wa Municipal","facilityname":"Jamiatu Islamic Hospital","type":"Hospital","ownership":"Private","town":"Airstrip","longitude":-2.51439,"id":"aaknm86l14wu"},"type":"Feature","geometry":{"type":"Point","coordinates":[-2.51439,10.08028]}},{"properties":{"latitude":6.59855,"region":"Volta","district":"Ho Municipal","facilityname":"Miracle Life Clinic","type":"Hospital","ownership":"Private","town":"Ho","longitude":0.46523,"id":"aaknm8g9zvge"},"type":"Feature","geometry":{"type":"Point","coordinates":[0.46523,6.59855]}},{"properties":{"latitude":6.61737,"region":"Volta","district":"Ho Municipal","facilityname":"7 MRS (Military Hospital)","type":"Hospital","ownership":"Quasi-Government","town":"Ho","longitude":0.48768,"id":"aaknm8269z3v"},"type":"Feature","geometry":{"type":"Point","coordinates":[0.48768,6.61737]}},{"properties":{"latitude":7.514483,"region":"Volta","district":"Jasikan","facilityname":"Worawora Hospital","type":"Hospital","ownership":"Government","town":"Worawora H","longitude":0.375783,"id":"aaknm8arqvbb"},"type":"Feature","geometry":{"type":"Point","coordinates":[0.375783,7.514483]}},{"properties":{"latitude":7.40926,"region":"Volta","district":"Jasikan","facilityname":"N.V.C. Hospital","type":"Hospital","ownership":"Private","town":"Jasikan","longitude":0.47122,"id":"aaknm8gy00j1"},"type":"Feature","geometry":{"type":"Point","coordinates":[0.47122,7.40926]}},{"properties":{"latitude":7.74227,"region":"Volta","district":"Kadjebi","facilityname":"Dodi Papase Mary Theresa Hospital","type":"Hospital","ownership":"CHAG","town":"Dodi Papase","longitude":0.51028,"id":"aaknm824cvf1"},"type":"Feature","geometry":{"type":"Point","coordinates":[0.51028,7.74227]}},{"properties":{"latitude":6.05465,"region":"Volta","district":"Keta","facilityname":"Sacred Heart Hospital","type":"Hospital","ownership":"CHAG","town":"Abor","longitude":0.867667,"id":"aaknm890z7kp"},"type":"Feature","geometry":{"type":"Point","coordinates":[0.867667,6.05465]}},{"properties":{"latitude":6.24112,"region":"Volta","district":"Ketu","facilityname":"St Anthony's Hospital","type":"Hospital","ownership":"CHAG","town":"Dzodze","longitude":0.98911,"id":"aaknm86i48wd"},"type":"Feature","geometry":{"type":"Point","coordinates":[0.98911,6.24112]}},{"properties":{"latitude":6.11523,"region":"Volta","district":"Ketu","facilityname":"Central Aflao Hospital","type":"Hospital","ownership":"Private","town":"Avoeme  Aflao","longitude":1.1691,"id":"aaknm8en1qen"},"type":"Feature","geometry":{"type":"Point","coordinates":[1.1691,6.11523]}},{"properties":{"latitude":6.10926,"region":"Volta","district":"Ketu","facilityname":"New Hope Hospital","type":"Hospital","ownership":"Private","town":"Viefe  Aflao","longitude":1.15964,"id":"aaknm88j8j0i"},"type":"Feature","geometry":{"type":"Point","coordinates":[1.15964,6.10926]}},{"properties":{"latitude":6.09708,"region":"Volta","district":"Ketu","facilityname":"Sape-Agbo Memorial  Hospital","type":"Hospital","ownership":"Private","town":"Hedzranawo","longitude":1.143,"id":"aaknm83i8xe9"},"type":"Feature","geometry":{"type":"Point","coordinates":[1.143,6.09708]}},{"properties":{"latitude":6.88049,"region":"Volta","district":"Kpando","facilityname":"Anfoega Catholic Hospital","type":"Hospital","ownership":"CHAG","town":"Anfoega","longitude":0.27621,"id":"aaknm8ee2ygl"},"type":"Feature","geometry":{"type":"Point","coordinates":[0.27621,6.88049]}},{"properties":{"latitude":6.99852,"region":"Volta","district":"Kpando","facilityname":"St. Patrick's Hospital","type":"Hospital","ownership":"Private","town":"Kpando","longitude":0.28712,"id":"aaknm8cf87f1"},"type":"Feature","geometry":{"type":"Point","coordinates":[0.28712,6.99852]}},{"properties":{"latitude":8.24792,"region":"Volta","district":"Nkwanta","facilityname":"St. Joseph's Hospital","type":"Hospital","ownership":"CHAG","town":"Nkwanta","longitude":0.52134,"id":"aaknm8asktpd"},"type":"Feature","geometry":{"type":"Point","coordinates":[0.52134,8.24792]}},{"properties":{"latitude":6.06849,"region":"Volta","district":"North Tongu","facilityname":"Battor Mission. Hospital","type":"Hospital","ownership":"CHAG","town":"Battor","longitude":0.40122,"id":"aaknm8f0nnwo"},"type":"Feature","geometry":{"type":"Point","coordinates":[0.40122,6.06849]}},{"properties":{"latitude":6.12976,"region":"Volta","district":"Akatsi","facilityname":"Hoggar Clinic","type":"Hospital","ownership":"Private","town":"Akatsi","longitude":0.79553,"id":"aaknm876u0ie"},"type":"Feature","geometry":{"type":"Point","coordinates":[0.79553,6.12976]}},{"properties":{"latitude":6.25686,"region":"Western","district":"Bibiani-Anhwiaso-Bekwai","facilityname":"G.B.C. Awaso Hospital","type":"Hospital","ownership":"Quasi-Government","town":"Awaso","longitude":-2.28031,"id":"aaknm81y6dew"},"type":"Feature","geometry":{"type":"Point","coordinates":[-2.28031,6.25686]}},{"properties":{"latitude":5.13012,"region":"Western","district":"Mpohor-Wassa East","facilityname":"Ahmadiyya Misson Hospital","type":"Hospital","ownership":"Mission","town":"Daboase","longitude":-1.65779,"id":"aaknm81oqka8"},"type":"Feature","geometry":{"type":"Point","coordinates":[-1.65779,5.13012]}},{"properties":{"latitude":4.96539,"region":"Western","district":"Nzema East","facilityname":"Eikwe Catholic Hospital","type":"Hospital","ownership":"CHAG","town":"Eikwe","longitude":-2.46978,"id":"aaknm853c0yq"},"type":"Feature","geometry":{"type":"Point","coordinates":[-2.46978,4.96539]}},{"properties":{"latitude":6.39401,"region":"Western","district":"Sefwi Wiawso","facilityname":"St. Johns Of God Hospital","type":"Hospital","ownership":"CHAG","town":"Asafo","longitude":-2.65779,"id":"aaknm86cai7e"},"type":"Feature","geometry":{"type":"Point","coordinates":[-2.65779,6.39401]}},{"properties":{"latitude":4.97429,"region":"Western","district":"Shama","facilityname":"V.R.A Hospital","type":"Hospital","ownership":"Quasi-Government","town":"Aboadze","longitude":-1.65502,"id":"aaknm843kixd"},"type":"Feature","geometry":{"type":"Point","coordinates":[-1.65502,4.97429]}},{"properties":{"latitude":4.91426,"region":"Western","district":"Shama Ahanta East","facilityname":"2BN Military Hospital","type":"Hospital","ownership":"Quasi-Government","town":"Apremdo","longitude":-1.80562,"id":"aaknm8dvkz3i"},"type":"Feature","geometry":{"type":"Point","coordinates":[-1.80562,4.91426]}},{"properties":{"latitude":4.88844,"region":"Western","district":"Shama Ahanta East","facilityname":"Ghapoha Hospital","type":"Hospital","ownership":"Quasi-Government","town":"Takoradi","longitude":-1.75129,"id":"aaknm85vwfxn"},"type":"Feature","geometry":{"type":"Point","coordinates":[-1.75129,4.88844]}},{"properties":{"latitude":4.8856,"region":"Western","district":"Shama Ahanta East","facilityname":"Takoradi Hospital","type":"Hospital","ownership":"Government","town":"Takoradi","longitude":-1.75258,"id":"aaknm8fhb217"},"type":"Feature","geometry":{"type":"Point","coordinates":[-1.75258,4.8856]}},{"properties":{"latitude":5.42662,"region":"Western","district":"Wassa West","facilityname":"Prestea Hospital","type":"Hospital","ownership":"Government","town":"Prestea","longitude":-2.13573,"id":"aaknm88rsbp1"},"type":"Feature","geometry":{"type":"Point","coordinates":[-2.13573,5.42662]}},{"properties":{"latitude":5.30567,"region":"Western","district":"Tarkwa Nsuaem Municipal","facilityname":"Tarkwa Municipal Hospital","type":"Hospital","ownership":"Government","town":"Tarkwa","longitude":-1.9863,"id":"aaknm8ge3bn4"},"type":"Feature","geometry":{"type":"Point","coordinates":[-1.9863,5.30567]}},{"properties":{"latitude":5.32072,"region":"Western","district":"Tarkwa Nsuaem Municipal","facilityname":"A.B.A. Hospital","type":"Hospital","ownership":"Quasi-Government","town":"Abontiakoon","longitude":-1.99114,"id":"aaknm8hg12mm"},"type":"Feature","geometry":{"type":"Point","coordinates":[-1.99114,5.32072]}},{"properties":{"latitude":5.30554,"region":"Western","district":"Tarkwa Nsuaem Municipal","facilityname":"Rabboni Christian Hospital","type":"Hospital","ownership":"Private","town":"Commercial Street","longitude":-1.99302,"id":"aaknm86wzmaq"},"type":"Feature","geometry":{"type":"Point","coordinates":[-1.99302,5.30554]}},{"properties":{"latitude":5.28011,"region":"Western","district":"Tarkwa Nsuaem Municipal","facilityname":"G.M.C. Hospital","type":"Hospital","ownership":"Quasi-Government","town":"Nsuta","longitude":-1.98207,"id":"aaknm83jlku4"},"type":"Feature","geometry":{"type":"Point","coordinates":[-1.98207,5.28011]}},{"properties":{"latitude":5.80149,"region":"Western","district":"Wassa-Amenfi West","facilityname":"Asankragwa Catholic Hospital","type":"Hospital","ownership":"CHAG","town":"Asankragwa","longitude":-2.43225,"id":"aaknm8bfm7y3"},"type":"Feature","geometry":{"type":"Point","coordinates":[-2.43225,5.80149]}},{"properties":{"latitude":5.61599,"region":"Western","district":"Wassa-Amenfi West","facilityname":"Samartex Hospital","type":"Hospital","ownership":"Quasi-Government","town":"Samreboi","longitude":-2.56413,"id":"aaknm8dn2jil"},"type":"Feature","geometry":{"type":"Point","coordinates":[-2.56413,5.61599]}},{"properties":{"latitude":null,"region":"Western","district":"Shama Ahanta East","facilityname":"Old Hospital","type":"Hospital","ownership":"Government","town":null,"longitude":null,"id":"aaknm850mw4v"},"type":"Feature","geometry":null},{"properties":{"latitude":null,"region":"Western","district":"Sefwi Wiawso","facilityname":"Wiawso Government Hospital","type":"Hospital","ownership":"Government","town":null,"longitude":null,"id":"aaknm89luemy"},"type":"Feature","geometry":null},{"properties":{"latitude":null,"region":"Western","district":"Bibiani-Anhwiaso-Bekwai","facilityname":"Central African Gold Hospital","type":"Hospital","ownership":"Private","town":null,"longitude":null,"id":"aaknm8gh488l"},"type":"Feature","geometry":null},{"properties":{"latitude":null,"region":"Western","district":"Bibiani-Anhwiaso-Bekwai","facilityname":"Divine Love Hospital","type":"Hospital","ownership":"Government","town":null,"longitude":null,"id":"aaknm8b4ptlw"},"type":"Feature","geometry":null},{"properties":{"latitude":null,"region":"Western","district":"Ellembele","facilityname":"St. Martin de Porres Hospitakl","type":"Hospital","ownership":"CHAG","town":null,"longitude":null,"id":"aaknm81wtei6"},"type":"Feature","geometry":null},{"properties":{"latitude":null,"region":"Western","district":"Pretea-Huni Valley","facilityname":"Prestea Government Hospital","type":"Hospital","ownership":"Government","town":"Prestea","longitude":null,"id":"aaknm84g70pr"},"type":"Feature","geometry":null},{"properties":{"latitude":null,"region":"Western","district":"Shama","facilityname":"St.Benedit Hospital","type":"Hospital","ownership":"Private","town":null,"longitude":null,"id":"aaknm87q0fpu"},"type":"Feature","geometry":null}],"is_temporal":false,"author":{"url":"","metadata":"","contact_name":"","contact_address":"","source":"","contact_phone":""},"source":"","pagination":{"sort":null,"start":0,"total":277,"limit":1000000},"state":"complete","tags":"","published":"2014-08-16T16:47:34-04:00","id":303136}