{"type":"FeatureCollection","data_type":"Dataset","url_type":null,"permissions":[{"permissions":{"download":true,"view":true},"group_id":"everyone"}],"classification":null,"title":"Regional Hospitals","count":9,"stream_id":303197,"contributor":{"url":"http://geocommons.com/users/54256","name":"mwdcsend"},"data_attributes":null,"calculation_params":null,"icon_link":null,"link":"http://geocommons.com/overlays/303197.json","extent":[-2.49806,4.92482,0.48421,10.8074],"geometry_types":["point"],"unique_name":null,"name":"Regional Hospitals","feature_count":9,"description":"","next_feature":null,"is_raster":false,"short_classification":"Y","stats":{"latitude":{"max":10.80737,"mean":7.42872777777778,"variance":4.52603252701944,"stdev":2.12744742050643,"min":4.92482,"median":6.65252},"longitude":{"max":0.48421,"mean":-1.17146333333333,"variance":0.96203361265,"stdev":0.980833121713373,"min":-2.49806,"median":-1.26603}},"features":[{"properties":{"latitude":6.65252,"region":"Ashanti","district":"Kumasi Metropolitan","facilityname":"Kumasi South Government Hospital","type":"Regional Hospital","ownership":"Government","town":"Atonsu-Agogo","longitude":-1.58471,"id":"aaksbodqulfw"},"type":"Feature","geometry":{"type":"Point","coordinates":[-1.58471,6.65252]}},{"properties":{"latitude":7.3446,"region":"Brong Ahafo","district":"Sunyani","facilityname":"Sunyani Regional Hospital","type":"Regional Hospital","ownership":"Government","town":"Sunyani","longitude":-2.3142,"id":"aaksboc9vwl2"},"type":"Feature","geometry":{"type":"Point","coordinates":[-2.3142,7.3446]}},{"properties":{"latitude":5.1332,"region":"Central","district":"Cape Coast Metropolitan","facilityname":"Central Regional Hospital","type":"Regional Hospital","ownership":"Government","town":"Abura","longitude":-1.26603,"id":"aaksboqgdwte"},"type":"Feature","geometry":{"type":"Point","coordinates":[-1.26603,5.1332]}},{"properties":{"latitude":6.09664,"region":"Eastern","district":"New Juaben","facilityname":"Koforidua Regional Hospital","type":"Regional Hospital","ownership":"Government","town":"Koforidua","longitude":-0.25719,"id":"aaksbolj1zij"},"type":"Feature","geometry":{"type":"Point","coordinates":[-0.25719,6.09664]}},{"properties":{"latitude":9.24188,"region":"Northern","district":"Tamale Metropolitan","facilityname":"Tamale Central  Hospital","type":"Regional Hospital","ownership":"Government","town":"Zobogu","longitude":-0.50141,"id":"aaksboqtqhhi"},"type":"Feature","geometry":{"type":"Point","coordinates":[-0.50141,9.24188]}},{"properties":{"latitude":10.80737,"region":"Upper East","district":"Bolgatanga Municipal","facilityname":"Bolgatanga Regional Hospital","type":"Regional Hospital","ownership":"Government","town":"Zaare","longitude":-0.8612,"id":"aaksboi7ef4c"},"type":"Feature","geometry":{"type":"Point","coordinates":[-0.8612,10.80737]}},{"properties":{"latitude":10.05537,"region":"Upper West","district":"Wa Municipal","facilityname":"Upper West Regional Hospital","type":"Regional Hospital","ownership":"Government","town":"Wa","longitude":-2.49806,"id":"aaksboly0snf"},"type":"Feature","geometry":{"type":"Point","coordinates":[-2.49806,10.05537]}},{"properties":{"latitude":6.60215,"region":"Volta","district":"Ho Municipal","facilityname":"Volta Regional Hospital","type":"Regional Hospital","ownership":"Government","town":"Ho","longitude":0.48421,"id":"aaksboi4oc0q"},"type":"Feature","geometry":{"type":"Point","coordinates":[0.48421,6.60215]}},{"properties":{"latitude":4.92482,"region":"Western","district":"Shama Ahanta East","facilityname":"Effia Nkwanta Regional Hospital","type":"Regional Hospital","ownership":"Government","town":"Sekondi","longitude":-1.74458,"id":"aaksbomtdsne"},"type":"Feature","geometry":{"type":"Point","coordinates":[-1.74458,4.92482]}}],"is_temporal":false,"author":{"url":"","metadata":"","contact_name":"","contact_address":"","source":"","contact_phone":""},"source":"","pagination":{"sort":null,"start":0,"total":9,"limit":1000000},"state":"complete","tags":"","published":"2014-08-16T16:52:04-04:00","id":303197}