{"type":"FeatureCollection","data_type":"Dataset","url_type":null,"permissions":[{"permissions":{"download":true,"view":true},"group_id":"everyone"}],"classification":null,"title":"CHPS Centers in Ghana","count":652,"stream_id":303143,"contributor":{"url":"http://geocommons.com/users/54256","name":"mwdcsend"},"data_attributes":null,"calculation_params":null,"icon_link":null,"link":"http://geocommons.com/overlays/303143.json","extent":[-3.23588,4.82067,0.87924,11.0616],"geometry_types":["point"],"unique_name":null,"name":"CHPS Centers in Ghana","feature_count":652,"description":"","next_feature":null,"is_raster":false,"short_classification":"Y","stats":{"latitude":{"max":11.0616,"variance":5.20224445981342,"mean":8.43574697857143,"stdev":2.28084292747515,"min":4.82067,"median":9.46424},"longitude":{"max":6.55529,"variance":1.11097388310001,"mean":-1.13066913879004,"stdev":1.05402745841843,"min":-3.23588,"median":-1.05298}},"features":[{"properties":{"latitude":6.33659,"region":"Ashanti","district":"Amansie West","facilityname":"Adimposo CHPS","type":"CHPS","ownership":"Government","town":"Adimposo","longitude":-1.92588,"id":"aaknmzse9xrp"},"type":"Feature","geometry":{"type":"Point","coordinates":[-1.92588,6.33659]}},{"properties":{"latitude":6.59099,"region":"Ashanti","district":"Bosomtwe","facilityname":"Piase CHPS","type":"CHPS","ownership":"Government","town":"Piase","longitude":-1.45151,"id":"aaknmzxotes6"},"type":"Feature","geometry":{"type":"Point","coordinates":[-1.45151,6.59099]}},{"properties":{"latitude":6.37344,"region":"Ashanti","district":"Amansie West","facilityname":"Keniago CHPS","type":"CHPS","ownership":"Government","town":"Keniago","longitude":-2.01764,"id":"aaknmzmifv7s"},"type":"Feature","geometry":{"type":"Point","coordinates":[-2.01764,6.37344]}},{"properties":{"latitude":6.37002,"region":"Ashanti","district":"Amansie West","facilityname":"Nipankyeremia CHPS","type":"CHPS","ownership":"Government","town":"Nipankyeremia","longitude":-2.15827,"id":"aaknn010ds6k"},"type":"Feature","geometry":{"type":"Point","coordinates":[-2.15827,6.37002]}},{"properties":{"latitude":null,"region":"Ashanti","district":"Amansie West","facilityname":"Mpraniase Chps","type":"CHPS","ownership":"Government","town":"Mpraniase","longitude":null,"id":"aaknmzsglbp5"},"type":"Feature","geometry":null},{"properties":{"latitude":null,"region":"Ashanti","district":"Amansie West","facilityname":"Manso Nkran Chps","type":"CHPS","ownership":"Government","town":"Manso Nranso","longitude":null,"id":"aaknmznzsw5m"},"type":"Feature","geometry":null},{"properties":{"latitude":null,"region":"Ashanti","district":"Amansie West","facilityname":"Aboaboso Chps","type":"CHPS","ownership":"Government","town":"Aboaboso","longitude":null,"id":"aaknmzo1hy0h"},"type":"Feature","geometry":null},{"properties":{"latitude":null,"region":"Ashanti","district":"Amansie West","facilityname":"Akyekyerekrom Chps","type":"CHPS","ownership":"Government","town":"Akyekyerekrom","longitude":null,"id":"aaknmzwzaazj"},"type":"Feature","geometry":null},{"properties":{"latitude":null,"region":"Ashanti","district":"Sekyere Afram Plains","facilityname":"Asesewa CHPS","type":"CHPS","ownership":"Government","town":"Anyinofi","longitude":null,"id":"aaknmzodyh5l"},"type":"Feature","geometry":null},{"properties":{"latitude":null,"region":"Ashanti","district":"Sekyere Afram Plains","facilityname":"Dawia CHPS","type":"CHPS","ownership":"Government","town":"Dawia","longitude":null,"id":"aaknmzvq3kqr"},"type":"Feature","geometry":null},{"properties":{"latitude":null,"region":"Ashanti","district":"Sekyere Afram Plains","facilityname":"Funsua CHPS","type":"CHPS","ownership":"Government","town":"Fusua","longitude":null,"id":"aaknn00k75aa"},"type":"Feature","geometry":null},{"properties":{"latitude":null,"region":"Ashanti","district":"Sekyere Afram Plains","facilityname":"Hamidu CHPS","type":"CHPS","ownership":"Government","town":"Fusua","longitude":null,"id":"aaknmzuequ6l"},"type":"Feature","geometry":null},{"properties":{"latitude":7.02111,"region":"Ashanti","district":"Offinso Municipal","facilityname":"Kwagyekrom CHPS","type":"CHPS","ownership":"Government","town":"Kokoben","longitude":-1.46379,"id":"aaknmzxshz8h"},"type":"Feature","geometry":{"type":"Point","coordinates":[-1.46379,7.02111]}},{"properties":{"latitude":7.49397,"region":"Brong Ahafo","district":"Berekum Municipal","facilityname":"Akrofro CHPS","type":"CHPS","ownership":"Private","town":"Akrofro","longitude":-2.58871,"id":"aaknmzlwsw3k"},"type":"Feature","geometry":{"type":"Point","coordinates":[-2.58871,7.49397]}},{"properties":{"latitude":7.73363,"region":"Brong Ahafo","district":"Jaman North","facilityname":"Asuokor Rural Clinic","type":"CHPS","ownership":"Government","town":"Asuoko.","longitude":-2.61549,"id":"aaknmzoxhl2i"},"type":"Feature","geometry":{"type":"Point","coordinates":[-2.61549,7.73363]}},{"properties":{"latitude":7.71152,"region":"Brong Ahafo","district":"Sene","facilityname":"Bantama CHPS","type":"CHPS","ownership":"Government","town":"Bantama","longitude":-0.75332,"id":"aaknmzsqcbm7"},"type":"Feature","geometry":{"type":"Point","coordinates":[-0.75332,7.71152]}},{"properties":{"latitude":7.7925,"region":"Brong Ahafo","district":"Sene","facilityname":"Nyankontre CHPS","type":"CHPS","ownership":"Government","town":"Nyakontre","longitude":-0.34233,"id":"aaknmzsm65t7"},"type":"Feature","geometry":{"type":"Point","coordinates":[-0.34233,7.7925]}},{"properties":{"latitude":7.8485,"region":"Brong Ahafo","district":"Tain","facilityname":"Hani CHPS","type":"CHPS","ownership":"Government","town":"Hani","longitude":-2.47551,"id":"aaknmzxyankm"},"type":"Feature","geometry":{"type":"Point","coordinates":[-2.47551,7.8485]}},{"properties":{"latitude":7.97551,"region":"Brong Ahafo","district":"Tain","facilityname":"Brohani CHPS","type":"CHPS","ownership":"Government","town":"Brohani","longitude":-2.4203,"id":"aaknmzqysrfc"},"type":"Feature","geometry":{"type":"Point","coordinates":[-2.4203,7.97551]}},{"properties":{"latitude":7.57912,"region":"Brong Ahafo","district":"Techiman","facilityname":"Fiaso CHPS","type":"CHPS","ownership":"Government","town":"Fiaso","longitude":-1.81848,"id":"aaknn01pgncq"},"type":"Feature","geometry":{"type":"Point","coordinates":[-1.81848,7.57912]}},{"properties":{"latitude":null,"region":"Brong Ahafo","district":"Asutifi","facilityname":"Biaso CHPS","type":"CHPS","ownership":"Government","town":"Biaso","longitude":null,"id":"aaknmznn5c1f"},"type":"Feature","geometry":null},{"properties":{"latitude":null,"region":"Brong Ahafo","district":"Asunafo South","facilityname":"Nankete CHPS","type":"CHPS","ownership":"Government","town":"Nankete","longitude":null,"id":"aaknmzub342u"},"type":"Feature","geometry":null},{"properties":{"latitude":null,"region":"Brong Ahafo","district":"Sene","facilityname":"Lassi CHPS","type":"CHPS","ownership":"Government","town":"Lassi","longitude":null,"id":"aaknmzreftbo"},"type":"Feature","geometry":null},{"properties":{"latitude":null,"region":"Brong Ahafo","district":"Berekum Municipal","facilityname":"Anyinasu CHPS","type":"CHPS","ownership":"Government","town":"Anyinasu","longitude":null,"id":"aaknn00dcpas"},"type":"Feature","geometry":null},{"properties":{"latitude":null,"region":"Brong Ahafo","district":"Asunafo North Municipal","facilityname":"Bitre CHPS","type":"CHPS","ownership":"Government","town":"Bitre","longitude":null,"id":"aaknmzsjtlvf"},"type":"Feature","geometry":null},{"properties":{"latitude":null,"region":"Brong Ahafo","district":"Asunafo North Municipal","facilityname":"Gyasikrom CHPS","type":"CHPS","ownership":"Government","town":"Gyasikrom","longitude":null,"id":"aaknn01jw6a3"},"type":"Feature","geometry":null},{"properties":{"latitude":null,"region":"Brong Ahafo","district":"Asunafo North Municipal","facilityname":"WAM CHPS","type":"CHPS","ownership":"Government","town":"WAM","longitude":null,"id":"aaknmzv55re3"},"type":"Feature","geometry":null},{"properties":{"latitude":null,"region":"Brong Ahafo","district":"Asunafo South","facilityname":"Noberkaw CHPS","type":"CHPS","ownership":"Government","town":"Noberkaw","longitude":null,"id":"aaknmzvh7bkg"},"type":"Feature","geometry":null},{"properties":{"latitude":null,"region":"Brong Ahafo","district":"Asunafo South","facilityname":"1000 Acre CHPS","type":"CHPS","ownership":"Government","town":"1000 Acre","longitude":null,"id":"aaknmzrb5bp7"},"type":"Feature","geometry":null},{"properties":{"latitude":null,"region":"Brong Ahafo","district":"Asunafo South","facilityname":"New Saweresu CHPS","type":"CHPS","ownership":"Government","town":"New Saweresu","longitude":null,"id":"aaknmzoxf8tv"},"type":"Feature","geometry":null},{"properties":{"latitude":null,"region":"Brong Ahafo","district":"Asutifi","facilityname":"Goamu Koforidua CHPS","type":"CHPS","ownership":"Government","town":"Goamu Koforidua","longitude":null,"id":"aaknmzsqhjw6"},"type":"Feature","geometry":null},{"properties":{"latitude":null,"region":"Brong Ahafo","district":"Asutifi","facilityname":"Nkaseim CHPS","type":"CHPS","ownership":"Government","town":"Hwidiem","longitude":null,"id":"aaknmzxjiroi"},"type":"Feature","geometry":null},{"properties":{"latitude":null,"region":"Brong Ahafo","district":"Asutifi","facilityname":"Apenemadi CHPS","type":"CHPS","ownership":"Government","town":"Hwidiem","longitude":null,"id":"aaknmzzo9mxk"},"type":"Feature","geometry":null},{"properties":{"latitude":null,"region":"Brong Ahafo","district":"Atebubu-Amanten","facilityname":"MEM CHPS","type":"CHPS","ownership":"Government","town":"Atebubu","longitude":null,"id":"aaknn005qp30"},"type":"Feature","geometry":null},{"properties":{"latitude":null,"region":"Brong Ahafo","district":"Atebubu-Amanten","facilityname":"Garadima CHPS","type":"CHPS","ownership":"Government","town":"Garadima","longitude":null,"id":"aaknmzq613gn"},"type":"Feature","geometry":null},{"properties":{"latitude":null,"region":"Brong Ahafo","district":"Atebubu-Amanten","facilityname":"Nyomoase CHPS","type":"CHPS","ownership":"Government","town":"Nyomoase","longitude":null,"id":"aaknmzmn97kw"},"type":"Feature","geometry":null},{"properties":{"latitude":null,"region":"Brong Ahafo","district":"Berekum Municipal","facilityname":"Namasua CHPS","type":"CHPS","ownership":"Government","town":"Namasua","longitude":null,"id":"aaknmzyfrbnw"},"type":"Feature","geometry":null},{"properties":{"latitude":null,"region":"Brong Ahafo","district":"Berekum Municipal","facilityname":"Tewbabi CHPS","type":"CHPS","ownership":"Government","town":"Tewbabi","longitude":null,"id":"aaknmzp4o0px"},"type":"Feature","geometry":null},{"properties":{"latitude":null,"region":"Brong Ahafo","district":"Dormaa Municipal","facilityname":"Gonokrom CHPS","type":"CHPS","ownership":"Government","town":"Gonokrom","longitude":null,"id":"aaknmzmrlblb"},"type":"Feature","geometry":null},{"properties":{"latitude":null,"region":"Brong Ahafo","district":"Dormaa Municipal","facilityname":"New Chiraa PHC","type":"CHPS","ownership":"Government","town":"New Chiraa","longitude":null,"id":"aaknmzx4yyqn"},"type":"Feature","geometry":null},{"properties":{"latitude":null,"region":"Brong Ahafo","district":"Dormaa East","facilityname":"Kofiboukrom CHPS","type":"CHPS","ownership":"Government","town":"Kofiboukrom","longitude":null,"id":"aaknmzmkwyfl"},"type":"Feature","geometry":null},{"properties":{"latitude":null,"region":"Brong Ahafo","district":"Jaman North","facilityname":"Amanfoso CHPS","type":"CHPS","ownership":"Government","town":"Amanfoso","longitude":null,"id":"aaknmzua6ocx"},"type":"Feature","geometry":null},{"properties":{"latitude":null,"region":"Brong Ahafo","district":"Jaman South","facilityname":"Atuna CHPS","type":"CHPS","ownership":"Government","town":"Atuna","longitude":null,"id":"aaknmzuo4ldl"},"type":"Feature","geometry":null},{"properties":{"latitude":null,"region":"Brong Ahafo","district":"Jaman South","facilityname":"Abuokrom CHPS","type":"CHPS","ownership":"Government","town":"Abuokrom","longitude":null,"id":"aaknmzwv7dd7"},"type":"Feature","geometry":null},{"properties":{"latitude":null,"region":"Brong Ahafo","district":"Jaman South","facilityname":"Tekese CHPS","type":"CHPS","ownership":"Government","town":"Tekese","longitude":null,"id":"aaknmzx7kwmw"},"type":"Feature","geometry":null},{"properties":{"latitude":null,"region":"Brong Ahafo","district":"Jaman South","facilityname":"Asempanaye CHPS","type":"CHPS","ownership":"Government","town":"Asempanaye","longitude":null,"id":"aaknmzmcohfr"},"type":"Feature","geometry":null},{"properties":{"latitude":null,"region":"Brong Ahafo","district":"Asunafo South","facilityname":"Nankete CHPS","type":"CHPS","ownership":"Government","town":"Nankete","longitude":null,"id":"aaknmzq9vhsy"},"type":"Feature","geometry":null},{"properties":{"latitude":null,"region":"Brong Ahafo","district":"Sene","facilityname":"Lassi CHPS","type":"CHPS","ownership":"Government","town":"Lassi","longitude":null,"id":"aaknmzuy04ca"},"type":"Feature","geometry":null},{"properties":{"latitude":5.3557,"region":"Central","district":"Ajumako-Enyan-Essiam","facilityname":"Nkodwo Nkojo CHPS","type":"CHPS","ownership":"Government","town":"Nkodwo","longitude":-0.97178,"id":"aaknmzsu8dup"},"type":"Feature","geometry":{"type":"Point","coordinates":[-0.97178,5.3557]}},{"properties":{"latitude":5.24604,"region":"Central","district":"Mfantseman","facilityname":"Nanabeng CHPS","type":"CHPS","ownership":"Government","town":"Nanabeng","longitude":-0.94823,"id":"aaknmzmr2gz0"},"type":"Feature","geometry":{"type":"Point","coordinates":[-0.94823,5.24604]}},{"properties":{"latitude":null,"region":"Central","district":"Mfantseman","facilityname":"Bethel Heamopatic CHPS","type":"CHPS","ownership":"Government","town":null,"longitude":null,"id":"aaknmznvajiw"},"type":"Feature","geometry":null},{"properties":{"latitude":null,"region":"Central","district":"Mfantseman","facilityname":"Edumafa CHPS","type":"CHPS","ownership":"Government","town":"Edumafa","longitude":null,"id":"aaknmzwbfodn"},"type":"Feature","geometry":null},{"properties":{"latitude":null,"region":"Central","district":"Mfantseman","facilityname":"Ekrawfol CHPS","type":"CHPS","ownership":"Government","town":"Ekrawfol","longitude":null,"id":"aaknmztmm2lh"},"type":"Feature","geometry":null},{"properties":{"latitude":null,"region":"Central","district":"Mfantseman","facilityname":"Ekumpoano CHPS","type":"CHPS","ownership":"Government","town":"Ekumpoano","longitude":null,"id":"aaknn01borzj"},"type":"Feature","geometry":null},{"properties":{"latitude":null,"region":"Central","district":"Mfantseman","facilityname":"Eyisam CHPS","type":"CHPS","ownership":"Government","town":"Eyisam","longitude":null,"id":"aaknmzwbkzfp"},"type":"Feature","geometry":null},{"properties":{"latitude":null,"region":"Central","district":"Mfantseman","facilityname":"Narkwa CHPS","type":"CHPS","ownership":"Government","town":"Narkwa","longitude":null,"id":"aaknn00nmxz8"},"type":"Feature","geometry":null},{"properties":{"latitude":null,"region":"Central","district":"Mfantseman","facilityname":"Nsanfo CHPS","type":"CHPS","ownership":"Government","town":"Nsanfo","longitude":null,"id":"aaknmzwnwmef"},"type":"Feature","geometry":null},{"properties":{"latitude":null,"region":"Central","district":"Mfantseman","facilityname":"Taido CHPS","type":"CHPS","ownership":"Government","town":"Taido","longitude":null,"id":"aaknmzs9jv3u"},"type":"Feature","geometry":null},{"properties":{"latitude":5.42343,"region":"Central","district":"Twifu-Hemang-Lower Denkyira","facilityname":"Shed CHPS","type":"CHPS","ownership":"Government","town":"Shed","longitude":-1.5393,"id":"aaknmzo1o9s9"},"type":"Feature","geometry":{"type":"Point","coordinates":[-1.5393,5.42343]}},{"properties":{"latitude":5.69832,"region":"Central","district":"Twifu-Hemang-Lower Denkyira","facilityname":"Wamaso CHPS","type":"CHPS","ownership":"Government","town":"Twifo Wamase","longitude":-1.64432,"id":"aaknn01r0atg"},"type":"Feature","geometry":{"type":"Point","coordinates":[-1.64432,5.69832]}},{"properties":{"latitude":null,"region":"Central","district":"Twifu-Hemang-Lower Denkyira","facilityname":"Adade Kofi CHPS","type":"CHPS","ownership":"Government","town":"Adade Kof","longitude":null,"id":"aaknmzlvtlgf"},"type":"Feature","geometry":null},{"properties":{"latitude":null,"region":"Central","district":"Twifu-Hemang-Lower Denkyira","facilityname":"Kayeriku CHPS","type":"CHPS","ownership":"Government","town":"Kayeriku","longitude":null,"id":"aaknmztd4zhc"},"type":"Feature","geometry":null},{"properties":{"latitude":null,"region":"Central","district":"Twifu-Hemang-Lower Denkyira","facilityname":"Kotokye CHPS","type":"CHPS","ownership":"Government","town":"Kotokye","longitude":null,"id":"aaknmzwiixbv"},"type":"Feature","geometry":null},{"properties":{"latitude":null,"region":"Central","district":"Twifu-Hemang-Lower Denkyira","facilityname":"Nuamakrom CHPS","type":"CHPS","ownership":"Government","town":"Nuamakrom","longitude":null,"id":"aaknmzzyjat8"},"type":"Feature","geometry":null},{"properties":{"latitude":5.88297,"region":"Central","district":"Upper Denkyira East","facilityname":"Buabin CHPS","type":"CHPS","ownership":"Government","town":"Buaben","longitude":-1.75841,"id":"aaknmzrxcdn8"},"type":"Feature","geometry":{"type":"Point","coordinates":[-1.75841,5.88297]}},{"properties":{"latitude":5.81374,"region":"Central","district":"Upper Denkyira East","facilityname":"Imbraim CHPS","type":"CHPS","ownership":"Government","town":"Mbraem","longitude":-1.77019,"id":"aaknn01ou9aj"},"type":"Feature","geometry":{"type":"Point","coordinates":[-1.77019,5.81374]}},{"properties":{"latitude":null,"region":"Central","district":"Upper Denkyira East","facilityname":"Agyempomah CHPS","type":"CHPS","ownership":"Government","town":"Agyempoma","longitude":null,"id":"aaknmznsrqco"},"type":"Feature","geometry":null},{"properties":{"latitude":null,"region":"Central","district":"Upper Denkyira East","facilityname":"Asikumah CHPS","type":"CHPS","ownership":"Government","town":"Asikumah","longitude":null,"id":"aaknmzzusmeh"},"type":"Feature","geometry":null},{"properties":{"latitude":null,"region":"Central","district":"Upper Denkyira East","facilityname":"Asmah Camp CHPS","type":"CHPS","ownership":"Government","town":"Asmah Camp","longitude":null,"id":"aaknn00tte32"},"type":"Feature","geometry":null},{"properties":{"latitude":6.20034,"region":"Central","district":"Upper Denkyira West","facilityname":"Ntom CHPS","type":"CHPS","ownership":"Government","town":"Ntom","longitude":-2.11999,"id":"aaknmzuzvvzg"},"type":"Feature","geometry":{"type":"Point","coordinates":[-2.11999,6.20034]}},{"properties":{"latitude":null,"region":"Central","district":"Upper Denkyira West","facilityname":"Nkwatanan CHPS","type":"CHPS","ownership":"Government","town":"Nkwatanan","longitude":null,"id":"aaknmzxu72uw"},"type":"Feature","geometry":null},{"properties":{"latitude":null,"region":"Central","district":"Upper Denkyira West","facilityname":"Amoaman CHPS","type":"CHPS","ownership":"Government","town":"Amoaman","longitude":null,"id":"aaknmzwm3t2k"},"type":"Feature","geometry":null},{"properties":{"latitude":null,"region":"Central","district":"Upper Denkyira West","facilityname":"Anhwiawia CHPS","type":"CHPS","ownership":"Government","town":"Anhwiawia","longitude":null,"id":"aaknmzv3don1"},"type":"Feature","geometry":null},{"properties":{"latitude":null,"region":"Central","district":"Upper Denkyira West","facilityname":"Denkyira Obuasi CHPS","type":"CHPS","ownership":"Government","town":"Denkyira Obuasi","longitude":null,"id":"aaknmzwfmltx"},"type":"Feature","geometry":null},{"properties":{"latitude":null,"region":"Central","district":"Upper Denkyira West","facilityname":"Treposo CHPS","type":"CHPS","ownership":"Government","town":"Treposo","longitude":null,"id":"aaknmzpky7rr"},"type":"Feature","geometry":null},{"properties":{"latitude":5.28076,"region":"Central","district":"Abura-Asebu-Kwamankese","facilityname":"Nkwantanan CHPS","type":"CHPS","ownership":"Government","town":"Nkwantanan","longitude":-1.28954,"id":"aaknmzru2i2h"},"type":"Feature","geometry":{"type":"Point","coordinates":[-1.28954,5.28076]}},{"properties":{"latitude":5.30269,"region":"Central","district":"Abura-Asebu-Kwamankese","facilityname":"Obohen CHPS","type":"CHPS","ownership":"Government","town":"Obohen","longitude":-1.13868,"id":"aaknn00wy3m6"},"type":"Feature","geometry":{"type":"Point","coordinates":[-1.13868,5.30269]}},{"properties":{"latitude":5.29021,"region":"Central","district":"Abura-Asebu-Kwamankese","facilityname":"Kwamankese CHPS","type":"CHPS","ownership":"Government","town":"Kwamankese","longitude":-1.09563,"id":"aaknmzy2lmcf"},"type":"Feature","geometry":{"type":"Point","coordinates":[-1.09563,5.29021]}},{"properties":{"latitude":5.2788,"region":"Central","district":"Abura-Asebu-Kwamankese","facilityname":"Gyabankrom CHPS","type":"CHPS","ownership":"Government","town":"Abura Gyabankrom","longitude":-1.11699,"id":"aaknmzznqmst"},"type":"Feature","geometry":{"type":"Point","coordinates":[-1.11699,5.2788]}},{"properties":{"latitude":5.33784,"region":"Central","district":"Abura-Asebu-Kwamankese","facilityname":"Ayeldu CHPS","type":"CHPS","ownership":"Government","town":"Ayeldu","longitude":-1.12736,"id":"aaknmzvlmtzi"},"type":"Feature","geometry":{"type":"Point","coordinates":[-1.12736,5.33784]}},{"properties":{"latitude":5.33715,"region":"Central","district":"Abura-Asebu-Kwamankese","facilityname":"Asomdwee CHPS","type":"CHPS","ownership":"Government","town":"Asomdwee","longitude":-1.28221,"id":"aaknmzq1i3qh"},"type":"Feature","geometry":{"type":"Point","coordinates":[-1.28221,5.33715]}},{"properties":{"latitude":5.20157,"region":"Central","district":"Abura-Asebu-Kwamankese","facilityname":"Putubiw CHPS","type":"CHPS","ownership":"Government","town":"Putubiw","longitude":-1.26566,"id":"aaknmzy706go"},"type":"Feature","geometry":{"type":"Point","coordinates":[-1.26566,5.20157]}},{"properties":{"latitude":null,"region":"Central","district":"Abura-Asebu-Kwamankese","facilityname":"Amosima CHPS","type":"CHPS","ownership":"Government","town":"Aosima","longitude":null,"id":"aaknn020vnjf"},"type":"Feature","geometry":null},{"properties":{"latitude":null,"region":"Central","district":"Abura-Asebu-Kwamankese","facilityname":"Asebu CHPS","type":"CHPS","ownership":"Government","town":"Asebu","longitude":null,"id":"aaknmzvdz5ia"},"type":"Feature","geometry":null},{"properties":{"latitude":null,"region":"Central","district":"Abura-Asebu-Kwamankese","facilityname":"Asuansi CHPS","type":"CHPS","ownership":"Government","town":"Asuansi","longitude":null,"id":"aaknmzpklvt5"},"type":"Feature","geometry":null},{"properties":{"latitude":null,"region":"Central","district":"Abura-Asebu-Kwamankese","facilityname":"Nyanfeku CHPS","type":"CHPS","ownership":"Government","town":"Nyanfeku","longitude":null,"id":"aaknmzvlgei1"},"type":"Feature","geometry":null},{"properties":{"latitude":null,"region":"Central","district":"Agona East","facilityname":"Kenyako CHPS","type":"CHPS","ownership":"Government","town":"Kenyako","longitude":null,"id":"aaknmzy81c8s"},"type":"Feature","geometry":null},{"properties":{"latitude":null,"region":"Central","district":"Agona East","facilityname":"Ofoase CHPS","type":"CHPS","ownership":"Government","town":"Ofoase","longitude":null,"id":"aaknmzpq7v47"},"type":"Feature","geometry":null},{"properties":{"latitude":null,"region":"Central","district":"Agona East","facilityname":"Otwekwa CHPS","type":"CHPS","ownership":"Government","town":"Otwekwa","longitude":null,"id":"aaknmzpkl9zh"},"type":"Feature","geometry":null},{"properties":{"latitude":null,"region":"Central","district":"Agona East","facilityname":"Tawora CHPS","type":"CHPS","ownership":"Government","town":"Tawora","longitude":null,"id":"aaknmzuwazlb"},"type":"Feature","geometry":null},{"properties":{"latitude":null,"region":"Central","district":"Agona West Municipal","facilityname":"Abigyakwa CHPS","type":"CHPS","ownership":"Government","town":"Abigyakwa","longitude":null,"id":"aaknn00j5ltd"},"type":"Feature","geometry":null},{"properties":{"latitude":null,"region":"Central","district":"Agona West Municipal","facilityname":"Nsuasa CHPS","type":"CHPS","ownership":"Government","town":"Nuasa","longitude":null,"id":"aaknmzmqyt8q"},"type":"Feature","geometry":null},{"properties":{"latitude":null,"region":"Central","district":"Agona West Municipal","facilityname":"Nyamendam CHPS","type":"CHPS","ownership":"Government","town":"Nyamendam","longitude":null,"id":"aaknmztfeyvg"},"type":"Feature","geometry":null},{"properties":{"latitude":5.71952,"region":"Central","district":"Agona West Municipal","facilityname":"Otsenkorang CHPS","type":"CHPS","ownership":"Government","town":"Otsenkorang","longitude":-0.82965,"id":"aaknn00l5g0r"},"type":"Feature","geometry":{"type":"Point","coordinates":[-0.82965,5.71952]}},{"properties":{"latitude":null,"region":"Central","district":"Ajumako-Enyan-Essiam","facilityname":"Ahomakormbua CHPS","type":"CHPS","ownership":"Government","town":"Ahomakormbua","longitude":null,"id":"aaknn00o64yp"},"type":"Feature","geometry":null},{"properties":{"latitude":null,"region":"Central","district":"Ajumako-Enyan-Essiam","facilityname":"Ayinasu CHPS","type":"CHPS","ownership":"Government","town":"Ayinasu","longitude":null,"id":"aaknmzlux86k"},"type":"Feature","geometry":null},{"properties":{"latitude":null,"region":"Central","district":"Ajumako-Enyan-Essiam","facilityname":"Ekwamase CHPS","type":"CHPS","ownership":"Government","town":"Ekwamase","longitude":null,"id":"aaknmzq434sb"},"type":"Feature","geometry":null},{"properties":{"latitude":null,"region":"Central","district":"Ajumako-Enyan-Essiam","facilityname":"Kromaim CHPS","type":"CHPS","ownership":"Government","town":"Kromaim","longitude":null,"id":"aaknmzymb2mu"},"type":"Feature","geometry":null},{"properties":{"latitude":null,"region":"Central","district":"Ajumako-Enyan-Essiam","facilityname":"Mando CHPS","type":"CHPS","ownership":"Government","town":"Mando","longitude":null,"id":"aaknmzmwse57"},"type":"Feature","geometry":null},{"properties":{"latitude":null,"region":"Central","district":"Ajumako-Enyan-Essiam","facilityname":"Obontsir CHPS","type":"CHPS","ownership":"Government","town":"Obontsir","longitude":null,"id":"aaknmzukk5r1"},"type":"Feature","geometry":null},{"properties":{"latitude":null,"region":"Central","district":"Ajumako-Enyan-Essiam","facilityname":"Yeboah CHPS","type":"CHPS","ownership":"Government","town":"Yeboah","longitude":null,"id":"aaknn01bcya6"},"type":"Feature","geometry":null},{"properties":{"latitude":5.64501,"region":"Central","district":"Asikuma-Odoben-Brakwa","facilityname":"Anhwiam CHPS","type":"CHPS","ownership":"Government","town":"Anhwiam","longitude":-1.14176,"id":"aaknmzra7amr"},"type":"Feature","geometry":{"type":"Point","coordinates":[-1.14176,5.64501]}},{"properties":{"latitude":null,"region":"Central","district":"Asikuma-Odoben-Brakwa","facilityname":"Ayipey CHPS","type":"CHPS","ownership":"Government","town":"Ayipey","longitude":null,"id":"aaknmzw8vj0y"},"type":"Feature","geometry":null},{"properties":{"latitude":null,"region":"Central","district":"Asikuma-Odoben-Brakwa","facilityname":"Jamra CHPS","type":"CHPS","ownership":"Government","town":"Jamra","longitude":null,"id":"aaknn00npxkm"},"type":"Feature","geometry":null},{"properties":{"latitude":null,"region":"Central","district":"Asikuma-Odoben-Brakwa","facilityname":"Nankese CHPS","type":"CHPS","ownership":"Government","town":"Nankese","longitude":null,"id":"aaknmzqcgqm8"},"type":"Feature","geometry":null},{"properties":{"latitude":null,"region":"Central","district":"Asikuma-Odoben-Brakwa","facilityname":"Sowotuom CHPS","type":"CHPS","ownership":"Government","town":"Sowotuom","longitude":null,"id":"aaknmzoavuua"},"type":"Feature","geometry":null},{"properties":{"latitude":null,"region":"Central","district":"Assin North Municipal","facilityname":"Akropong Odumase CHPS","type":"CHPS","ownership":"Government","town":"Akropong Odumasi","longitude":null,"id":"aaknmzwff085"},"type":"Feature","geometry":null},{"properties":{"latitude":null,"region":"Central","district":"Assin North Municipal","facilityname":"Awisem CHPS","type":"CHPS","ownership":"Government","town":"Awisem","longitude":null,"id":"aaknmzqdo15q"},"type":"Feature","geometry":null},{"properties":{"latitude":null,"region":"Central","district":"Assin North Municipal","facilityname":"Endwa CHPS","type":"CHPS","ownership":"Government","town":"Endwa","longitude":null,"id":"aaknmzlzmra4"},"type":"Feature","geometry":null},{"properties":{"latitude":null,"region":"Central","district":"Assin South","facilityname":"Aboabo CHPS","type":"CHPS","ownership":"Government","town":"Aboabo","longitude":null,"id":"aaknmzmg99cx"},"type":"Feature","geometry":null},{"properties":{"latitude":null,"region":"Central","district":"Assin South","facilityname":"Amoabeng CHPS","type":"CHPS","ownership":"Government","town":"Amoabeng","longitude":null,"id":"aaknn00txpea"},"type":"Feature","geometry":null},{"properties":{"latitude":null,"region":"Central","district":"Assin South","facilityname":"Ochiso CHPS","type":"CHPS","ownership":"Government","town":"Ochiso","longitude":null,"id":"aaknmzzhnwng"},"type":"Feature","geometry":null},{"properties":{"latitude":null,"region":"Central","district":"Awutu Senya","facilityname":"Adawukwa CHPS","type":"CHPS","ownership":"Government","town":"Adawukwa","longitude":null,"id":"aaknmzus1dhm"},"type":"Feature","geometry":null},{"properties":{"latitude":5.33206,"region":"Central","district":"Awutu Senya","facilityname":"Ahentia CHPS","type":"CHPS","ownership":"Government","town":"Ahentia","longitude":-0.31457,"id":"aaknn015wgmt"},"type":"Feature","geometry":{"type":"Point","coordinates":[-0.31457,5.33206]}},{"properties":{"latitude":null,"region":"Central","district":"Awutu Senya","facilityname":"Mayenda CHPS","type":"CHPS","ownership":"Government","town":"Mayenda","longitude":null,"id":"aaknn01y1c0r"},"type":"Feature","geometry":null},{"properties":{"latitude":null,"region":"Central","district":"Awutu Senya","facilityname":"Ofaakor CHPS","type":"CHPS","ownership":"Government","town":"Ofaakor","longitude":null,"id":"aaknmzofrgxk"},"type":"Feature","geometry":null},{"properties":{"latitude":null,"region":"Central","district":"Awutu Senya","facilityname":"Ofadaa CHPS","type":"CHPS","ownership":"Government","town":"Ofadaa","longitude":null,"id":"aaknmzssh5vx"},"type":"Feature","geometry":null},{"properties":{"latitude":null,"region":"Central","district":"Awutu Senya","facilityname":"Okwampa CHPS","type":"CHPS","ownership":"Government","town":"Okwampa","longitude":null,"id":"aaknn00s3jdy"},"type":"Feature","geometry":null},{"properties":{"latitude":null,"region":"Central","district":"Awutu Senya","facilityname":"Opeikuma CHPS","type":"CHPS","ownership":"Government","town":"Opeikuma","longitude":null,"id":"aaknmzm7g7gj"},"type":"Feature","geometry":null},{"properties":{"latitude":null,"region":"Central","district":"Awutu Senya","facilityname":"Papaase CHPS","type":"CHPS","ownership":"Government","town":"Papaase","longitude":null,"id":"aaknmztn49os"},"type":"Feature","geometry":null},{"properties":{"latitude":null,"region":"Central","district":"Awutu Senya","facilityname":"Tawiakwa CHPS","type":"CHPS","ownership":"Government","town":"Tawiakwa","longitude":null,"id":"aaknn00bqiej"},"type":"Feature","geometry":null},{"properties":{"latitude":5.12117,"region":"Central","district":"Cape Coast Metropolitan","facilityname":"Ekon CHPS","type":"CHPS","ownership":"Government","town":"Ekon","longitude":-1.2709,"id":"aaknmzzbhswd"},"type":"Feature","geometry":{"type":"Point","coordinates":[-1.2709,5.12117]}},{"properties":{"latitude":5.11075,"region":"Central","district":"Cape Coast Metropolitan","facilityname":"Brimsu CHPS","type":"CHPS","ownership":"Government","town":"Brimsu","longitude":-1.18226,"id":"aaknmznzj4h1"},"type":"Feature","geometry":{"type":"Point","coordinates":[-1.18226,5.11075]}},{"properties":{"latitude":5.06669,"region":"Central","district":"Cape Coast Metropolitan","facilityname":"Brofoyedu CHPS","type":"CHPS","ownership":"Government","town":"Brofoyedu","longitude":-1.14021,"id":"aaknmzxniqwz"},"type":"Feature","geometry":{"type":"Point","coordinates":[-1.14021,5.06669]}},{"properties":{"latitude":5.08409,"region":"Central","district":"Cape Coast Metropolitan","facilityname":"Nkanfoa CHPS","type":"CHPS","ownership":"Government","town":"Nkanfoa","longitude":-1.14648,"id":"aaknmzti7wdd"},"type":"Feature","geometry":{"type":"Point","coordinates":[-1.14648,5.08409]}},{"properties":{"latitude":5.23474,"region":"Central","district":"Efutu Municipal","facilityname":"Gyangyanadze CHPS","type":"CHPS","ownership":"Government","town":"Gyangyanadze","longitude":-0.34361,"id":"aaknmzpl3dio"},"type":"Feature","geometry":{"type":"Point","coordinates":[-0.34361,5.23474]}},{"properties":{"latitude":5.42147,"region":"Central","district":"Gomoa East","facilityname":"Fetteh CHPS","type":"CHPS","ownership":"Government","town":"Fetteh","longitude":-0.46725,"id":"aaknmzqpkbd6"},"type":"Feature","geometry":{"type":"Point","coordinates":[-0.46725,5.42147]}},{"properties":{"latitude":5.31811,"region":"Central","district":"Gomoa East","facilityname":"Wansima Memorial CHPS","type":"CHPS","ownership":"Government","town":"Mankoadze","longitude":-0.68595,"id":"aaknn00fegng"},"type":"Feature","geometry":{"type":"Point","coordinates":[-0.68595,5.31811]}},{"properties":{"latitude":null,"region":"Central","district":"Gomoa East","facilityname":"Abasa CHPS","type":"CHPS","ownership":"Government","town":"Abasa","longitude":null,"id":"aaknmzqs06xy"},"type":"Feature","geometry":null},{"properties":{"latitude":null,"region":"Central","district":"Gomoa East","facilityname":"Dasum CHPS","type":"CHPS","ownership":"Government","town":"Dasum","longitude":null,"id":"aaknmzm2qxgc"},"type":"Feature","geometry":null},{"properties":{"latitude":null,"region":"Central","district":"Gomoa East","facilityname":"Ekwemkrom CHPS","type":"CHPS","ownership":"Government","town":"Ekwemkrom","longitude":null,"id":"aaknmzv4u4c4"},"type":"Feature","geometry":null},{"properties":{"latitude":5.35125,"region":"Central","district":"Gomoa West","facilityname":"Ngyiresi CHPS","type":"CHPS","ownership":"Government","town":"Ngyiresi","longitude":-0.84368,"id":"aaknmzse8mje"},"type":"Feature","geometry":{"type":"Point","coordinates":[-0.84368,5.35125]}},{"properties":{"latitude":null,"region":"Central","district":"Gomoa West","facilityname":"Assin CPHS","type":"CHPS","ownership":"Government","town":"Assin","longitude":null,"id":"aaknn01r10cg"},"type":"Feature","geometry":null},{"properties":{"latitude":null,"region":"Central","district":"Gomoa West","facilityname":"Brofo CHPS","type":"CHPS","ownership":"Government","town":"Brofo","longitude":null,"id":"aaknmzpgzty2"},"type":"Feature","geometry":null},{"properties":{"latitude":null,"region":"Central","district":"Gomoa West","facilityname":"Eshiem CHPS","type":"CHPS","ownership":"Government","town":"Eshiem","longitude":null,"id":"aaknn015b6so"},"type":"Feature","geometry":null},{"properties":{"latitude":null,"region":"Central","district":"Gomoa West","facilityname":"Fomena CHPS","type":"CHPS","ownership":"Government","town":"Fomena","longitude":null,"id":"aaknmzt66kwt"},"type":"Feature","geometry":null},{"properties":{"latitude":null,"region":"Central","district":"Gomoa West","facilityname":"Sampa CHPS","type":"CHPS","ownership":"Government","town":"Sampa","longitude":null,"id":"aaknmzo3juy2"},"type":"Feature","geometry":null},{"properties":{"latitude":null,"region":"Central","district":"Gomoa West","facilityname":"Tarkwa CHPS","type":"CHPS","ownership":"Government","town":"Tarkwa","longitude":null,"id":"aaknmzwvr8gm"},"type":"Feature","geometry":null},{"properties":{"latitude":5.11335,"region":"Central","district":"Komenda-Edina-Eguafo-Abirem Municipal","facilityname":"Atonkwa CHPS","type":"CHPS","ownership":"Government","town":"Atonkwa","longitude":-1.32509,"id":"aaknmzx2e6h6"},"type":"Feature","geometry":{"type":"Point","coordinates":[-1.32509,5.11335]}},{"properties":{"latitude":5.0785,"region":"Central","district":"Komenda-Edina-Eguafo-Abirem Municipal","facilityname":"Aburansa CHPS","type":"CHPS","ownership":"Government","town":"Aburansa","longitude":-1.54259,"id":"aaknmzul43zv"},"type":"Feature","geometry":{"type":"Point","coordinates":[-1.54259,5.0785]}},{"properties":{"latitude":5.1171,"region":"Central","district":"Komenda-Edina-Eguafo-Abirem Municipal","facilityname":"Benyadze CHPS","type":"CHPS","ownership":"Government","town":"Benyadze","longitude":-1.44572,"id":"aaknmzm9ata4"},"type":"Feature","geometry":{"type":"Point","coordinates":[-1.44572,5.1171]}},{"properties":{"latitude":5.15486,"region":"Central","district":"Komenda-Edina-Eguafo-Abirem Municipal","facilityname":"Antseamboa CHPS","type":"CHPS","ownership":"Government","town":"Antseamboa","longitude":-1.57947,"id":"aaknmzwqb8cv"},"type":"Feature","geometry":{"type":"Point","coordinates":[-1.57947,5.15486]}},{"properties":{"latitude":null,"region":"Central","district":"Komenda-Edina-Eguafo-Abirem Municipal","facilityname":"Abeyee CHPS","type":"CHPS","ownership":"Government","town":"Abeyee","longitude":null,"id":"aaknmzo2m8nm"},"type":"Feature","geometry":null},{"properties":{"latitude":null,"region":"Central","district":"Komenda-Edina-Eguafo-Abirem Municipal","facilityname":"Berase CHPS","type":"CHPS","ownership":"Government","town":"Berase","longitude":null,"id":"aaknmzxldwpr"},"type":"Feature","geometry":null},{"properties":{"latitude":null,"region":"Central","district":"Komenda-Edina-Eguafo-Abirem Municipal","facilityname":"S.A.P CHPS","type":"CHPS","ownership":"Government","town":null,"longitude":null,"id":"aaknmzvra5bq"},"type":"Feature","geometry":null},{"properties":{"latitude":6.99057,"region":"Eastern","district":"Kwahu North","facilityname":"Samanhyia CHPS","type":"CHPS","ownership":"Government","town":"Samanhyia","longitude":-0.16728,"id":"aaknmzyr2etc"},"type":"Feature","geometry":{"type":"Point","coordinates":[-0.16728,6.99057]}},{"properties":{"latitude":6.933,"region":"Eastern","district":"Kwahu North","facilityname":"Memchemfre CHPS","type":"CHPS","ownership":"Government","town":"Donkorkrom","longitude":-0.02507,"id":"aaknmzmq1d2d"},"type":"Feature","geometry":{"type":"Point","coordinates":[-0.02507,6.933]}},{"properties":{"latitude":6.95264,"region":"Eastern","district":"Kwahu North","facilityname":"Maame Krobo CHPS","type":"CHPS","ownership":"Government","town":"Maame Krobo","longitude":-0.43709,"id":"aaknmzpazcxj"},"type":"Feature","geometry":{"type":"Point","coordinates":[-0.43709,6.95264]}},{"properties":{"latitude":5.91265,"region":"Eastern","district":"Akwapim North","facilityname":"Tadankro CHPS","type":"CHPS","ownership":"Government","town":"Tadankro","longitude":-0.19193,"id":"aaknmztyaitb"},"type":"Feature","geometry":{"type":"Point","coordinates":[-0.19193,5.91265]}},{"properties":{"latitude":6.04426,"region":"Eastern","district":"Akwapim North","facilityname":"Twum Guaso CHPS","type":"CHPS","ownership":"Government","town":"Twum Guaso","longitude":-0.16591,"id":"aaknn020wa2s"},"type":"Feature","geometry":{"type":"Point","coordinates":[-0.16591,6.04426]}},{"properties":{"latitude":6.06602,"region":"Eastern","district":"Akwapim North","facilityname":"Nanabanyin CHPS","type":"CHPS","ownership":"Government","town":"Nanabanyin","longitude":-0.19906,"id":"aaknmzxcy2wc"},"type":"Feature","geometry":{"type":"Point","coordinates":[-0.19906,6.06602]}},{"properties":{"latitude":5.85856,"region":"Eastern","district":"Akwapim South","facilityname":"Obothebire CHPS","type":"CHPS","ownership":"Government","town":"Obothebire","longitude":-0.2819,"id":"aaknmzzz6z5s"},"type":"Feature","geometry":{"type":"Point","coordinates":[-0.2819,5.85856]}},{"properties":{"latitude":6.471933,"region":"Eastern","district":"Asuogyamang","facilityname":"Kodikofe CHPS","type":"CHPS","ownership":"Government","town":"Kodikofe","longitude":0.07365,"id":"aaknmzs5tqhv"},"type":"Feature","geometry":{"type":"Point","coordinates":[0.07365,6.471933]}},{"properties":{"latitude":6.50822,"region":"Eastern","district":"Birim North","facilityname":"Pankese CHPS","type":"CHPS","ownership":"Government","town":"Pankese","longitude":-0.84364,"id":"aaknmzydjysm"},"type":"Feature","geometry":{"type":"Point","coordinates":[-0.84364,6.50822]}},{"properties":{"latitude":6.06813,"region":"Eastern","district":"Birim North","facilityname":"Mukyia CHPS","type":"CHPS","ownership":"Government","town":"Mukyia","longitude":-1.05244,"id":"aaknmzr6nw6h"},"type":"Feature","geometry":{"type":"Point","coordinates":[-1.05244,6.06813]}},{"properties":{"latitude":6.19017,"region":"Eastern","district":"Birim North","facilityname":"Adwafo CHPS","type":"CHPS","ownership":"Government","town":"Adwafo","longitude":-1.05225,"id":"aaknmzngm4d1"},"type":"Feature","geometry":{"type":"Point","coordinates":[-1.05225,6.19017]}},{"properties":{"latitude":6.053033,"region":"Eastern","district":"Birim North","facilityname":"Adubease CHPS","type":"CHPS","ownership":"Government","town":"Adubease","longitude":-1.1652,"id":"aaknmzz68jmu"},"type":"Feature","geometry":{"type":"Point","coordinates":[-1.1652,6.053033]}},{"properties":{"latitude":5.95915,"region":"Eastern","district":"Birim North","facilityname":"Adjobue CHPS","type":"CHPS","ownership":"Government","town":"Adjobue","longitude":-1.077867,"id":"aaknmztoh64y"},"type":"Feature","geometry":{"type":"Point","coordinates":[-1.077867,5.95915]}},{"properties":{"latitude":6.26602,"region":"Eastern","district":"Birim North","facilityname":"Nkwateng CHPS","type":"CHPS","ownership":"Government","town":"Nkwateng","longitude":-1.07232,"id":"aaknmzx9lah3"},"type":"Feature","geometry":{"type":"Point","coordinates":[-1.07232,6.26602]}},{"properties":{"latitude":6.34855,"region":"Eastern","district":"Birim North","facilityname":"Adausena CHPS","type":"CHPS","ownership":"Government","town":"Adausena","longitude":-1.0531,"id":"aaknn01bqsho"},"type":"Feature","geometry":{"type":"Point","coordinates":[-1.0531,6.34855]}},{"properties":{"latitude":5.86641,"region":"Eastern","district":"Birim south","facilityname":"Akotekrom CHPS","type":"CHPS","ownership":"Government","town":"Akotekrom","longitude":-1.15476,"id":"aaknmzyrt90j"},"type":"Feature","geometry":{"type":"Point","coordinates":[-1.15476,5.86641]}},{"properties":{"latitude":6.017517,"region":"Eastern","district":"Birim south","facilityname":"Essam CHPS","type":"CHPS","ownership":"Government","town":"Assam","longitude":-0.977433,"id":"aaknmzzisf1x"},"type":"Feature","geometry":{"type":"Point","coordinates":[-0.977433,6.017517]}},{"properties":{"latitude":5.86613,"region":"Eastern","district":"Birim south","facilityname":"Manso CHPS","type":"CHPS","ownership":"Government","town":"Manso","longitude":-0.87171,"id":"aaknmzxgkj88"},"type":"Feature","geometry":{"type":"Point","coordinates":[-0.87171,5.86613]}},{"properties":{"latitude":5.98137,"region":"Eastern","district":"Birim south","facilityname":"Oda Nkwanta CHPS","type":"CHPS","ownership":"Government","town":"Oda Nkwanta","longitude":-1.0152,"id":"aaknmzv0cjs0"},"type":"Feature","geometry":{"type":"Point","coordinates":[-1.0152,5.98137]}},{"properties":{"latitude":5.94472,"region":"Eastern","district":"Birim south","facilityname":"Apoli CHPS","type":"CHPS","ownership":"Government","town":"Apoli","longitude":-1.15134,"id":"aaknmzssbkxr"},"type":"Feature","geometry":{"type":"Point","coordinates":[-1.15134,5.94472]}},{"properties":{"latitude":6.148033,"region":"Eastern","district":"East Akim","facilityname":"Apapam CHPS","type":"CHPS","ownership":"Government","town":"Apapam","longitude":-0.596017,"id":"aaknmzw6qtcu"},"type":"Feature","geometry":{"type":"Point","coordinates":[-0.596017,6.148033]}},{"properties":{"latitude":6.066933,"region":"Eastern","district":"East Akim","facilityname":"Kwasi Komfo CHPS","type":"CHPS","ownership":"Government","town":"Kwasi Komfo","longitude":-0.550117,"id":"aaknn00pvqfs"},"type":"Feature","geometry":{"type":"Point","coordinates":[-0.550117,6.066933]}},{"properties":{"latitude":6.10567,"region":"Eastern","district":"East Akim","facilityname":"Amanfrom CHPS","type":"CHPS","ownership":"Government","town":"Amanfrom","longitude":-0.51909,"id":"aaknmzlsjwg4"},"type":"Feature","geometry":{"type":"Point","coordinates":[-0.51909,6.10567]}},{"properties":{"latitude":6.165933,"region":"Eastern","district":"East Akim","facilityname":"Bomponso CHPS","type":"CHPS","ownership":"Government","town":"Bomponso","longitude":-0.392917,"id":"aaknmznxh9yr"},"type":"Feature","geometry":{"type":"Point","coordinates":[-0.392917,6.165933]}},{"properties":{"latitude":6.42889,"region":"Eastern","district":"Fanteakwa","facilityname":"Nkankama CHPS","type":"CHPS","ownership":"Government","town":"Nkankama","longitude":-0.28631,"id":"aaknn00xmdi1"},"type":"Feature","geometry":{"type":"Point","coordinates":[-0.28631,6.42889]}},{"properties":{"latitude":6.32685,"region":"Eastern","district":"Fanteakwa","facilityname":"Ehiamenkyene CHPS","type":"CHPS","ownership":"Government","town":"Ehiamenkyene","longitude":-0.32031,"id":"aaknmzq4vjuu"},"type":"Feature","geometry":{"type":"Point","coordinates":[-0.32031,6.32685]}},{"properties":{"latitude":6.36889,"region":"Eastern","district":"Fanteakwa","facilityname":"Dwenease CHPS","type":"CHPS","ownership":"Government","town":"Dwenease","longitude":-0.46974,"id":"aaknmzz6jf0o"},"type":"Feature","geometry":{"type":"Point","coordinates":[-0.46974,6.36889]}},{"properties":{"latitude":6.05531,"region":"Eastern","district":"Kwaebibirem","facilityname":"Topremang CHPS","type":"CHPS","ownership":"Government","town":"Topremang","longitude":-0.76602,"id":"aaknn00kaklw"},"type":"Feature","geometry":{"type":"Point","coordinates":[-0.76602,6.05531]}},{"properties":{"latitude":6.354933,"region":"Eastern","district":"Kwaebibirem","facilityname":"Larbikrom CHPS","type":"CHPS","ownership":"Government","town":"Larbikom","longitude":-0.95565,"id":"aaknmzyh76e8"},"type":"Feature","geometry":{"type":"Point","coordinates":[-0.95565,6.354933]}},{"properties":{"latitude":6.0531,"region":"Eastern","district":"Kwaebibirem","facilityname":"Boadua CHPS","type":"CHPS","ownership":"Government","town":"Boadua","longitude":-0.79554,"id":"aaknmzu5mj7z"},"type":"Feature","geometry":{"type":"Point","coordinates":[-0.79554,6.0531]}},{"properties":{"latitude":6.12206,"region":"Eastern","district":"Kwaebibirem","facilityname":"Okumaning CHPS","type":"CHPS","ownership":"Government","town":"Okumaning","longitude":-0.91024,"id":"aaknmzycifbz"},"type":"Feature","geometry":{"type":"Point","coordinates":[-0.91024,6.12206]}},{"properties":{"latitude":6.21626,"region":"Eastern","district":"Kwaebibirem","facilityname":"Okyenso CHPS","type":"CHPS","ownership":"Government","town":"Okyenso","longitude":-0.78878,"id":"aaknmzrpng2h"},"type":"Feature","geometry":{"type":"Point","coordinates":[-0.78878,6.21626]}},{"properties":{"latitude":6.65979,"region":"Eastern","district":"Kwahu South","facilityname":"Atuobikrom CHPS","type":"CHPS","ownership":"Government","town":"Atuobikrom","longitude":-0.87424,"id":"aaknmzz9espq"},"type":"Feature","geometry":{"type":"Point","coordinates":[-0.87424,6.65979]}},{"properties":{"latitude":6.273417,"region":"Eastern","district":"Kwahu South","facilityname":"Awueregya CHPS","type":"CHPS","ownership":"Government","town":"Awueregya","longitude":-0.993,"id":"aaknmzu7bkkv"},"type":"Feature","geometry":{"type":"Point","coordinates":[-0.993,6.273417]}},{"properties":{"latitude":6.273433,"region":"Eastern","district":"Kwahu South","facilityname":"Onyemso CHPS","type":"CHPS","ownership":"Government","town":"Onyemso","longitude":-0.992933,"id":"aaknn00z5g7i"},"type":"Feature","geometry":{"type":"Point","coordinates":[-0.992933,6.273433]}},{"properties":{"latitude":6.06654,"region":"Eastern","district":"New Juaben","facilityname":"Agavenya CHPS","type":"CHPS","ownership":"Government","town":"Agavenya","longitude":-0.22389,"id":"aaknmzydsj5p"},"type":"Feature","geometry":{"type":"Point","coordinates":[-0.22389,6.06654]}},{"properties":{"latitude":6.1153,"region":"Eastern","district":"New Juaben","facilityname":"Magazine CHPS","type":"CHPS","ownership":"Government","town":"Magazine","longitude":-0.242817,"id":"aaknmzlu7dp7"},"type":"Feature","geometry":{"type":"Point","coordinates":[-0.242817,6.1153]}},{"properties":{"latitude":6.10274,"region":"Eastern","district":"Suhum Kraboa Coaltar","facilityname":"Obomofodensua CHPS","type":"CHPS","ownership":"Government","town":"Obomofedensua","longitude":-0.41246,"id":"aaknmztuzpz9"},"type":"Feature","geometry":{"type":"Point","coordinates":[-0.41246,6.10274]}},{"properties":{"latitude":5.77284,"region":"Eastern","district":"West Akim","facilityname":"Akim Bremang CHPS","type":"CHPS","ownership":"Government","town":"Akim Bremang","longitude":-0.60866,"id":"aaknn00x3v76"},"type":"Feature","geometry":{"type":"Point","coordinates":[-0.60866,5.77284]}},{"properties":{"latitude":5.77744,"region":"Eastern","district":"West Akim","facilityname":"Asikasu CHPS","type":"CHPS","ownership":"Government","town":"Asikasu","longitude":-0.56414,"id":"aaknmzu4t1el"},"type":"Feature","geometry":{"type":"Point","coordinates":[-0.56414,5.77744]}},{"properties":{"latitude":6.21998,"region":"Eastern","district":"Yilo Krobo","facilityname":"Opersika CHPS","type":"CHPS","ownership":"Government","town":"Opesika","longitude":-0.24578,"id":"aaknmzrwau3n"},"type":"Feature","geometry":{"type":"Point","coordinates":[-0.24578,6.21998]}},{"properties":{"latitude":6.27706,"region":"Eastern","district":"Yilo Krobo","facilityname":"Nsutapong CHPS","type":"CHPS","ownership":"Government","town":"Nsutapong","longitude":-0.27617,"id":"aaknmzz7djl9"},"type":"Feature","geometry":{"type":"Point","coordinates":[-0.27617,6.27706]}},{"properties":{"latitude":null,"region":"Eastern","district":"Kwahu North","facilityname":"Ntonaboma CHPS","type":"CHPS","ownership":"Government","town":"Ntonaboma","longitude":null,"id":"aaknmzzp029m"},"type":"Feature","geometry":null},{"properties":{"latitude":null,"region":"Eastern","district":"Kwahu North","facilityname":"Island CHPS","type":"CHPS","ownership":"Government","town":"Island","longitude":null,"id":"aaknn010qi21"},"type":"Feature","geometry":null},{"properties":{"latitude":null,"region":"Eastern","district":"Kwahu North","facilityname":"Bruben CHPS","type":"CHPS","ownership":"Government","town":"Bruben","longitude":null,"id":"aaknmzniehom"},"type":"Feature","geometry":null},{"properties":{"latitude":null,"region":"Eastern","district":"Kwahu North","facilityname":"Ekye Island CHPS","type":"CHPS","ownership":"Government","town":"Ekye Island","longitude":null,"id":"aaknmzpb5hv7"},"type":"Feature","geometry":null},{"properties":{"latitude":null,"region":"Eastern","district":"Upper Manya","facilityname":"Sisiamang Yiti CHPS","type":"CHPS","ownership":"Government","town":"Sisiamang Yiti","longitude":null,"id":"aaknmzq7fhym"},"type":"Feature","geometry":null},{"properties":{"latitude":null,"region":"Eastern","district":"Asuogyamang","facilityname":"Old Akrade CHPS","type":"CHPS","ownership":"Government","town":"Old Akrade","longitude":null,"id":"aaknn007tlgz"},"type":"Feature","geometry":null},{"properties":{"latitude":null,"region":"Eastern","district":"Asuogyamang","facilityname":"Tortibo CHPS","type":"CHPS","ownership":"Government","town":"Tortibo","longitude":null,"id":"aaknmzpnu88k"},"type":"Feature","geometry":null},{"properties":{"latitude":null,"region":"Eastern","district":"Asuogyamang","facilityname":"Ayensu CHPS","type":"CHPS","ownership":"Government","town":"Ayensu","longitude":null,"id":"aaknmzu1b6l2"},"type":"Feature","geometry":null},{"properties":{"latitude":null,"region":"Eastern","district":"Asuogyamang","facilityname":"Osiabura CHPS","type":"CHPS","ownership":"Government","town":"Osiabura","longitude":null,"id":"aaknmzud2xl4"},"type":"Feature","geometry":null},{"properties":{"latitude":null,"region":"Eastern","district":"Asuogyamang","facilityname":"Dodi Asantekrom CHPS","type":"CHPS","ownership":"Government","town":"Dodi Asantekrom","longitude":null,"id":"aaknmzr0rebg"},"type":"Feature","geometry":null},{"properties":{"latitude":null,"region":"Eastern","district":"Asuogyamang","facilityname":"New Dodi CHPS","type":"CHPS","ownership":"Government","town":"New Dodi","longitude":null,"id":"aaknn015gh4i"},"type":"Feature","geometry":null},{"properties":{"latitude":null,"region":"Eastern","district":"Asuogyamang","facilityname":"Sappor CHPS","type":"CHPS","ownership":"Government","town":"Sappor","longitude":null,"id":"aaknmzzt6akz"},"type":"Feature","geometry":null},{"properties":{"latitude":null,"region":"Eastern","district":"Asuogyamang","facilityname":"Sedom CHPS","type":"CHPS","ownership":"Government","town":"Sedorm","longitude":null,"id":"aaknmzr4t4ah"},"type":"Feature","geometry":null},{"properties":{"latitude":null,"region":"Eastern","district":"Birim North","facilityname":"Abenase CHPS","type":"CHPS","ownership":"Government","town":"Abenase","longitude":null,"id":"aaknmzvql2zv"},"type":"Feature","geometry":null},{"properties":{"latitude":null,"region":"Eastern","district":"Kweabibirem","facilityname":"No.4 CHPS","type":"CHPS","ownership":"Government","town":"No.4","longitude":null,"id":"aaknmzzhq1gw"},"type":"Feature","geometry":null},{"properties":{"latitude":null,"region":"Eastern","district":"Kweabibirem","facilityname":"Kusi CHPS","type":"CHPS","ownership":"Government","town":"Kusi","longitude":null,"id":"aaknmzypqrlm"},"type":"Feature","geometry":null},{"properties":{"latitude":null,"region":"Eastern","district":"Kweabibirem","facilityname":"Kwatanang CHPS","type":"CHPS","ownership":"Government","town":"Kwatanang","longitude":null,"id":"aaknmzrhsk99"},"type":"Feature","geometry":null},{"properties":{"latitude":null,"region":"Eastern","district":"Kweabibirem","facilityname":"Soabe CHPS","type":"CHPS","ownership":"Government","town":"Soabe","longitude":null,"id":"aaknmzrxqvnk"},"type":"Feature","geometry":null},{"properties":{"latitude":null,"region":"Eastern","district":"Kweabibirem","facilityname":"Abenaso CHPS","type":"CHPS","ownership":"Government","town":"Abenaso","longitude":null,"id":"aaknmzm1qf18"},"type":"Feature","geometry":null},{"properties":{"latitude":null,"region":"Eastern","district":"Kweabibirem","facilityname":"Kwamang CHPS","type":"CHPS","ownership":"Government","town":"Kwamang","longitude":null,"id":"aaknmzyy9c73"},"type":"Feature","geometry":null},{"properties":{"latitude":null,"region":"Eastern","district":"Kweabibirem","facilityname":"Kwae CHPS","type":"CHPS","ownership":"Government","town":"Kwae","longitude":null,"id":"aaknn01ht8cx"},"type":"Feature","geometry":null},{"properties":{"latitude":null,"region":"Eastern","district":"Kweabibirem","facilityname":"Abompe CHPS","type":"CHPS","ownership":"Government","town":"Abompe","longitude":null,"id":"aaknmzpetdx3"},"type":"Feature","geometry":null},{"properties":{"latitude":null,"region":"Eastern","district":"Kweabibirem","facilityname":"James Town CHPS","type":"CHPS","ownership":"Government","town":"James Town","longitude":null,"id":"aaknmznw8628"},"type":"Feature","geometry":null},{"properties":{"latitude":null,"region":"Eastern","district":"Kweabibirem","facilityname":"Anweam CHPS","type":"CHPS","ownership":"Government","town":"Anweam","longitude":null,"id":"aaknmztbifwb"},"type":"Feature","geometry":null},{"properties":{"latitude":null,"region":"Eastern","district":"Yilo Krobo","facilityname":"Wurapong CHPS","type":"CHPS","ownership":"Government","town":"Wurapong","longitude":null,"id":"aaknmzvym1w7"},"type":"Feature","geometry":null},{"properties":{"latitude":null,"region":"Eastern","district":"Yilo Krobo","facilityname":"Akpamu CHPS","type":"CHPS","ownership":"Government","town":"Akpamu","longitude":null,"id":"aaknmzv6tepb"},"type":"Feature","geometry":null},{"properties":{"latitude":null,"region":"Eastern","district":"Yilo Krobo","facilityname":"Ahinkwa CHPS","type":"CHPS","ownership":"Government","town":"Ahinkwa","longitude":null,"id":"aaknmzpu9cn6"},"type":"Feature","geometry":null},{"properties":{"latitude":null,"region":"Eastern","district":"Yilo Krobo","facilityname":"Ponponya CHPS","type":"CHPS","ownership":"Government","town":"Ponponya","longitude":null,"id":"aaknmzvt37d3"},"type":"Feature","geometry":null},{"properties":{"latitude":null,"region":"Eastern","district":"Yilo Krobo","facilityname":"Obenyemi CHPS","type":"CHPS","ownership":"Government","town":"Obenyemi","longitude":null,"id":"aaknmzv97ifo"},"type":"Feature","geometry":null},{"properties":{"latitude":null,"region":"Eastern","district":"New Juaben Municipal","facilityname":"Asikasu CHPS","type":"CHPS","ownership":"Government","town":"Asikasu","longitude":null,"id":"aaknmzuvzudg"},"type":"Feature","geometry":null},{"properties":{"latitude":null,"region":"Eastern","district":"New Juaben Municipal","facilityname":"Kentenkye CHPS","type":"CHPS","ownership":"Government","town":"Kentenkye","longitude":null,"id":"aaknmzum5bcg"},"type":"Feature","geometry":null},{"properties":{"latitude":null,"region":"Eastern","district":"New Juaben Municipal","facilityname":"Debrakrom CHPS","type":"CHPS","ownership":"Government","town":"Debrakrom","longitude":null,"id":"aaknmzo5efmo"},"type":"Feature","geometry":null},{"properties":{"latitude":null,"region":"Eastern","district":"New Juaben Municipal","facilityname":"Social Welfare CHPS","type":"CHPS","ownership":"Government","town":"Koforidua","longitude":null,"id":"aaknmzv6u79i"},"type":"Feature","geometry":null},{"properties":{"latitude":null,"region":"Eastern","district":"New Juaben Municipal","facilityname":"Nyamekrom CHPS","type":"CHPS","ownership":"Government","town":"Nyamekrom","longitude":null,"id":"aaknn017zk89"},"type":"Feature","geometry":null},{"properties":{"latitude":null,"region":"Eastern","district":"New Juaben Municipal","facilityname":"Abotanso CHPS","type":"CHPS","ownership":"Government","town":"Abotanso","longitude":null,"id":"aaknmzr9k3rq"},"type":"Feature","geometry":null},{"properties":{"latitude":null,"region":"Eastern","district":"New Juaben Municipal","facilityname":"Ohema Park CHPS","type":"CHPS","ownership":"Government","town":"Koforidua","longitude":null,"id":"aaknmzp8hg4t"},"type":"Feature","geometry":null},{"properties":{"latitude":null,"region":"Eastern","district":"New Juaben Municipal","facilityname":"Betom CHPS","type":"CHPS","ownership":"Government","town":"Betom","longitude":null,"id":"aaknmzykj8fy"},"type":"Feature","geometry":null},{"properties":{"latitude":null,"region":"Eastern","district":"New Juaben Municipal","facilityname":"Atekyem CPS","type":"CHPS","ownership":"Government","town":"Atekyem","longitude":null,"id":"aaknn01t8sgk"},"type":"Feature","geometry":null},{"properties":{"latitude":null,"region":"Eastern","district":"Suhum Kraboa Coaltar","facilityname":"Koransang CHPS","type":"CHPS","ownership":"Government","town":"Koransang","longitude":null,"id":"aaknmzqdb2s4"},"type":"Feature","geometry":null},{"properties":{"latitude":null,"region":"Eastern","district":"Suhum Kraboa Coaltar","facilityname":"Kukua CHPS","type":"CHPS","ownership":"Government","town":"Kukua","longitude":null,"id":"aaknmzugtmgp"},"type":"Feature","geometry":null},{"properties":{"latitude":null,"region":"Eastern","district":"Suhum Kraboa Coaltar","facilityname":"Mfranta CHPS","type":"CHPS","ownership":"Government","town":"Mfranta","longitude":null,"id":"aaknmzo26g30"},"type":"Feature","geometry":null},{"properties":{"latitude":null,"region":"Eastern","district":"Suhum Kraboa Coaltar","facilityname":"Teachermante CHPS","type":"CHPS","ownership":"Government","town":"Teachermante","longitude":null,"id":"aaknmzmmquzu"},"type":"Feature","geometry":null},{"properties":{"latitude":null,"region":"Eastern","district":"Suhum Kraboa Coaltar","facilityname":"Doudukrom CHPS","type":"CHPS","ownership":"Government","town":"Doudukrom","longitude":null,"id":"aaknmzpbpuz4"},"type":"Feature","geometry":null},{"properties":{"latitude":null,"region":"Eastern","district":"Suhum Kraboa Coaltar","facilityname":"Otoase  CHPS","type":"CHPS","ownership":"Government","town":"Otoase","longitude":null,"id":"aaknmzouzsht"},"type":"Feature","geometry":null},{"properties":{"latitude":null,"region":"Eastern","district":"Suhum Kraboa Coaltar","facilityname":"Bepoase CHPS","type":"CHPS","ownership":"Government","town":"Bepoase","longitude":null,"id":"aaknmzqbs6y9"},"type":"Feature","geometry":null},{"properties":{"latitude":null,"region":"Eastern","district":"Suhum Kraboa Coaltar","facilityname":"Akote CHPS","type":"CHPS","ownership":"Government","town":"Akote","longitude":null,"id":"aaknmzq52yjl"},"type":"Feature","geometry":null},{"properties":{"latitude":null,"region":"Eastern","district":"Suhum Kraboa Coaltar","facilityname":"Aponoapono CHPS","type":"CHPS","ownership":"Government","town":"Aponoapono","longitude":null,"id":"aaknmzpqk9jf"},"type":"Feature","geometry":null},{"properties":{"latitude":null,"region":"Eastern","district":"Suhum Kraboa Coaltar","facilityname":"Godziase CHPS","type":"CHPS","ownership":"Government","town":"Godziase","longitude":null,"id":"aaknmzto92v5"},"type":"Feature","geometry":null},{"properties":{"latitude":null,"region":"Eastern","district":"Suhum Kraboa Coaltar","facilityname":"Obretema CHPS","type":"CHPS","ownership":"Government","town":"Obretema","longitude":null,"id":"aaknmzv2tqaf"},"type":"Feature","geometry":null},{"properties":{"latitude":5.83471,"region":"Greater Accra","district":"Dangme West","facilityname":"Nyigbenya Clinic","type":"CHPS","ownership":"Government","town":"Nugbenya","longitude":0.21885,"id":"aaknmztyy9af"},"type":"Feature","geometry":{"type":"Point","coordinates":[0.21885,5.83471]}},{"properties":{"latitude":null,"region":"Greater Accra","district":"Ga East","facilityname":"Taifa CHPS","type":"CHPS","ownership":"Government","town":"Taifa","longitude":null,"id":"aaknmzr1fypk"},"type":"Feature","geometry":null},{"properties":{"latitude":8.35314,"region":"Northern","district":"Bole","facilityname":"Banda-Nkwanta CHPS","type":"CHPS","ownership":"Government","town":"Banda-Nkwanta","longitude":-2.13659,"id":"aaknmzp3ztp6"},"type":"Feature","geometry":{"type":"Point","coordinates":[-2.13659,8.35314]}},{"properties":{"latitude":9.26426,"region":"Northern","district":"Central Gonja","facilityname":"Sankpala CHPS","type":"CHPS","ownership":"Government","town":"Sankpala","longitude":-1.00502,"id":"aaknmzuhkxfb"},"type":"Feature","geometry":{"type":"Point","coordinates":[-1.00502,9.26426]}},{"properties":{"latitude":9.23357,"region":"Northern","district":"East Gonja","facilityname":"Jantong CHPS","type":"CHPS","ownership":"Government","town":"Jantong","longitude":-0.40115,"id":"aaknmzmo6i34"},"type":"Feature","geometry":{"type":"Point","coordinates":[-0.40115,9.23357]}},{"properties":{"latitude":8.73741,"region":"Northern","district":"East Gonja","facilityname":"Bunjai CHPS","type":"CHPS","ownership":"Government","town":"Bunjai","longitude":-0.50597,"id":"aaknmzmdrnzm"},"type":"Feature","geometry":{"type":"Point","coordinates":[-0.50597,8.73741]}},{"properties":{"latitude":10.33391,"region":"Northern","district":"East Mamprusi","facilityname":"Wundua CHPS","type":"CHPS","ownership":"Government","town":"Wundua","longitude":-0.53381,"id":"aaknmzo102wg"},"type":"Feature","geometry":{"type":"Point","coordinates":[-0.53381,10.33391]}},{"properties":{"latitude":10.162,"region":"Northern","district":"Gushegu","facilityname":"Katani CHPS","type":"CHPS","ownership":"Government","town":"Katani","longitude":-0.08459,"id":"aaknmzq4i3et"},"type":"Feature","geometry":{"type":"Point","coordinates":[-0.08459,10.162]}},{"properties":{"latitude":9.6219,"region":"Northern","district":"Gushegu","facilityname":"Zinindo CHPS","type":"CHPS","ownership":"Government","town":"Zinindo","longitude":-0.56795,"id":"aaknmzqzvjuh"},"type":"Feature","geometry":{"type":"Point","coordinates":[-0.56795,9.6219]}},{"properties":{"latitude":9.8832,"region":"Northern","district":"Karaga","facilityname":"Nyong CHPS","type":"CHPS","ownership":"Government","town":"Nyong","longitude":-0.62553,"id":"aaknmzplzcbz"},"type":"Feature","geometry":{"type":"Point","coordinates":[-0.62553,9.8832]}},{"properties":{"latitude":9.02161,"region":"Northern","district":"Nanumba North","facilityname":"Juo CHPS","type":"CHPS","ownership":"Government","town":"Juo","longitude":-0.07641,"id":"aaknmzp4gcy0"},"type":"Feature","geometry":{"type":"Point","coordinates":[-0.07641,9.02161]}},{"properties":{"latitude":8.76046,"region":"Northern","district":"Nanumba South","facilityname":"Nakpayili CHPS","type":"CHPS","ownership":"Government","town":"Nakpayili","longitude":0.05359,"id":"aaknmzqqohm5"},"type":"Feature","geometry":{"type":"Point","coordinates":[0.05359,8.76046]}},{"properties":{"latitude":8.84772,"region":"Northern","district":"Nanumba South","facilityname":"Kukuo CHPS","type":"CHPS","ownership":"Government","town":"Kukuo","longitude":0.15747,"id":"aaknmzxljfev"},"type":"Feature","geometry":{"type":"Point","coordinates":[0.15747,8.84772]}},{"properties":{"latitude":10.40056,"region":"Northern","district":"Saboba-Chereponi","facilityname":"Bunburika CHPS","type":"CHPS","ownership":"Government","town":"Bunburika","longitude":0.25425,"id":"aaknmzn2l3gg"},"type":"Feature","geometry":{"type":"Point","coordinates":[0.25425,10.40056]}},{"properties":{"latitude":10.21564,"region":"Northern","district":"Saboba-Chereponi","facilityname":"Wanjoga CHPS","type":"CHPS","ownership":"Government","town":"Wanjuga","longitude":0.33012,"id":"aaknmzp7uu7c"},"type":"Feature","geometry":{"type":"Point","coordinates":[0.33012,10.21564]}},{"properties":{"latitude":9.85065,"region":"Northern","district":"Saboba-Chereponi","facilityname":"Gbangbanpong CHPS","type":"CHPS","ownership":"Government","town":"Gbangbanpong","longitude":0.30435,"id":"aaknmzpmizu9"},"type":"Feature","geometry":{"type":"Point","coordinates":[0.30435,9.85065]}},{"properties":{"latitude":9.74152,"region":"Northern","district":"Saboba-Chereponi","facilityname":"Garinkuka CHPS","type":"CHPS","ownership":"Government","town":"Garinkuka","longitude":0.13433,"id":"aaknmzwyoyud"},"type":"Feature","geometry":{"type":"Point","coordinates":[0.13433,9.74152]}},{"properties":{"latitude":9.97998,"region":"Northern","district":"Savelugu-Nanton","facilityname":"Pigu CHPS","type":"CHPS","ownership":"Government","town":"Pigu","longitude":-0.82363,"id":"aaknmztugg7z"},"type":"Feature","geometry":{"type":"Point","coordinates":[-0.82363,9.97998]}},{"properties":{"latitude":9.46424,"region":"Northern","district":"Sawla-Tuna-Kalba","facilityname":"Soma CHPS","type":"CHPS","ownership":"Government","town":"Soma","longitude":-2.3176,"id":"aaknn01n9t0v"},"type":"Feature","geometry":{"type":"Point","coordinates":[-2.3176,9.46424]}},{"properties":{"latitude":9.69186,"region":"Northern","district":"Sawla-Tuna-Kalba","facilityname":"Kulmasa CHPS","type":"CHPS","ownership":"Government","town":"Kulmasa","longitude":-2.48805,"id":"aaknmzs8d9o0"},"type":"Feature","geometry":{"type":"Point","coordinates":[-2.48805,9.69186]}},{"properties":{"latitude":9.34043,"region":"Northern","district":"Tamale Metropolitan","facilityname":"Kotingli  CHPS","type":"CHPS","ownership":"Government","town":"Kotingli","longitude":-0.79244,"id":"aaknmzs6eypk"},"type":"Feature","geometry":{"type":"Point","coordinates":[-0.79244,9.34043]}},{"properties":{"latitude":9.73055,"region":"Northern","district":"Tolon-Kumbungu","facilityname":"Singa  CHPS","type":"CHPS","ownership":"Government","town":"Singa","longitude":-1.06267,"id":"aaknn01mkqvk"},"type":"Feature","geometry":{"type":"Point","coordinates":[-1.06267,9.73055]}},{"properties":{"latitude":9.64364,"region":"Northern","district":"Tolon-Kumbungu","facilityname":"Lingbunga CHPS","type":"CHPS","ownership":"Government","town":"Lingbinga","longitude":-1.20984,"id":"aaknmzu6v98z"},"type":"Feature","geometry":{"type":"Point","coordinates":[-1.20984,9.64364]}},{"properties":{"latitude":9.73252,"region":"Northern","district":"Tolon-Kumbungu","facilityname":"Kpendua CHPS","type":"CHPS","ownership":"Government","town":"Kpendua","longitude":-1.06362,"id":"aaknmznynuhh"},"type":"Feature","geometry":{"type":"Point","coordinates":[-1.06362,9.73252]}},{"properties":{"latitude":9.54411,"region":"Northern","district":"West Gonja","facilityname":"Bawena  CHPS","type":"CHPS","ownership":"Government","town":"Bawena","longitude":-1.63627,"id":"aaknn0230wfw"},"type":"Feature","geometry":{"type":"Point","coordinates":[-1.63627,9.54411]}},{"properties":{"latitude":10.15817,"region":"Northern","district":"West Mamprusi","facilityname":"Nasia  CHPS","type":"CHPS","ownership":"Government","town":"Nasia","longitude":-0.80475,"id":"aaknmzly97l2"},"type":"Feature","geometry":{"type":"Point","coordinates":[-0.80475,10.15817]}},{"properties":{"latitude":10.33918,"region":"Northern","district":"West Mamprusi","facilityname":"Yama CHPS","type":"CHPS","ownership":"Government","town":"Yama","longitude":-1.02142,"id":"aaknmzudimli"},"type":"Feature","geometry":{"type":"Point","coordinates":[-1.02142,10.33918]}},{"properties":{"latitude":10.37035,"region":"Northern","district":"West Mamprusi","facilityname":"Gbeo CHPS","type":"CHPS","ownership":"Government","town":"Gbeo","longitude":-0.80314,"id":"aaknmzyvyd3o"},"type":"Feature","geometry":{"type":"Point","coordinates":[-0.80314,10.37035]}},{"properties":{"latitude":9.24587,"region":"Northern","district":"Yendi","facilityname":"Kuni CHPS","type":"CHPS","ownership":"Government","town":"Kuni","longitude":-0.16672,"id":"aaknmzz06wv9"},"type":"Feature","geometry":{"type":"Point","coordinates":[-0.16672,9.24587]}},{"properties":{"latitude":9.20765,"region":"Northern","district":"Yendi","facilityname":"Dabogni Health Centre","type":"CHPS","ownership":"Government","town":"Dabogni","longitude":-0.18334,"id":"aaknmzqin4gh"},"type":"Feature","geometry":{"type":"Point","coordinates":[-0.18334,9.20765]}},{"properties":{"latitude":9.5974,"region":"Northern","district":"Yendi","facilityname":"Sunsong CHPS","type":"CHPS","ownership":"Government","town":"Sunsong","longitude":-0.01523,"id":"aaknn01k1m55"},"type":"Feature","geometry":{"type":"Point","coordinates":[-0.01523,9.5974]}},{"properties":{"latitude":9.0532,"region":"Northern","district":"Zabzugu-Tatale","facilityname":"Woriborgu CHPS","type":"CHPS","ownership":"Government","town":"Woriborgu","longitude":0.25317,"id":"aaknmzpv0cyb"},"type":"Feature","geometry":{"type":"Point","coordinates":[0.25317,9.0532]}},{"properties":{"latitude":9.2782,"region":"Northern","district":"Zabzugu-Tatale","facilityname":"Sabare CHPS","type":"CHPS","ownership":"Government","town":"Sabare","longitude":0.26256,"id":"aaknmzw4asnw"},"type":"Feature","geometry":{"type":"Point","coordinates":[0.26256,9.2782]}},{"properties":{"latitude":null,"region":"Northern","district":"Saboba-Chereponi","facilityname":"Kujoni CHPS","type":"CHPS","ownership":"Government","town":"Kujoni","longitude":null,"id":"aaknmzmy20oi"},"type":"Feature","geometry":null},{"properties":{"latitude":null,"region":"Northern","district":"Saboba-Chereponi","facilityname":"Sangul CHPS","type":"CHPS","ownership":"Government","town":"Sangul","longitude":null,"id":"aaknmznyxj75"},"type":"Feature","geometry":null},{"properties":{"latitude":null,"region":"Northern","district":"Saboba-Chereponi","facilityname":"Demon CHPS","type":"CHPS","ownership":"Government","town":"Demon","longitude":null,"id":"aaknmztlhykp"},"type":"Feature","geometry":null},{"properties":{"latitude":null,"region":"Northern","district":"Saboba-Chereponi","facilityname":"Kucha CHPS","type":"CHPS","ownership":"Government","town":"Kucha","longitude":null,"id":"aaknmzxruq11"},"type":"Feature","geometry":null},{"properties":{"latitude":null,"region":"Northern","district":"Saboba-Chereponi","facilityname":"Nansoni CHPS","type":"CHPS","ownership":"Government","town":"Nansoni","longitude":null,"id":"aaknmzrv1ph6"},"type":"Feature","geometry":null},{"properties":{"latitude":null,"region":"Northern","district":"Saboba-Chereponi","facilityname":"Tumbo CHPS","type":"CHPS","ownership":"Government","town":"Tumbo","longitude":null,"id":"aaknmzsz3li4"},"type":"Feature","geometry":null},{"properties":{"latitude":null,"region":"Northern","district":"Sawla-Tuna-Kalba","facilityname":"Donald Richard Clinic","type":"CHPS","ownership":"Government","town":"Nakwabi","longitude":null,"id":"aaknmzz642vy"},"type":"Feature","geometry":null},{"properties":{"latitude":null,"region":"Northern","district":"Savelugu-Nanton","facilityname":"Dipali CHPS","type":"CHPS","ownership":"Government","town":"Daire","longitude":null,"id":"aaknmzoehffq"},"type":"Feature","geometry":null},{"properties":{"latitude":null,"region":"Northern","district":"Nanumba North","facilityname":"Sabonjida CHPS","type":"CHPS","ownership":"Government","town":"Sabonjida","longitude":null,"id":"aaknmzqzlow3"},"type":"Feature","geometry":null},{"properties":{"latitude":null,"region":"Northern","district":"Nanumba North","facilityname":"Juanayili CHPS","type":"CHPS","ownership":"Government","town":"Juanayili","longitude":null,"id":"aaknmzmaue9a"},"type":"Feature","geometry":null},{"properties":{"latitude":null,"region":"Northern","district":"East Mamprusi","facilityname":"Jawani CHPS","type":"CHPS","ownership":"Government","town":"Jawani","longitude":null,"id":"aaknmzudz9zf"},"type":"Feature","geometry":null},{"properties":{"latitude":null,"region":"Northern","district":"East Mamprusi","facilityname":"Konlinvai CHPS","type":"CHPS","ownership":"Government","town":"Konlivai","longitude":null,"id":"aaknmzmo6fqw"},"type":"Feature","geometry":null},{"properties":{"latitude":null,"region":"Northern","district":"East Mamprusi","facilityname":"Samini HPS","type":"CHPS","ownership":"Government","town":"Samini","longitude":null,"id":"aaknmzni7yoe"},"type":"Feature","geometry":null},{"properties":{"latitude":null,"region":"Northern","district":"East Mamprusi","facilityname":"Tuni CHPS","type":"CHPS","ownership":"Government","town":"Tuni","longitude":null,"id":"aaknmzydrm70"},"type":"Feature","geometry":null},{"properties":{"latitude":null,"region":"Northern","district":"East Mamprusi","facilityname":"Gbangu CHPS","type":"CHPS","ownership":"Government","town":"Gbangu","longitude":null,"id":"aaknmzxb4mkg"},"type":"Feature","geometry":null},{"properties":{"latitude":null,"region":"Northern","district":"Central Gonja","facilityname":"Yalla CHPS","type":"CHPS","ownership":"Government","town":"Yalla","longitude":null,"id":"aaknmzyre5r4"},"type":"Feature","geometry":null},{"properties":{"latitude":null,"region":"Northern","district":"Bunkpurugu-Yunyuo","facilityname":"Kambatiak CHPS","type":"CHPS","ownership":"Government","town":"Kambatiak","longitude":null,"id":"aaknmzpgzbxc"},"type":"Feature","geometry":null},{"properties":{"latitude":null,"region":"Northern","district":"Bunkpurugu-Yunyuo","facilityname":"Kambagu CHPS","type":"CHPS","ownership":"Government","town":"Kambagu","longitude":null,"id":"aaknmzmihqet"},"type":"Feature","geometry":null},{"properties":{"latitude":null,"region":"Northern","district":"Bunkpurugu-Yunyuo","facilityname":"Bimbagu CHPS","type":"CHPS","ownership":"Government","town":"Bimbagu","longitude":null,"id":"aaknmzn9fnvk"},"type":"Feature","geometry":null},{"properties":{"latitude":null,"region":"Northern","district":"Bunkpurugu-Yunyuo","facilityname":"Mozio CHPS","type":"CHPS","ownership":"Government","town":"Mozio","longitude":null,"id":"aaknn01h78gz"},"type":"Feature","geometry":null},{"properties":{"latitude":null,"region":"Northern","district":"Bunkpurugu-Yunyuo","facilityname":"Temaa CHPS","type":"CHPS","ownership":"Government","town":"Temaa","longitude":null,"id":"aaknmznjkorn"},"type":"Feature","geometry":null},{"properties":{"latitude":null,"region":"Northern","district":"Central Gonja","facilityname":"Boachipe CHPS","type":"CHPS","ownership":"Government","town":"Boachipe","longitude":null,"id":"aaknmztl8vy6"},"type":"Feature","geometry":null},{"properties":{"latitude":null,"region":"Northern","district":"East Gonja","facilityname":"Kafaba CHPS","type":"CHPS","ownership":"Government","town":"Kafaba","longitude":null,"id":"aaknn0099oc8"},"type":"Feature","geometry":null},{"properties":{"latitude":null,"region":"Northern","district":"Bole","facilityname":"Kwame Kwesi CHPS","type":"CHPS","ownership":"Government","town":"Kwame Kwesi","longitude":null,"id":"aaknmztgwxey"},"type":"Feature","geometry":null},{"properties":{"latitude":null,"region":"Northern","district":"Bole","facilityname":"Chibrinyo CHPS","type":"CHPS","ownership":"Government","town":"Chibrinyo","longitude":null,"id":"aaknmzs0w5li"},"type":"Feature","geometry":null},{"properties":{"latitude":null,"region":"Northern","district":"Bole","facilityname":"Gbenfu CHPS","type":"CHPS","ownership":"Government","town":"Gbenfu","longitude":null,"id":"aaknn004llcs"},"type":"Feature","geometry":null},{"properties":{"latitude":null,"region":"Northern","district":"Bole","facilityname":"Kakiasi CHPS","type":"CHPS","ownership":"Government","town":"Kakiasi","longitude":null,"id":"aaknmzyxoryw"},"type":"Feature","geometry":null},{"properties":{"latitude":null,"region":"Northern","district":"Bole","facilityname":"Maluwe CHPS","type":"CHPS","ownership":"Government","town":"Maluwe","longitude":null,"id":"aaknmzs743xi"},"type":"Feature","geometry":null},{"properties":{"latitude":null,"region":"Northern","district":"Bole","facilityname":"Kwame Kwesi CHPS","type":"CHPS","ownership":"Government","town":"Kwame Kwesi","longitude":null,"id":"aaknmzw2byja"},"type":"Feature","geometry":null},{"properties":{"latitude":null,"region":"Northern","district":"Bole","facilityname":"Carpenter CHPS","type":"CHPS","ownership":"Government","town":"Banda-Nkwanta","longitude":null,"id":"aaknmzvq3fcf"},"type":"Feature","geometry":null},{"properties":{"latitude":null,"region":"Northern","district":"Karaga","facilityname":"Zandua CHPS","type":"CHPS","ownership":"Government","town":"Zandua","longitude":null,"id":"aaknmzo4vile"},"type":"Feature","geometry":null},{"properties":{"latitude":null,"region":"Northern","district":"Karaga","facilityname":"Sandua CHPS","type":"CHPS","ownership":"Government","town":"Sandua","longitude":null,"id":"aaknmzn58cp2"},"type":"Feature","geometry":null},{"properties":{"latitude":null,"region":"Northern","district":"Tamale Metropolitan","facilityname":"Fooshegu CHPS","type":"CHPS","ownership":"Government","town":"Fooshegu","longitude":null,"id":"aaknmzqp2k86"},"type":"Feature","geometry":null},{"properties":{"latitude":null,"region":"Northern","district":"Tamale Metropolitan","facilityname":"Malshegu CHPS","type":"CHPS","ownership":"Government","town":"Malshegu","longitude":null,"id":"aaknmzz08441"},"type":"Feature","geometry":null},{"properties":{"latitude":null,"region":"Northern","district":"Tamale Metropolitan","facilityname":"Taha CHPS","type":"CHPS","ownership":"Government","town":"Taha","longitude":null,"id":"aaknmznyneed"},"type":"Feature","geometry":null},{"properties":{"latitude":null,"region":"Northern","district":"Tamale Metropolitan","facilityname":"Zuo CHPS","type":"CHPS","ownership":"Government","town":"Zuo","longitude":null,"id":"aaknmzwag82b"},"type":"Feature","geometry":null},{"properties":{"latitude":null,"region":"Northern","district":"Tolon-Kumbungu","facilityname":"Yoggu CHPS","type":"CHPS","ownership":"Government","town":"Yoggu","longitude":null,"id":"aaknn00niyki"},"type":"Feature","geometry":null},{"properties":{"latitude":null,"region":"Northern","district":"West Gonja","facilityname":"Gurupe CHPS","type":"CHPS","ownership":"Government","town":"Gurupe","longitude":null,"id":"aaknmzne5dje"},"type":"Feature","geometry":null},{"properties":{"latitude":null,"region":"Northern","district":"West Gonja","facilityname":"Kotito CHPS","type":"CHPS","ownership":"Government","town":"Kotito","longitude":null,"id":"aaknmzvxts8x"},"type":"Feature","geometry":null},{"properties":{"latitude":null,"region":"Northern","district":"West Gonja","facilityname":"Achubunyo CHPS","type":"CHPS","ownership":"Government","town":"Achubunyo","longitude":null,"id":"aaknmzof2u0e"},"type":"Feature","geometry":null},{"properties":{"latitude":null,"region":"Northern","district":"West Gonja","facilityname":"Lingbinsi CHPS","type":"CHPS","ownership":"Government","town":"Lingbinsi","longitude":null,"id":"aaknmzyertnt"},"type":"Feature","geometry":null},{"properties":{"latitude":null,"region":"Northern","district":"West Gonja","facilityname":"Mempeasem CHPS","type":"CHPS","ownership":"Government","town":"Mempeasem","longitude":null,"id":"aaknn014xaiy"},"type":"Feature","geometry":null},{"properties":{"latitude":null,"region":"Northern","district":"West Mamprusi","facilityname":"Gbeo CHPS","type":"CHPS","ownership":"Government","town":"Gbeo","longitude":null,"id":"aaknmzt143ut"},"type":"Feature","geometry":null},{"properties":{"latitude":null,"region":"Northern","district":"West Mamprusi","facilityname":"Kukuo CHPS","type":"CHPS","ownership":"Government","town":"Kukuo","longitude":null,"id":"aaknmzvxn4yp"},"type":"Feature","geometry":null},{"properties":{"latitude":null,"region":"Northern","district":"West Mamprusi","facilityname":"Tantala CHPS","type":"CHPS","ownership":"Government","town":"Tantala","longitude":null,"id":"aaknmztnrhl1"},"type":"Feature","geometry":null},{"properties":{"latitude":null,"region":"Northern","district":"West Mamprusi","facilityname":"Yama CHPS","type":"CHPS","ownership":"Government","town":"Yama","longitude":null,"id":"aaknmzmgyrpq"},"type":"Feature","geometry":null},{"properties":{"latitude":null,"region":"Northern","district":"Yendi","facilityname":"Kpabia CHPS","type":"CHPS","ownership":"Government","town":"kpabia","longitude":null,"id":"aaknn01zczs7"},"type":"Feature","geometry":null},{"properties":{"latitude":null,"region":"Northern","district":"Zabzugu-Tatale","facilityname":"Jubilee CHPS","type":"CHPS","ownership":"Government","town":"Sabare","longitude":null,"id":"aaknmzqglx2l"},"type":"Feature","geometry":null},{"properties":{"latitude":null,"region":"Northern","district":"Zabzugu-Tatale","facilityname":"Tatindo CHPS","type":"CHPS","ownership":"CHAG","town":"Tatindo","longitude":null,"id":"aaknmztlnkd5"},"type":"Feature","geometry":null},{"properties":{"latitude":null,"region":"Northern","district":"Zabzugu-Tatale","facilityname":"Nahuyili CHPS","type":"CHPS","ownership":"Government","town":"Nahuyili","longitude":null,"id":"aaknmzn5dj75"},"type":"Feature","geometry":null},{"properties":{"latitude":10.8893,"region":"Upper East","district":"Bawku Municipal","facilityname":"Nafkoliga CHPS","type":"CHPS","ownership":"Government","town":"Nafkoliga","longitude":-0.36387,"id":"aaknmzmxp7ak"},"type":"Feature","geometry":{"type":"Point","coordinates":[-0.36387,10.8893]}},{"properties":{"latitude":10.914,"region":"Upper East","district":"Bawku Municipal","facilityname":"Kukparigu CHPS","type":"CHPS","ownership":"Government","town":"Kukparigu","longitude":-0.24989,"id":"aaknmzy1b0m1"},"type":"Feature","geometry":{"type":"Point","coordinates":[-0.24989,10.914]}},{"properties":{"latitude":11.05838,"region":"Upper East","district":"Bawku Municipal","facilityname":"Sarabogo CHPS","type":"CHPS","ownership":"Government","town":"Sarabogo","longitude":-0.16943,"id":"aaknmzuys7kc"},"type":"Feature","geometry":{"type":"Point","coordinates":[-0.16943,11.05838]}},{"properties":{"latitude":11.02384,"region":"Upper East","district":"Bawku Municipal","facilityname":"Manga CHPS","type":"CHPS","ownership":"Government","town":"Manga","longitude":-0.26314,"id":"aaknmzwkuohz"},"type":"Feature","geometry":{"type":"Point","coordinates":[-0.26314,11.02384]}},{"properties":{"latitude":11.06103,"region":"Upper East","district":"Bawku Municipal","facilityname":"Bansi CHPS","type":"CHPS","ownership":"Government","town":"Bansi","longitude":-0.34752,"id":"aaknmzqigwou"},"type":"Feature","geometry":{"type":"Point","coordinates":[-0.34752,11.06103]}},{"properties":{"latitude":11.05267,"region":"Upper East","district":"Bawku Municipal","facilityname":"Zawse CHPS","type":"CHPS","ownership":"Government","town":"Zawse","longitude":-0.29344,"id":"aaknmztvdq7g"},"type":"Feature","geometry":{"type":"Point","coordinates":[-0.29344,11.05267]}},{"properties":{"latitude":11.00312,"region":"Upper East","district":"Bawku Municipal","facilityname":"Bazua CHPS","type":"CHPS","ownership":"Government","town":"Bazua","longitude":-0.35115,"id":"aaknmztbg741"},"type":"Feature","geometry":{"type":"Point","coordinates":[-0.35115,11.00312]}},{"properties":{"latitude":10.79081,"region":"Upper East","district":"Bawku West","facilityname":"Azuwera CHPS","type":"CHPS","ownership":"Government","town":"Azuwera","longitude":-0.49413,"id":"aaknmzpmvzn2"},"type":"Feature","geometry":{"type":"Point","coordinates":[-0.49413,10.79081]}},{"properties":{"latitude":10.97189,"region":"Upper East","district":"Bawku West","facilityname":"Kansoogo CHPS","type":"CHPS","ownership":"Government","town":"Kansoogo","longitude":-0.51656,"id":"aaknmzqwmdcy"},"type":"Feature","geometry":{"type":"Point","coordinates":[-0.51656,10.97189]}},{"properties":{"latitude":null,"region":"Upper East","district":"Bawku West","facilityname":"Kopella CHPS","type":"CHPS","ownership":"Government","town":"Kopella","longitude":null,"id":"aaknmzzxwmi9"},"type":"Feature","geometry":null},{"properties":{"latitude":11.0616,"region":"Upper East","district":"Bawku West","facilityname":"Salpiiga CHPS","type":"CHPS","ownership":"Government","town":"Sapelliga","longitude":-0.38571,"id":"aaknmznazkne"},"type":"Feature","geometry":{"type":"Point","coordinates":[-0.38571,11.0616]}},{"properties":{"latitude":10.90813,"region":"Upper East","district":"Bawku West","facilityname":"Tanga CHPS","type":"CHPS","ownership":"Government","town":"Tanga-Central","longitude":-0.43994,"id":"aaknmzu2u5os"},"type":"Feature","geometry":{"type":"Point","coordinates":[-0.43994,10.90813]}},{"properties":{"latitude":null,"region":"Upper East","district":"Bawku West","facilityname":"Tarikum CHPS","type":"CHPS","ownership":"Government","town":"Tarikum","longitude":null,"id":"aaknmzql2apo"},"type":"Feature","geometry":null},{"properties":{"latitude":10.97864,"region":"Upper East","district":"Bawku West","facilityname":"Teshie CHPS","type":"CHPS","ownership":"Government","town":"Teshie","longitude":-0.48265,"id":"aaknmzyt36fx"},"type":"Feature","geometry":{"type":"Point","coordinates":[-0.48265,10.97864]}},{"properties":{"latitude":10.91236,"region":"Upper East","district":"Bawku West","facilityname":"Timonde CHPS","type":"CHPS","ownership":"Government","town":"Timonde-Natriga","longitude":-0.4065,"id":"aaknmzs9h39t"},"type":"Feature","geometry":{"type":"Point","coordinates":[-0.4065,10.91236]}},{"properties":{"latitude":10.84972,"region":"Upper East","district":"Bolgatanga Municipal","facilityname":"Aguusi CHPS","type":"CHPS","ownership":"Government","town":"Aguusi","longitude":-0.91899,"id":"aaknmzvjdz4o"},"type":"Feature","geometry":{"type":"Point","coordinates":[-0.91899,10.84972]}},{"properties":{"latitude":10.89957,"region":"Upper East","district":"Bongo","facilityname":"Adaboya CHPS","type":"CHPS","ownership":"Government","town":"Adaboya","longitude":-0.73402,"id":"aaknmzuw7ub3"},"type":"Feature","geometry":{"type":"Point","coordinates":[-0.73402,10.89957]}},{"properties":{"latitude":10.87062,"region":"Upper East","district":"Bongo","facilityname":"Saporo CHPS","type":"CHPS","ownership":"Government","town":"Saporo","longitude":-0.74361,"id":"aaknmzlxjyno"},"type":"Feature","geometry":{"type":"Point","coordinates":[-0.74361,10.87062]}},{"properties":{"latitude":10.93802,"region":"Upper East","district":"Bongo","facilityname":"Balungu CHPS","type":"CHPS","ownership":"Government","town":"Balungu","longitude":-0.86082,"id":"aaknmzv1peoe"},"type":"Feature","geometry":{"type":"Point","coordinates":[-0.86082,10.93802]}},{"properties":{"latitude":10.87572,"region":"Upper East","district":"Bongo","facilityname":"Kunkua CHPS","type":"CHPS","ownership":"Government","town":"Kunkua","longitude":-0.82925,"id":"aaknmzzfvhia"},"type":"Feature","geometry":{"type":"Point","coordinates":[-0.82925,10.87572]}},{"properties":{"latitude":10.98182,"region":"Upper East","district":"Bongo","facilityname":"Boko CHPS","type":"CHPS","ownership":"Government","town":"Boko","longitude":-0.8305,"id":"aaknmzxndkaj"},"type":"Feature","geometry":{"type":"Point","coordinates":[-0.8305,10.98182]}},{"properties":{"latitude":10.91026,"region":"Upper East","district":"Bongo","facilityname":"Atampiisi CHPS","type":"CHPS","ownership":"Government","town":"Atampiisi","longitude":-0.82337,"id":"aaknmzxl3ckr"},"type":"Feature","geometry":{"type":"Point","coordinates":[-0.82337,10.91026]}},{"properties":{"latitude":10.85812,"region":"Upper East","district":"Bongo","facilityname":"Gowrie CHPS","type":"CHPS","ownership":"Government","town":"Gowrie","longitude":-0.84299,"id":"aaknmzq894iw"},"type":"Feature","geometry":{"type":"Point","coordinates":[-0.84299,10.85812]}},{"properties":{"latitude":10.92489,"region":"Upper East","district":"Bongo","facilityname":"Kodorogo CHPS","type":"CHPS","ownership":"Government","town":"Kodorogo","longitude":-0.90898,"id":"aaknmzx35ty2"},"type":"Feature","geometry":{"type":"Point","coordinates":[-0.90898,10.92489]}},{"properties":{"latitude":10.78727,"region":"Upper East","district":"Builsa","facilityname":"Namonsa CHPS","type":"CHPS","ownership":"Government","town":"Namonsa","longitude":-1.17157,"id":"aaknmzutfehf"},"type":"Feature","geometry":{"type":"Point","coordinates":[-1.17157,10.78727]}},{"properties":{"latitude":10.32742,"region":"Upper East","district":"Builsa","facilityname":"Gbedembilisi CHPS","type":"CHPS","ownership":"Government","town":"Gbedembilisi","longitude":-1.2467,"id":"aaknmzp1182e"},"type":"Feature","geometry":{"type":"Point","coordinates":[-1.2467,10.32742]}},{"properties":{"latitude":10.48012,"region":"Upper East","district":"Builsa","facilityname":"Uwasi CHPS","type":"CHPS","ownership":"Government","town":"Uwasi","longitude":-1.22845,"id":"aaknmzrazsy6"},"type":"Feature","geometry":{"type":"Point","coordinates":[-1.22845,10.48012]}},{"properties":{"latitude":10.51352,"region":"Upper East","district":"Builsa","facilityname":"Gbedema CHPS","type":"CHPS","ownership":"Government","town":"Gbedema","longitude":-1.32208,"id":"aaknmzuyziei"},"type":"Feature","geometry":{"type":"Point","coordinates":[-1.32208,10.51352]}},{"properties":{"latitude":10.59104,"region":"Upper East","district":"Builsa","facilityname":"Kunkwak CHPS","type":"CHPS","ownership":"Government","town":"Kunkwak","longitude":-1.36077,"id":"aaknmzx56l9y"},"type":"Feature","geometry":{"type":"Point","coordinates":[-1.36077,10.59104]}},{"properties":{"latitude":10.77033,"region":"Upper East","district":"Builsa","facilityname":"Kalijiisa CHPS","type":"CHPS","ownership":"Government","town":"Kalijiisa","longitude":-1.27422,"id":"aaknmzubdgn3"},"type":"Feature","geometry":{"type":"Point","coordinates":[-1.27422,10.77033]}},{"properties":{"latitude":10.73497,"region":"Upper East","district":"Builsa","facilityname":"Kori CHPS Centre","type":"CHPS","ownership":"Government","town":"Kori","longitude":-1.24604,"id":"aaknn00g25gw"},"type":"Feature","geometry":{"type":"Point","coordinates":[-1.24604,10.73497]}},{"properties":{"latitude":10.68283,"region":"Upper East","district":"Builsa","facilityname":"Bachongsa CHPS","type":"CHPS","ownership":"Government","town":"Bachongsa","longitude":-1.49208,"id":"aaknmzp7fn1y"},"type":"Feature","geometry":{"type":"Point","coordinates":[-1.49208,10.68283]}},{"properties":{"latitude":10.57749,"region":"Upper East","district":"Builsa","facilityname":"Wupiensa CHPS","type":"CHPS","ownership":"Government","town":"Wupiensa","longitude":-1.4525,"id":"aaknmzwoyahw"},"type":"Feature","geometry":{"type":"Point","coordinates":[-1.4525,10.57749]}},{"properties":{"latitude":10.57266,"region":"Upper East","district":"Builsa","facilityname":"Chansa CHPS","type":"CHPS","ownership":"Government","town":"Chansa","longitude":-1.19271,"id":"aaknn01le6u3"},"type":"Feature","geometry":{"type":"Point","coordinates":[-1.19271,10.57266]}},{"properties":{"latitude":10.58578,"region":"Upper East","district":"Builsa","facilityname":"Kaadema CHPS","type":"CHPS","ownership":"Government","town":"Kaadema","longitude":-1.2287,"id":"aaknmzxch51o"},"type":"Feature","geometry":{"type":"Point","coordinates":[-1.2287,10.58578]}},{"properties":{"latitude":10.81342,"region":"Upper East","district":"Garu-Tempane","facilityname":"Kpattia CHPS","type":"CHPS","ownership":"Government","town":"Kpattia","longitude":-0.14362,"id":"aaknmzrpjhbq"},"type":"Feature","geometry":{"type":"Point","coordinates":[-0.14362,10.81342]}},{"properties":{"latitude":10.77752,"region":"Upper East","district":"Kassena-Nankana","facilityname":"Biu CHPS","type":"CHPS","ownership":"Government","town":"Biu","longitude":-1.10178,"id":"aaknmzodgqew"},"type":"Feature","geometry":{"type":"Point","coordinates":[-1.10178,10.77752]}},{"properties":{"latitude":10.97063,"region":"Upper East","district":"Kassena-Nankana West","facilityname":"Bugsongo/Nyangolingo CHPS","type":"CHPS","ownership":"Government","town":"Bugsongo/Nyangolingo","longitude":-0.92951,"id":"aaknmzzpz6ck"},"type":"Feature","geometry":{"type":"Point","coordinates":[-0.92951,10.97063]}},{"properties":{"latitude":10.86488,"region":"Upper East","district":"Kassena-Nankana","facilityname":"Doba CHPS","type":"CHPS","ownership":"Government","town":"Doba","longitude":-1.03804,"id":"aaknmzo2qzol"},"type":"Feature","geometry":{"type":"Point","coordinates":[-1.03804,10.86488]}},{"properties":{"latitude":10.92043,"region":"Upper East","district":"Kassena-Nankana","facilityname":"Gia CHPS","type":"CHPS","ownership":"Government","town":"Gia","longitude":-1.13178,"id":"aaknmzu24rmd"},"type":"Feature","geometry":{"type":"Point","coordinates":[-1.13178,10.92043]}},{"properties":{"latitude":10.86893,"region":"Upper East","district":"Kassena-Nankana","facilityname":"Gongnia CHPS","type":"CHPS","ownership":"Government","town":"Gongnia","longitude":-1.08359,"id":"aaknmzn02yze"},"type":"Feature","geometry":{"type":"Point","coordinates":[-1.08359,10.86893]}},{"properties":{"latitude":10.93514,"region":"Upper East","district":"Kassena-Nankana West","facilityname":"Kajelo CHPS","type":"CHPS","ownership":"Government","town":"Kajelo","longitude":-1.1245,"id":"aaknmzxspsi9"},"type":"Feature","geometry":{"type":"Point","coordinates":[-1.1245,10.93514]}},{"properties":{"latitude":10.83624,"region":"Upper East","district":"Kassena-Nankana West","facilityname":"Kalvio CHPS","type":"CHPS","ownership":"Government","town":"Kalvio","longitude":-1.24698,"id":"aaknn00ehgi7"},"type":"Feature","geometry":{"type":"Point","coordinates":[-1.24698,10.83624]}},{"properties":{"latitude":10.83074,"region":"Upper East","district":"Kassena-Nankana West","facilityname":"Kanania CHPS","type":"CHPS","ownership":"Government","town":"Kanania","longitude":-1.22417,"id":"aaknmzv3yj2h"},"type":"Feature","geometry":{"type":"Point","coordinates":[-1.22417,10.83074]}},{"properties":{"latitude":10.8443,"region":"Upper East","district":"Kassena-Nankana West","facilityname":"Katiu CHPS","type":"CHPS","ownership":"Government","town":"Katiu","longitude":-1.27802,"id":"aaknmzpeuwy5"},"type":"Feature","geometry":{"type":"Point","coordinates":[-1.27802,10.8443]}},{"properties":{"latitude":10.96859,"region":"Upper East","district":"Kassena-Nankana West","facilityname":"Kayoro CHPS","type":"CHPS","ownership":"Government","town":"Kayoro","longitude":-1.3301,"id":"aaknn01598sk"},"type":"Feature","geometry":{"type":"Point","coordinates":[-1.3301,10.96859]}},{"properties":{"latitude":10.7405,"region":"Upper East","district":"Kassena-Nankana","facilityname":"Kologo CHPS","type":"CHPS","ownership":"Government","town":"Kologo","longitude":-1.07768,"id":"aaknmzqdjk0s"},"type":"Feature","geometry":{"type":"Point","coordinates":[-1.07768,10.7405]}},{"properties":{"latitude":10.98142,"region":"Upper East","district":"Kassena-Nankana","facilityname":"Manyoro CHPS","type":"CHPS","ownership":"Government","town":"Manyoro","longitude":-0.99035,"id":"aaknmzw2ewei"},"type":"Feature","geometry":{"type":"Point","coordinates":[-0.99035,10.98142]}},{"properties":{"latitude":10.9089,"region":"Upper East","district":"Kassena-Nankana West","facilityname":"Mirigu CHPS","type":"CHPS","ownership":"Government","town":"Mirigu","longitude":-0.99527,"id":"aaknmzsjbp3x"},"type":"Feature","geometry":{"type":"Point","coordinates":[-0.99527,10.9089]}},{"properties":{"latitude":10.59894,"region":"Upper East","district":"Kassena-Nankana","facilityname":"Naaga CHPS","type":"CHPS","ownership":"Government","town":"Naaga","longitude":-1.02745,"id":"aaknmzpo1ydm"},"type":"Feature","geometry":{"type":"Point","coordinates":[-1.02745,10.59894]}},{"properties":{"latitude":10.81418,"region":"Upper East","district":"Kassena-Nankana West","facilityname":"Nakong CHPS","type":"CHPS","ownership":"Government","town":"Nakong","longitude":-1.424,"id":"aaknmzqefbjf"},"type":"Feature","geometry":{"type":"Point","coordinates":[-1.424,10.81418]}},{"properties":{"latitude":10.96843,"region":"Upper East","district":"Kassena-Nankana","facilityname":"Natugnia CHPS","type":"CHPS","ownership":"Government","town":"Natugnia","longitude":-0.97103,"id":"aaknmzqu5wo2"},"type":"Feature","geometry":{"type":"Point","coordinates":[-0.97103,10.96843]}},{"properties":{"latitude":10.96497,"region":"Upper East","district":"Kassena-Nankana West","facilityname":"Navio CHPS","type":"CHPS","ownership":"Government","town":"Navio","longitude":-1.05298,"id":"aaknmzwalsb9"},"type":"Feature","geometry":{"type":"Point","coordinates":[-1.05298,10.96497]}},{"properties":{"latitude":10.88547,"region":"Upper East","district":"Kassena-Nankana","facilityname":"Nayagnia CHPS","type":"CHPS","ownership":"Government","town":"Nayagnia","longitude":-1.05459,"id":"aaknmzoiav2q"},"type":"Feature","geometry":{"type":"Point","coordinates":[-1.05459,10.88547]}},{"properties":{"latitude":10.84255,"region":"Upper East","district":"Kassena-Nankana West","facilityname":"Nyangania CHPS","type":"CHPS","ownership":"Government","town":"Nyagnia","longitude":-1.18961,"id":"aaknmzsl11km"},"type":"Feature","geometry":{"type":"Point","coordinates":[-1.18961,10.84255]}},{"properties":{"latitude":10.88547,"region":"Upper East","district":"Kassena-Nankana West","facilityname":"Nyangania CHPS","type":"CHPS","ownership":"Government","town":"Nyangania","longitude":-1.05457,"id":"aaknmzwv29rn"},"type":"Feature","geometry":{"type":"Point","coordinates":[-1.05457,10.88547]}},{"properties":{"latitude":10.9845,"region":"Upper East","district":"Kassena-Nankana","facilityname":"Pinda CHPS","type":"CHPS","ownership":"Government","town":"Pinda","longitude":-1.15623,"id":"aaknmzvamitl"},"type":"Feature","geometry":{"type":"Point","coordinates":[-1.15623,10.9845]}},{"properties":{"latitude":10.91222,"region":"Upper East","district":"Kassena-Nankana","facilityname":"Pungu North CHPS","type":"CHPS","ownership":"Government","town":"Wusungu","longitude":-1.07443,"id":"aaknmzu452qz"},"type":"Feature","geometry":{"type":"Point","coordinates":[-1.07443,10.91222]}},{"properties":{"latitude":10.76205,"region":"Upper East","district":"Talensi-Nabdam","facilityname":"Kpatia CHPS","type":"CHPS","ownership":"Government","town":"Kpatia","longitude":-0.74974,"id":"aaknmznbevws"},"type":"Feature","geometry":{"type":"Point","coordinates":[-0.74974,10.76205]}},{"properties":{"latitude":null,"region":"Upper East","district":"Builsa","facilityname":"Mutiensa CHPS","type":"CHPS","ownership":"Government","town":"Mutiensa","longitude":null,"id":"aaknmzp4goh0"},"type":"Feature","geometry":null},{"properties":{"latitude":null,"region":"Upper East","district":"Builsa","facilityname":"Muzdem CHPS","type":"CHPS","ownership":"Government","town":"Muzdem","longitude":null,"id":"aaknmzuh0s8z"},"type":"Feature","geometry":null},{"properties":{"latitude":10.69666,"region":"Upper East","district":"Talensi-Nabdam","facilityname":"Gorogo CHPS","type":"CHPS","ownership":"Government","town":"Gorgo","longitude":-0.83049,"id":"aaknmzww9d8y"},"type":"Feature","geometry":{"type":"Point","coordinates":[-0.83049,10.69666]}},{"properties":{"latitude":10.72564,"region":"Upper East","district":"Talensi-Nabdam","facilityname":"Gorigo/Awaradone CHPS","type":"CHPS","ownership":"Government","town":"Gonigo/Awaradone","longitude":-0.87094,"id":"aaknmzpn6ecz"},"type":"Feature","geometry":{"type":"Point","coordinates":[-0.87094,10.72564]}},{"properties":{"latitude":10.77934,"region":"Upper East","district":"Talensi-Nabdam","facilityname":"Duusi CHPS","type":"CHPS","ownership":"Government","town":"Duusi","longitude":-0.69325,"id":"aaknmzvtlvif"},"type":"Feature","geometry":{"type":"Point","coordinates":[-0.69325,10.77934]}},{"properties":{"latitude":10.79052,"region":"Upper East","district":"Talensi-Nabdam","facilityname":"Sakote CHPS","type":"CHPS","ownership":"Government","town":"Sakote","longitude":-0.61917,"id":"aaknn010e4ax"},"type":"Feature","geometry":{"type":"Point","coordinates":[-0.61917,10.79052]}},{"properties":{"latitude":10.59899,"region":"Upper East","district":"Talensi-Nabdam","facilityname":"Tolla CHPS","type":"CHPS","ownership":"Government","town":"Tolla","longitude":-0.61462,"id":"aaknmzmqqa12"},"type":"Feature","geometry":{"type":"Point","coordinates":[-0.61462,10.59899]}},{"properties":{"latitude":10.80643,"region":"Upper East","district":"Talensi-Nabdam","facilityname":"Zanlerigu CHPS","type":"CHPS","ownership":"Government","town":"Zanlerigu","longitude":-0.73703,"id":"aaknmzrjl1ad"},"type":"Feature","geometry":{"type":"Point","coordinates":[-0.73703,10.80643]}},{"properties":{"latitude":10.91361,"region":"Upper East","district":"Kassena-Nankana","facilityname":"Pungu South CHPS","type":"CHPS","ownership":"Government","town":"Pungu South","longitude":-1.06369,"id":"aaknmzmilxcu"},"type":"Feature","geometry":{"type":"Point","coordinates":[-1.06369,10.91361]}},{"properties":{"latitude":10.83948,"region":"Upper East","district":"Kassena-Nankana","facilityname":"Vunania CHPS","type":"CHPS","ownership":"Government","town":"Vunania","longitude":-1.06925,"id":"aaknmzz9193r"},"type":"Feature","geometry":{"type":"Point","coordinates":[-1.06925,10.83948]}},{"properties":{"latitude":10.88533,"region":"Upper East","district":"Kassena-Nankana","facilityname":"Wuru CHPS","type":"CHPS","ownership":"Government","town":"Wuru","longitude":-1.11713,"id":"aaknmzydpx54"},"type":"Feature","geometry":{"type":"Point","coordinates":[-1.11713,10.88533]}},{"properties":{"latitude":10.97889,"region":"Upper East","district":"Kassena-Nankana","facilityname":"Yua CHPS","type":"CHPS","ownership":"Government","town":"Yua","longitude":-0.91525,"id":"aaknmzs9q5p4"},"type":"Feature","geometry":{"type":"Point","coordinates":[-0.91525,10.97889]}},{"properties":{"latitude":null,"region":"Upper East","district":"Bongo","facilityname":"Saporo CHPS","type":"CHPS","ownership":"Government","town":"Saporo","longitude":null,"id":"aaknn01caj9m"},"type":"Feature","geometry":null},{"properties":{"latitude":10.99472,"region":"Upper East","district":"Bongo","facilityname":"Akolpolsiga CHPS","type":"CHPS","ownership":"Government","town":"Akolpolsiga","longitude":-0.78336,"id":"aaknmzulcv1k"},"type":"Feature","geometry":{"type":"Point","coordinates":[-0.78336,10.99472]}},{"properties":{"latitude":10.98847,"region":"Upper East","district":"Bongo","facilityname":"Feo CHPS","type":"CHPS","ownership":"Government","town":"Feo","longitude":-0.80548,"id":"aaknmzr9499g"},"type":"Feature","geometry":{"type":"Point","coordinates":[-0.80548,10.98847]}},{"properties":{"latitude":10.94445,"region":"Upper East","district":"Bongo","facilityname":"Kabre CHPS","type":"CHPS","ownership":"Government","town":"Kabre","longitude":-0.76877,"id":"aaknmzr4gw4c"},"type":"Feature","geometry":{"type":"Point","coordinates":[-0.76877,10.94445]}},{"properties":{"latitude":10.87064,"region":"Upper East","district":"Bongo","facilityname":"Wagliga CHPS","type":"CHPS","ownership":"Government","town":"Wagliga","longitude":-0.74359,"id":"aaknmzq7lnbs"},"type":"Feature","geometry":{"type":"Point","coordinates":[-0.74359,10.87064]}},{"properties":{"latitude":10.94464,"region":"Upper East","district":"Bongo","facilityname":"Kadare CHPS","type":"CHPS","ownership":"Government","town":"Kadare","longitude":-0.89625,"id":"aaknmzya3qc4"},"type":"Feature","geometry":{"type":"Point","coordinates":[-0.89625,10.94464]}},{"properties":{"latitude":10.95773,"region":"Upper East","district":"Bawku West","facilityname":"Yarigu CHPS","type":"CHPS","ownership":"Government","town":"Yarigu","longitude":-0.39745,"id":"aaknmzqour5f"},"type":"Feature","geometry":{"type":"Point","coordinates":[-0.39745,10.95773]}},{"properties":{"latitude":10.7269,"region":"Upper East","district":"Garu-Tempane","facilityname":"Denugu CHPS","type":"CHPS","ownership":"Government","town":"Denugu","longitude":-0.2212,"id":"aaknn01ujl5a"},"type":"Feature","geometry":{"type":"Point","coordinates":[-0.2212,10.7269]}},{"properties":{"latitude":10.81243,"region":"Upper East","district":"Garu-Tempane","facilityname":"KpiKpira CHPS","type":"CHPS","ownership":"Government","town":"Kpikpira","longitude":-0.08464,"id":"aaknmzpescl5"},"type":"Feature","geometry":{"type":"Point","coordinates":[-0.08464,10.81243]}},{"properties":{"latitude":10.82053,"region":"Upper East","district":"Garu-Tempane","facilityname":"Sumaduri CHPS","type":"CHPS","ownership":"Government","town":"Sumaduri","longitude":-0.0559,"id":"aaknmzrsvf8w"},"type":"Feature","geometry":{"type":"Point","coordinates":[-0.0559,10.82053]}},{"properties":{"latitude":10.95298,"region":"Upper East","district":"Garu-Tempane","facilityname":"Nagani CHPS","type":"CHPS","ownership":"Government","town":"Nagani","longitude":-0.01639,"id":"aaknmzvramfn"},"type":"Feature","geometry":{"type":"Point","coordinates":[-0.01639,10.95298]}},{"properties":{"latitude":10.90886,"region":"Upper East","district":"Garu-Tempane","facilityname":"Kugasheigu CHPS","type":"CHPS","ownership":"Government","town":"Kugasheigu","longitude":-0.10779,"id":"aaknn01meuui"},"type":"Feature","geometry":{"type":"Point","coordinates":[-0.10779,10.90886]}},{"properties":{"latitude":10.66532,"region":"Upper East","district":"Bawku West","facilityname":"Zongoire CHPS","type":"CHPS","ownership":"Government","town":"Zongoire/Natinga","longitude":-0.41185,"id":"aaknmzy1yhu9"},"type":"Feature","geometry":{"type":"Point","coordinates":[-0.41185,10.66532]}},{"properties":{"latitude":null,"region":"Upper East","district":"Bawku Municipal","facilityname":"Kulungungu CHPS","type":"CHPS","ownership":"Government","town":"'Kulungungu","longitude":null,"id":"aaknmztdte0i"},"type":"Feature","geometry":null},{"properties":{"latitude":null,"region":"Upper East","district":"Bawku Municipal","facilityname":"Nakom CHPS","type":"CHPS","ownership":"Government","town":"Nakom","longitude":null,"id":"aaknmzufrkqe"},"type":"Feature","geometry":null},{"properties":{"latitude":null,"region":"Upper East","district":"Bawku Municipal","facilityname":"Tindanatinga CHPS","type":"CHPS","ownership":"Government","town":"Tindanatinga","longitude":null,"id":"aaknmzm78c79"},"type":"Feature","geometry":null},{"properties":{"latitude":null,"region":"Upper East","district":"Bolgatanga Municipal","facilityname":"Katanga CHPS","type":"CHPS","ownership":"Government","town":"Katanga","longitude":null,"id":"aaknmzolrv0u"},"type":"Feature","geometry":null},{"properties":{"latitude":null,"region":"Upper East","district":"Bolgatanga Municipal","facilityname":"Nyokokor CHPS","type":"CHPS","ownership":"Government","town":"Nyokokor","longitude":null,"id":"aaknmzqwntcs"},"type":"Feature","geometry":null},{"properties":{"latitude":null,"region":"Upper East","district":"Bolgatanga Municipal","facilityname":"Yarigabisi CHPS","type":"CHPS","ownership":"Government","town":"Yarigabisi","longitude":null,"id":"aaknmzre43ol"},"type":"Feature","geometry":null},{"properties":{"latitude":null,"region":"Upper East","district":"Bolgatanga Municipal","facilityname":"Yorogo-Madina CHPS","type":"CHPS","ownership":"Government","town":"Yorogo-Madina","longitude":null,"id":"aaknmzuo0873"},"type":"Feature","geometry":null},{"properties":{"latitude":10.81342,"region":"Upper East","district":"Garu-Tempane","facilityname":"Kpatia CHPS","type":"CHPS","ownership":"Government","town":"Kpatia","longitude":-0.14367,"id":"aaknmzqm49st"},"type":"Feature","geometry":{"type":"Point","coordinates":[-0.14367,10.81342]}},{"properties":{"latitude":null,"region":"Upper East","district":"Talensi-Nabdam","facilityname":"Yinduri CHPS","type":"CHPS","ownership":"Government","town":"Yinduri","longitude":null,"id":"aaknmzo37ohr"},"type":"Feature","geometry":null},{"properties":{"latitude":null,"region":"Upper East","district":"Talensi-Nabdam","facilityname":"Shia CHPS","type":"CHPS","ownership":"Government","town":"Shia","longitude":null,"id":"aaknmzniua6q"},"type":"Feature","geometry":null},{"properties":{"latitude":10.57299,"region":"Upper West","district":"Lambussie","facilityname":"Dahile CHPS","type":"CHPS","ownership":"Government","town":"Dahile","longitude":-2.44459,"id":"aaknmzngokdu"},"type":"Feature","geometry":{"type":"Point","coordinates":[-2.44459,10.57299]}},{"properties":{"latitude":10.48192,"region":"Upper West","district":"Jirapa","facilityname":"Tampaala CHPS","type":"CHPS","ownership":"Government","town":"Tampaala","longitude":-2.65036,"id":"aaknmzv3tsdy"},"type":"Feature","geometry":{"type":"Point","coordinates":[-2.65036,10.48192]}},{"properties":{"latitude":10.62186,"region":"Upper West","district":"Lawra","facilityname":"Gbieri CHPS","type":"CHPS","ownership":"Government","town":"Gbieri","longitude":-2.89917,"id":"aaknn0164sgz"},"type":"Feature","geometry":{"type":"Point","coordinates":[-2.89917,10.62186]}},{"properties":{"latitude":10.64074,"region":"Upper West","district":"Lawra","facilityname":"Nanyaari CHPS","type":"CHPS","ownership":"Government","town":"Nanyaari","longitude":-2.8536,"id":"aaknmzpmvxg2"},"type":"Feature","geometry":{"type":"Point","coordinates":[-2.8536,10.64074]}},{"properties":{"latitude":10.49047,"region":"Upper West","district":"Nadowli","facilityname":"Kamahegu CHPS","type":"CHPS","ownership":"Government","town":"Kamahegu","longitude":-2.49141,"id":"aaknmzn2uwra"},"type":"Feature","geometry":{"type":"Point","coordinates":[-2.49141,10.49047]}},{"properties":{"latitude":10.31828,"region":"Upper West","district":"Nadowli","facilityname":"Naro CHPS","type":"CHPS","ownership":"Government","town":"Naro","longitude":-2.46513,"id":"aaknmznhvyyk"},"type":"Feature","geometry":{"type":"Point","coordinates":[-2.46513,10.31828]}},{"properties":{"latitude":10.19884,"region":"Upper West","district":"Nadowli","facilityname":"Sankana CHPS","type":"CHPS","ownership":"Government","town":"Sankana","longitude":-2.59114,"id":"aaknmzzxf084"},"type":"Feature","geometry":{"type":"Point","coordinates":[-2.59114,10.19884]}},{"properties":{"latitude":10.30059,"region":"Upper West","district":"Nadowli","facilityname":"Goli CHPS","type":"CHPS","ownership":"Government","town":"Goli","longitude":-2.62405,"id":"aaknmzopxy1x"},"type":"Feature","geometry":{"type":"Point","coordinates":[-2.62405,10.30059]}},{"properties":{"latitude":10.30419,"region":"Upper West","district":"Nadowli","facilityname":"Cheri-Sombo CHPS","type":"CHPS","ownership":"Government","town":"Cheri-sombo","longitude":-2.68883,"id":"aaknmzuy0jmh"},"type":"Feature","geometry":{"type":"Point","coordinates":[-2.68883,10.30419]}},{"properties":{"latitude":10.26844,"region":"Upper West","district":"Nadowli","facilityname":"Nator CHPS","type":"CHPS","ownership":"Government","town":"Nator","longitude":-2.65501,"id":"aaknmzp0q1qy"},"type":"Feature","geometry":{"type":"Point","coordinates":[-2.65501,10.26844]}},{"properties":{"latitude":10.73223,"region":"Upper West","district":"Sissala East","facilityname":"Sakia CHPS","type":"CHPS","ownership":"Government","town":"Sakia","longitude":-1.96607,"id":"aaknmzn9uvqr"},"type":"Feature","geometry":{"type":"Point","coordinates":[-1.96607,10.73223]}},{"properties":{"latitude":10.11981,"region":"Upper West","district":"Wa Municipal","facilityname":"Kperisi CHPS","type":"CHPS","ownership":"Government","town":"Kperisi","longitude":-2.45597,"id":"aaknmzt7hn0x"},"type":"Feature","geometry":{"type":"Point","coordinates":[-2.45597,10.11981]}},{"properties":{"latitude":9.76549,"region":"Upper West","district":"Wa West","facilityname":"Chogsia CHPS","type":"CHPS","ownership":"Government","town":"Chogsia","longitude":-2.5638,"id":"aaknmzsnxxr1"},"type":"Feature","geometry":{"type":"Point","coordinates":[-2.5638,9.76549]}},{"properties":{"latitude":9.92946,"region":"Upper West","district":"Wa West","facilityname":"Vieri CHPS","type":"CHPS","ownership":"Government","town":"Vieri","longitude":-2.59469,"id":"aaknmzty20ox"},"type":"Feature","geometry":{"type":"Point","coordinates":[-2.59469,9.92946]}},{"properties":{"latitude":9.68347,"region":"Upper West","district":"Wa West","facilityname":"Dornye CHPS","type":"CHPS","ownership":"Government","town":"Dornye","longitude":-2.70487,"id":"aaknmzpoep8w"},"type":"Feature","geometry":{"type":"Point","coordinates":[-2.70487,9.68347]}},{"properties":{"latitude":10.55812,"region":"Upper West","district":"Lambussie","facilityname":"Henteng CHPS","type":"CHPS","ownership":"Government","town":"Henteng","longitude":-2.37083,"id":"aaknmzswynnu"},"type":"Feature","geometry":{"type":"Point","coordinates":[-2.37083,10.55812]}},{"properties":{"latitude":10.37467,"region":"Upper West","district":"Jirapa","facilityname":"Ping CHPS","type":"CHPS","ownership":"Government","town":"Ping","longitude":-2.30288,"id":"aaknmzyfc7xu"},"type":"Feature","geometry":{"type":"Point","coordinates":[-2.30288,10.37467]}},{"properties":{"latitude":10.79589,"region":"Upper West","district":"Lambussie","facilityname":"Sentu CHPS","type":"CHPS","ownership":"Government","town":"Samoa","longitude":-2.66981,"id":"aaknmzx58eex"},"type":"Feature","geometry":{"type":"Point","coordinates":[-2.66981,10.79589]}},{"properties":{"latitude":10.48192,"region":"Upper West","district":"Jirapa","facilityname":"Somboro CHPS","type":"CHPS","ownership":"Government","town":"Somboro","longitude":-2.65036,"id":"aaknmzn3jdmc"},"type":"Feature","geometry":{"type":"Point","coordinates":[-2.65036,10.48192]}},{"properties":{"latitude":10.50966,"region":"Upper West","district":"Lambussie","facilityname":"Suke CHPS","type":"CHPS","ownership":"Government","town":"Suke","longitude":-2.30977,"id":"aaknn01q6trz"},"type":"Feature","geometry":{"type":"Point","coordinates":[-2.30977,10.50966]}},{"properties":{"latitude":10.28673,"region":"Upper West","district":"Lawra","facilityname":"Biro CHPS","type":"CHPS","ownership":"Government","town":"Biro","longitude":-2.5108,"id":"aaknmzs9pym2"},"type":"Feature","geometry":{"type":"Point","coordinates":[-2.5108,10.28673]}},{"properties":{"latitude":null,"region":"Upper West","district":"Lawra","facilityname":"Tankyaara CHPS","type":"CHPS","ownership":"Government","town":"Tankyaara","longitude":null,"id":"aaknn00k45ka"},"type":"Feature","geometry":null},{"properties":{"latitude":10.45733,"region":"Upper West","district":"Lawra","facilityname":"Tuopare CHPS","type":"CHPS","ownership":"Government","town":"Tuopare","longitude":-2.42345,"id":"aaknmzuhjl1u"},"type":"Feature","geometry":{"type":"Point","coordinates":[-2.42345,10.45733]}},{"properties":{"latitude":10.38689,"region":"Upper West","district":"Lawra","facilityname":"Dikpe CHPS","type":"CHPS","ownership":"Government","town":"Dikpe","longitude":-2.5556,"id":"aaknmzvtnpkg"},"type":"Feature","geometry":{"type":"Point","coordinates":[-2.5556,10.38689]}},{"properties":{"latitude":null,"region":"Upper West","district":"Lawra","facilityname":"Kokoligu CHPS","type":"CHPS","ownership":"Government","town":"Kokoligu","longitude":null,"id":"aaknmzue48ea"},"type":"Feature","geometry":null},{"properties":{"latitude":10.19332,"region":"Upper West","district":"Nadowli","facilityname":"Sampina CHPS","type":"CHPS","ownership":"Government","town":"Sampina","longitude":-2.48783,"id":"aaknmzod64yl"},"type":"Feature","geometry":{"type":"Point","coordinates":[-2.48783,10.19332]}},{"properties":{"latitude":10.20917,"region":"Upper West","district":"Nadowli","facilityname":"Duong CHPS","type":"CHPS","ownership":"Government","town":"Duong","longitude":-2.32978,"id":"aaknmzz7yben"},"type":"Feature","geometry":{"type":"Point","coordinates":[-2.32978,10.20917]}},{"properties":{"latitude":null,"region":"Upper West","district":"Nadowli","facilityname":"Kpazie CHPS","type":"CHPS","ownership":"Government","town":"Kpazie","longitude":null,"id":"aaknmzqgclc8"},"type":"Feature","geometry":null},{"properties":{"latitude":10.2902,"region":"Upper West","district":"Nadowli","facilityname":"Samanbo CHPS","type":"CHPS","ownership":"Government","town":"Samanbo","longitude":-2.18107,"id":"aaknmzza983e"},"type":"Feature","geometry":{"type":"Point","coordinates":[-2.18107,10.2902]}},{"properties":{"latitude":null,"region":"Upper West","district":"Nadowli","facilityname":"Tabiesi CHPS","type":"CHPS","ownership":"Government","town":"Tabiesi","longitude":null,"id":"aaknmzpwi5xa"},"type":"Feature","geometry":null},{"properties":{"latitude":10.16023,"region":"Upper West","district":"Nadowli","facilityname":"Kanyini CHPS","type":"CHPS","ownership":"Government","town":"Kanyini","longitude":-2.2956,"id":"aaknmzwsbtp4"},"type":"Feature","geometry":{"type":"Point","coordinates":[-2.2956,10.16023]}},{"properties":{"latitude":10.18016,"region":"Upper West","district":"Nadowli","facilityname":"Challa CHPS","type":"CHPS","ownership":"Government","town":"Challa","longitude":-2.13909,"id":"aaknmzv4qzdd"},"type":"Feature","geometry":{"type":"Point","coordinates":[-2.13909,10.18016]}},{"properties":{"latitude":10.15213,"region":"Upper West","district":"Sissala East","facilityname":"Bawiesibella CHPS","type":"CHPS","ownership":"Government","town":"Bawiesibella","longitude":-1.44512,"id":"aaknn026b9jl"},"type":"Feature","geometry":{"type":"Point","coordinates":[-1.44512,10.15213]}},{"properties":{"latitude":null,"region":"Upper West","district":"Sissala West","facilityname":"Buo CHPS","type":"CHPS","ownership":"Government","town":"Buo","longitude":null,"id":"aaknmzvwicql"},"type":"Feature","geometry":null},{"properties":{"latitude":null,"region":"Upper West","district":"Sissala West","facilityname":"Duwie CHPS","type":"CHPS","ownership":"Government","town":"Duwie","longitude":null,"id":"aaknmzyf6oiy"},"type":"Feature","geometry":null},{"properties":{"latitude":10.10873,"region":"Upper West","district":"Wa East","facilityname":"Goh CHPS","type":"CHPS","ownership":"Government","town":"Goh","longitude":-2.13551,"id":"aaknmzwx3a6c"},"type":"Feature","geometry":{"type":"Point","coordinates":[-2.13551,10.10873]}},{"properties":{"latitude":null,"region":"Upper West","district":"Wa East","facilityname":"Kattaa CHPS","type":"CHPS","ownership":"Government","town":"Kattaa","longitude":null,"id":"aaknmzqcpmkl"},"type":"Feature","geometry":null},{"properties":{"latitude":null,"region":"Upper West","district":"Wa East","facilityname":"Naaha CHPS","type":"CHPS","ownership":"Government","town":"Naaha","longitude":null,"id":"aaknmzps9vb6"},"type":"Feature","geometry":null},{"properties":{"latitude":9.50208,"region":"Upper West","district":"Wa East","facilityname":"Ducie CHPS","type":"CHPS","ownership":"Government","town":"Ducie","longitude":-1.59546,"id":"aaknn00ov8lf"},"type":"Feature","geometry":{"type":"Point","coordinates":[-1.59546,9.50208]}},{"properties":{"latitude":null,"region":"Upper West","district":"Wa East","facilityname":"Kpaglahi CHPS","type":"CHPS","ownership":"Government","town":"Kpaglahi","longitude":null,"id":"aaknmzs8rsco"},"type":"Feature","geometry":null},{"properties":{"latitude":null,"region":"Upper West","district":"Wa East","facilityname":"Buffiamah CHPS","type":"CHPS","ownership":"Government","town":"Buffiamah","longitude":null,"id":"aaknmzncoico"},"type":"Feature","geometry":null},{"properties":{"latitude":9.59185,"region":"Upper West","district":"Wa East","facilityname":"Katua CHPS","type":"CHPS","ownership":"Government","town":"Katua","longitude":-1.55494,"id":"aaknmzurzlc8"},"type":"Feature","geometry":{"type":"Point","coordinates":[-1.55494,9.59185]}},{"properties":{"latitude":null,"region":"Upper West","district":"Wa East","facilityname":"Biitenga CHPS","type":"CHPS","ownership":"Government","town":"Bitenga","longitude":null,"id":"aaknmzmwk0nn"},"type":"Feature","geometry":null},{"properties":{"latitude":null,"region":"Upper West","district":"Wa East","facilityname":"Jeyiri CHPS","type":"CHPS","ownership":"Government","town":"Jeyiri","longitude":null,"id":"aaknmzp0qx9d"},"type":"Feature","geometry":null},{"properties":{"latitude":null,"region":"Upper West","district":"Wa Municipal","facilityname":"Bamahu CHPS","type":"CHPS","ownership":"Government","town":"Bamahu","longitude":null,"id":"aaknmzybk98c"},"type":"Feature","geometry":null},{"properties":{"latitude":9.56995,"region":"Upper West","district":"Wa Municipal","facilityname":"Boli CHPS","type":"CHPS","ownership":"Government","town":"Boli","longitude":-2.23418,"id":"aaknmzzo2zmx"},"type":"Feature","geometry":{"type":"Point","coordinates":[-2.23418,9.56995]}},{"properties":{"latitude":null,"region":"Upper West","district":"Wa Municipal","facilityname":"Piisi CHPS","type":"CHPS","ownership":"Government","town":"Piisi","longitude":null,"id":"aaknn01it5u0"},"type":"Feature","geometry":null},{"properties":{"latitude":10.03265,"region":"Upper West","district":"Wa Municipal","facilityname":"Jonga CHPS","type":"CHPS","ownership":"Government","town":"Jonga","longitude":-2.25044,"id":"aaknmztb3xro"},"type":"Feature","geometry":{"type":"Point","coordinates":[-2.25044,10.03265]}},{"properties":{"latitude":10.04092,"region":"Upper West","district":"Wa Municipal","facilityname":"Dobile CHPS","type":"CHPS","ownership":"Government","town":"Dobile","longitude":-2.30982,"id":"aaknmzxc6xja"},"type":"Feature","geometry":{"type":"Point","coordinates":[-2.30982,10.04092]}},{"properties":{"latitude":null,"region":"Upper West","district":"Wa Municipal","facilityname":"Kpomgu CHPS","type":"CHPS","ownership":"Government","town":"Kpomgu","longitude":null,"id":"aaknmzuvy600"},"type":"Feature","geometry":null},{"properties":{"latitude":null,"region":"Upper West","district":"Wa Municipal","facilityname":"Nakora CHPS","type":"CHPS","ownership":"Government","town":"Nakora","longitude":null,"id":"aaknmzpk83jt"},"type":"Feature","geometry":null},{"properties":{"latitude":10.04063,"region":"Upper West","district":"Wa Municipal","facilityname":"Dondoli CHPS","type":"CHPS","ownership":"Government","town":"Dondoli","longitude":-2.29734,"id":"aaknmzn28ski"},"type":"Feature","geometry":{"type":"Point","coordinates":[-2.29734,10.04063]}},{"properties":{"latitude":10.0512,"region":"Upper West","district":"Wa Municipal","facilityname":"Kumbiehi CHPS","type":"CHPS","ownership":"Government","town":"Kumbiehi","longitude":-2.30109,"id":"aaknmzmvkui9"},"type":"Feature","geometry":{"type":"Point","coordinates":[-2.30109,10.0512]}},{"properties":{"latitude":null,"region":"Upper West","district":"Wa Municipal","facilityname":"Tampalipaani CHPS","type":"CHPS","ownership":"Government","town":"Tampalipaani","longitude":null,"id":"aaknn0148o58"},"type":"Feature","geometry":null},{"properties":{"latitude":10.0702,"region":"Upper West","district":"Wa West","facilityname":"Dabo CHPS","type":"CHPS","ownership":"Government","town":"Dabo","longitude":-2.4596,"id":"aaknmzyh7mgb"},"type":"Feature","geometry":{"type":"Point","coordinates":[-2.4596,10.0702]}},{"properties":{"latitude":null,"region":"Upper West","district":"Wa West","facilityname":"Metteu CHPS","type":"CHPS","ownership":"Government","town":"Metteu","longitude":null,"id":"aaknmzscqj8h"},"type":"Feature","geometry":null},{"properties":{"latitude":null,"region":"Upper West","district":"Wa West","facilityname":"Jenebob CHPS","type":"CHPS","ownership":"Government","town":"Jenebob","longitude":null,"id":"aaknmzmncdia"},"type":"Feature","geometry":null},{"properties":{"latitude":null,"region":"Upper West","district":"Wa West","facilityname":"Ga CHPS","type":"CHPS","ownership":"Government","town":"Garu","longitude":null,"id":"aaknmzoyo3ar"},"type":"Feature","geometry":null},{"properties":{"latitude":9.45462,"region":"Upper West","district":"Wa West","facilityname":"Kunchelleyiri CHPS","type":"CHPS","ownership":"Government","town":"Kunchelleyiri","longitude":-2.21965,"id":"aaknmzlw8c8l"},"type":"Feature","geometry":{"type":"Point","coordinates":[-2.21965,9.45462]}},{"properties":{"latitude":10.79589,"region":"Upper West","district":"Lambussie","facilityname":"Sentu CHPS","type":"CHPS","ownership":"Government","town":"Samoa","longitude":-2.66981,"id":"aaknmzyzt3ug"},"type":"Feature","geometry":{"type":"Point","coordinates":[-2.66981,10.79589]}},{"properties":{"latitude":null,"region":"Volta","district":"Ho Municipal","facilityname":"Takla CHPS","type":"CHPS","ownership":"Government","town":"Takla","longitude":null,"id":"aaknmzzg63yc"},"type":"Feature","geometry":null},{"properties":{"latitude":null,"region":"Volta","district":"Ho Municipal","facilityname":"Dededo CHPS","type":"CHPS","ownership":"Government","town":"Dededo","longitude":null,"id":"aaknmzt8o9ks"},"type":"Feature","geometry":null},{"properties":{"latitude":7.06954,"region":"Volta","district":"Hohoe","facilityname":"Fodome Woe CHPS","type":"CHPS","ownership":"Government","town":"Fodome Woe","longitude":0.51707,"id":"aaknmzxtn4h9"},"type":"Feature","geometry":{"type":"Point","coordinates":[0.51707,7.06954]}},{"properties":{"latitude":7.02111,"region":"Volta","district":"Hohoe","facilityname":"Liati Wote CHPS","type":"CHPS","ownership":"Government","town":"Liati Wote","longitude":0.548553,"id":"aaknmzs97vsn"},"type":"Feature","geometry":{"type":"Point","coordinates":[0.548553,7.02111]}},{"properties":{"latitude":7.30353,"region":"Volta","district":"Jasikan","facilityname":"Teteman CHPS","type":"CHPS","ownership":"Government","town":"New Teteman","longitude":0.50848,"id":"aaknmzwprcz4"},"type":"Feature","geometry":{"type":"Point","coordinates":[0.50848,7.30353]}},{"properties":{"latitude":8.179899,"region":"Volta","district":"Krachi West","facilityname":"Gyatoakroa CHPS","type":"CHPS","ownership":"Government","town":"Gyatoakroa","longitude":0.07513,"id":"aaknmzucdux4"},"type":"Feature","geometry":{"type":"Point","coordinates":[0.07513,8.179899]}},{"properties":{"latitude":8.34735,"region":"Volta","district":"Nkwanta","facilityname":"Agoufie CHPS","type":"CHPS","ownership":"Government","town":"Nkwanta","longitude":0.31913,"id":"aaknmzwo8dtk"},"type":"Feature","geometry":{"type":"Point","coordinates":[0.31913,8.34735]}},{"properties":{"latitude":6.60745,"region":"Volta","district":"South Dayi","facilityname":"Tongor Tsanakpe CHPS","type":"CHPS","ownership":"Government","town":"Tongor Tsanakpe","longitude":0.17126,"id":"aaknmzyfztuj"},"type":"Feature","geometry":{"type":"Point","coordinates":[0.17126,6.60745]}},{"properties":{"latitude":6.11591,"region":"Volta","district":"South Tongu","facilityname":"Dorkplorme CHPS","type":"CHPS","ownership":"Government","town":"Dorkplorme","longitude":0.70574,"id":"aaknmzskr3zh"},"type":"Feature","geometry":{"type":"Point","coordinates":[0.70574,6.11591]}},{"properties":{"latitude":null,"region":"Volta","district":"Jasikan","facilityname":"Guaman CHPS","type":"CHPS","ownership":"Government","town":"Guaman","longitude":null,"id":"aaknmzznndw4"},"type":"Feature","geometry":null},{"properties":{"latitude":null,"region":"Volta","district":"Kadjebi","facilityname":"Pepesu CHPS","type":"CHPS","ownership":"Government","town":"Dodi","longitude":null,"id":"aaknmzv811qb"},"type":"Feature","geometry":null},{"properties":{"latitude":null,"region":"Volta","district":"Keta","facilityname":"Sasiame CHPS","type":"CHPS","ownership":"Government","town":"Sasiame","longitude":null,"id":"aaknmzybsh1t"},"type":"Feature","geometry":null},{"properties":{"latitude":null,"region":"Volta","district":"Keta","facilityname":"Atorkor CHPS","type":"CHPS","ownership":"Government","town":"Atorkor","longitude":null,"id":"aaknmzyxauwg"},"type":"Feature","geometry":null},{"properties":{"latitude":null,"region":"Volta","district":"Ketu","facilityname":"Kpoglu CHPS","type":"CHPS","ownership":"Government","town":"Kpoglu","longitude":null,"id":"aaknmznou4y2"},"type":"Feature","geometry":null},{"properties":{"latitude":null,"region":"Volta","district":"Ketu","facilityname":"Tublukope CHPS","type":"CHPS","ownership":"Government","town":"Tublukope","longitude":null,"id":"aaknmzrf2a8e"},"type":"Feature","geometry":null},{"properties":{"latitude":null,"region":"Volta","district":"Kpando","facilityname":"Fesi CHPS","type":"CHPS","ownership":"Government","town":"Fesi","longitude":null,"id":"aaknn00n24mp"},"type":"Feature","geometry":null},{"properties":{"latitude":null,"region":"Volta","district":"Kpando","facilityname":"Dafor CHPS","type":"CHPS","ownership":"Government","town":"Dafor","longitude":null,"id":"aaknmzogks4m"},"type":"Feature","geometry":null},{"properties":{"latitude":null,"region":"Volta","district":"Kpando","facilityname":"Bume CHPS","type":"CHPS","ownership":"Government","town":"Bume","longitude":null,"id":"aaknmzxssw6r"},"type":"Feature","geometry":null},{"properties":{"latitude":null,"region":"Volta","district":"Kpando","facilityname":"Gbefi CHPS","type":"CHPS","ownership":"Government","town":"Gbefi","longitude":null,"id":"aaknmzo4t4rn"},"type":"Feature","geometry":null},{"properties":{"latitude":null,"region":"Volta","district":"Krachi East","facilityname":"Njere CHPS","type":"CHPS","ownership":"Government","town":"Njere","longitude":null,"id":"aaknmzp2v6dk"},"type":"Feature","geometry":null},{"properties":{"latitude":null,"region":"Volta","district":"Krachi East","facilityname":"Anyiremu CHPS","type":"CHPS","ownership":"Government","town":"Anyiremu","longitude":null,"id":"aaknmzofjn8n"},"type":"Feature","geometry":null},{"properties":{"latitude":null,"region":"Volta","district":"Nkwanta","facilityname":"Alukpatsa CHPS","type":"CHPS","ownership":"Government","town":"Alukpatsa","longitude":null,"id":"aaknmzvsmd6t"},"type":"Feature","geometry":null},{"properties":{"latitude":null,"region":"Volta","district":"Nkwanta","facilityname":"Koe CHPS","type":"CHPS","ownership":"Government","town":"Koe","longitude":null,"id":"aaknmzq7opxt"},"type":"Feature","geometry":null},{"properties":{"latitude":null,"region":"Volta","district":"Nkwanta","facilityname":"Azua CHPS","type":"CHPS","ownership":"Government","town":"Azua","longitude":null,"id":"aaknn01p8egb"},"type":"Feature","geometry":null},{"properties":{"latitude":null,"region":"Volta","district":"Nkwanta","facilityname":"Ofosu CHPS","type":"CHPS","ownership":"Government","town":"Ofosu","longitude":null,"id":"aaknmzs7jf8i"},"type":"Feature","geometry":null},{"properties":{"latitude":null,"region":"Volta","district":"Nkwanta","facilityname":"Odumasi CHPS","type":"CHPS","ownership":"Government","town":"Odumasi","longitude":null,"id":"aaknmzqixyvw"},"type":"Feature","geometry":null},{"properties":{"latitude":null,"region":"Volta","district":"Nkwanta","facilityname":"Sibi Hill Top CHPS","type":"CHPS","ownership":"Government","town":"Sibi Hill Top","longitude":null,"id":"aaknmzws0lz0"},"type":"Feature","geometry":null},{"properties":{"latitude":null,"region":"Volta","district":"Nkwanta","facilityname":"Salifu CHPS","type":"CHPS","ownership":"Government","town":"Salifu","longitude":null,"id":"aaknmzo85i5q"},"type":"Feature","geometry":null},{"properties":{"latitude":null,"region":"Volta","district":"North Tongu","facilityname":"Woekpoe CHPS","type":"CHPS","ownership":"Government","town":"Woekpoe","longitude":null,"id":"aaknn0208x9u"},"type":"Feature","geometry":null},{"properties":{"latitude":null,"region":"Volta","district":"North Tongu","facilityname":"Mafi Agoe CHPS","type":"CHPS","ownership":"Government","town":"Agoe","longitude":null,"id":"aaknmzobwb0t"},"type":"Feature","geometry":null},{"properties":{"latitude":null,"region":"Volta","district":"North Tongu","facilityname":"Kpogadzi CHPS","type":"CHPS","ownership":"Government","town":"Kpogadzi","longitude":null,"id":"aaknmztxorfy"},"type":"Feature","geometry":null},{"properties":{"latitude":null,"region":"Volta","district":"North Tongu","facilityname":"Mafi Agoe CHPS","type":"CHPS","ownership":"Government","town":"Mafi Agoe","longitude":null,"id":"aaknmzvuekjh"},"type":"Feature","geometry":null},{"properties":{"latitude":null,"region":"Volta","district":"North Tongu","facilityname":"Avedotoe CHPS","type":"CHPS","ownership":"Government","town":"Kpogadzi","longitude":null,"id":"aaknmznvjsip"},"type":"Feature","geometry":null},{"properties":{"latitude":null,"region":"Volta","district":"South Dayi","facilityname":"Agbate CHPS","type":"CHPS","ownership":"government","town":"Agbate","longitude":null,"id":"aaknmzx9u304"},"type":"Feature","geometry":null},{"properties":{"latitude":null,"region":"Volta","district":"South Dayi","facilityname":"Lave CHPS","type":"CHPS","ownership":"Government","town":"Lave","longitude":null,"id":"aaknmzlxbc78"},"type":"Feature","geometry":null},{"properties":{"latitude":null,"region":"Volta","district":"South Dayi","facilityname":"Abui CHPS","type":"CHPS","ownership":"government","town":"Abui","longitude":null,"id":"aaknn023u621"},"type":"Feature","geometry":null},{"properties":{"latitude":null,"region":"Volta","district":"South Dayi","facilityname":"Tseyinu CHPS","type":"CHPS","ownership":"Government","town":"Tseyinu","longitude":null,"id":"aaknmzpmz5nf"},"type":"Feature","geometry":null},{"properties":{"latitude":null,"region":"Volta","district":"South Tongu","facilityname":"Sokutsime CHPS","type":"CHPS","ownership":"Government","town":"Sokutsime","longitude":null,"id":"aaknmzp3xlec"},"type":"Feature","geometry":null},{"properties":{"latitude":6.24924,"region":"Volta","district":"Akatsi","facilityname":"Agormor CHPS","type":"CHPS","ownership":"Government","town":"Agormor","longitude":0.78987,"id":"aaknmzob0mw4"},"type":"Feature","geometry":{"type":"Point","coordinates":[0.78987,6.24924]}},{"properties":{"latitude":6.19757,"region":"Volta","district":"Akatsi","facilityname":"Asafotsi CHPS","type":"CHPS","ownership":"Government","town":"Asafotsi","longitude":0.87044,"id":"aaknmzmbfj9g"},"type":"Feature","geometry":{"type":"Point","coordinates":[0.87044,6.19757]}},{"properties":{"latitude":6.12007,"region":"Volta","district":"Akatsi","facilityname":"Atidzive CHPS","type":"CHPS","ownership":"Government","town":"Atidzive","longitude":0.85112,"id":"aaknmzwea36r"},"type":"Feature","geometry":{"type":"Point","coordinates":[0.85112,6.12007]}},{"properties":{"latitude":6.33083,"region":"Volta","district":"Akatsi","facilityname":"Ave Afiadenyigba CHPS","type":"CHPS","ownership":"Government","town":"Ave-Afiadenyigba","longitude":0.87924,"id":"aaknmzzecun7"},"type":"Feature","geometry":{"type":"Point","coordinates":[0.87924,6.33083]}},{"properties":{"latitude":6.2667,"region":"Volta","district":"Akatsi","facilityname":"Avevi CHPS","type":"CHPS","ownership":"Government","town":"Avevi","longitude":0.81921,"id":"aaknmztihrap"},"type":"Feature","geometry":{"type":"Point","coordinates":[0.81921,6.2667]}},{"properties":{"latitude":6.41447,"region":"Volta","district":"Akatsi","facilityname":"Ave Dzalele CHPS","type":"CHPS","ownership":"Government","town":"Dzalele","longitude":0.75754,"id":"aaknmzu6ns6g"},"type":"Feature","geometry":{"type":"Point","coordinates":[0.75754,6.41447]}},{"properties":{"latitude":6.1119,"region":"Volta","district":"Akatsi","facilityname":"Dzogadze CHPS","type":"CHPS","ownership":"Government","town":"Dzogadze","longitude":0.87213,"id":"aaknmzvazpz9"},"type":"Feature","geometry":{"type":"Point","coordinates":[0.87213,6.1119]}},{"properties":{"latitude":null,"region":"Volta","district":"Akatsi","facilityname":"Ave Xevi CHPS","type":"CHPS","ownership":"Government","town":"Ave Xevi","longitude":null,"id":"aaknmzzz8r89"},"type":"Feature","geometry":null},{"properties":{"latitude":null,"region":"Volta","district":"Akatsi","facilityname":"Gornikope CHPS","type":"CHPS","ownership":"Government","town":"Gonikope","longitude":null,"id":"aaknmzvf5a78"},"type":"Feature","geometry":null},{"properties":{"latitude":null,"region":"Volta","district":"Akatsi","facilityname":"Sremanu CHPS","type":"CHPS","ownership":"Government","town":"Sremanu","longitude":null,"id":"aaknmzv2xn4m"},"type":"Feature","geometry":null},{"properties":{"latitude":null,"region":"Volta","district":"Akatsi","facilityname":"Xavi CHPS","type":"CHPS","ownership":"Government","town":"Xavi","longitude":null,"id":"aaknmzorc08b"},"type":"Feature","geometry":null},{"properties":{"latitude":4.92707,"region":"Western","district":"Ahanta West","facilityname":"Fasin CHPS","type":"CHPS","ownership":"Government","town":"Fasin","longitude":-1.94305,"id":"aaknn00zx01b"},"type":"Feature","geometry":{"type":"Point","coordinates":[-1.94305,4.92707]}},{"properties":{"latitude":4.82067,"region":"Western","district":"Ahanta West","facilityname":"Egyambra CHPS","type":"CHPS","ownership":"Government","town":"Egyambra","longitude":-2.1698,"id":"aaknmzlzc11y"},"type":"Feature","geometry":{"type":"Point","coordinates":[-2.1698,4.82067]}},{"properties":{"latitude":null,"region":"Western","district":"Ahanta West","facilityname":"Ewusiejoe CHPS","type":"CHPS","ownership":"Government","town":"Ewusiejoe","longitude":null,"id":"aaknmzvqoh6u"},"type":"Feature","geometry":null},{"properties":{"latitude":null,"region":"Western","district":"Ahanta West","facilityname":"New Amanful CHPS","type":"CHPS","ownership":"Government","town":"New Amanful","longitude":null,"id":"aaknmzpq56t0"},"type":"Feature","geometry":null},{"properties":{"latitude":null,"region":"Western","district":"Ahanta West","facilityname":"Kejebil CHPS","type":"CHPS","ownership":"Government","town":"Kajebil","longitude":null,"id":"aaknmzzpqrmv"},"type":"Feature","geometry":null},{"properties":{"latitude":null,"region":"Western","district":"Ahanta West","facilityname":"Akwidaa CHPS","type":"CHPS","ownership":"Government","town":"Akwidaa","longitude":null,"id":"aaknmzlyz4z2"},"type":"Feature","geometry":null},{"properties":{"latitude":null,"region":"Western","district":"Ahanta West","facilityname":"Butre CHPS","type":"CHPS","ownership":"Government","town":"Butre","longitude":null,"id":"aaknmzlum9n2"},"type":"Feature","geometry":null},{"properties":{"latitude":6.83139,"region":"Western","district":"Bia","facilityname":"Adabokrom CHPS","type":"CHPS","ownership":"Government","town":"Adabokrom","longitude":-3.02535,"id":"aaknmznhuno9"},"type":"Feature","geometry":{"type":"Point","coordinates":[-3.02535,6.83139]}},{"properties":{"latitude":6.795,"region":"Western","district":"Bia","facilityname":"Camp 15 CHPS","type":"CHPS","ownership":"Government","town":"Camp15","longitude":-2.90451,"id":"aaknmzzi839d"},"type":"Feature","geometry":{"type":"Point","coordinates":[-2.90451,6.795]}},{"properties":{"latitude":6.65927,"region":"Western","district":"Bia","facilityname":"Oseikojokrom CHPS","type":"CHPS","ownership":"Government","town":"Osei Kojokrom","longitude":-3.23588,"id":"aaknmzx1g087"},"type":"Feature","geometry":{"type":"Point","coordinates":[-3.23588,6.65927]}},{"properties":{"latitude":6.60326,"region":"Western","district":"Bia","facilityname":"Brebre CHPS","type":"CHPS","ownership":"Government","town":"Brebre","longitude":-3.22566,"id":"aaknmznk79so"},"type":"Feature","geometry":{"type":"Point","coordinates":[-3.22566,6.60326]}},{"properties":{"latitude":6.66861,"region":"Western","district":"Bia","facilityname":"Kojoaba CHPS","type":"CHPS","ownership":"Private","town":"Kojoaba","longitude":-3.18382,"id":"aaknmzsfrzhy"},"type":"Feature","geometry":{"type":"Point","coordinates":[-3.18382,6.66861]}},{"properties":{"latitude":6.9459,"region":"Western","district":"Bia","facilityname":"Boafo Yena Clinic","type":"CHPS","ownership":"Private","town":"Ahimakrom","longitude":-3.1259,"id":"aaknmzu0e3uj"},"type":"Feature","geometry":{"type":"Point","coordinates":[-3.1259,6.9459]}},{"properties":{"latitude":4.99919,"region":"Western","district":"Jomoro","facilityname":"Kengen CHPS","type":"CHPS","ownership":"Government","town":"Kengen","longitude":-2.63917,"id":"aaknmznyq7y2"},"type":"Feature","geometry":{"type":"Point","coordinates":[-2.63917,4.99919]}},{"properties":{"latitude":5.16415,"region":"Western","district":"Jomoro","facilityname":"Sowodadzem CHPS","type":"CHPS","ownership":"Government","town":"Sowodadzem","longitude":-2.64809,"id":"aaknn00bvflo"},"type":"Feature","geometry":{"type":"Point","coordinates":[-2.64809,5.16415]}},{"properties":{"latitude":5.07279,"region":"Western","district":"Jomoro","facilityname":"Enzemetianu CHPS","type":"CHPS","ownership":"Government","town":"Enzemetianu.","longitude":-3.00704,"id":"aaknn0057p9j"},"type":"Feature","geometry":{"type":"Point","coordinates":[-3.00704,5.07279]}},{"properties":{"latitude":5.05367,"region":"Western","district":"Jomoro","facilityname":"Takinta CHPS","type":"CHPS","ownership":"Government","town":"Takinta","longitude":-2.80707,"id":"aaknmzpvilrz"},"type":"Feature","geometry":{"type":"Point","coordinates":[-2.80707,5.05367]}},{"properties":{"latitude":5.094,"region":"Western","district":"Jomoro","facilityname":"Nuba CHPS","type":"CHPS","ownership":"Government","town":"Nuba","longitude":-2.63326,"id":"aaknmzmhav8s"},"type":"Feature","geometry":{"type":"Point","coordinates":[-2.63326,5.094]}},{"properties":{"latitude":5.0957,"region":"Western","district":"Jomoro","facilityname":"Mpataba CHPS","type":"CHPS","ownership":"Government","town":"Mpataba","longitude":-2.59104,"id":"aaknmzy1x9al"},"type":"Feature","geometry":{"type":"Point","coordinates":[-2.59104,5.0957]}},{"properties":{"latitude":6.50236,"region":"Western","district":"Juabeso","facilityname":"Asempaneye CHPS","type":"CHPS","ownership":"Government","town":"Asempaneye","longitude":-2.90835,"id":"aaknmzqq97dz"},"type":"Feature","geometry":{"type":"Point","coordinates":[-2.90835,6.50236]}},{"properties":{"latitude":5.11982,"region":"Western","district":"Nzema East Municipal","facilityname":"Gwira Banso CHPS","type":"CHPS","ownership":"Government","town":"Gwira Banso","longitude":-2.24086,"id":"aaknmzp9kp63"},"type":"Feature","geometry":{"type":"Point","coordinates":[-2.24086,5.11982]}},{"properties":{"latitude":5.13831,"region":"Western","district":"Nzema East Municipal","facilityname":"Gwira Eshiem CHPS","type":"CHPS","ownership":"Government","town":"Gwira  Eshiem","longitude":-2.19365,"id":"aaknmzq7iyum"},"type":"Feature","geometry":{"type":"Point","coordinates":[-2.19365,5.13831]}},{"properties":{"latitude":null,"region":"Western","district":"Nzema East Municipal","facilityname":"Ewuku CHPS","type":"CHPS","ownership":"Government","town":"Ewuku","longitude":null,"id":"aaknmzmlrtlm"},"type":"Feature","geometry":null},{"properties":{"latitude":6.0601,"region":"Western","district":"Sefwi-Akontombra","facilityname":"Asantekrom CHPS","type":"CHPS","ownership":"Government","town":"Asantekrom","longitude":-2.57313,"id":"aaknmzr339ad"},"type":"Feature","geometry":{"type":"Point","coordinates":[-2.57313,6.0601]}},{"properties":{"latitude":4.98532,"region":"Western","district":"Tarkwa Nsuaem Municipal","facilityname":"Nyarso CHPS","type":"CHPS","ownership":"Government","town":"Nyarso","longitude":-2.09134,"id":"aaknmzr6fckj"},"type":"Feature","geometry":{"type":"Point","coordinates":[-2.09134,4.98532]}},{"properties":{"latitude":5.43213,"region":"Western","district":"Wassa West","facilityname":"Asompa CHPS","type":"CHPS","ownership":"Government","town":"Asompa","longitude":-2.1512,"id":"aaknmzme976n"},"type":"Feature","geometry":{"type":"Point","coordinates":[-2.1512,5.43213]}},{"properties":{"latitude":5.38227,"region":"Western","district":"Prestea-Huni Valley","facilityname":"Huniso CHPS","type":"CHPS","ownership":"Government","town":"Huniso","longitude":-2.06017,"id":"aaknmzrmetf6"},"type":"Feature","geometry":{"type":"Point","coordinates":[-2.06017,5.38227]}},{"properties":{"latitude":5.68484,"region":"Western","district":"Wassa-Amenfi East","facilityname":"Dawurampong CHPS","type":"CHPS","ownership":"Government","town":"Dawurampong","longitude":-2.02564,"id":"aaknmzuxo841"},"type":"Feature","geometry":{"type":"Point","coordinates":[-2.02564,5.68484]}},{"properties":{"latitude":5.95266,"region":"Western","district":"Wassa-Amenfi East","facilityname":"Jukwa Hemang CHPS","type":"CHPS","ownership":"Government","town":"Jukwa Hemang","longitude":-2.16958,"id":"aaknmzzqt7x4"},"type":"Feature","geometry":{"type":"Point","coordinates":[-2.16958,5.95266]}},{"properties":{"latitude":5.97477,"region":"Western","district":"Wassa-Amenfi East","facilityname":"Pewuako CHPS","type":"CHPS","ownership":"Government","town":"Pewuako","longitude":-1.97248,"id":"aaknn01c03do"},"type":"Feature","geometry":{"type":"Point","coordinates":[-1.97248,5.97477]}},{"properties":{"latitude":5.75036,"region":"Western","district":"Wassa-Amenfi West","facilityname":"Anyinabrim CHPS","type":"CHPS","ownership":"Government","town":"Anyinabrim","longitude":-2.22911,"id":"aaknn00ms8cp"},"type":"Feature","geometry":{"type":"Point","coordinates":[-2.22911,5.75036]}},{"properties":{"latitude":null,"region":"Western","district":"Ahanta West","facilityname":"Ewusiejoe CHPS","type":"CHPS","ownership":"Government","town":null,"longitude":null,"id":"aaknmzql2jmq"},"type":"Feature","geometry":null},{"properties":{"latitude":null,"region":"Western","district":"Ahanta West","facilityname":"Akwidaa CHPS","type":"CHPS","ownership":"Government","town":null,"longitude":null,"id":"aaknmzrceshx"},"type":"Feature","geometry":null},{"properties":{"latitude":null,"region":"Western","district":"Wassa-Amenfi West","facilityname":"Wuratrem CHPS","type":"CHPS","ownership":"Government","town":null,"longitude":null,"id":"aaknmzvet3e4"},"type":"Feature","geometry":null},{"properties":{"latitude":null,"region":"Western","district":"Wassa-Amenfi West","facilityname":"Wassa Bonsie CHPS","type":"CHPS","ownership":"Government","town":null,"longitude":null,"id":"aaknn0027zlh"},"type":"Feature","geometry":null},{"properties":{"latitude":null,"region":"Western","district":"Wassa-Amenfi West","facilityname":"Moseaso CHPS","type":"CHPS","ownership":"Government","town":null,"longitude":null,"id":"aaknmzvgpfup"},"type":"Feature","geometry":null},{"properties":{"latitude":null,"region":"Western","district":"Wassa-Amenfi West","facilityname":"Nkwantanum CHPS","type":"CHPS","ownership":"Government","town":null,"longitude":null,"id":"aaknmzwbt6wu"},"type":"Feature","geometry":null},{"properties":{"latitude":null,"region":"Western","district":"Wassa-Amenfi West","facilityname":"Moseaso CHPS","type":"CHPS","ownership":"Government","town":null,"longitude":null,"id":"aaknmzmxla0v"},"type":"Feature","geometry":null},{"properties":{"latitude":null,"region":"Western","district":"Bia","facilityname":"Kwasi Nkrumah CHPS","type":"CHPS","ownership":"Government","town":null,"longitude":null,"id":"aaknmzxgcl8q"},"type":"Feature","geometry":null},{"properties":{"latitude":null,"region":"Western","district":"Bia","facilityname":"Cashier CPS","type":"CHPS","ownership":"Government","town":null,"longitude":null,"id":"aaknmzs76vpz"},"type":"Feature","geometry":null},{"properties":{"latitude":null,"region":"Western","district":"Juabeso","facilityname":"Bodi CHPS","type":"CHPS","ownership":"Government","town":"Bodi","longitude":null,"id":"aaknmzpn5y49"},"type":"Feature","geometry":null},{"properties":{"latitude":null,"region":"Western","district":"Juabeso","facilityname":"Bonsu CHPS","type":"CHPS","ownership":"Government","town":"Bonsu","longitude":null,"id":"aaknmzzfhzwv"},"type":"Feature","geometry":null},{"properties":{"latitude":null,"region":"Western","district":"Juabeso","facilityname":"Jatokrom CHPS","type":"CHPS","ownership":"Government","town":"Jatokrom","longitude":null,"id":"aaknmztt144o"},"type":"Feature","geometry":null},{"properties":{"latitude":10.37467,"region":"Western","district":"Shama Ahanta East","facilityname":"Infirmary Clinic","type":"CHPS","ownership":"Government","town":"Ping","longitude":-2.30288,"id":"aaknmzsbvi0w"},"type":"Feature","geometry":{"type":"Point","coordinates":[-2.30288,10.37467]}},{"properties":{"latitude":10.48192,"region":"Western","district":"Shama Ahanta East","facilityname":"Scho ol for the Deaf Clinic","type":"CHPS","ownership":"Government","town":"Somboro","longitude":-2.65036,"id":"aaknmzqfo8l2"},"type":"Feature","geometry":{"type":"Point","coordinates":[-2.65036,10.48192]}},{"properties":{"latitude":null,"region":"Western","district":"Mpohor-Wassa East","facilityname":"Nsadweso CHPS","type":"CHPS","ownership":"Government","town":"Nsadweso","longitude":null,"id":"aaknmzq1nlnc"},"type":"Feature","geometry":null},{"properties":{"latitude":null,"region":"Western","district":"Mpohor-Wassa East","facilityname":"Sekyere Hemang CHPS","type":"CHPS","ownership":"Government","town":"Sekyere Hemang","longitude":null,"id":"aaknn011x24b"},"type":"Feature","geometry":null},{"properties":{"latitude":null,"region":"Western","district":"Wassa West","facilityname":"Insusiding CHPS","type":"CHPS","ownership":"Government","town":null,"longitude":null,"id":"aaknn00l1wo1"},"type":"Feature","geometry":null},{"properties":{"latitude":null,"region":"Western","district":"Wassa West","facilityname":"Daamang CHPS","type":"CHPS","ownership":"Government","town":null,"longitude":null,"id":"aaknmzqwpr5y"},"type":"Feature","geometry":null},{"properties":{"latitude":null,"region":"Western","district":"Aowin Suaman","facilityname":"Jema CHPS","type":"CHPS","ownership":"Government","town":null,"longitude":null,"id":"aaknmzschriz"},"type":"Feature","geometry":null},{"properties":{"latitude":null,"region":"Western","district":"Aowin Suaman","facilityname":"Kwasuo/Bantama CHPS","type":"CHPS","ownership":"Government","town":null,"longitude":null,"id":"aaknmztuuyza"},"type":"Feature","geometry":null},{"properties":{"latitude":null,"region":"Western","district":"Bibiani-Anhwiaso-Bekwai","facilityname":"Aboduabo CHPS","type":"CHPS","ownership":"Government","town":"Aboduabo","longitude":null,"id":"aaknmztcq40q"},"type":"Feature","geometry":null},{"properties":{"latitude":null,"region":"Western","district":"Sefwi-Akontombra","facilityname":"Yamfo CHPS","type":"CHPS","ownership":"Government","town":null,"longitude":null,"id":"aaknmzv81if1"},"type":"Feature","geometry":null},{"properties":{"latitude":null,"region":"Western","district":"Sefwi Wiawso","facilityname":"Aboagyekrom CHPS","type":"CHPS","ownership":"Government","town":null,"longitude":null,"id":"aaknn00vqzx0"},"type":"Feature","geometry":null},{"properties":{"latitude":null,"region":"Western","district":"Sefwi Wiawso","facilityname":"Paboase CHPS","type":"CHPS","ownership":"Government","town":null,"longitude":null,"id":"aaknn00ufonq"},"type":"Feature","geometry":null},{"properties":{"latitude":null,"region":"Western","district":"Nzema East","facilityname":"Aidoosuazo CHPS","type":"CHPS","ownership":"Government","town":null,"longitude":null,"id":"aaknmzrrag3f"},"type":"Feature","geometry":null},{"properties":{"latitude":null,"region":"Western","district":"Nzema East","facilityname":"Kwasikrom CHPS","type":"CHPS","ownership":"Government","town":null,"longitude":null,"id":"aaknmzy6g4qz"},"type":"Feature","geometry":null},{"properties":{"latitude":null,"region":"Western","district":"Nzema East","facilityname":"A.B Bokazo CHPS","type":"CHPS","ownership":"Government","town":null,"longitude":null,"id":"aaknmzzk69dr"},"type":"Feature","geometry":null},{"properties":{"latitude":null,"region":"Western","district":"Jomoro","facilityname":"Ghana Nungua CHPS","type":"CHPS","ownership":"Government","town":"Ghana Nungua","longitude":null,"id":"aaknmzt7r1oz"},"type":"Feature","geometry":null},{"properties":{"latitude":null,"region":"Western","district":"Bia","facilityname":"Kwametawiahkrom CHPS","type":"CHPS","ownership":"Government","town":"Kwametawiahkrom","longitude":null,"id":"aaknmzzjm0zm"},"type":"Feature","geometry":null},{"properties":{"latitude":null,"region":"Western","district":"Bia","facilityname":"Amoashed CHPS","type":"CHPS","ownership":"Government","town":"Amoashed","longitude":null,"id":"aaknmzupzfk4"},"type":"Feature","geometry":null},{"properties":{"latitude":null,"region":"Western","district":"Bia","facilityname":"Arhinful CHPS","type":"CHPS","ownership":"Government","town":"Arhinful","longitude":null,"id":"aaknmzxfxlx9"},"type":"Feature","geometry":null},{"properties":{"latitude":null,"region":"Western","district":"Bia","facilityname":"Fosukrom CHPS","type":"CHPS","ownership":"Government","town":"Fosukrom","longitude":null,"id":"aaknn0273c5a"},"type":"Feature","geometry":null},{"properties":{"latitude":null,"region":"Western","district":"Bia","facilityname":"Owusu Ansah CHPS","type":"CHPS","ownership":"Government","town":"Owusu Ansah","longitude":null,"id":"aaknn00cjwyi"},"type":"Feature","geometry":null},{"properties":{"latitude":null,"region":"Western","district":"Bia","facilityname":"Nsowakrom CHPS","type":"CHPS","ownership":"Government","town":"Nsowakrom","longitude":null,"id":"aaknn00yseua"},"type":"Feature","geometry":null},{"properties":{"latitude":null,"region":"Western","district":"Bia","facilityname":"New Papaase CHPS","type":"CHPS","ownership":"Government","town":"New Papaase","longitude":null,"id":"aaknmzum9o2h"},"type":"Feature","geometry":null},{"properties":{"latitude":null,"region":"Western","district":"Bibiani-Anhwiaso-Bekwai","facilityname":"Dominebo CHPS","type":"CHPS","ownership":"Government","town":"Dominebo","longitude":6.55529,"id":"aaknmzzc0yhk"},"type":"Feature","geometry":null},{"properties":{"latitude":null,"region":"Western","district":"Bibiani-Anhwiaso-Bekwai","facilityname":"Kumkumso CHPS","type":"CHPS","ownership":"Government","town":"Kumkumso","longitude":null,"id":"aaknmzozzots"},"type":"Feature","geometry":null},{"properties":{"latitude":null,"region":"Western","district":"Bibiani-Anhwiaso-Bekwai","facilityname":"Atronsu CHPS","type":"CHPS","ownership":"Government","town":"Atronsu","longitude":null,"id":"aaknmzv48ui5"},"type":"Feature","geometry":null},{"properties":{"latitude":null,"region":"Western","district":"Bibiani-Anhwiaso-Bekwai","facilityname":"Ashiam CHPS","type":"CHPS","ownership":"Government","town":"Ashiam","longitude":null,"id":"aaknmzmm61dg"},"type":"Feature","geometry":null},{"properties":{"latitude":null,"region":"Western","district":"Bibiani-Anhwiaso-Bekwai","facilityname":"Bethlehem CHPS","type":"CHPS","ownership":"Government","town":"Bethlehem","longitude":null,"id":"aaknmzr92ktx"},"type":"Feature","geometry":null},{"properties":{"latitude":null,"region":"Western","district":"Ellembele","facilityname":"Kamgbunli CHPS","type":"CHPS","ownership":"Government","town":"Kamgbunli","longitude":null,"id":"aaknmzu0j5y6"},"type":"Feature","geometry":null},{"properties":{"latitude":null,"region":"Western","district":"Ellembele","facilityname":"Aidoosuazo CHPS","type":"CHPS","ownership":"Government","town":"Aidoosuazo","longitude":null,"id":"aaknmzyq4u3t"},"type":"Feature","geometry":null},{"properties":{"latitude":null,"region":"Western","district":"Ellembele","facilityname":"Kwasikrom CHPS","type":"CHPS","ownership":"Government","town":"Kwasikrom","longitude":null,"id":"aaknmzwstl59"},"type":"Feature","geometry":null},{"properties":{"latitude":null,"region":"Western","district":"Ellembele","facilityname":"Asomase CHPS","type":"CHPS","ownership":"Government","town":"Asomase","longitude":null,"id":"aaknmzopwmt7"},"type":"Feature","geometry":null},{"properties":{"latitude":null,"region":"Western","district":"Jomoro","facilityname":"Ahobre CHPS","type":"CHPS","ownership":"Government","town":"Ahobre","longitude":null,"id":"aaknmzrcu2n2"},"type":"Feature","geometry":null},{"properties":{"latitude":null,"region":"Western","district":"Jomoro","facilityname":"Jawey Wharf CHPS","type":"CHPS","ownership":"Government","town":"Jawey Wharf","longitude":null,"id":"aaknmztfaz9j"},"type":"Feature","geometry":null},{"properties":{"latitude":null,"region":"Western","district":"Jomoro","facilityname":"Anwiafutu CHPS","type":"CHPS","ownership":"Government","town":"Anwiafutu","longitude":null,"id":"aaknmzz0c23o"},"type":"Feature","geometry":null},{"properties":{"latitude":null,"region":"Western","district":"Jomoro","facilityname":"Fawoman CHPS","type":"CHPS","ownership":"Government","town":"FawomAN","longitude":null,"id":"aaknn01ubv6f"},"type":"Feature","geometry":null},{"properties":{"latitude":null,"region":"Western","district":"Juabeso","facilityname":"Patakro CHPS","type":"CHPS","ownership":"Government","town":"Patakro","longitude":null,"id":"aaknmzu8qnpx"},"type":"Feature","geometry":null},{"properties":{"latitude":null,"region":"Western","district":"Juabeso","facilityname":"Benumsuo CHPS","type":"CHPS","ownership":"Government","town":"Benumsuo","longitude":null,"id":"aaknmzn8cb8w"},"type":"Feature","geometry":null},{"properties":{"latitude":null,"region":"Western","district":"Juabeso","facilityname":"Puakrom CHPS","type":"CHPS","ownership":"Government","town":"Puakrom","longitude":null,"id":"aaknmzox76q0"},"type":"Feature","geometry":null},{"properties":{"latitude":null,"region":"Western","district":"Juabeso","facilityname":"Mafia CHPS","type":"CHPS","ownership":"Government","town":"Mafia","longitude":null,"id":"aaknmzwb50xp"},"type":"Feature","geometry":null},{"properties":{"latitude":null,"region":"Western","district":"Juabeso","facilityname":"JJ Nkwanta CHPS","type":"CHPS","ownership":"Government","town":"JJ Nkwanta","longitude":null,"id":"aaknmzmf53w1"},"type":"Feature","geometry":null},{"properties":{"latitude":null,"region":"Western","district":"Juabeso","facilityname":"Kyensekokoo CHPS","type":"CHPS","ownership":"Government","town":"Kyensekokoo","longitude":null,"id":"aaknmzzjijiw"},"type":"Feature","geometry":null},{"properties":{"latitude":null,"region":"Western","district":"Juabeso","facilityname":"Agyemandiem CHPS","type":"CHPS","ownership":"Government","town":"Agyemandiem","longitude":null,"id":"aaknmzwur2c6"},"type":"Feature","geometry":null},{"properties":{"latitude":null,"region":"Western","district":"Juabeso","facilityname":"Sayerano CHPS","type":"CHPS","ownership":"Government","town":"Sayerano","longitude":null,"id":"aaknmzoju8z2"},"type":"Feature","geometry":null},{"properties":{"latitude":null,"region":"Western","district":"Mpohor-Wassa East","facilityname":"Domama CHPS","type":"CHPS","ownership":"Government","town":"Domama","longitude":null,"id":"aaknmzzaqf94"},"type":"Feature","geometry":null},{"properties":{"latitude":null,"region":"Western","district":"Mpohor-Wassa East","facilityname":"Ayiem CHPS","type":"CHPS","ownership":"Government","town":"Ayiem","longitude":null,"id":"aaknmzolnfaj"},"type":"Feature","geometry":null},{"properties":{"latitude":null,"region":"Western","district":"Pretea-Huni Valley","facilityname":"Nsusuaden CHPS","type":"CHPS","ownership":"Government","town":"Nsusuaden","longitude":null,"id":"aaknmzxr9ctf"},"type":"Feature","geometry":null},{"properties":{"latitude":null,"region":"Western","district":"Pretea-Huni Valley","facilityname":"Huniso CHPS","type":"CHPS","ownership":"Government","town":"Huniso","longitude":null,"id":"aaknmzp5jaj2"},"type":"Feature","geometry":null},{"properties":{"latitude":null,"region":"Western","district":"Pretea-Huni Valley","facilityname":"Asoampa CHPS","type":"CHPS","ownership":"Government","town":"Asoampa","longitude":null,"id":"aaknmzu0erza"},"type":"Feature","geometry":null},{"properties":{"latitude":null,"region":"Western","district":"Pretea-Huni Valley","facilityname":"Damang CHPS","type":"CHPS","ownership":"Government","town":"Damang","longitude":null,"id":"aaknmzwjngyt"},"type":"Feature","geometry":null},{"properties":{"latitude":null,"region":"Western","district":"Pretea-Huni Valley","facilityname":"Bompieso CHPS","type":"CHPS","ownership":"Government","town":"Bompieso","longitude":null,"id":"aaknmzydya80"},"type":"Feature","geometry":null},{"properties":{"latitude":null,"region":"Western","district":"Pretea-Huni Valley","facilityname":"Asikuma CHPS","type":"CHPS","ownership":"Government","town":"Asikuma","longitude":null,"id":"aaknn01w5db0"},"type":"Feature","geometry":null},{"properties":{"latitude":null,"region":"Western","district":"Sefwi Wiawso","facilityname":"Boako CHPS","type":"CHPS","ownership":"Government","town":"Boako","longitude":null,"id":"aaknmztmaf53"},"type":"Feature","geometry":null},{"properties":{"latitude":null,"region":"Western","district":"Sefwi Wiawso","facilityname":"Akurafu CHPS","type":"CHPS","ownership":"Government","town":"Akurafu","longitude":null,"id":"aaknn01b0vhg"},"type":"Feature","geometry":null},{"properties":{"latitude":null,"region":"Western","district":"Sefwi Wiawso","facilityname":"Sui CHPS","type":"CHPS","ownership":"Government","town":"Sui","longitude":null,"id":"aaknmzvy8p4s"},"type":"Feature","geometry":null},{"properties":{"latitude":null,"region":"Western","district":"Sefwi Wiawso","facilityname":"Amafia CHP","type":"CHPS","ownership":"Government","town":"Amafia","longitude":null,"id":"aaknn00ndsgz"},"type":"Feature","geometry":null},{"properties":{"latitude":null,"region":"Western","district":"Sefwi Wiawso","facilityname":"Bechwa CHPS","type":"CHPS","ownership":"Government","town":"Bechiwa","longitude":null,"id":"aaknmzwtduh0"},"type":"Feature","geometry":null},{"properties":{"latitude":null,"region":"Western","district":"Sefwi Wiawso","facilityname":"Ahokwa CHPS","type":"CHPS","ownership":"Government","town":"Ahokwa","longitude":null,"id":"aaknmzqv7k9w"},"type":"Feature","geometry":null},{"properties":{"latitude":null,"region":"Western","district":"Sefwi Wiawso","facilityname":"Nsuonsua CHPS","type":"CHPS","ownership":"Government","town":"Nsuonsua","longitude":null,"id":"aaknmzybno5q"},"type":"Feature","geometry":null},{"properties":{"latitude":null,"region":"Western","district":"Sefwi Wiawso","facilityname":"Nyamegyeso CHPS","type":"CHPS","ownership":"Government","town":"Nyamegyeso","longitude":null,"id":"aaknn00ksqiw"},"type":"Feature","geometry":null},{"properties":{"latitude":null,"region":"Western","district":"Shama","facilityname":"Living Well CHPS","type":"CHPS","ownership":"Government","town":null,"longitude":null,"id":"aaknn0221k27"},"type":"Feature","geometry":null},{"properties":{"latitude":null,"region":"Western","district":"Shama","facilityname":"Inchaban CHPS","type":"CHPS","ownership":"Government","town":null,"longitude":null,"id":"aaknmzqeq2l3"},"type":"Feature","geometry":null},{"properties":{"latitude":null,"region":"Western","district":"Wassa-Amenfi West","facilityname":"Bokakore CHPS","type":"CHPS","ownership":"Government","town":"Bokakore","longitude":null,"id":"aaknmzqvixl1"},"type":"Feature","geometry":null},{"properties":{"latitude":null,"region":"Western","district":"Wassa-Amenfi West","facilityname":"Attobrakrom CHPS","type":"CHPS","ownership":"Government","town":"Attobrakrom","longitude":null,"id":"aaknn01ljusr"},"type":"Feature","geometry":null},{"properties":{"latitude":null,"region":"Western","district":"Wassa-Amenfi West","facilityname":"Dunkwa CHPS","type":"CHPS","ownership":"Government","town":"Dunkwa","longitude":null,"id":"aaknmzx98bp5"},"type":"Feature","geometry":null},{"properties":{"latitude":null,"region":"Western","district":"Wassa-Amenfi West","facilityname":"Anakum CHPS","type":"CHPS","ownership":"Government","town":"Anakum","longitude":null,"id":"aaknmztjontj"},"type":"Feature","geometry":null},{"properties":{"latitude":null,"region":"Western","district":"Wassa-Amenfi West","facilityname":"Akyekyere CHPS","type":"CHPS","ownership":"Government","town":"Akyekyere","longitude":null,"id":"aaknmzn1jwwg"},"type":"Feature","geometry":null},{"properties":{"latitude":null,"region":"Western","district":"Wassa-Amenfi West","facilityname":"Kwaman CHPS","type":"CHPS","ownership":"Government","town":"Kwaman","longitude":null,"id":"aaknmznfmat8"},"type":"Feature","geometry":null},{"properties":{"latitude":null,"region":"Western","district":"Sefwi-Akontombra","facilityname":"Bawakrom CHPS","type":"CHPS","ownership":"Government","town":"Bawakrom","longitude":null,"id":"aaknn01s4vml"},"type":"Feature","geometry":null},{"properties":{"latitude":null,"region":"Western","district":"Sefwi-Akontombra","facilityname":"Edewuakrom CHPS","type":"CHPS","ownership":"Government","town":"Edewuakrom","longitude":null,"id":"aaknmzwpn0qy"},"type":"Feature","geometry":null},{"properties":{"latitude":null,"region":"Western","district":"Sefwi-Akontombra","facilityname":"Aburonahia CHPS","type":"CHPS","ownership":"Government","town":"Aburonahia","longitude":null,"id":"aaknn01btxty"},"type":"Feature","geometry":null},{"properties":{"latitude":null,"region":"Western","district":"Sefwi-Akontombra","facilityname":"Manukrom CHPS","type":"CHPS","ownership":"Government","town":"Manukrom","longitude":null,"id":"aaknmzly2xft"},"type":"Feature","geometry":null},{"properties":{"latitude":null,"region":"Western","district":"Sefwi-Akontombra","facilityname":"Ahwiafutu CHPS","type":"CHPS","ownership":"Government","town":"Ahwiafutu","longitude":null,"id":"aaknmzrutvzd"},"type":"Feature","geometry":null},{"properties":{"latitude":null,"region":"Western","district":"Sefwi-Akontombra","facilityname":"Tanokrom CHPS","type":"CHPS","ownership":"Government","town":"Tanokrom","longitude":null,"id":"aaknmzzpos4b"},"type":"Feature","geometry":null},{"properties":{"latitude":null,"region":"Western","district":"Sefwi-Akontombra","facilityname":"Chorichori CHPS","type":"CHPS","ownership":"Government","town":"Chorichori","longitude":null,"id":"aaknmznvvfrx"},"type":"Feature","geometry":null},{"properties":{"latitude":null,"region":"Western","district":"Sefwi-Akontombra","facilityname":"Kramokrom CHPS","type":"CHPS","ownership":"Government","town":"Kramokrom","longitude":null,"id":"aaknn00wmn3o"},"type":"Feature","geometry":null},{"properties":{"latitude":null,"region":"Western","district":"Sefwi-Akontombra","facilityname":"Kordjour CHPS","type":"CHPS","ownership":"Government","town":"Kordjour","longitude":null,"id":"aaknmzmobi98"},"type":"Feature","geometry":null},{"properties":{"latitude":null,"region":"Western","district":"Sefwi-Akontombra","facilityname":"Wansampo CHPS","type":"CHPS","ownership":"Government","town":"Wansampo","longitude":null,"id":"aaknn00u22p1"},"type":"Feature","geometry":null},{"properties":{"latitude":null,"region":"Western","district":"Sefwi-Akontombra","facilityname":"Ackaakrom CHPS","type":"CHPS","ownership":"Government","town":"Ackaakrom","longitude":null,"id":"aaknmzm942oq"},"type":"Feature","geometry":null},{"properties":{"latitude":null,"region":"Western","district":"Sefwi-Akontombra","facilityname":"Apprutu CHPS","type":"CHPS","ownership":"Government","town":"Apprutu","longitude":null,"id":"aaknmzt86m5s"},"type":"Feature","geometry":null},{"properties":{"latitude":null,"region":"Western","district":"Sefwi-Akontombra","facilityname":"Kojokrom CHPS","type":"CHPS","ownership":"Government","town":"Kojokrom","longitude":null,"id":"aaknmzs0o48c"},"type":"Feature","geometry":null},{"properties":{"latitude":null,"region":"Western","district":"Sefwi-Akontombra","facilityname":"Yawkrom CHPS","type":"CHPS","ownership":"Government","town":"Yawkrom","longitude":null,"id":"aaknmzzxpdph"},"type":"Feature","geometry":null},{"properties":{"latitude":null,"region":"Western","district":"Sefwi-Akontombra","facilityname":"Kofikrom CHPS","type":"CHPS","ownership":"Government","town":"Kofikrom","longitude":null,"id":"aaknn00ggu3o"},"type":"Feature","geometry":null},{"properties":{"latitude":5.61691,"region":"Central","district":"Awutu Senya","facilityname":"Akrabon CHPS","type":"CHPS","ownership":"Government","town":"Akrabon","longitude":-0.56952,"id":"aaknmzslzahh"},"type":"Feature","geometry":{"type":"Point","coordinates":[-0.56952,5.61691]}},{"properties":{"latitude":5.71916,"region":"Greater Accra","district":"Ga West","facilityname":"Dome Sampah-mang CHPS","type":"CHPS","ownership":"Government","town":"Dome Sampah-mang","longitude":-0.36576,"id":"aaknmzqzr5rj"},"type":"Feature","geometry":{"type":"Point","coordinates":[-0.36576,5.71916]}},{"properties":{"latitude":5.50209,"region":"Greater Accra","district":"Ga East","facilityname":"Kokrobite CHPS","type":"CHPS","ownership":"Government","town":"Kokrobite","longitude":-0.37027,"id":"aaknmzr0bdry"},"type":"Feature","geometry":{"type":"Point","coordinates":[-0.37027,5.50209]}},{"properties":{"latitude":5.65177,"region":"Greater Accra","district":"Ga West","facilityname":"Nsakina CHPS","type":"CHPS","ownership":"Government","town":"Nsakina","longitude":-0.32388,"id":"aaknmznh8f03"},"type":"Feature","geometry":{"type":"Point","coordinates":[-0.32388,5.65177]}}],"is_temporal":false,"author":{"url":"","metadata":"","contact_name":"","contact_address":"","source":"","contact_phone":""},"source":"","pagination":{"sort":null,"start":0,"total":652,"limit":1000000},"state":"complete","tags":"","published":"2014-08-16T16:49:48-04:00","id":303143}