{"type":"FeatureCollection","data_type":"Dataset Analysis","url_type":null,"permissions":[{"permissions":{"download":true,"view":true},"group_id":"everyone"}],"classification":null,"title":"Intersection of 'CA Cities with Pop over 50,000 Master' and 'CA Facilities Master 20 Mile Radius'","count":371,"stream_id":303948,"contributor":{"url":"http://geocommons.com/users/56415","name":"djjohnson6204455"},"data_attributes":null,"calculation_params":{"input":{"columns":[{"id":"303337"},{"id":"303015"}],"merge":"combine"},"calculation":"intersect"},"icon_link":null,"link":"http://geocommons.com/overlays/303948.json","extent":[-122.408,32.6401,-116.216,40.5865],"geometry_types":["point"],"unique_name":null,"name":"Intersection of 'CA Cities with Pop over 50,000 Master' and 'CA Facilities Master 20 Mile Radius'","feature_count":371,"description":"Dataset created by the intersection of 1) CA Cities with Pop over 50,000 Master and 2) CA Facilities Master 20 Mile Radius","next_feature":null,"is_raster":false,"short_classification":"Y","stats":{"geo_score":{"max":1.0,"mean":0.692803234501347,"variance":0.026429715232753,"stdev":0.16257218468346,"median":0.607,"min":0.607}},"features":[{"properties":{"city":"American Canyon","facility type":"Plant","zip":"94503","region":"Northwest","geo_score":1.0,"description":"Alameda","facility name":"American Canyon","id":"aanfqy47itje","address":"1201 Commerce Blvd","geo_precision":"range","state":"CA"},"type":"Feature","geometry":{"type":"Point","coordinates":[-122.24163529653,37.765206849017]}},{"properties":{"city":"American Canyon","facility type":"Plant","zip":"94503","region":"Northwest","geo_score":1.0,"description":"Alameda","facility name":"American Canyon","id":"aanfqy2dlls7","address":"1201 Commerce Blvd","geo_precision":"range","state":"CA"},"type":"Feature","geometry":{"type":"Point","coordinates":[-122.24163529653,37.765206849017]}},{"properties":{"city":"American Canyon","facility type":"Plant","zip":"94503","region":"Northwest","geo_score":1.0,"description":"Alameda","facility name":"American Canyon","id":"aanfqycb75q1","address":"1201 Commerce Blvd","geo_precision":"range","state":"CA"},"type":"Feature","geometry":{"type":"Point","coordinates":[-122.24163529653,37.765206849017]}},{"properties":{"city":"Anaheim","facility type":"Plant","zip":"92806","region":"West","geo_score":0.607,"description":"Alhambra","facility name":"Anaheim","id":"aanfqy33dkgj","address":"2121 E. Winston Rd.","geo_precision":"street","state":"CA"},"type":"Feature","geometry":{"type":"Point","coordinates":[-118.12701019591,34.095287076743]}},{"properties":{"city":"Half Moon Bay","facility type":"Office","zip":"94019","region":null,"geo_score":1.0,"description":"Alhambra","facility name":"Odwalla HQ","id":"aanfqy2g2gcm","address":"120 Stone Pine Rd.","geo_precision":"range","state":"CA"},"type":"Feature","geometry":{"type":"Point","coordinates":[-118.12701019591,34.095287076743]}},{"properties":{"city":"Anaheim","facility type":"Plant","zip":"92806","region":"West","geo_score":0.607,"description":"Alhambra","facility name":"Anaheim","id":"aanfqyc1g2d6","address":"2121 E. Winston Rd.","geo_precision":"street","state":"CA"},"type":"Feature","geometry":{"type":"Point","coordinates":[-118.12701019591,34.095287076743]}},{"properties":{"city":"Anaheim","facility type":"Plant","zip":"92806","region":"West","geo_score":0.607,"description":"Alhambra","facility name":"Anaheim","id":"aanfqyayur5y","address":"2121 E. Winston Rd.","geo_precision":"street","state":"CA"},"type":"Feature","geometry":{"type":"Point","coordinates":[-118.12701019591,34.095287076743]}},{"properties":{"city":"Anaheim","facility type":"Plant","zip":"92806","region":"West","geo_score":0.607,"description":"Alhambra","facility name":"Anaheim","id":"aanfqyc8c1lo","address":"2121 E. Winston Rd.","geo_precision":"street","state":"CA"},"type":"Feature","geometry":{"type":"Point","coordinates":[-118.12701019591,34.095287076743]}},{"properties":{"city":"Anaheim","facility type":"Plant","zip":"92806","region":"West","geo_score":0.607,"description":"Alhambra","facility name":"Anaheim","id":"aanfqybx8n9o","address":"2121 E. Winston Rd.","geo_precision":"street","state":"CA"},"type":"Feature","geometry":{"type":"Point","coordinates":[-118.12701019591,34.095287076743]}},{"properties":{"city":"Anaheim","facility type":"Plant","zip":"92806","region":"West","geo_score":0.607,"description":"Anaheim","facility name":"Anaheim","id":"aanfqy2vy4cj","address":"2121 E. Winston Rd.","geo_precision":"street","state":"CA"},"type":"Feature","geometry":{"type":"Point","coordinates":[-117.91450202511,33.835296869207]}},{"properties":{"city":"Anaheim","facility type":"Plant","zip":"92806","region":"West","geo_score":0.607,"description":"Anaheim","facility name":"Anaheim","id":"aanfqy1rx4pj","address":"2121 E. Winston Rd.","geo_precision":"street","state":"CA"},"type":"Feature","geometry":{"type":"Point","coordinates":[-117.91450202511,33.835296869207]}},{"properties":{"city":"Anaheim","facility type":"Plant","zip":"92806","region":"West","geo_score":0.607,"description":"Anaheim","facility name":"Anaheim","id":"aanfqy7dc4ut","address":"2121 E. Winston Rd.","geo_precision":"street","state":"CA"},"type":"Feature","geometry":{"type":"Point","coordinates":[-117.91450202511,33.835296869207]}},{"properties":{"city":"Anaheim","facility type":"Plant","zip":"92806","region":"West","geo_score":0.607,"description":"Anaheim","facility name":"Anaheim","id":"aanfqy3f9qai","address":"2121 E. Winston Rd.","geo_precision":"street","state":"CA"},"type":"Feature","geometry":{"type":"Point","coordinates":[-117.91450202511,33.835296869207]}},{"properties":{"city":"Half Moon Bay","facility type":"Office","zip":"94019","region":null,"geo_score":1.0,"description":"Anaheim","facility name":"Odwalla HQ","id":"aanfqy3amhcb","address":"120 Stone Pine Rd.","geo_precision":"range","state":"CA"},"type":"Feature","geometry":{"type":"Point","coordinates":[-117.91450202511,33.835296869207]}},{"properties":{"city":"Anaheim","facility type":"Plant","zip":"92806","region":"West","geo_score":0.607,"description":"Anaheim","facility name":"Anaheim","id":"aanfqy72p1tn","address":"2121 E. Winston Rd.","geo_precision":"street","state":"CA"},"type":"Feature","geometry":{"type":"Point","coordinates":[-117.91450202511,33.835296869207]}},{"properties":{"city":"Anaheim","facility type":"Plant","zip":"92806","region":"West","geo_score":0.607,"description":"Anaheim","facility name":"Anaheim","id":"aanfqy7uybxn","address":"2121 E. Winston Rd.","geo_precision":"street","state":"CA"},"type":"Feature","geometry":{"type":"Point","coordinates":[-117.91450202511,33.835296869207]}},{"properties":{"city":"American Canyon","facility type":"Plant","zip":"94503","region":"Northwest","geo_score":1.0,"description":"Antioch","facility name":"American Canyon","id":"aanfqy2xljch","address":"1201 Commerce Blvd","geo_precision":"range","state":"CA"},"type":"Feature","geometry":{"type":"Point","coordinates":[-121.80578646499,38.00492509759]}},{"properties":{"city":"Anaheim","facility type":"Plant","zip":"92806","region":"West","geo_score":0.607,"description":"Apple Valley","facility name":"Anaheim","id":"aanfqy36qorl","address":"2121 E. Winston Rd.","geo_precision":"street","state":"CA"},"type":"Feature","geometry":{"type":"Point","coordinates":[-117.18587571174,34.500835986326]}},{"properties":{"city":"Anaheim","facility type":"Plant","zip":"92806","region":"West","geo_score":0.607,"description":"Apple Valley","facility name":"Anaheim","id":"aanfqyeoyc30","address":"2121 E. Winston Rd.","geo_precision":"street","state":"CA"},"type":"Feature","geometry":{"type":"Point","coordinates":[-117.18587571174,34.500835986326]}},{"properties":{"city":"Anaheim","facility type":"Plant","zip":"92806","region":"West","geo_score":0.607,"description":"Arcadia","facility name":"Anaheim","id":"aanfqyh1q99a","address":"2121 E. Winston Rd.","geo_precision":"street","state":"CA"},"type":"Feature","geometry":{"type":"Point","coordinates":[-118.03534345852,34.139733809262]}},{"properties":{"city":"Half Moon Bay","facility type":"Office","zip":"94019","region":null,"geo_score":1.0,"description":"Arcadia","facility name":"Odwalla HQ","id":"aanfqyf5i48o","address":"120 Stone Pine Rd.","geo_precision":"range","state":"CA"},"type":"Feature","geometry":{"type":"Point","coordinates":[-118.03534345852,34.139733809262]}},{"properties":{"city":"Anaheim","facility type":"Plant","zip":"92806","region":"West","geo_score":0.607,"description":"Arcadia","facility name":"Anaheim","id":"aanfqy7j4unq","address":"2121 E. Winston Rd.","geo_precision":"street","state":"CA"},"type":"Feature","geometry":{"type":"Point","coordinates":[-118.03534345852,34.139733809262]}},{"properties":{"city":"Anaheim","facility type":"Plant","zip":"92806","region":"West","geo_score":0.607,"description":"Arcadia","facility name":"Anaheim","id":"aanfqycpkgt8","address":"2121 E. Winston Rd.","geo_precision":"street","state":"CA"},"type":"Feature","geometry":{"type":"Point","coordinates":[-118.03534345852,34.139733809262]}},{"properties":{"city":"Anaheim","facility type":"Plant","zip":"92806","region":"West","geo_score":0.607,"description":"Arcadia","facility name":"Anaheim","id":"aanfqy27jt0c","address":"2121 E. Winston Rd.","geo_precision":"street","state":"CA"},"type":"Feature","geometry":{"type":"Point","coordinates":[-118.03534345852,34.139733809262]}},{"properties":{"city":"Anaheim","facility type":"Plant","zip":"92806","region":"West","geo_score":0.607,"description":"Arcadia","facility name":"Anaheim","id":"aanfqyfaaf46","address":"2121 E. Winston Rd.","geo_precision":"street","state":"CA"},"type":"Feature","geometry":{"type":"Point","coordinates":[-118.03534345852,34.139733809262]}},{"properties":{"city":"Anaheim","facility type":"Plant","zip":"92806","region":"West","geo_score":0.607,"description":"Bakersfield","facility name":"Anaheim","id":"aanfqyfneld6","address":"2121 E. Winston Rd.","geo_precision":"street","state":"CA"},"type":"Feature","geometry":{"type":"Point","coordinates":[-119.01871198587,35.373297048072]}},{"properties":{"city":"Anaheim","facility type":"Plant","zip":"92806","region":"West","geo_score":0.607,"description":"Bellflower","facility name":"Anaheim","id":"aanfqyahhfg5","address":"2121 E. Winston Rd.","geo_precision":"street","state":"CA"},"type":"Feature","geometry":{"type":"Point","coordinates":[-118.1170109857,33.88168396711]}},{"properties":{"city":"Anaheim","facility type":"Plant","zip":"92806","region":"West","geo_score":0.607,"description":"Bellflower","facility name":"Anaheim","id":"aanfqy4xte62","address":"2121 E. Winston Rd.","geo_precision":"street","state":"CA"},"type":"Feature","geometry":{"type":"Point","coordinates":[-118.1170109857,33.88168396711]}},{"properties":{"city":"Anaheim","facility type":"Plant","zip":"92806","region":"West","geo_score":0.607,"description":"Bellflower","facility name":"Anaheim","id":"aanfqybznx6a","address":"2121 E. Winston Rd.","geo_precision":"street","state":"CA"},"type":"Feature","geometry":{"type":"Point","coordinates":[-118.1170109857,33.88168396711]}},{"properties":{"city":"Anaheim","facility type":"Plant","zip":"92806","region":"West","geo_score":0.607,"description":"Bellflower","facility name":"Anaheim","id":"aanfqybop1xv","address":"2121 E. Winston Rd.","geo_precision":"street","state":"CA"},"type":"Feature","geometry":{"type":"Point","coordinates":[-118.1170109857,33.88168396711]}},{"properties":{"city":"Half Moon Bay","facility type":"Office","zip":"94019","region":null,"geo_score":1.0,"description":"Bellflower","facility name":"Odwalla HQ","id":"aanfqy2r4oys","address":"120 Stone Pine Rd.","geo_precision":"range","state":"CA"},"type":"Feature","geometry":{"type":"Point","coordinates":[-118.1170109857,33.88168396711]}},{"properties":{"city":"Anaheim","facility type":"Plant","zip":"92806","region":"West","geo_score":0.607,"description":"Bellflower","facility name":"Anaheim","id":"aanfqyc0wb8a","address":"2121 E. Winston Rd.","geo_precision":"street","state":"CA"},"type":"Feature","geometry":{"type":"Point","coordinates":[-118.1170109857,33.88168396711]}},{"properties":{"city":"Anaheim","facility type":"Plant","zip":"92806","region":"West","geo_score":0.607,"description":"Bellflower","facility name":"Anaheim","id":"aanfqydtyzb7","address":"2121 E. Winston Rd.","geo_precision":"street","state":"CA"},"type":"Feature","geometry":{"type":"Point","coordinates":[-118.1170109857,33.88168396711]}},{"properties":{"city":"Anaheim","facility type":"Plant","zip":"92806","region":"West","geo_score":0.607,"description":"Bellflower","facility name":"Anaheim","id":"aanfqyaytyl2","address":"2121 E. Winston Rd.","geo_precision":"street","state":"CA"},"type":"Feature","geometry":{"type":"Point","coordinates":[-118.1170109857,33.88168396711]}},{"properties":{"city":"Anaheim","facility type":"Plant","zip":"92806","region":"West","geo_score":0.607,"description":"Bellflower","facility name":"Anaheim","id":"aanfqyd0etnp","address":"2121 E. Winston Rd.","geo_precision":"street","state":"CA"},"type":"Feature","geometry":{"type":"Point","coordinates":[-118.1170109857,33.88168396711]}},{"properties":{"city":"Anaheim","facility type":"Plant","zip":"92806","region":"West","geo_score":0.607,"description":"Buena Park","facility name":"Anaheim","id":"aanfqyczao7x","address":"2121 E. Winston Rd.","geo_precision":"street","state":"CA"},"type":"Feature","geometry":{"type":"Point","coordinates":[-117.99811752994,33.867517906078]}},{"properties":{"city":"Anaheim","facility type":"Plant","zip":"92806","region":"West","geo_score":0.607,"description":"Buena Park","facility name":"Anaheim","id":"aanfqy864jtl","address":"2121 E. Winston Rd.","geo_precision":"street","state":"CA"},"type":"Feature","geometry":{"type":"Point","coordinates":[-117.99811752994,33.867517906078]}},{"properties":{"city":"Anaheim","facility type":"Plant","zip":"92806","region":"West","geo_score":0.607,"description":"Buena Park","facility name":"Anaheim","id":"aanfqy8wvj1a","address":"2121 E. Winston Rd.","geo_precision":"street","state":"CA"},"type":"Feature","geometry":{"type":"Point","coordinates":[-117.99811752994,33.867517906078]}},{"properties":{"city":"Anaheim","facility type":"Plant","zip":"92806","region":"West","geo_score":0.607,"description":"Buena Park","facility name":"Anaheim","id":"aanfqydxjep2","address":"2121 E. Winston Rd.","geo_precision":"street","state":"CA"},"type":"Feature","geometry":{"type":"Point","coordinates":[-117.99811752994,33.867517906078]}},{"properties":{"city":"Half Moon Bay","facility type":"Office","zip":"94019","region":null,"geo_score":1.0,"description":"Buena Park","facility name":"Odwalla HQ","id":"aanfqy4tm7gm","address":"120 Stone Pine Rd.","geo_precision":"range","state":"CA"},"type":"Feature","geometry":{"type":"Point","coordinates":[-117.99811752994,33.867517906078]}},{"properties":{"city":"Anaheim","facility type":"Plant","zip":"92806","region":"West","geo_score":0.607,"description":"Buena Park","facility name":"Anaheim","id":"aanfqy448h2z","address":"2121 E. Winston Rd.","geo_precision":"street","state":"CA"},"type":"Feature","geometry":{"type":"Point","coordinates":[-117.99811752994,33.867517906078]}},{"properties":{"city":"Anaheim","facility type":"Plant","zip":"92806","region":"West","geo_score":0.607,"description":"Buena Park","facility name":"Anaheim","id":"aanfqyd9hky3","address":"2121 E. Winston Rd.","geo_precision":"street","state":"CA"},"type":"Feature","geometry":{"type":"Point","coordinates":[-117.99811752994,33.867517906078]}},{"properties":{"city":"Half Moon Bay","facility type":"Office","zip":"94019","region":null,"geo_score":1.0,"description":"Burbank","facility name":"Odwalla HQ","id":"aanfqyfv86dn","address":"120 Stone Pine Rd.","geo_precision":"range","state":"CA"},"type":"Feature","geometry":{"type":"Point","coordinates":[-118.30896112453,34.18083927638]}},{"properties":{"city":"Anaheim","facility type":"Plant","zip":"92806","region":"West","geo_score":0.607,"description":"Burbank","facility name":"Anaheim","id":"aanfqy3bxxfg","address":"2121 E. Winston Rd.","geo_precision":"street","state":"CA"},"type":"Feature","geometry":{"type":"Point","coordinates":[-118.30896112453,34.18083927638]}},{"properties":{"city":"Anaheim","facility type":"Plant","zip":"92806","region":"West","geo_score":0.607,"description":"Burbank","facility name":"Anaheim","id":"aanfqyag037y","address":"2121 E. Winston Rd.","geo_precision":"street","state":"CA"},"type":"Feature","geometry":{"type":"Point","coordinates":[-118.30896112453,34.18083927638]}},{"properties":{"city":"Anaheim","facility type":"Plant","zip":"92806","region":"West","geo_score":0.607,"description":"Burbank","facility name":"Anaheim","id":"aanfqy27cfd2","address":"2121 E. Winston Rd.","geo_precision":"street","state":"CA"},"type":"Feature","geometry":{"type":"Point","coordinates":[-118.30896112453,34.18083927638]}},{"properties":{"city":"Anaheim","facility type":"Plant","zip":"92806","region":"West","geo_score":0.607,"description":"Burbank","facility name":"Anaheim","id":"aanfqyfcxo4z","address":"2121 E. Winston Rd.","geo_precision":"street","state":"CA"},"type":"Feature","geometry":{"type":"Point","coordinates":[-118.30896112453,34.18083927638]}},{"properties":{"city":"Anaheim","facility type":"Plant","zip":"92806","region":"West","geo_score":0.607,"description":"Camarillo","facility name":"Anaheim","id":"aanfqy5cd42f","address":"2121 E. Winston Rd.","geo_precision":"street","state":"CA"},"type":"Feature","geometry":{"type":"Point","coordinates":[-119.03759939525,34.21639757983]}},{"properties":{"city":"Anaheim","facility type":"Plant","zip":"92806","region":"West","geo_score":0.607,"description":"Carlsbad","facility name":"Anaheim","id":"aanfqy47j7d5","address":"2121 E. Winston Rd.","geo_precision":"street","state":"CA"},"type":"Feature","geometry":{"type":"Point","coordinates":[-117.35058963415,33.158097744886]}},{"properties":{"city":"Anaheim","facility type":"Plant","zip":"92806","region":"West","geo_score":0.607,"description":"Chino","facility name":"Anaheim","id":"aanfqy1p1aj5","address":"2121 E. Winston Rd.","geo_precision":"street","state":"CA"},"type":"Feature","geometry":{"type":"Point","coordinates":[-117.68894130509,34.012239553598]}},{"properties":{"city":"Anaheim","facility type":"Plant","zip":"92806","region":"West","geo_score":0.607,"description":"Chino","facility name":"Anaheim","id":"aanfqy13heg5","address":"2121 E. Winston Rd.","geo_precision":"street","state":"CA"},"type":"Feature","geometry":{"type":"Point","coordinates":[-117.68894130509,34.012239553598]}},{"properties":{"city":"Anaheim","facility type":"Plant","zip":"92806","region":"West","geo_score":0.607,"description":"Chino","facility name":"Anaheim","id":"aanfqy7lon7t","address":"2121 E. Winston Rd.","geo_precision":"street","state":"CA"},"type":"Feature","geometry":{"type":"Point","coordinates":[-117.68894130509,34.012239553598]}},{"properties":{"city":"Anaheim","facility type":"Plant","zip":"92806","region":"West","geo_score":0.607,"description":"Chino","facility name":"Anaheim","id":"aanfqy9ib4l7","address":"2121 E. Winston Rd.","geo_precision":"street","state":"CA"},"type":"Feature","geometry":{"type":"Point","coordinates":[-117.68894130509,34.012239553598]}},{"properties":{"city":"Anaheim","facility type":"Plant","zip":"92806","region":"West","geo_score":0.607,"description":"Chino","facility name":"Anaheim","id":"aanfqybzptee","address":"2121 E. Winston Rd.","geo_precision":"street","state":"CA"},"type":"Feature","geometry":{"type":"Point","coordinates":[-117.68894130509,34.012239553598]}},{"properties":{"city":"Anaheim","facility type":"Plant","zip":"92806","region":"West","geo_score":0.607,"description":"Chino Hills","facility name":"Anaheim","id":"aanfqyfuqlpf","address":"2121 E. Winston Rd.","geo_precision":"street","state":"CA"},"type":"Feature","geometry":{"type":"Point","coordinates":[-117.73258393835,33.989820534001]}},{"properties":{"city":"Anaheim","facility type":"Plant","zip":"92806","region":"West","geo_score":0.607,"description":"Chino Hills","facility name":"Anaheim","id":"aanfqy8ad6v9","address":"2121 E. Winston Rd.","geo_precision":"street","state":"CA"},"type":"Feature","geometry":{"type":"Point","coordinates":[-117.73258393835,33.989820534001]}},{"properties":{"city":"Anaheim","facility type":"Plant","zip":"92806","region":"West","geo_score":0.607,"description":"Chino Hills","facility name":"Anaheim","id":"aanfqy2muphp","address":"2121 E. Winston Rd.","geo_precision":"street","state":"CA"},"type":"Feature","geometry":{"type":"Point","coordinates":[-117.73258393835,33.989820534001]}},{"properties":{"city":"Anaheim","facility type":"Plant","zip":"92806","region":"West","geo_score":0.607,"description":"Chino Hills","facility name":"Anaheim","id":"aanfqyejpzdh","address":"2121 E. Winston Rd.","geo_precision":"street","state":"CA"},"type":"Feature","geometry":{"type":"Point","coordinates":[-117.73258393835,33.989820534001]}},{"properties":{"city":"Anaheim","facility type":"Plant","zip":"92806","region":"West","geo_score":0.607,"description":"Chino Hills","facility name":"Anaheim","id":"aanfqygokgmf","address":"2121 E. Winston Rd.","geo_precision":"street","state":"CA"},"type":"Feature","geometry":{"type":"Point","coordinates":[-117.73258393835,33.989820534001]}},{"properties":{"city":"Anaheim","facility type":"Plant","zip":"92806","region":"West","geo_score":0.607,"description":"Chino Hills","facility name":"Anaheim","id":"aanfqy4t89pr","address":"2121 E. Winston Rd.","geo_precision":"street","state":"CA"},"type":"Feature","geometry":{"type":"Point","coordinates":[-117.73258393835,33.989820534001]}},{"properties":{"city":"Anaheim","facility type":"Plant","zip":"92806","region":"West","geo_score":0.607,"description":"Chula Vista","facility name":"Anaheim","id":"aanfqy4oakou","address":"2121 E. Winston Rd.","geo_precision":"street","state":"CA"},"type":"Feature","geometry":{"type":"Point","coordinates":[-117.08419328524,32.640057675428]}},{"properties":{"city":"American Canyon","facility type":"Plant","zip":"94503","region":"Northwest","geo_score":1.0,"description":"Citrus Heights","facility name":"American Canyon","id":"aanfqy3c0523","address":"1201 Commerce Blvd","geo_precision":"range","state":"CA"},"type":"Feature","geometry":{"type":"Point","coordinates":[-121.28105719053,38.707128409925]}},{"properties":{"city":"Anaheim","facility type":"Plant","zip":"92806","region":"West","geo_score":0.607,"description":"Clovis","facility name":"Anaheim","id":"aanfqyf7pmpt","address":"2121 E. Winston Rd.","geo_precision":"street","state":"CA"},"type":"Feature","geometry":{"type":"Point","coordinates":[-119.70291859231,36.82523256433]}},{"properties":{"city":"Anaheim","facility type":"Plant","zip":"92806","region":"West","geo_score":0.607,"description":"Colton","facility name":"Anaheim","id":"aanfqyb2cmes","address":"2121 E. Winston Rd.","geo_precision":"street","state":"CA"},"type":"Feature","geometry":{"type":"Point","coordinates":[-117.31365273381,34.073905754263]}},{"properties":{"city":"Anaheim","facility type":"Plant","zip":"92806","region":"West","geo_score":0.607,"description":"Colton","facility name":"Anaheim","id":"aanfqyewodur","address":"2121 E. Winston Rd.","geo_precision":"street","state":"CA"},"type":"Feature","geometry":{"type":"Point","coordinates":[-117.31365273381,34.073905754263]}},{"properties":{"city":"Anaheim","facility type":"Plant","zip":"92806","region":"West","geo_score":0.607,"description":"Compton","facility name":"Anaheim","id":"aanfqyc2gtrk","address":"2121 E. Winston Rd.","geo_precision":"street","state":"CA"},"type":"Feature","geometry":{"type":"Point","coordinates":[-118.22007113017,33.89584986481]}},{"properties":{"city":"Anaheim","facility type":"Plant","zip":"92806","region":"West","geo_score":0.607,"description":"Compton","facility name":"Anaheim","id":"aanfqy3bclgc","address":"2121 E. Winston Rd.","geo_precision":"street","state":"CA"},"type":"Feature","geometry":{"type":"Point","coordinates":[-118.22007113017,33.89584986481]}},{"properties":{"city":"Half Moon Bay","facility type":"Office","zip":"94019","region":null,"geo_score":1.0,"description":"Compton","facility name":"Odwalla HQ","id":"aanfqy6oz9c6","address":"120 Stone Pine Rd.","geo_precision":"range","state":"CA"},"type":"Feature","geometry":{"type":"Point","coordinates":[-118.22007113017,33.89584986481]}},{"properties":{"city":"Anaheim","facility type":"Plant","zip":"92806","region":"West","geo_score":0.607,"description":"Compton","facility name":"Anaheim","id":"aanfqy9i0h0d","address":"2121 E. Winston Rd.","geo_precision":"street","state":"CA"},"type":"Feature","geometry":{"type":"Point","coordinates":[-118.22007113017,33.89584986481]}},{"properties":{"city":"Anaheim","facility type":"Plant","zip":"92806","region":"West","geo_score":0.607,"description":"Compton","facility name":"Anaheim","id":"aanfqy93dt2o","address":"2121 E. Winston Rd.","geo_precision":"street","state":"CA"},"type":"Feature","geometry":{"type":"Point","coordinates":[-118.22007113017,33.89584986481]}},{"properties":{"city":"Anaheim","facility type":"Plant","zip":"92806","region":"West","geo_score":0.607,"description":"Compton","facility name":"Anaheim","id":"aanfqybwtphr","address":"2121 E. Winston Rd.","geo_precision":"street","state":"CA"},"type":"Feature","geometry":{"type":"Point","coordinates":[-118.22007113017,33.89584986481]}},{"properties":{"city":"Anaheim","facility type":"Plant","zip":"92806","region":"West","geo_score":0.607,"description":"Compton","facility name":"Anaheim","id":"aanfqy8u3q9t","address":"2121 E. Winston Rd.","geo_precision":"street","state":"CA"},"type":"Feature","geometry":{"type":"Point","coordinates":[-118.22007113017,33.89584986481]}},{"properties":{"city":"American Canyon","facility type":"Plant","zip":"94503","region":"Northwest","geo_score":1.0,"description":"Concord","facility name":"American Canyon","id":"aanfqydp1u2i","address":"1201 Commerce Blvd","geo_precision":"range","state":"CA"},"type":"Feature","geometry":{"type":"Point","coordinates":[-122.0310717901,37.977979919192]}},{"properties":{"city":"Anaheim","facility type":"Plant","zip":"92806","region":"West","geo_score":0.607,"description":"Corona","facility name":"Anaheim","id":"aanfqy2fqiyp","address":"2121 E. Winston Rd.","geo_precision":"street","state":"CA"},"type":"Feature","geometry":{"type":"Point","coordinates":[-117.5664354984,33.875294031772]}},{"properties":{"city":"Anaheim","facility type":"Plant","zip":"92806","region":"West","geo_score":0.607,"description":"Corona","facility name":"Anaheim","id":"aanfqygjq5l5","address":"2121 E. Winston Rd.","geo_precision":"street","state":"CA"},"type":"Feature","geometry":{"type":"Point","coordinates":[-117.5664354984,33.875294031772]}},{"properties":{"city":"Anaheim","facility type":"Plant","zip":"92806","region":"West","geo_score":0.607,"description":"Corona","facility name":"Anaheim","id":"aanfqyfxw1o9","address":"2121 E. Winston Rd.","geo_precision":"street","state":"CA"},"type":"Feature","geometry":{"type":"Point","coordinates":[-117.5664354984,33.875294031772]}},{"properties":{"city":"Anaheim","facility type":"Plant","zip":"92806","region":"West","geo_score":0.607,"description":"Costa Mesa","facility name":"Anaheim","id":"aanfqy58e0kw","address":"2121 E. Winston Rd.","geo_precision":"street","state":"CA"},"type":"Feature","geometry":{"type":"Point","coordinates":[-117.91866404037,33.64113481582]}},{"properties":{"city":"Anaheim","facility type":"Plant","zip":"92806","region":"West","geo_score":0.607,"description":"Costa Mesa","facility name":"Anaheim","id":"aanfqy71tcgn","address":"2121 E. Winston Rd.","geo_precision":"street","state":"CA"},"type":"Feature","geometry":{"type":"Point","coordinates":[-117.91866404037,33.64113481582]}},{"properties":{"city":"Anaheim","facility type":"Plant","zip":"92806","region":"West","geo_score":0.607,"description":"Costa Mesa","facility name":"Anaheim","id":"aanfqy9iy8vd","address":"2121 E. Winston Rd.","geo_precision":"street","state":"CA"},"type":"Feature","geometry":{"type":"Point","coordinates":[-117.91866404037,33.64113481582]}},{"properties":{"city":"Anaheim","facility type":"Plant","zip":"92806","region":"West","geo_score":0.607,"description":"Diamond Bar","facility name":"Anaheim","id":"aanfqy2uiktu","address":"2121 E. Winston Rd.","geo_precision":"street","state":"CA"},"type":"Feature","geometry":{"type":"Point","coordinates":[-117.81033339908,34.028627202825]}},{"properties":{"city":"Anaheim","facility type":"Plant","zip":"92806","region":"West","geo_score":0.607,"description":"Diamond Bar","facility name":"Anaheim","id":"aanfqyd1y6u9","address":"2121 E. Winston Rd.","geo_precision":"street","state":"CA"},"type":"Feature","geometry":{"type":"Point","coordinates":[-117.81033339908,34.028627202825]}},{"properties":{"city":"Anaheim","facility type":"Plant","zip":"92806","region":"West","geo_score":0.607,"description":"Diamond Bar","facility name":"Anaheim","id":"aanfqy0yu5ea","address":"2121 E. Winston Rd.","geo_precision":"street","state":"CA"},"type":"Feature","geometry":{"type":"Point","coordinates":[-117.81033339908,34.028627202825]}},{"properties":{"city":"Anaheim","facility type":"Plant","zip":"92806","region":"West","geo_score":0.607,"description":"Diamond Bar","facility name":"Anaheim","id":"aanfqy6fbe1j","address":"2121 E. Winston Rd.","geo_precision":"street","state":"CA"},"type":"Feature","geometry":{"type":"Point","coordinates":[-117.81033339908,34.028627202825]}},{"properties":{"city":"Anaheim","facility type":"Plant","zip":"92806","region":"West","geo_score":0.607,"description":"Diamond Bar","facility name":"Anaheim","id":"aanfqy8xm38d","address":"2121 E. Winston Rd.","geo_precision":"street","state":"CA"},"type":"Feature","geometry":{"type":"Point","coordinates":[-117.81033339908,34.028627202825]}},{"properties":{"city":"Anaheim","facility type":"Plant","zip":"92806","region":"West","geo_score":0.607,"description":"Diamond Bar","facility name":"Anaheim","id":"aanfqya5i7zp","address":"2121 E. Winston Rd.","geo_precision":"street","state":"CA"},"type":"Feature","geometry":{"type":"Point","coordinates":[-117.81033339908,34.028627202825]}},{"properties":{"city":"Anaheim","facility type":"Plant","zip":"92806","region":"West","geo_score":0.607,"description":"Eastvale","facility name":"Anaheim","id":"aanfqy5kvqpl","address":"2121 E. Winston Rd.","geo_precision":"street","state":"CA"},"type":"Feature","geometry":{"type":"Point","coordinates":[-117.56388824725,33.963058513743]}},{"properties":{"city":"Anaheim","facility type":"Plant","zip":"92806","region":"West","geo_score":0.607,"description":"Eastvale","facility name":"Anaheim","id":"aanfqygk074v","address":"2121 E. Winston Rd.","geo_precision":"street","state":"CA"},"type":"Feature","geometry":{"type":"Point","coordinates":[-117.56388824725,33.963058513743]}},{"properties":{"city":"Anaheim","facility type":"Plant","zip":"92806","region":"West","geo_score":0.607,"description":"Eastvale","facility name":"Anaheim","id":"aanfqygrd1y5","address":"2121 E. Winston Rd.","geo_precision":"street","state":"CA"},"type":"Feature","geometry":{"type":"Point","coordinates":[-117.56388824725,33.963058513743]}},{"properties":{"city":"Anaheim","facility type":"Plant","zip":"92806","region":"West","geo_score":0.607,"description":"El Cajon","facility name":"Anaheim","id":"aanfqydv99pv","address":"2121 E. Winston Rd.","geo_precision":"street","state":"CA"},"type":"Feature","geometry":{"type":"Point","coordinates":[-116.96252323273,32.794773511681]}},{"properties":{"city":"American Canyon","facility type":"Plant","zip":"94503","region":"Northwest","geo_score":1.0,"description":"Elk Grove","facility name":"American Canyon","id":"aanfqy32g4nw","address":"1201 Commerce Blvd","geo_precision":"range","state":"CA"},"type":"Feature","geometry":{"type":"Point","coordinates":[-121.37161545408,38.408801651285]}},{"properties":{"city":"Anaheim","facility type":"Plant","zip":"92806","region":"West","geo_score":0.607,"description":"Encinitas","facility name":"Anaheim","id":"aanfqy5ng0af","address":"2121 E. Winston Rd.","geo_precision":"street","state":"CA"},"type":"Feature","geometry":{"type":"Point","coordinates":[-117.29197828678,33.03699039364]}},{"properties":{"city":"Anaheim","facility type":"Plant","zip":"92806","region":"West","geo_score":0.607,"description":"Escondido","facility name":"Anaheim","id":"aanfqyf1g8jk","address":"2121 E. Winston Rd.","geo_precision":"street","state":"CA"},"type":"Feature","geometry":{"type":"Point","coordinates":[-117.08642084234,33.119210339652]}},{"properties":{"city":"American Canyon","facility type":"Plant","zip":"94503","region":"Northwest","geo_score":1.0,"description":"Fairfield","facility name":"American Canyon","id":"aanfqy9xgags","address":"1201 Commerce Blvd","geo_precision":"range","state":"CA"},"type":"Feature","geometry":{"type":"Point","coordinates":[-122.03996260058,38.249360155173]}},{"properties":{"city":"American Canyon","facility type":"Plant","zip":"94503","region":"Northwest","geo_score":1.0,"description":"Fairfield","facility name":"American Canyon","id":"aanfqy5x0o6e","address":"1201 Commerce Blvd","geo_precision":"range","state":"CA"},"type":"Feature","geometry":{"type":"Point","coordinates":[-122.03996260058,38.249360155173]}},{"properties":{"city":"American Canyon","facility type":"Plant","zip":"94503","region":"Northwest","geo_score":1.0,"description":"Folsom","facility name":"American Canyon","id":"aanfqyfvp9yi","address":"1201 Commerce Blvd","geo_precision":"range","state":"CA"},"type":"Feature","geometry":{"type":"Point","coordinates":[-121.17605479628,38.677961742568]}},{"properties":{"city":"Anaheim","facility type":"Plant","zip":"92806","region":"West","geo_score":0.607,"description":"Fontana","facility name":"Anaheim","id":"aanfqy4i7znd","address":"2121 E. Winston Rd.","geo_precision":"street","state":"CA"},"type":"Feature","geometry":{"type":"Point","coordinates":[-117.43504637419,34.092236436211]}},{"properties":{"city":"Anaheim","facility type":"Plant","zip":"92806","region":"West","geo_score":0.607,"description":"Fontana","facility name":"Anaheim","id":"aanfqy171uo7","address":"2121 E. Winston Rd.","geo_precision":"street","state":"CA"},"type":"Feature","geometry":{"type":"Point","coordinates":[-117.43504637419,34.092236436211]}},{"properties":{"city":"Anaheim","facility type":"Plant","zip":"92806","region":"West","geo_score":0.607,"description":"Fontana","facility name":"Anaheim","id":"aanfqycmufy3","address":"2121 E. Winston Rd.","geo_precision":"street","state":"CA"},"type":"Feature","geometry":{"type":"Point","coordinates":[-117.43504637419,34.092236436211]}},{"properties":{"city":"Anaheim","facility type":"Plant","zip":"92806","region":"West","geo_score":0.607,"description":"Fountain Valley","facility name":"Anaheim","id":"aanfqy6wm7y7","address":"2121 E. Winston Rd.","geo_precision":"street","state":"CA"},"type":"Feature","geometry":{"type":"Point","coordinates":[-117.95366776907,33.709186904704]}},{"properties":{"city":"Anaheim","facility type":"Plant","zip":"92806","region":"West","geo_score":0.607,"description":"Fountain Valley","facility name":"Anaheim","id":"aanfqy0wfiuh","address":"2121 E. Winston Rd.","geo_precision":"street","state":"CA"},"type":"Feature","geometry":{"type":"Point","coordinates":[-117.95366776907,33.709186904704]}},{"properties":{"city":"Anaheim","facility type":"Plant","zip":"92806","region":"West","geo_score":0.607,"description":"Fountain Valley","facility name":"Anaheim","id":"aanfqy3rxwfg","address":"2121 E. Winston Rd.","geo_precision":"street","state":"CA"},"type":"Feature","geometry":{"type":"Point","coordinates":[-117.95366776907,33.709186904704]}},{"properties":{"city":"Anaheim","facility type":"Plant","zip":"92806","region":"West","geo_score":0.607,"description":"Fountain Valley","facility name":"Anaheim","id":"aanfqy84167m","address":"2121 E. Winston Rd.","geo_precision":"street","state":"CA"},"type":"Feature","geometry":{"type":"Point","coordinates":[-117.95366776907,33.709186904704]}},{"properties":{"city":"American Canyon","facility type":"Plant","zip":"94503","region":"Northwest","geo_score":1.0,"description":"Fremont","facility name":"American Canyon","id":"aanfqy3lil6l","address":"1201 Commerce Blvd","geo_precision":"range","state":"CA"},"type":"Feature","geometry":{"type":"Point","coordinates":[-121.9885699909,37.548271434975]}},{"properties":{"city":"American Canyon","facility type":"Plant","zip":"94503","region":"Northwest","geo_score":1.0,"description":"Fremont","facility name":"American Canyon","id":"aanfqygett2j","address":"1201 Commerce Blvd","geo_precision":"range","state":"CA"},"type":"Feature","geometry":{"type":"Point","coordinates":[-121.9885699909,37.548271434975]}},{"properties":{"city":"American Canyon","facility type":"Plant","zip":"94503","region":"Northwest","geo_score":1.0,"description":"Fremont","facility name":"American Canyon","id":"aanfqy8q951s","address":"1201 Commerce Blvd","geo_precision":"range","state":"CA"},"type":"Feature","geometry":{"type":"Point","coordinates":[-121.9885699909,37.548271434975]}},{"properties":{"city":"Anaheim","facility type":"Plant","zip":"92806","region":"West","geo_score":0.607,"description":"Fullerton","facility name":"Anaheim","id":"aanfqy5t0mlr","address":"2121 E. Winston Rd.","geo_precision":"street","state":"CA"},"type":"Feature","geometry":{"type":"Point","coordinates":[-117.92533527563,33.870293094956]}},{"properties":{"city":"Anaheim","facility type":"Plant","zip":"92806","region":"West","geo_score":0.607,"description":"Fullerton","facility name":"Anaheim","id":"aanfqyc6coe4","address":"2121 E. Winston Rd.","geo_precision":"street","state":"CA"},"type":"Feature","geometry":{"type":"Point","coordinates":[-117.92533527563,33.870293094956]}},{"properties":{"city":"Anaheim","facility type":"Plant","zip":"92806","region":"West","geo_score":0.607,"description":"Fullerton","facility name":"Anaheim","id":"aanfqy2bq65e","address":"2121 E. Winston Rd.","geo_precision":"street","state":"CA"},"type":"Feature","geometry":{"type":"Point","coordinates":[-117.92533527563,33.870293094956]}},{"properties":{"city":"Anaheim","facility type":"Plant","zip":"92806","region":"West","geo_score":0.607,"description":"Fullerton","facility name":"Anaheim","id":"aanfqydaj118","address":"2121 E. Winston Rd.","geo_precision":"street","state":"CA"},"type":"Feature","geometry":{"type":"Point","coordinates":[-117.92533527563,33.870293094956]}},{"properties":{"city":"Half Moon Bay","facility type":"Office","zip":"94019","region":null,"geo_score":1.0,"description":"Fullerton","facility name":"Odwalla HQ","id":"aanfqyfwvxam","address":"120 Stone Pine Rd.","geo_precision":"range","state":"CA"},"type":"Feature","geometry":{"type":"Point","coordinates":[-117.92533527563,33.870293094956]}},{"properties":{"city":"Anaheim","facility type":"Plant","zip":"92806","region":"West","geo_score":0.607,"description":"Fullerton","facility name":"Anaheim","id":"aanfqyerby0h","address":"2121 E. Winston Rd.","geo_precision":"street","state":"CA"},"type":"Feature","geometry":{"type":"Point","coordinates":[-117.92533527563,33.870293094956]}},{"properties":{"city":"Anaheim","facility type":"Plant","zip":"92806","region":"West","geo_score":0.607,"description":"Fullerton","facility name":"Anaheim","id":"aanfqyb4657k","address":"2121 E. Winston Rd.","geo_precision":"street","state":"CA"},"type":"Feature","geometry":{"type":"Point","coordinates":[-117.92533527563,33.870293094956]}},{"properties":{"city":"Anaheim","facility type":"Plant","zip":"92806","region":"West","geo_score":0.607,"description":"Garden Grove","facility name":"Anaheim","id":"aanfqy1bsdrt","address":"2121 E. Winston Rd.","geo_precision":"street","state":"CA"},"type":"Feature","geometry":{"type":"Point","coordinates":[-117.94144700753,33.773910050108]}},{"properties":{"city":"Anaheim","facility type":"Plant","zip":"92806","region":"West","geo_score":0.607,"description":"Garden Grove","facility name":"Anaheim","id":"aanfqy9pf60w","address":"2121 E. Winston Rd.","geo_precision":"street","state":"CA"},"type":"Feature","geometry":{"type":"Point","coordinates":[-117.94144700753,33.773910050108]}},{"properties":{"city":"Anaheim","facility type":"Plant","zip":"92806","region":"West","geo_score":0.607,"description":"Garden Grove","facility name":"Anaheim","id":"aanfqyexb5rw","address":"2121 E. Winston Rd.","geo_precision":"street","state":"CA"},"type":"Feature","geometry":{"type":"Point","coordinates":[-117.94144700753,33.773910050108]}},{"properties":{"city":"Anaheim","facility type":"Plant","zip":"92806","region":"West","geo_score":0.607,"description":"Garden Grove","facility name":"Anaheim","id":"aanfqydjy9hz","address":"2121 E. Winston Rd.","geo_precision":"street","state":"CA"},"type":"Feature","geometry":{"type":"Point","coordinates":[-117.94144700753,33.773910050108]}},{"properties":{"city":"Half Moon Bay","facility type":"Office","zip":"94019","region":null,"geo_score":1.0,"description":"Garden Grove","facility name":"Odwalla HQ","id":"aanfqy626sgi","address":"120 Stone Pine Rd.","geo_precision":"range","state":"CA"},"type":"Feature","geometry":{"type":"Point","coordinates":[-117.94144700753,33.773910050108]}},{"properties":{"city":"Anaheim","facility type":"Plant","zip":"92806","region":"West","geo_score":0.607,"description":"Gardena","facility name":"Anaheim","id":"aanfqy59whjm","address":"2121 E. Winston Rd.","geo_precision":"street","state":"CA"},"type":"Feature","geometry":{"type":"Point","coordinates":[-118.30895998689,33.888352353968]}},{"properties":{"city":"Anaheim","facility type":"Plant","zip":"92806","region":"West","geo_score":0.607,"description":"Gardena","facility name":"Anaheim","id":"aanfqy25iovt","address":"2121 E. Winston Rd.","geo_precision":"street","state":"CA"},"type":"Feature","geometry":{"type":"Point","coordinates":[-118.30895998689,33.888352353968]}},{"properties":{"city":"Half Moon Bay","facility type":"Office","zip":"94019","region":null,"geo_score":1.0,"description":"Gardena","facility name":"Odwalla HQ","id":"aanfqyh95a1j","address":"120 Stone Pine Rd.","geo_precision":"range","state":"CA"},"type":"Feature","geometry":{"type":"Point","coordinates":[-118.30895998689,33.888352353968]}},{"properties":{"city":"Anaheim","facility type":"Plant","zip":"92806","region":"West","geo_score":0.607,"description":"Gardena","facility name":"Anaheim","id":"aanfqydn0afk","address":"2121 E. Winston Rd.","geo_precision":"street","state":"CA"},"type":"Feature","geometry":{"type":"Point","coordinates":[-118.30895998689,33.888352353968]}},{"properties":{"city":"Anaheim","facility type":"Plant","zip":"92806","region":"West","geo_score":0.607,"description":"Gardena","facility name":"Anaheim","id":"aanfqyfg2ieq","address":"2121 E. Winston Rd.","geo_precision":"street","state":"CA"},"type":"Feature","geometry":{"type":"Point","coordinates":[-118.30895998689,33.888352353968]}},{"properties":{"city":"Anaheim","facility type":"Plant","zip":"92806","region":"West","geo_score":0.607,"description":"Gardena","facility name":"Anaheim","id":"aanfqy3o33se","address":"2121 E. Winston Rd.","geo_precision":"street","state":"CA"},"type":"Feature","geometry":{"type":"Point","coordinates":[-118.30895998689,33.888352353968]}},{"properties":{"city":"Anaheim","facility type":"Plant","zip":"92806","region":"West","geo_score":0.607,"description":"Glendale","facility name":"Anaheim","id":"aanfqy3xmk91","address":"2121 E. Winston Rd.","geo_precision":"street","state":"CA"},"type":"Feature","geometry":{"type":"Point","coordinates":[-118.2550719817,34.142511121395]}},{"properties":{"city":"Half Moon Bay","facility type":"Office","zip":"94019","region":null,"geo_score":1.0,"description":"Glendale","facility name":"Odwalla HQ","id":"aanfqygtpo7a","address":"120 Stone Pine Rd.","geo_precision":"range","state":"CA"},"type":"Feature","geometry":{"type":"Point","coordinates":[-118.2550719817,34.142511121395]}},{"properties":{"city":"Anaheim","facility type":"Plant","zip":"92806","region":"West","geo_score":0.607,"description":"Glendale","facility name":"Anaheim","id":"aanfqyf9pqoe","address":"2121 E. Winston Rd.","geo_precision":"street","state":"CA"},"type":"Feature","geometry":{"type":"Point","coordinates":[-118.2550719817,34.142511121395]}},{"properties":{"city":"Anaheim","facility type":"Plant","zip":"92806","region":"West","geo_score":0.607,"description":"Glendale","facility name":"Anaheim","id":"aanfqy1e3slg","address":"2121 E. Winston Rd.","geo_precision":"street","state":"CA"},"type":"Feature","geometry":{"type":"Point","coordinates":[-118.2550719817,34.142511121395]}},{"properties":{"city":"Anaheim","facility type":"Plant","zip":"92806","region":"West","geo_score":0.607,"description":"Glendale","facility name":"Anaheim","id":"aanfqy21kqez","address":"2121 E. Winston Rd.","geo_precision":"street","state":"CA"},"type":"Feature","geometry":{"type":"Point","coordinates":[-118.2550719817,34.142511121395]}},{"properties":{"city":"Anaheim","facility type":"Plant","zip":"92806","region":"West","geo_score":0.607,"description":"Glendale","facility name":"Anaheim","id":"aanfqyd2690m","address":"2121 E. Winston Rd.","geo_precision":"street","state":"CA"},"type":"Feature","geometry":{"type":"Point","coordinates":[-118.2550719817,34.142511121395]}},{"properties":{"city":"Anaheim","facility type":"Plant","zip":"92806","region":"West","geo_score":0.607,"description":"Glendale","facility name":"Anaheim","id":"aanfqyh9vzod","address":"2121 E. Winston Rd.","geo_precision":"street","state":"CA"},"type":"Feature","geometry":{"type":"Point","coordinates":[-118.2550719817,34.142511121395]}},{"properties":{"city":"Anaheim","facility type":"Plant","zip":"92806","region":"West","geo_score":0.607,"description":"Glendora","facility name":"Anaheim","id":"aanfqyfi3o01","address":"2121 E. Winston Rd.","geo_precision":"street","state":"CA"},"type":"Feature","geometry":{"type":"Point","coordinates":[-117.86533645424,34.136122090171]}},{"properties":{"city":"Anaheim","facility type":"Plant","zip":"92806","region":"West","geo_score":0.607,"description":"Glendora","facility name":"Anaheim","id":"aanfqy8az68q","address":"2121 E. Winston Rd.","geo_precision":"street","state":"CA"},"type":"Feature","geometry":{"type":"Point","coordinates":[-117.86533645424,34.136122090171]}},{"properties":{"city":"Half Moon Bay","facility type":"Office","zip":"94019","region":null,"geo_score":1.0,"description":"Hanford","facility name":"Odwalla HQ","id":"aanfqy1de28y","address":"120 Stone Pine Rd.","geo_precision":"range","state":"CA"},"type":"Feature","geometry":{"type":"Point","coordinates":[-119.64568110392,36.327454828595]}},{"properties":{"city":"Anaheim","facility type":"Plant","zip":"92806","region":"West","geo_score":0.607,"description":"Hawthorne","facility name":"Anaheim","id":"aanfqy8znsw1","address":"2121 E. Winston Rd.","geo_precision":"street","state":"CA"},"type":"Feature","geometry":{"type":"Point","coordinates":[-118.35257185232,33.916404337017]}},{"properties":{"city":"Anaheim","facility type":"Plant","zip":"92806","region":"West","geo_score":0.607,"description":"Hawthorne","facility name":"Anaheim","id":"aanfqyaaj9tx","address":"2121 E. Winston Rd.","geo_precision":"street","state":"CA"},"type":"Feature","geometry":{"type":"Point","coordinates":[-118.35257185232,33.916404337017]}},{"properties":{"city":"Half Moon Bay","facility type":"Office","zip":"94019","region":null,"geo_score":1.0,"description":"Hawthorne","facility name":"Odwalla HQ","id":"aanfqyd5tn6a","address":"120 Stone Pine Rd.","geo_precision":"range","state":"CA"},"type":"Feature","geometry":{"type":"Point","coordinates":[-118.35257185232,33.916404337017]}},{"properties":{"city":"Anaheim","facility type":"Plant","zip":"92806","region":"West","geo_score":0.607,"description":"Hawthorne","facility name":"Anaheim","id":"aanfqyf2dxpe","address":"2121 E. Winston Rd.","geo_precision":"street","state":"CA"},"type":"Feature","geometry":{"type":"Point","coordinates":[-118.35257185232,33.916404337017]}},{"properties":{"city":"Anaheim","facility type":"Plant","zip":"92806","region":"West","geo_score":0.607,"description":"Hawthorne","facility name":"Anaheim","id":"aanfqy6cxn1w","address":"2121 E. Winston Rd.","geo_precision":"street","state":"CA"},"type":"Feature","geometry":{"type":"Point","coordinates":[-118.35257185232,33.916404337017]}},{"properties":{"city":"Anaheim","facility type":"Plant","zip":"92806","region":"West","geo_score":0.607,"description":"Hawthorne","facility name":"Anaheim","id":"aanfqy8bjdgl","address":"2121 E. Winston Rd.","geo_precision":"street","state":"CA"},"type":"Feature","geometry":{"type":"Point","coordinates":[-118.35257185232,33.916404337017]}},{"properties":{"city":"American Canyon","facility type":"Plant","zip":"94503","region":"Northwest","geo_score":1.0,"description":"Hayward","facility name":"American Canyon","id":"aanfqyfy6a7m","address":"1201 Commerce Blvd","geo_precision":"range","state":"CA"},"type":"Feature","geometry":{"type":"Point","coordinates":[-122.08079432159,37.668822675185]}},{"properties":{"city":"American Canyon","facility type":"Plant","zip":"94503","region":"Northwest","geo_score":1.0,"description":"Hayward","facility name":"American Canyon","id":"aanfqy2qaiwu","address":"1201 Commerce Blvd","geo_precision":"range","state":"CA"},"type":"Feature","geometry":{"type":"Point","coordinates":[-122.08079432159,37.668822675185]}},{"properties":{"city":"American Canyon","facility type":"Plant","zip":"94503","region":"Northwest","geo_score":1.0,"description":"Hayward","facility name":"American Canyon","id":"aanfqy36vxpo","address":"1201 Commerce Blvd","geo_precision":"range","state":"CA"},"type":"Feature","geometry":{"type":"Point","coordinates":[-122.08079432159,37.668822675185]}},{"properties":{"city":"Anaheim","facility type":"Plant","zip":"92806","region":"West","geo_score":0.607,"description":"Hesperia","facility name":"Anaheim","id":"aanfqyc5ylyj","address":"2121 E. Winston Rd.","geo_precision":"street","state":"CA"},"type":"Feature","geometry":{"type":"Point","coordinates":[-117.30087666359,34.426392498464]}},{"properties":{"city":"Anaheim","facility type":"Plant","zip":"92806","region":"West","geo_score":0.607,"description":"Huntington Beach","facility name":"Anaheim","id":"aanfqygqblsl","address":"2121 E. Winston Rd.","geo_precision":"street","state":"CA"},"type":"Feature","geometry":{"type":"Point","coordinates":[-117.99922434762,33.660301615865]}},{"properties":{"city":"Anaheim","facility type":"Plant","zip":"92806","region":"West","geo_score":0.607,"description":"Huntington Beach","facility name":"Anaheim","id":"aanfqy8ib63y","address":"2121 E. Winston Rd.","geo_precision":"street","state":"CA"},"type":"Feature","geometry":{"type":"Point","coordinates":[-117.99922434762,33.660301615865]}},{"properties":{"city":"Anaheim","facility type":"Plant","zip":"92806","region":"West","geo_score":0.607,"description":"Huntington Beach","facility name":"Anaheim","id":"aanfqyfavl0o","address":"2121 E. Winston Rd.","geo_precision":"street","state":"CA"},"type":"Feature","geometry":{"type":"Point","coordinates":[-117.99922434762,33.660301615865]}},{"properties":{"city":"Anaheim","facility type":"Plant","zip":"92806","region":"West","geo_score":0.607,"description":"Huntington Park","facility name":"Anaheim","id":"aanfqyewg6a6","address":"2121 E. Winston Rd.","geo_precision":"street","state":"CA"},"type":"Feature","geometry":{"type":"Point","coordinates":[-118.22506940236,33.981683644487]}},{"properties":{"city":"Anaheim","facility type":"Plant","zip":"92806","region":"West","geo_score":0.607,"description":"Huntington Park","facility name":"Anaheim","id":"aanfqyc3xr3n","address":"2121 E. Winston Rd.","geo_precision":"street","state":"CA"},"type":"Feature","geometry":{"type":"Point","coordinates":[-118.22506940236,33.981683644487]}},{"properties":{"city":"Half Moon Bay","facility type":"Office","zip":"94019","region":null,"geo_score":1.0,"description":"Huntington Park","facility name":"Odwalla HQ","id":"aanfqy3yj0ls","address":"120 Stone Pine Rd.","geo_precision":"range","state":"CA"},"type":"Feature","geometry":{"type":"Point","coordinates":[-118.22506940236,33.981683644487]}},{"properties":{"city":"Anaheim","facility type":"Plant","zip":"92806","region":"West","geo_score":0.607,"description":"Huntington Park","facility name":"Anaheim","id":"aanfqy7pimnu","address":"2121 E. Winston Rd.","geo_precision":"street","state":"CA"},"type":"Feature","geometry":{"type":"Point","coordinates":[-118.22506940236,33.981683644487]}},{"properties":{"city":"Anaheim","facility type":"Plant","zip":"92806","region":"West","geo_score":0.607,"description":"Huntington Park","facility name":"Anaheim","id":"aanfqy7tdo6t","address":"2121 E. Winston Rd.","geo_precision":"street","state":"CA"},"type":"Feature","geometry":{"type":"Point","coordinates":[-118.22506940236,33.981683644487]}},{"properties":{"city":"Anaheim","facility type":"Plant","zip":"92806","region":"West","geo_score":0.607,"description":"Huntington Park","facility name":"Anaheim","id":"aanfqybn0c4u","address":"2121 E. Winston Rd.","geo_precision":"street","state":"CA"},"type":"Feature","geometry":{"type":"Point","coordinates":[-118.22506940236,33.981683644487]}},{"properties":{"city":"Anaheim","facility type":"Plant","zip":"92806","region":"West","geo_score":0.607,"description":"Huntington Park","facility name":"Anaheim","id":"aanfqy7exgms","address":"2121 E. Winston Rd.","geo_precision":"street","state":"CA"},"type":"Feature","geometry":{"type":"Point","coordinates":[-118.22506940236,33.981683644487]}},{"properties":{"city":"Anaheim","facility type":"Plant","zip":"92806","region":"West","geo_score":0.607,"description":"Indio","facility name":"Anaheim","id":"aanfqy588lrt","address":"2121 E. Winston Rd.","geo_precision":"street","state":"CA"},"type":"Feature","geometry":{"type":"Point","coordinates":[-116.21555801463,33.7205794327]}},{"properties":{"city":"Anaheim","facility type":"Plant","zip":"92806","region":"West","geo_score":0.607,"description":"Inglewood","facility name":"Anaheim","id":"aanfqygt9l85","address":"2121 E. Winston Rd.","geo_precision":"street","state":"CA"},"type":"Feature","geometry":{"type":"Point","coordinates":[-118.35312932586,33.961683690039]}},{"properties":{"city":"Anaheim","facility type":"Plant","zip":"92806","region":"West","geo_score":0.607,"description":"Inglewood","facility name":"Anaheim","id":"aanfqy2i40r5","address":"2121 E. Winston Rd.","geo_precision":"street","state":"CA"},"type":"Feature","geometry":{"type":"Point","coordinates":[-118.35312932586,33.961683690039]}},{"properties":{"city":"Half Moon Bay","facility type":"Office","zip":"94019","region":null,"geo_score":1.0,"description":"Inglewood","facility name":"Odwalla HQ","id":"aanfqy28ulzn","address":"120 Stone Pine Rd.","geo_precision":"range","state":"CA"},"type":"Feature","geometry":{"type":"Point","coordinates":[-118.35312932586,33.961683690039]}},{"properties":{"city":"Anaheim","facility type":"Plant","zip":"92806","region":"West","geo_score":0.607,"description":"Inglewood","facility name":"Anaheim","id":"aanfqy0xou8k","address":"2121 E. Winston Rd.","geo_precision":"street","state":"CA"},"type":"Feature","geometry":{"type":"Point","coordinates":[-118.35312932586,33.961683690039]}},{"properties":{"city":"Anaheim","facility type":"Plant","zip":"92806","region":"West","geo_score":0.607,"description":"Inglewood","facility name":"Anaheim","id":"aanfqy9a0qx3","address":"2121 E. Winston Rd.","geo_precision":"street","state":"CA"},"type":"Feature","geometry":{"type":"Point","coordinates":[-118.35312932586,33.961683690039]}},{"properties":{"city":"Anaheim","facility type":"Plant","zip":"92806","region":"West","geo_score":0.607,"description":"Inglewood","facility name":"Anaheim","id":"aanfqyf4y3l2","address":"2121 E. Winston Rd.","geo_precision":"street","state":"CA"},"type":"Feature","geometry":{"type":"Point","coordinates":[-118.35312932586,33.961683690039]}},{"properties":{"city":"Anaheim","facility type":"Plant","zip":"92806","region":"West","geo_score":0.607,"description":"Irvine","facility name":"Anaheim","id":"aanfqyd1obip","address":"2121 E. Winston Rd.","geo_precision":"street","state":"CA"},"type":"Feature","geometry":{"type":"Point","coordinates":[-117.79469020274,33.683952066672]}},{"properties":{"city":"Anaheim","facility type":"Plant","zip":"92806","region":"West","geo_score":0.607,"description":"Irvine","facility name":"Anaheim","id":"aanfqy5znvri","address":"2121 E. Winston Rd.","geo_precision":"street","state":"CA"},"type":"Feature","geometry":{"type":"Point","coordinates":[-117.79469020274,33.683952066672]}},{"properties":{"city":"Anaheim","facility type":"Plant","zip":"92806","region":"West","geo_score":0.607,"description":"Irvine","facility name":"Anaheim","id":"aanfqy2zsy6k","address":"2121 E. Winston Rd.","geo_precision":"street","state":"CA"},"type":"Feature","geometry":{"type":"Point","coordinates":[-117.79469020274,33.683952066672]}},{"properties":{"city":"Anaheim","facility type":"Plant","zip":"92806","region":"West","geo_score":0.607,"description":"Jurupa Valley","facility name":"Anaheim","id":"aanfqy49oa1r","address":"2121 E. Winston Rd.","geo_precision":"street","state":"CA"},"type":"Feature","geometry":{"type":"Point","coordinates":[-117.47539227381,33.999525693306]}},{"properties":{"city":"Anaheim","facility type":"Plant","zip":"92806","region":"West","geo_score":0.607,"description":"Jurupa Valley","facility name":"Anaheim","id":"aanfqye4f2lc","address":"2121 E. Winston Rd.","geo_precision":"street","state":"CA"},"type":"Feature","geometry":{"type":"Point","coordinates":[-117.47539227381,33.999525693306]}},{"properties":{"city":"Anaheim","facility type":"Plant","zip":"92806","region":"West","geo_score":0.607,"description":"Jurupa Valley","facility name":"Anaheim","id":"aanfqy8gtveb","address":"2121 E. Winston Rd.","geo_precision":"street","state":"CA"},"type":"Feature","geometry":{"type":"Point","coordinates":[-117.47539227381,33.999525693306]}},{"properties":{"city":"Anaheim","facility type":"Plant","zip":"92806","region":"West","geo_score":0.607,"description":"La Habra","facility name":"Anaheim","id":"aanfqybd5uw0","address":"2121 E. Winston Rd.","geo_precision":"street","state":"CA"},"type":"Feature","geometry":{"type":"Point","coordinates":[-117.94616961705,33.931958134994]}},{"properties":{"city":"Anaheim","facility type":"Plant","zip":"92806","region":"West","geo_score":0.607,"description":"La Habra","facility name":"Anaheim","id":"aanfqy3cwu83","address":"2121 E. Winston Rd.","geo_precision":"street","state":"CA"},"type":"Feature","geometry":{"type":"Point","coordinates":[-117.94616961705,33.931958134994]}},{"properties":{"city":"Anaheim","facility type":"Plant","zip":"92806","region":"West","geo_score":0.607,"description":"La Habra","facility name":"Anaheim","id":"aanfqy1wyvs0","address":"2121 E. Winston Rd.","geo_precision":"street","state":"CA"},"type":"Feature","geometry":{"type":"Point","coordinates":[-117.94616961705,33.931958134994]}},{"properties":{"city":"Anaheim","facility type":"Plant","zip":"92806","region":"West","geo_score":0.607,"description":"La Habra","facility name":"Anaheim","id":"aanfqybl2xj4","address":"2121 E. Winston Rd.","geo_precision":"street","state":"CA"},"type":"Feature","geometry":{"type":"Point","coordinates":[-117.94616961705,33.931958134994]}},{"properties":{"city":"Half Moon Bay","facility type":"Office","zip":"94019","region":null,"geo_score":1.0,"description":"La Habra","facility name":"Odwalla HQ","id":"aanfqy5iymiy","address":"120 Stone Pine Rd.","geo_precision":"range","state":"CA"},"type":"Feature","geometry":{"type":"Point","coordinates":[-117.94616961705,33.931958134994]}},{"properties":{"city":"Anaheim","facility type":"Plant","zip":"92806","region":"West","geo_score":0.607,"description":"La Habra","facility name":"Anaheim","id":"aanfqye9qvxu","address":"2121 E. Winston Rd.","geo_precision":"street","state":"CA"},"type":"Feature","geometry":{"type":"Point","coordinates":[-117.94616961705,33.931958134994]}},{"properties":{"city":"Anaheim","facility type":"Plant","zip":"92806","region":"West","geo_score":0.607,"description":"La Habra","facility name":"Anaheim","id":"aanfqyejr5n3","address":"2121 E. Winston Rd.","geo_precision":"street","state":"CA"},"type":"Feature","geometry":{"type":"Point","coordinates":[-117.94616961705,33.931958134994]}},{"properties":{"city":"Anaheim","facility type":"Plant","zip":"92806","region":"West","geo_score":0.607,"description":"La Mesa","facility name":"Anaheim","id":"aanfqy3mvulk","address":"2121 E. Winston Rd.","geo_precision":"street","state":"CA"},"type":"Feature","geometry":{"type":"Point","coordinates":[-117.02308151917,32.767832916223]}},{"properties":{"city":"Anaheim","facility type":"Plant","zip":"92806","region":"West","geo_score":0.607,"description":"Laguna Niguel","facility name":"Anaheim","id":"aanfqyf3i4e3","address":"2121 E. Winston Rd.","geo_precision":"street","state":"CA"},"type":"Feature","geometry":{"type":"Point","coordinates":[-117.7075509476,33.52252882019]}},{"properties":{"city":"Anaheim","facility type":"Plant","zip":"92806","region":"West","geo_score":0.607,"description":"Lake Forest","facility name":"Anaheim","id":"aanfqyc9ms0h","address":"2121 E. Winston Rd.","geo_precision":"street","state":"CA"},"type":"Feature","geometry":{"type":"Point","coordinates":[-117.68921763008,33.646966987299]}},{"properties":{"city":"Anaheim","facility type":"Plant","zip":"92806","region":"West","geo_score":0.607,"description":"Lake Forest","facility name":"Anaheim","id":"aanfqy1nkv83","address":"2121 E. Winston Rd.","geo_precision":"street","state":"CA"},"type":"Feature","geometry":{"type":"Point","coordinates":[-117.68921763008,33.646966987299]}},{"properties":{"city":"Anaheim","facility type":"Plant","zip":"92806","region":"West","geo_score":0.607,"description":"Lake Forest","facility name":"Anaheim","id":"aanfqy9osy35","address":"2121 E. Winston Rd.","geo_precision":"street","state":"CA"},"type":"Feature","geometry":{"type":"Point","coordinates":[-117.68921763008,33.646966987299]}},{"properties":{"city":"Anaheim","facility type":"Plant","zip":"92806","region":"West","geo_score":0.607,"description":"Lakewood","facility name":"Anaheim","id":"aanfqy1phcb5","address":"2121 E. Winston Rd.","geo_precision":"street","state":"CA"},"type":"Feature","geometry":{"type":"Point","coordinates":[-118.13395208089,33.853631534612]}},{"properties":{"city":"Anaheim","facility type":"Plant","zip":"92806","region":"West","geo_score":0.607,"description":"Lakewood","facility name":"Anaheim","id":"aanfqy4ltqhb","address":"2121 E. Winston Rd.","geo_precision":"street","state":"CA"},"type":"Feature","geometry":{"type":"Point","coordinates":[-118.13395208089,33.853631534612]}},{"properties":{"city":"Anaheim","facility type":"Plant","zip":"92806","region":"West","geo_score":0.607,"description":"Lakewood","facility name":"Anaheim","id":"aanfqy6qm6a0","address":"2121 E. Winston Rd.","geo_precision":"street","state":"CA"},"type":"Feature","geometry":{"type":"Point","coordinates":[-118.13395208089,33.853631534612]}},{"properties":{"city":"Anaheim","facility type":"Plant","zip":"92806","region":"West","geo_score":0.607,"description":"Lakewood","facility name":"Anaheim","id":"aanfqy2lketb","address":"2121 E. Winston Rd.","geo_precision":"street","state":"CA"},"type":"Feature","geometry":{"type":"Point","coordinates":[-118.13395208089,33.853631534612]}},{"properties":{"city":"Half Moon Bay","facility type":"Office","zip":"94019","region":null,"geo_score":1.0,"description":"Lakewood","facility name":"Odwalla HQ","id":"aanfqy4d85s6","address":"120 Stone Pine Rd.","geo_precision":"range","state":"CA"},"type":"Feature","geometry":{"type":"Point","coordinates":[-118.13395208089,33.853631534612]}},{"properties":{"city":"Anaheim","facility type":"Plant","zip":"92806","region":"West","geo_score":0.607,"description":"Lakewood","facility name":"Anaheim","id":"aanfqy1diihj","address":"2121 E. Winston Rd.","geo_precision":"street","state":"CA"},"type":"Feature","geometry":{"type":"Point","coordinates":[-118.13395208089,33.853631534612]}},{"properties":{"city":"Anaheim","facility type":"Plant","zip":"92806","region":"West","geo_score":0.607,"description":"Lakewood","facility name":"Anaheim","id":"aanfqydq2c06","address":"2121 E. Winston Rd.","geo_precision":"street","state":"CA"},"type":"Feature","geometry":{"type":"Point","coordinates":[-118.13395208089,33.853631534612]}},{"properties":{"city":"Anaheim","facility type":"Plant","zip":"92806","region":"West","geo_score":0.607,"description":"Lakewood","facility name":"Anaheim","id":"aanfqybaqhc6","address":"2121 E. Winston Rd.","geo_precision":"street","state":"CA"},"type":"Feature","geometry":{"type":"Point","coordinates":[-118.13395208089,33.853631534612]}},{"properties":{"city":"Anaheim","facility type":"Plant","zip":"92806","region":"West","geo_score":0.607,"description":"Lakewood","facility name":"Anaheim","id":"aanfqy9seo4j","address":"2121 E. Winston Rd.","geo_precision":"street","state":"CA"},"type":"Feature","geometry":{"type":"Point","coordinates":[-118.13395208089,33.853631534612]}},{"properties":{"city":"American Canyon","facility type":"Plant","zip":"94503","region":"Northwest","geo_score":1.0,"description":"Livermore","facility name":"American Canyon","id":"aanfqy21vnuf","address":"1201 Commerce Blvd","geo_precision":"range","state":"CA"},"type":"Feature","geometry":{"type":"Point","coordinates":[-121.7680047188,37.681876034008]}},{"properties":{"city":"Anaheim","facility type":"Plant","zip":"92806","region":"West","geo_score":0.607,"description":"Lynwood","facility name":"Anaheim","id":"aanfqyejgsau","address":"2121 E. Winston Rd.","geo_precision":"street","state":"CA"},"type":"Feature","geometry":{"type":"Point","coordinates":[-118.21145922004,33.930296890456]}},{"properties":{"city":"Anaheim","facility type":"Plant","zip":"92806","region":"West","geo_score":0.607,"description":"Lynwood","facility name":"Anaheim","id":"aanfqy2lgnt9","address":"2121 E. Winston Rd.","geo_precision":"street","state":"CA"},"type":"Feature","geometry":{"type":"Point","coordinates":[-118.21145922004,33.930296890456]}},{"properties":{"city":"Half Moon Bay","facility type":"Office","zip":"94019","region":null,"geo_score":1.0,"description":"Lynwood","facility name":"Odwalla HQ","id":"aanfqy18lsa4","address":"120 Stone Pine Rd.","geo_precision":"range","state":"CA"},"type":"Feature","geometry":{"type":"Point","coordinates":[-118.21145922004,33.930296890456]}},{"properties":{"city":"Anaheim","facility type":"Plant","zip":"92806","region":"West","geo_score":0.607,"description":"Lynwood","facility name":"Anaheim","id":"aanfqy150xlv","address":"2121 E. Winston Rd.","geo_precision":"street","state":"CA"},"type":"Feature","geometry":{"type":"Point","coordinates":[-118.21145922004,33.930296890456]}},{"properties":{"city":"Anaheim","facility type":"Plant","zip":"92806","region":"West","geo_score":0.607,"description":"Lynwood","facility name":"Anaheim","id":"aanfqyemytfg","address":"2121 E. Winston Rd.","geo_precision":"street","state":"CA"},"type":"Feature","geometry":{"type":"Point","coordinates":[-118.21145922004,33.930296890456]}},{"properties":{"city":"Anaheim","facility type":"Plant","zip":"92806","region":"West","geo_score":0.607,"description":"Lynwood","facility name":"Anaheim","id":"aanfqyauip30","address":"2121 E. Winston Rd.","geo_precision":"street","state":"CA"},"type":"Feature","geometry":{"type":"Point","coordinates":[-118.21145922004,33.930296890456]}},{"properties":{"city":"Anaheim","facility type":"Plant","zip":"92806","region":"West","geo_score":0.607,"description":"Lynwood","facility name":"Anaheim","id":"aanfqyge3b3f","address":"2121 E. Winston Rd.","geo_precision":"street","state":"CA"},"type":"Feature","geometry":{"type":"Point","coordinates":[-118.21145922004,33.930296890456]}},{"properties":{"city":"Anaheim","facility type":"Plant","zip":"92806","region":"West","geo_score":0.607,"description":"Mission Viejo","facility name":"Anaheim","id":"aanfqy94cp99","address":"2121 E. Winston Rd.","geo_precision":"street","state":"CA"},"type":"Feature","geometry":{"type":"Point","coordinates":[-117.67199335931,33.600027721481]}},{"properties":{"city":"Anaheim","facility type":"Plant","zip":"92806","region":"West","geo_score":0.607,"description":"Montebello","facility name":"Anaheim","id":"aanfqy12skne","address":"2121 E. Winston Rd.","geo_precision":"street","state":"CA"},"type":"Feature","geometry":{"type":"Point","coordinates":[-118.11375154695,34.016505487227]}},{"properties":{"city":"Anaheim","facility type":"Plant","zip":"92806","region":"West","geo_score":0.607,"description":"Montebello","facility name":"Anaheim","id":"aanfqy5wj1o2","address":"2121 E. Winston Rd.","geo_precision":"street","state":"CA"},"type":"Feature","geometry":{"type":"Point","coordinates":[-118.11375154695,34.016505487227]}},{"properties":{"city":"Half Moon Bay","facility type":"Office","zip":"94019","region":null,"geo_score":1.0,"description":"Montebello","facility name":"Odwalla HQ","id":"aanfqy3hivgk","address":"120 Stone Pine Rd.","geo_precision":"range","state":"CA"},"type":"Feature","geometry":{"type":"Point","coordinates":[-118.11375154695,34.016505487227]}},{"properties":{"city":"Anaheim","facility type":"Plant","zip":"92806","region":"West","geo_score":0.607,"description":"Montebello","facility name":"Anaheim","id":"aanfqy4aouqc","address":"2121 E. Winston Rd.","geo_precision":"street","state":"CA"},"type":"Feature","geometry":{"type":"Point","coordinates":[-118.11375154695,34.016505487227]}},{"properties":{"city":"Anaheim","facility type":"Plant","zip":"92806","region":"West","geo_score":0.607,"description":"Montebello","facility name":"Anaheim","id":"aanfqy1sjcu1","address":"2121 E. Winston Rd.","geo_precision":"street","state":"CA"},"type":"Feature","geometry":{"type":"Point","coordinates":[-118.11375154695,34.016505487227]}},{"properties":{"city":"Anaheim","facility type":"Plant","zip":"92806","region":"West","geo_score":0.607,"description":"Montebello","facility name":"Anaheim","id":"aanfqy41e83u","address":"2121 E. Winston Rd.","geo_precision":"street","state":"CA"},"type":"Feature","geometry":{"type":"Point","coordinates":[-118.11375154695,34.016505487227]}},{"properties":{"city":"Anaheim","facility type":"Plant","zip":"92806","region":"West","geo_score":0.607,"description":"Montebello","facility name":"Anaheim","id":"aanfqyapyk0a","address":"2121 E. Winston Rd.","geo_precision":"street","state":"CA"},"type":"Feature","geometry":{"type":"Point","coordinates":[-118.11375154695,34.016505487227]}},{"properties":{"city":"American Canyon","facility type":"Plant","zip":"94503","region":"Northwest","geo_score":1.0,"description":"Napa","facility name":"American Canyon","id":"aanfqyfbhbpi","address":"1201 Commerce Blvd","geo_precision":"range","state":"CA"},"type":"Feature","geometry":{"type":"Point","coordinates":[-122.29888770609,38.304723633583]}},{"properties":{"city":"American Canyon","facility type":"Plant","zip":"94503","region":"Northwest","geo_score":1.0,"description":"Napa","facility name":"American Canyon","id":"aanfqy182qaw","address":"1201 Commerce Blvd","geo_precision":"range","state":"CA"},"type":"Feature","geometry":{"type":"Point","coordinates":[-122.29888770609,38.304723633583]}},{"properties":{"city":"Anaheim","facility type":"Plant","zip":"92806","region":"West","geo_score":0.607,"description":"National City","facility name":"Anaheim","id":"aanfqy6g9qc0","address":"2121 E. Winston Rd.","geo_precision":"street","state":"CA"},"type":"Feature","geometry":{"type":"Point","coordinates":[-117.09919486855,32.678109547006]}},{"properties":{"city":"Anaheim","facility type":"Plant","zip":"92806","region":"West","geo_score":0.607,"description":"Newport Beach","facility name":"Anaheim","id":"aanfqy474ena","address":"2121 E. Winston Rd.","geo_precision":"street","state":"CA"},"type":"Feature","geometry":{"type":"Point","coordinates":[-117.92894288883,33.618914974928]}},{"properties":{"city":"Anaheim","facility type":"Plant","zip":"92806","region":"West","geo_score":0.607,"description":"Newport Beach","facility name":"Anaheim","id":"aanfqy9xxsy7","address":"2121 E. Winston Rd.","geo_precision":"street","state":"CA"},"type":"Feature","geometry":{"type":"Point","coordinates":[-117.92894288883,33.618914974928]}},{"properties":{"city":"Anaheim","facility type":"Plant","zip":"92806","region":"West","geo_score":0.607,"description":"Newport Beach","facility name":"Anaheim","id":"aanfqy3hz8a7","address":"2121 E. Winston Rd.","geo_precision":"street","state":"CA"},"type":"Feature","geometry":{"type":"Point","coordinates":[-117.92894288883,33.618914974928]}},{"properties":{"city":"Anaheim","facility type":"Plant","zip":"92806","region":"West","geo_score":0.607,"description":"Norwalk","facility name":"Anaheim","id":"aanfqye6nwgl","address":"2121 E. Winston Rd.","geo_precision":"street","state":"CA"},"type":"Feature","geometry":{"type":"Point","coordinates":[-118.08172934893,33.902239901603]}},{"properties":{"city":"Anaheim","facility type":"Plant","zip":"92806","region":"West","geo_score":0.607,"description":"Norwalk","facility name":"Anaheim","id":"aanfqy9lhcv5","address":"2121 E. Winston Rd.","geo_precision":"street","state":"CA"},"type":"Feature","geometry":{"type":"Point","coordinates":[-118.08172934893,33.902239901603]}},{"properties":{"city":"Anaheim","facility type":"Plant","zip":"92806","region":"West","geo_score":0.607,"description":"Norwalk","facility name":"Anaheim","id":"aanfqyda2dso","address":"2121 E. Winston Rd.","geo_precision":"street","state":"CA"},"type":"Feature","geometry":{"type":"Point","coordinates":[-118.08172934893,33.902239901603]}},{"properties":{"city":"Anaheim","facility type":"Plant","zip":"92806","region":"West","geo_score":0.607,"description":"Norwalk","facility name":"Anaheim","id":"aanfqygdkgl2","address":"2121 E. Winston Rd.","geo_precision":"street","state":"CA"},"type":"Feature","geometry":{"type":"Point","coordinates":[-118.08172934893,33.902239901603]}},{"properties":{"city":"Half Moon Bay","facility type":"Office","zip":"94019","region":null,"geo_score":1.0,"description":"Norwalk","facility name":"Odwalla HQ","id":"aanfqye9h2f6","address":"120 Stone Pine Rd.","geo_precision":"range","state":"CA"},"type":"Feature","geometry":{"type":"Point","coordinates":[-118.08172934893,33.902239901603]}},{"properties":{"city":"Anaheim","facility type":"Plant","zip":"92806","region":"West","geo_score":0.607,"description":"Norwalk","facility name":"Anaheim","id":"aanfqy48xlwt","address":"2121 E. Winston Rd.","geo_precision":"street","state":"CA"},"type":"Feature","geometry":{"type":"Point","coordinates":[-118.08172934893,33.902239901603]}},{"properties":{"city":"Anaheim","facility type":"Plant","zip":"92806","region":"West","geo_score":0.607,"description":"Norwalk","facility name":"Anaheim","id":"aanfqy5qg3x0","address":"2121 E. Winston Rd.","geo_precision":"street","state":"CA"},"type":"Feature","geometry":{"type":"Point","coordinates":[-118.08172934893,33.902239901603]}},{"properties":{"city":"Anaheim","facility type":"Plant","zip":"92806","region":"West","geo_score":0.607,"description":"Norwalk","facility name":"Anaheim","id":"aanfqy2dhjw2","address":"2121 E. Winston Rd.","geo_precision":"street","state":"CA"},"type":"Feature","geometry":{"type":"Point","coordinates":[-118.08172934893,33.902239901603]}},{"properties":{"city":"Anaheim","facility type":"Plant","zip":"92806","region":"West","geo_score":0.607,"description":"Norwalk","facility name":"Anaheim","id":"aanfqydkcke0","address":"2121 E. Winston Rd.","geo_precision":"street","state":"CA"},"type":"Feature","geometry":{"type":"Point","coordinates":[-118.08172934893,33.902239901603]}},{"properties":{"city":"Anaheim","facility type":"Plant","zip":"92806","region":"West","geo_score":0.607,"description":"Oceanside","facility name":"Anaheim","id":"aanfqy6ttuek","address":"2121 E. Winston Rd.","geo_precision":"street","state":"CA"},"type":"Feature","geometry":{"type":"Point","coordinates":[-117.37948320974,33.19587148017]}},{"properties":{"city":"Anaheim","facility type":"Plant","zip":"92806","region":"West","geo_score":0.607,"description":"Ontario","facility name":"Anaheim","id":"aanfqycxzl5u","address":"2121 E. Winston Rd.","geo_precision":"street","state":"CA"},"type":"Feature","geometry":{"type":"Point","coordinates":[-117.65088686112,34.063345015214]}},{"properties":{"city":"Anaheim","facility type":"Plant","zip":"92806","region":"West","geo_score":0.607,"description":"Ontario","facility name":"Anaheim","id":"aanfqy6mq69f","address":"2121 E. Winston Rd.","geo_precision":"street","state":"CA"},"type":"Feature","geometry":{"type":"Point","coordinates":[-117.65088686112,34.063345015214]}},{"properties":{"city":"Anaheim","facility type":"Plant","zip":"92806","region":"West","geo_score":0.607,"description":"Ontario","facility name":"Anaheim","id":"aanfqy3f6ii6","address":"2121 E. Winston Rd.","geo_precision":"street","state":"CA"},"type":"Feature","geometry":{"type":"Point","coordinates":[-117.65088686112,34.063345015214]}},{"properties":{"city":"Anaheim","facility type":"Plant","zip":"92806","region":"West","geo_score":0.607,"description":"Orange","facility name":"Anaheim","id":"aanfqy20ndz7","address":"2121 E. Winston Rd.","geo_precision":"street","state":"CA"},"type":"Feature","geometry":{"type":"Point","coordinates":[-117.85310772591,33.787798856226]}},{"properties":{"city":"Anaheim","facility type":"Plant","zip":"92806","region":"West","geo_score":0.607,"description":"Orange","facility name":"Anaheim","id":"aanfqy88zz2f","address":"2121 E. Winston Rd.","geo_precision":"street","state":"CA"},"type":"Feature","geometry":{"type":"Point","coordinates":[-117.85310772591,33.787798856226]}},{"properties":{"city":"Anaheim","facility type":"Plant","zip":"92806","region":"West","geo_score":0.607,"description":"Orange","facility name":"Anaheim","id":"aanfqy7qak0y","address":"2121 E. Winston Rd.","geo_precision":"street","state":"CA"},"type":"Feature","geometry":{"type":"Point","coordinates":[-117.85310772591,33.787798856226]}},{"properties":{"city":"Anaheim","facility type":"Plant","zip":"92806","region":"West","geo_score":0.607,"description":"Orange","facility name":"Anaheim","id":"aanfqyeq71j9","address":"2121 E. Winston Rd.","geo_precision":"street","state":"CA"},"type":"Feature","geometry":{"type":"Point","coordinates":[-117.85310772591,33.787798856226]}},{"properties":{"city":"Anaheim","facility type":"Plant","zip":"92806","region":"West","geo_score":0.607,"description":"Oxnard","facility name":"Anaheim","id":"aanfqy1z9ia4","address":"2121 E. Winston Rd.","geo_precision":"street","state":"CA"},"type":"Feature","geometry":{"type":"Point","coordinates":[-119.17704970188,34.197505375262]}},{"properties":{"city":"Anaheim","facility type":"Plant","zip":"92806","region":"West","geo_score":0.607,"description":"Paramount","facility name":"Anaheim","id":"aanfqyaxfbfk","address":"2121 E. Winston Rd.","geo_precision":"street","state":"CA"},"type":"Feature","geometry":{"type":"Point","coordinates":[-118.15978990897,33.889462176039]}},{"properties":{"city":"Anaheim","facility type":"Plant","zip":"92806","region":"West","geo_score":0.607,"description":"Paramount","facility name":"Anaheim","id":"aanfqyh4m7y8","address":"2121 E. Winston Rd.","geo_precision":"street","state":"CA"},"type":"Feature","geometry":{"type":"Point","coordinates":[-118.15978990897,33.889462176039]}},{"properties":{"city":"Anaheim","facility type":"Plant","zip":"92806","region":"West","geo_score":0.607,"description":"Paramount","facility name":"Anaheim","id":"aanfqydg92ub","address":"2121 E. Winston Rd.","geo_precision":"street","state":"CA"},"type":"Feature","geometry":{"type":"Point","coordinates":[-118.15978990897,33.889462176039]}},{"properties":{"city":"Half Moon Bay","facility type":"Office","zip":"94019","region":null,"geo_score":1.0,"description":"Paramount","facility name":"Odwalla HQ","id":"aanfqycioiep","address":"120 Stone Pine Rd.","geo_precision":"range","state":"CA"},"type":"Feature","geometry":{"type":"Point","coordinates":[-118.15978990897,33.889462176039]}},{"properties":{"city":"Anaheim","facility type":"Plant","zip":"92806","region":"West","geo_score":0.607,"description":"Paramount","facility name":"Anaheim","id":"aanfqyaxvubm","address":"2121 E. Winston Rd.","geo_precision":"street","state":"CA"},"type":"Feature","geometry":{"type":"Point","coordinates":[-118.15978990897,33.889462176039]}},{"properties":{"city":"Anaheim","facility type":"Plant","zip":"92806","region":"West","geo_score":0.607,"description":"Paramount","facility name":"Anaheim","id":"aanfqyboxpip","address":"2121 E. Winston Rd.","geo_precision":"street","state":"CA"},"type":"Feature","geometry":{"type":"Point","coordinates":[-118.15978990897,33.889462176039]}},{"properties":{"city":"Anaheim","facility type":"Plant","zip":"92806","region":"West","geo_score":0.607,"description":"Paramount","facility name":"Anaheim","id":"aanfqyb0i23c","address":"2121 E. Winston Rd.","geo_precision":"street","state":"CA"},"type":"Feature","geometry":{"type":"Point","coordinates":[-118.15978990897,33.889462176039]}},{"properties":{"city":"Anaheim","facility type":"Plant","zip":"92806","region":"West","geo_score":0.607,"description":"Paramount","facility name":"Anaheim","id":"aanfqygrn3o8","address":"2121 E. Winston Rd.","geo_precision":"street","state":"CA"},"type":"Feature","geometry":{"type":"Point","coordinates":[-118.15978990897,33.889462176039]}},{"properties":{"city":"Anaheim","facility type":"Plant","zip":"92806","region":"West","geo_score":0.607,"description":"Pasadena","facility name":"Anaheim","id":"aanfqy0zlp1y","address":"2121 E. Winston Rd.","geo_precision":"street","state":"CA"},"type":"Feature","geometry":{"type":"Point","coordinates":[-118.14451518555,34.147789278951]}},{"properties":{"city":"Half Moon Bay","facility type":"Office","zip":"94019","region":null,"geo_score":1.0,"description":"Pasadena","facility name":"Odwalla HQ","id":"aanfqyfxhftw","address":"120 Stone Pine Rd.","geo_precision":"range","state":"CA"},"type":"Feature","geometry":{"type":"Point","coordinates":[-118.14451518555,34.147789278951]}},{"properties":{"city":"Anaheim","facility type":"Plant","zip":"92806","region":"West","geo_score":0.607,"description":"Pasadena","facility name":"Anaheim","id":"aanfqy47hvl4","address":"2121 E. Winston Rd.","geo_precision":"street","state":"CA"},"type":"Feature","geometry":{"type":"Point","coordinates":[-118.14451518555,34.147789278951]}},{"properties":{"city":"Anaheim","facility type":"Plant","zip":"92806","region":"West","geo_score":0.607,"description":"Pasadena","facility name":"Anaheim","id":"aanfqybu6ykp","address":"2121 E. Winston Rd.","geo_precision":"street","state":"CA"},"type":"Feature","geometry":{"type":"Point","coordinates":[-118.14451518555,34.147789278951]}},{"properties":{"city":"Anaheim","facility type":"Plant","zip":"92806","region":"West","geo_score":0.607,"description":"Pasadena","facility name":"Anaheim","id":"aanfqyg8rxrj","address":"2121 E. Winston Rd.","geo_precision":"street","state":"CA"},"type":"Feature","geometry":{"type":"Point","coordinates":[-118.14451518555,34.147789278951]}},{"properties":{"city":"Anaheim","facility type":"Plant","zip":"92806","region":"West","geo_score":0.607,"description":"Pasadena","facility name":"Anaheim","id":"aanfqyfxlx3h","address":"2121 E. Winston Rd.","geo_precision":"street","state":"CA"},"type":"Feature","geometry":{"type":"Point","coordinates":[-118.14451518555,34.147789278951]}},{"properties":{"city":"Anaheim","facility type":"Plant","zip":"92806","region":"West","geo_score":0.607,"description":"Pico Rivera","facility name":"Anaheim","id":"aanfqya0j5ka","address":"2121 E. Winston Rd.","geo_precision":"street","state":"CA"},"type":"Feature","geometry":{"type":"Point","coordinates":[-118.09673277867,33.983072086142]}},{"properties":{"city":"Anaheim","facility type":"Plant","zip":"92806","region":"West","geo_score":0.607,"description":"Pico Rivera","facility name":"Anaheim","id":"aanfqy6nsxkr","address":"2121 E. Winston Rd.","geo_precision":"street","state":"CA"},"type":"Feature","geometry":{"type":"Point","coordinates":[-118.09673277867,33.983072086142]}},{"properties":{"city":"Anaheim","facility type":"Plant","zip":"92806","region":"West","geo_score":0.607,"description":"Pico Rivera","facility name":"Anaheim","id":"aanfqy8y1833","address":"2121 E. Winston Rd.","geo_precision":"street","state":"CA"},"type":"Feature","geometry":{"type":"Point","coordinates":[-118.09673277867,33.983072086142]}},{"properties":{"city":"Anaheim","facility type":"Plant","zip":"92806","region":"West","geo_score":0.607,"description":"Pico Rivera","facility name":"Anaheim","id":"aanfqy761mfx","address":"2121 E. Winston Rd.","geo_precision":"street","state":"CA"},"type":"Feature","geometry":{"type":"Point","coordinates":[-118.09673277867,33.983072086142]}},{"properties":{"city":"Half Moon Bay","facility type":"Office","zip":"94019","region":null,"geo_score":1.0,"description":"Pico Rivera","facility name":"Odwalla HQ","id":"aanfqyfwxpr4","address":"120 Stone Pine Rd.","geo_precision":"range","state":"CA"},"type":"Feature","geometry":{"type":"Point","coordinates":[-118.09673277867,33.983072086142]}},{"properties":{"city":"Anaheim","facility type":"Plant","zip":"92806","region":"West","geo_score":0.607,"description":"Pico Rivera","facility name":"Anaheim","id":"aanfqy0ujwi7","address":"2121 E. Winston Rd.","geo_precision":"street","state":"CA"},"type":"Feature","geometry":{"type":"Point","coordinates":[-118.09673277867,33.983072086142]}},{"properties":{"city":"Anaheim","facility type":"Plant","zip":"92806","region":"West","geo_score":0.607,"description":"Pico Rivera","facility name":"Anaheim","id":"aanfqycavbrv","address":"2121 E. Winston Rd.","geo_precision":"street","state":"CA"},"type":"Feature","geometry":{"type":"Point","coordinates":[-118.09673277867,33.983072086142]}},{"properties":{"city":"Anaheim","facility type":"Plant","zip":"92806","region":"West","geo_score":0.607,"description":"Pico Rivera","facility name":"Anaheim","id":"aanfqy7ibe9f","address":"2121 E. Winston Rd.","geo_precision":"street","state":"CA"},"type":"Feature","geometry":{"type":"Point","coordinates":[-118.09673277867,33.983072086142]}},{"properties":{"city":"Anaheim","facility type":"Plant","zip":"92806","region":"West","geo_score":0.607,"description":"Pico Rivera","facility name":"Anaheim","id":"aanfqy6xg9dc","address":"2121 E. Winston Rd.","geo_precision":"street","state":"CA"},"type":"Feature","geometry":{"type":"Point","coordinates":[-118.09673277867,33.983072086142]}},{"properties":{"city":"American Canyon","facility type":"Plant","zip":"94503","region":"Northwest","geo_score":1.0,"description":"Pittsburg","facility name":"American Canyon","id":"aanfqy7y0gkz","address":"1201 Commerce Blvd","geo_precision":"range","state":"CA"},"type":"Feature","geometry":{"type":"Point","coordinates":[-121.88467961284,38.027979254479]}},{"properties":{"city":"Anaheim","facility type":"Plant","zip":"92806","region":"West","geo_score":0.607,"description":"Placentia","facility name":"Anaheim","id":"aanfqy8pvf5y","address":"2121 E. Winston Rd.","geo_precision":"street","state":"CA"},"type":"Feature","geometry":{"type":"Point","coordinates":[-117.87033331203,33.872241930082]}},{"properties":{"city":"Anaheim","facility type":"Plant","zip":"92806","region":"West","geo_score":0.607,"description":"Placentia","facility name":"Anaheim","id":"aanfqye5uyb3","address":"2121 E. Winston Rd.","geo_precision":"street","state":"CA"},"type":"Feature","geometry":{"type":"Point","coordinates":[-117.87033331203,33.872241930082]}},{"properties":{"city":"Anaheim","facility type":"Plant","zip":"92806","region":"West","geo_score":0.607,"description":"Placentia","facility name":"Anaheim","id":"aanfqy93odl8","address":"2121 E. Winston Rd.","geo_precision":"street","state":"CA"},"type":"Feature","geometry":{"type":"Point","coordinates":[-117.87033331203,33.872241930082]}},{"properties":{"city":"Anaheim","facility type":"Plant","zip":"92806","region":"West","geo_score":0.607,"description":"Placentia","facility name":"Anaheim","id":"aanfqy244v56","address":"2121 E. Winston Rd.","geo_precision":"street","state":"CA"},"type":"Feature","geometry":{"type":"Point","coordinates":[-117.87033331203,33.872241930082]}},{"properties":{"city":"Half Moon Bay","facility type":"Office","zip":"94019","region":null,"geo_score":1.0,"description":"Placentia","facility name":"Odwalla HQ","id":"aanfqy91zu7q","address":"120 Stone Pine Rd.","geo_precision":"range","state":"CA"},"type":"Feature","geometry":{"type":"Point","coordinates":[-117.87033331203,33.872241930082]}},{"properties":{"city":"Anaheim","facility type":"Plant","zip":"92806","region":"West","geo_score":0.607,"description":"Placentia","facility name":"Anaheim","id":"aanfqyet38uq","address":"2121 E. Winston Rd.","geo_precision":"street","state":"CA"},"type":"Feature","geometry":{"type":"Point","coordinates":[-117.87033331203,33.872241930082]}},{"properties":{"city":"Anaheim","facility type":"Plant","zip":"92806","region":"West","geo_score":0.607,"description":"Placentia","facility name":"Anaheim","id":"aanfqyain2m6","address":"2121 E. Winston Rd.","geo_precision":"street","state":"CA"},"type":"Feature","geometry":{"type":"Point","coordinates":[-117.87033331203,33.872241930082]}},{"properties":{"city":"American Canyon","facility type":"Plant","zip":"94503","region":"Northwest","geo_score":1.0,"description":"Pleasanton","facility name":"American Canyon","id":"aanfqy6qng60","address":"1201 Commerce Blvd","geo_precision":"range","state":"CA"},"type":"Feature","geometry":{"type":"Point","coordinates":[-121.87467832278,37.662434105834]}},{"properties":{"city":"Anaheim","facility type":"Plant","zip":"92806","region":"West","geo_score":0.607,"description":"Pomona","facility name":"Anaheim","id":"aanfqycvfb55","address":"2121 E. Winston Rd.","geo_precision":"street","state":"CA"},"type":"Feature","geometry":{"type":"Point","coordinates":[-117.75230119026,34.055229142952]}},{"properties":{"city":"Anaheim","facility type":"Plant","zip":"92806","region":"West","geo_score":0.607,"description":"Pomona","facility name":"Anaheim","id":"aanfqyep7q8u","address":"2121 E. Winston Rd.","geo_precision":"street","state":"CA"},"type":"Feature","geometry":{"type":"Point","coordinates":[-117.75230119026,34.055229142952]}},{"properties":{"city":"Anaheim","facility type":"Plant","zip":"92806","region":"West","geo_score":0.607,"description":"Pomona","facility name":"Anaheim","id":"aanfqy15dqiz","address":"2121 E. Winston Rd.","geo_precision":"street","state":"CA"},"type":"Feature","geometry":{"type":"Point","coordinates":[-117.75230119026,34.055229142952]}},{"properties":{"city":"Anaheim","facility type":"Plant","zip":"92806","region":"West","geo_score":0.607,"description":"Pomona","facility name":"Anaheim","id":"aanfqyc0k73r","address":"2121 E. Winston Rd.","geo_precision":"street","state":"CA"},"type":"Feature","geometry":{"type":"Point","coordinates":[-117.75230119026,34.055229142952]}},{"properties":{"city":"Anaheim","facility type":"Plant","zip":"92806","region":"West","geo_score":0.607,"description":"Pomona","facility name":"Anaheim","id":"aanfqy0sn85r","address":"2121 E. Winston Rd.","geo_precision":"street","state":"CA"},"type":"Feature","geometry":{"type":"Point","coordinates":[-117.75230119026,34.055229142952]}},{"properties":{"city":"Anaheim","facility type":"Plant","zip":"92806","region":"West","geo_score":0.607,"description":"Pomona","facility name":"Anaheim","id":"aanfqycynr4g","address":"2121 E. Winston Rd.","geo_precision":"street","state":"CA"},"type":"Feature","geometry":{"type":"Point","coordinates":[-117.75230119026,34.055229142952]}},{"properties":{"city":"American Canyon","facility type":"Plant","zip":"94503","region":"Northwest","geo_score":1.0,"description":"Rancho Cordova","facility name":"American Canyon","id":"aanfqy561pq4","address":"1201 Commerce Blvd","geo_precision":"range","state":"CA"},"type":"Feature","geometry":{"type":"Point","coordinates":[-121.30272317856,38.589073461626]}},{"properties":{"city":"Anaheim","facility type":"Plant","zip":"92806","region":"West","geo_score":0.607,"description":"Rancho Cucamonga","facility name":"Anaheim","id":"aanfqy8r7ub3","address":"2121 E. Winston Rd.","geo_precision":"street","state":"CA"},"type":"Feature","geometry":{"type":"Point","coordinates":[-117.5931036461,34.106402537737]}},{"properties":{"city":"Anaheim","facility type":"Plant","zip":"92806","region":"West","geo_score":0.607,"description":"Rancho Cucamonga","facility name":"Anaheim","id":"aanfqydbsn6u","address":"2121 E. Winston Rd.","geo_precision":"street","state":"CA"},"type":"Feature","geometry":{"type":"Point","coordinates":[-117.5931036461,34.106402537737]}},{"properties":{"city":"Anaheim","facility type":"Plant","zip":"92806","region":"West","geo_score":0.607,"description":"Rancho Cucamonga","facility name":"Anaheim","id":"aanfqy5ei8oo","address":"2121 E. Winston Rd.","geo_precision":"street","state":"CA"},"type":"Feature","geometry":{"type":"Point","coordinates":[-117.5931036461,34.106402537737]}},{"properties":{"city":"Half Moon Bay","facility type":"Office","zip":"94019","region":null,"geo_score":1.0,"description":"Redding","facility name":"Odwalla HQ","id":"aanfqyf2j25r","address":"120 Stone Pine Rd.","geo_precision":"range","state":"CA"},"type":"Feature","geometry":{"type":"Point","coordinates":[-122.39167103113,40.58654060176]}},{"properties":{"city":"Anaheim","facility type":"Plant","zip":"92806","region":"West","geo_score":0.607,"description":"Rialto","facility name":"Anaheim","id":"aanfqy2wgm6z","address":"2121 E. Winston Rd.","geo_precision":"street","state":"CA"},"type":"Feature","geometry":{"type":"Point","coordinates":[-117.37032033643,34.10640098969]}},{"properties":{"city":"Anaheim","facility type":"Plant","zip":"92806","region":"West","geo_score":0.607,"description":"Rialto","facility name":"Anaheim","id":"aanfqy5c5feb","address":"2121 E. Winston Rd.","geo_precision":"street","state":"CA"},"type":"Feature","geometry":{"type":"Point","coordinates":[-117.37032033643,34.10640098969]}},{"properties":{"city":"American Canyon","facility type":"Plant","zip":"94503","region":"Northwest","geo_score":1.0,"description":"Richmond","facility name":"American Canyon","id":"aanfqyg38x24","address":"1201 Commerce Blvd","geo_precision":"range","state":"CA"},"type":"Feature","geometry":{"type":"Point","coordinates":[-122.34774390248,37.935760063645]}},{"properties":{"city":"American Canyon","facility type":"Plant","zip":"94503","region":"Northwest","geo_score":1.0,"description":"Richmond","facility name":"American Canyon","id":"aanfqyb4cbiv","address":"1201 Commerce Blvd","geo_precision":"range","state":"CA"},"type":"Feature","geometry":{"type":"Point","coordinates":[-122.34774390248,37.935760063645]}},{"properties":{"city":"Anaheim","facility type":"Plant","zip":"92806","region":"West","geo_score":0.607,"description":"Riverside","facility name":"Anaheim","id":"aanfqy6zsrt9","address":"2121 E. Winston Rd.","geo_precision":"street","state":"CA"},"type":"Feature","geometry":{"type":"Point","coordinates":[-117.39615376032,33.953351211489]}},{"properties":{"city":"Anaheim","facility type":"Plant","zip":"92806","region":"West","geo_score":0.607,"description":"Riverside","facility name":"Anaheim","id":"aanfqy39ibs3","address":"2121 E. Winston Rd.","geo_precision":"street","state":"CA"},"type":"Feature","geometry":{"type":"Point","coordinates":[-117.39615376032,33.953351211489]}},{"properties":{"city":"American Canyon","facility type":"Plant","zip":"94503","region":"Northwest","geo_score":1.0,"description":"Rocklin","facility name":"American Canyon","id":"aanfqydm7suf","address":"1201 Commerce Blvd","geo_precision":"range","state":"CA"},"type":"Feature","geometry":{"type":"Point","coordinates":[-121.23578013781,38.790736307773]}},{"properties":{"city":"Anaheim","facility type":"Plant","zip":"92806","region":"West","geo_score":0.607,"description":"Rosemead","facility name":"Anaheim","id":"aanfqy3z32ht","address":"2121 E. Winston Rd.","geo_precision":"street","state":"CA"},"type":"Feature","geometry":{"type":"Point","coordinates":[-118.07284462172,34.080568744076]}},{"properties":{"city":"Half Moon Bay","facility type":"Office","zip":"94019","region":null,"geo_score":1.0,"description":"Rosemead","facility name":"Odwalla HQ","id":"aanfqy4h6jsk","address":"120 Stone Pine Rd.","geo_precision":"range","state":"CA"},"type":"Feature","geometry":{"type":"Point","coordinates":[-118.07284462172,34.080568744076]}},{"properties":{"city":"Anaheim","facility type":"Plant","zip":"92806","region":"West","geo_score":0.607,"description":"Rosemead","facility name":"Anaheim","id":"aanfqy8tvm7d","address":"2121 E. Winston Rd.","geo_precision":"street","state":"CA"},"type":"Feature","geometry":{"type":"Point","coordinates":[-118.07284462172,34.080568744076]}},{"properties":{"city":"Anaheim","facility type":"Plant","zip":"92806","region":"West","geo_score":0.607,"description":"Rosemead","facility name":"Anaheim","id":"aanfqy9kukfb","address":"2121 E. Winston Rd.","geo_precision":"street","state":"CA"},"type":"Feature","geometry":{"type":"Point","coordinates":[-118.07284462172,34.080568744076]}},{"properties":{"city":"Anaheim","facility type":"Plant","zip":"92806","region":"West","geo_score":0.607,"description":"Rosemead","facility name":"Anaheim","id":"aanfqy7416g1","address":"2121 E. Winston Rd.","geo_precision":"street","state":"CA"},"type":"Feature","geometry":{"type":"Point","coordinates":[-118.07284462172,34.080568744076]}},{"properties":{"city":"Anaheim","facility type":"Plant","zip":"92806","region":"West","geo_score":0.607,"description":"Rosemead","facility name":"Anaheim","id":"aanfqy1e91sf","address":"2121 E. Winston Rd.","geo_precision":"street","state":"CA"},"type":"Feature","geometry":{"type":"Point","coordinates":[-118.07284462172,34.080568744076]}},{"properties":{"city":"American Canyon","facility type":"Plant","zip":"94503","region":"Northwest","geo_score":1.0,"description":"Roseville","facility name":"American Canyon","id":"aanfqy4tcmse","address":"1201 Commerce Blvd","geo_precision":"range","state":"CA"},"type":"Feature","geometry":{"type":"Point","coordinates":[-121.28800398458,38.752125939548]}},{"properties":{"city":"American Canyon","facility type":"Plant","zip":"94503","region":"Northwest","geo_score":1.0,"description":"Sacramento","facility name":"American Canyon","id":"aanfqy0vbonk","address":"1201 Commerce Blvd","geo_precision":"range","state":"CA"},"type":"Feature","geometry":{"type":"Point","coordinates":[-121.49439632828,38.581574648714]}},{"properties":{"city":"Anaheim","facility type":"Plant","zip":"92806","region":"West","geo_score":0.607,"description":"San Bernardino","facility name":"Anaheim","id":"aanfqy8z7o4u","address":"2121 E. Winston Rd.","geo_precision":"street","state":"CA"},"type":"Feature","geometry":{"type":"Point","coordinates":[-117.28976136309,34.108345440233]}},{"properties":{"city":"Anaheim","facility type":"Plant","zip":"92806","region":"West","geo_score":0.607,"description":"San Bernardino","facility name":"Anaheim","id":"aanfqyampli6","address":"2121 E. Winston Rd.","geo_precision":"street","state":"CA"},"type":"Feature","geometry":{"type":"Point","coordinates":[-117.28976136309,34.108345440233]}},{"properties":{"city":"Anaheim","facility type":"Plant","zip":"92806","region":"West","geo_score":0.607,"description":"San Diego","facility name":"Anaheim","id":"aanfqy2xycfc","address":"2121 E. Winston Rd.","geo_precision":"street","state":"CA"},"type":"Feature","geometry":{"type":"Point","coordinates":[-117.15725477405,32.715332980028]}},{"properties":{"city":"American Canyon","facility type":"Plant","zip":"94503","region":"Northwest","geo_score":1.0,"description":"San Leandro","facility name":"American Canyon","id":"aanfqy1700km","address":"1201 Commerce Blvd","geo_precision":"range","state":"CA"},"type":"Feature","geometry":{"type":"Point","coordinates":[-122.15607455466,37.724930135692]}},{"properties":{"city":"American Canyon","facility type":"Plant","zip":"94503","region":"Northwest","geo_score":1.0,"description":"San Leandro","facility name":"American Canyon","id":"aanfqy7ak1yk","address":"1201 Commerce Blvd","geo_precision":"range","state":"CA"},"type":"Feature","geometry":{"type":"Point","coordinates":[-122.15607455466,37.724930135692]}},{"properties":{"city":"American Canyon","facility type":"Plant","zip":"94503","region":"Northwest","geo_score":1.0,"description":"San Leandro","facility name":"American Canyon","id":"aanfqy2htf41","address":"1201 Commerce Blvd","geo_precision":"range","state":"CA"},"type":"Feature","geometry":{"type":"Point","coordinates":[-122.15607455466,37.724930135692]}},{"properties":{"city":"Anaheim","facility type":"Plant","zip":"92806","region":"West","geo_score":0.607,"description":"San Marcos","facility name":"Anaheim","id":"aanfqyh74ps1","address":"2121 E. Winston Rd.","geo_precision":"street","state":"CA"},"type":"Feature","geometry":{"type":"Point","coordinates":[-117.16614194638,33.143372689642]}},{"properties":{"city":"Half Moon Bay","facility type":"Office","zip":"94019","region":null,"geo_score":1.0,"description":"San Mateo","facility name":"Odwalla HQ","id":"aanfqy360rj5","address":"120 Stone Pine Rd.","geo_precision":"range","state":"CA"},"type":"Feature","geometry":{"type":"Point","coordinates":[-122.32552439543,37.562996362553]}},{"properties":{"city":"American Canyon","facility type":"Plant","zip":"94503","region":"Northwest","geo_score":1.0,"description":"San Mateo","facility name":"American Canyon","id":"aanfqy6yr2i7","address":"1201 Commerce Blvd","geo_precision":"range","state":"CA"},"type":"Feature","geometry":{"type":"Point","coordinates":[-122.32552439543,37.562996362553]}},{"properties":{"city":"American Canyon","facility type":"Plant","zip":"94503","region":"Northwest","geo_score":1.0,"description":"San Mateo","facility name":"American Canyon","id":"aanfqyc7p6va","address":"1201 Commerce Blvd","geo_precision":"range","state":"CA"},"type":"Feature","geometry":{"type":"Point","coordinates":[-122.32552439543,37.562996362553]}},{"properties":{"city":"American Canyon","facility type":"Plant","zip":"94503","region":"Northwest","geo_score":1.0,"description":"San Ramon","facility name":"American Canyon","id":"aanfqy8ahg5x","address":"1201 Commerce Blvd","geo_precision":"range","state":"CA"},"type":"Feature","geometry":{"type":"Point","coordinates":[-121.97801060037,37.779928519919]}},{"properties":{"city":"American Canyon","facility type":"Plant","zip":"94503","region":"Northwest","geo_score":1.0,"description":"San Ramon","facility name":"American Canyon","id":"aanfqy33gn08","address":"1201 Commerce Blvd","geo_precision":"range","state":"CA"},"type":"Feature","geometry":{"type":"Point","coordinates":[-121.97801060037,37.779928519919]}},{"properties":{"city":"American Canyon","facility type":"Plant","zip":"94503","region":"Northwest","geo_score":1.0,"description":"San Ramon","facility name":"American Canyon","id":"aanfqy2swjnd","address":"1201 Commerce Blvd","geo_precision":"range","state":"CA"},"type":"Feature","geometry":{"type":"Point","coordinates":[-121.97801060037,37.779928519919]}},{"properties":{"city":"Anaheim","facility type":"Plant","zip":"92806","region":"West","geo_score":0.607,"description":"Santa Ana","facility name":"Anaheim","id":"aanfqy7yyora","address":"2121 E. Winston Rd.","geo_precision":"street","state":"CA"},"type":"Feature","geometry":{"type":"Point","coordinates":[-117.86783338637,33.745577208855]}},{"properties":{"city":"Anaheim","facility type":"Plant","zip":"92806","region":"West","geo_score":0.607,"description":"Santa Ana","facility name":"Anaheim","id":"aanfqy8mib0x","address":"2121 E. Winston Rd.","geo_precision":"street","state":"CA"},"type":"Feature","geometry":{"type":"Point","coordinates":[-117.86783338637,33.745577208855]}},{"properties":{"city":"Anaheim","facility type":"Plant","zip":"92806","region":"West","geo_score":0.607,"description":"Santa Ana","facility name":"Anaheim","id":"aanfqy7hivi9","address":"2121 E. Winston Rd.","geo_precision":"street","state":"CA"},"type":"Feature","geometry":{"type":"Point","coordinates":[-117.86783338637,33.745577208855]}},{"properties":{"city":"Anaheim","facility type":"Plant","zip":"92806","region":"West","geo_score":0.607,"description":"Santa Clarita","facility name":"Anaheim","id":"aanfqydtkbu4","address":"2121 E. Winston Rd.","geo_precision":"street","state":"CA"},"type":"Feature","geometry":{"type":"Point","coordinates":[-118.54258278484,34.391666923455]}},{"properties":{"city":"Anaheim","facility type":"Plant","zip":"92806","region":"West","geo_score":0.607,"description":"Santa Maria","facility name":"Anaheim","id":"aanfqyezkkb8","address":"2121 E. Winston Rd.","geo_precision":"street","state":"CA"},"type":"Feature","geometry":{"type":"Point","coordinates":[-120.43571886113,34.953038183623]}},{"properties":{"city":"Anaheim","facility type":"Plant","zip":"92806","region":"West","geo_score":0.607,"description":"Santa Monica","facility name":"Anaheim","id":"aanfqy7smzyv","address":"2121 E. Winston Rd.","geo_precision":"street","state":"CA"},"type":"Feature","geometry":{"type":"Point","coordinates":[-118.4911865179,34.019454612653]}},{"properties":{"city":"Anaheim","facility type":"Plant","zip":"92806","region":"West","geo_score":0.607,"description":"Santa Monica","facility name":"Anaheim","id":"aanfqy3neywe","address":"2121 E. Winston Rd.","geo_precision":"street","state":"CA"},"type":"Feature","geometry":{"type":"Point","coordinates":[-118.4911865179,34.019454612653]}},{"properties":{"city":"Anaheim","facility type":"Plant","zip":"92806","region":"West","geo_score":0.607,"description":"Santa Monica","facility name":"Anaheim","id":"aanfqybszwj8","address":"2121 E. Winston Rd.","geo_precision":"street","state":"CA"},"type":"Feature","geometry":{"type":"Point","coordinates":[-118.4911865179,34.019454612653]}},{"properties":{"city":"Anaheim","facility type":"Plant","zip":"92806","region":"West","geo_score":0.607,"description":"Santa Monica","facility name":"Anaheim","id":"aanfqyfo8vym","address":"2121 E. Winston Rd.","geo_precision":"street","state":"CA"},"type":"Feature","geometry":{"type":"Point","coordinates":[-118.4911865179,34.019454612653]}},{"properties":{"city":"Anaheim","facility type":"Plant","zip":"92806","region":"West","geo_score":0.607,"description":"Santa Monica","facility name":"Anaheim","id":"aanfqy9b7vfe","address":"2121 E. Winston Rd.","geo_precision":"street","state":"CA"},"type":"Feature","geometry":{"type":"Point","coordinates":[-118.4911865179,34.019454612653]}},{"properties":{"city":"Anaheim","facility type":"Plant","zip":"92806","region":"West","geo_score":0.607,"description":"Santee","facility name":"Anaheim","id":"aanfqy1edn2q","address":"2121 E. Winston Rd.","geo_precision":"street","state":"CA"},"type":"Feature","geometry":{"type":"Point","coordinates":[-116.97391249961,32.838387444344]}},{"properties":{"city":"Anaheim","facility type":"Plant","zip":"92806","region":"West","geo_score":0.607,"description":"South Gate","facility name":"Anaheim","id":"aanfqyfitey8","address":"2121 E. Winston Rd.","geo_precision":"street","state":"CA"},"type":"Feature","geometry":{"type":"Point","coordinates":[-118.21201289335,33.954739703291]}},{"properties":{"city":"Anaheim","facility type":"Plant","zip":"92806","region":"West","geo_score":0.607,"description":"South Gate","facility name":"Anaheim","id":"aanfqyf0g7xr","address":"2121 E. Winston Rd.","geo_precision":"street","state":"CA"},"type":"Feature","geometry":{"type":"Point","coordinates":[-118.21201289335,33.954739703291]}},{"properties":{"city":"Half Moon Bay","facility type":"Office","zip":"94019","region":null,"geo_score":1.0,"description":"South Gate","facility name":"Odwalla HQ","id":"aanfqy6f9cjc","address":"120 Stone Pine Rd.","geo_precision":"range","state":"CA"},"type":"Feature","geometry":{"type":"Point","coordinates":[-118.21201289335,33.954739703291]}},{"properties":{"city":"Anaheim","facility type":"Plant","zip":"92806","region":"West","geo_score":0.607,"description":"South Gate","facility name":"Anaheim","id":"aanfqybbjtq1","address":"2121 E. Winston Rd.","geo_precision":"street","state":"CA"},"type":"Feature","geometry":{"type":"Point","coordinates":[-118.21201289335,33.954739703291]}},{"properties":{"city":"Anaheim","facility type":"Plant","zip":"92806","region":"West","geo_score":0.607,"description":"South Gate","facility name":"Anaheim","id":"aanfqydhnl83","address":"2121 E. Winston Rd.","geo_precision":"street","state":"CA"},"type":"Feature","geometry":{"type":"Point","coordinates":[-118.21201289335,33.954739703291]}},{"properties":{"city":"Anaheim","facility type":"Plant","zip":"92806","region":"West","geo_score":0.607,"description":"South Gate","facility name":"Anaheim","id":"aanfqy5lx3bg","address":"2121 E. Winston Rd.","geo_precision":"street","state":"CA"},"type":"Feature","geometry":{"type":"Point","coordinates":[-118.21201289335,33.954739703291]}},{"properties":{"city":"Anaheim","facility type":"Plant","zip":"92806","region":"West","geo_score":0.607,"description":"South Gate","facility name":"Anaheim","id":"aanfqy2ci8x2","address":"2121 E. Winston Rd.","geo_precision":"street","state":"CA"},"type":"Feature","geometry":{"type":"Point","coordinates":[-118.21201289335,33.954739703291]}},{"properties":{"city":"Half Moon Bay","facility type":"Office","zip":"94019","region":null,"geo_score":1.0,"description":"South San Francisco","facility name":"Odwalla HQ","id":"aanfqy2lox9k","address":"120 Stone Pine Rd.","geo_precision":"range","state":"CA"},"type":"Feature","geometry":{"type":"Point","coordinates":[-122.40774909355,37.6546566468]}},{"properties":{"city":"American Canyon","facility type":"Plant","zip":"94503","region":"Northwest","geo_score":1.0,"description":"South San Francisco","facility name":"American Canyon","id":"aanfqy3p5c86","address":"1201 Commerce Blvd","geo_precision":"range","state":"CA"},"type":"Feature","geometry":{"type":"Point","coordinates":[-122.40774909355,37.6546566468]}},{"properties":{"city":"American Canyon","facility type":"Plant","zip":"94503","region":"Northwest","geo_score":1.0,"description":"South San Francisco","facility name":"American Canyon","id":"aanfqyc04olh","address":"1201 Commerce Blvd","geo_precision":"range","state":"CA"},"type":"Feature","geometry":{"type":"Point","coordinates":[-122.40774909355,37.6546566468]}},{"properties":{"city":"Anaheim","facility type":"Plant","zip":"92806","region":"West","geo_score":0.607,"description":"Temecula","facility name":"Anaheim","id":"aanfqy1iq5f6","address":"2121 E. Winston Rd.","geo_precision":"street","state":"CA"},"type":"Feature","geometry":{"type":"Point","coordinates":[-117.14836392292,33.4936439949]}},{"properties":{"city":"Anaheim","facility type":"Plant","zip":"92806","region":"West","geo_score":0.607,"description":"Torrance","facility name":"Anaheim","id":"aanfqydscl72","address":"2121 E. Winston Rd.","geo_precision":"street","state":"CA"},"type":"Feature","geometry":{"type":"Point","coordinates":[-118.34062593315,33.835853926481]}},{"properties":{"city":"Anaheim","facility type":"Plant","zip":"92806","region":"West","geo_score":0.607,"description":"Torrance","facility name":"Anaheim","id":"aanfqy9x29md","address":"2121 E. Winston Rd.","geo_precision":"street","state":"CA"},"type":"Feature","geometry":{"type":"Point","coordinates":[-118.34062593315,33.835853926481]}},{"properties":{"city":"Half Moon Bay","facility type":"Office","zip":"94019","region":null,"geo_score":1.0,"description":"Torrance","facility name":"Odwalla HQ","id":"aanfqy9tdmed","address":"120 Stone Pine Rd.","geo_precision":"range","state":"CA"},"type":"Feature","geometry":{"type":"Point","coordinates":[-118.34062593315,33.835853926481]}},{"properties":{"city":"Anaheim","facility type":"Plant","zip":"92806","region":"West","geo_score":0.607,"description":"Torrance","facility name":"Anaheim","id":"aanfqy51na8o","address":"2121 E. Winston Rd.","geo_precision":"street","state":"CA"},"type":"Feature","geometry":{"type":"Point","coordinates":[-118.34062593315,33.835853926481]}},{"properties":{"city":"Anaheim","facility type":"Plant","zip":"92806","region":"West","geo_score":0.607,"description":"Torrance","facility name":"Anaheim","id":"aanfqyckwxsq","address":"2121 E. Winston Rd.","geo_precision":"street","state":"CA"},"type":"Feature","geometry":{"type":"Point","coordinates":[-118.34062593315,33.835853926481]}},{"properties":{"city":"Anaheim","facility type":"Plant","zip":"92806","region":"West","geo_score":0.607,"description":"Torrance","facility name":"Anaheim","id":"aanfqyeb4cxv","address":"2121 E. Winston Rd.","geo_precision":"street","state":"CA"},"type":"Feature","geometry":{"type":"Point","coordinates":[-118.34062593315,33.835853926481]}},{"properties":{"city":"Half Moon Bay","facility type":"Office","zip":"94019","region":null,"geo_score":1.0,"description":"Tulare","facility name":"Odwalla HQ","id":"aanfqye0y96c","address":"120 Stone Pine Rd.","geo_precision":"range","state":"CA"},"type":"Feature","geometry":{"type":"Point","coordinates":[-119.34733353808,36.207730245218]}},{"properties":{"city":"Anaheim","facility type":"Plant","zip":"92806","region":"West","geo_score":0.607,"description":"Tustin","facility name":"Anaheim","id":"aanfqyayevne","address":"2121 E. Winston Rd.","geo_precision":"street","state":"CA"},"type":"Feature","geometry":{"type":"Point","coordinates":[-117.82616470032,33.745854012036]}},{"properties":{"city":"Anaheim","facility type":"Plant","zip":"92806","region":"West","geo_score":0.607,"description":"Tustin","facility name":"Anaheim","id":"aanfqy3x3seo","address":"2121 E. Winston Rd.","geo_precision":"street","state":"CA"},"type":"Feature","geometry":{"type":"Point","coordinates":[-117.82616470032,33.745854012036]}},{"properties":{"city":"Anaheim","facility type":"Plant","zip":"92806","region":"West","geo_score":0.607,"description":"Tustin","facility name":"Anaheim","id":"aanfqy6ok3qx","address":"2121 E. Winston Rd.","geo_precision":"street","state":"CA"},"type":"Feature","geometry":{"type":"Point","coordinates":[-117.82616470032,33.745854012036]}},{"properties":{"city":"Anaheim","facility type":"Plant","zip":"92806","region":"West","geo_score":0.607,"description":"Tustin","facility name":"Anaheim","id":"aanfqy9lzpg9","address":"2121 E. Winston Rd.","geo_precision":"street","state":"CA"},"type":"Feature","geometry":{"type":"Point","coordinates":[-117.82616470032,33.745854012036]}},{"properties":{"city":"American Canyon","facility type":"Plant","zip":"94503","region":"Northwest","geo_score":1.0,"description":"Union City","facility name":"American Canyon","id":"aanfqyfva6ho","address":"1201 Commerce Blvd","geo_precision":"range","state":"CA"},"type":"Feature","geometry":{"type":"Point","coordinates":[-122.04382794273,37.593396698401]}},{"properties":{"city":"American Canyon","facility type":"Plant","zip":"94503","region":"Northwest","geo_score":1.0,"description":"Union City","facility name":"American Canyon","id":"aanfqy7lleht","address":"1201 Commerce Blvd","geo_precision":"range","state":"CA"},"type":"Feature","geometry":{"type":"Point","coordinates":[-122.04382794273,37.593396698401]}},{"properties":{"city":"American Canyon","facility type":"Plant","zip":"94503","region":"Northwest","geo_score":1.0,"description":"Union City","facility name":"American Canyon","id":"aanfqy9rgxsn","address":"1201 Commerce Blvd","geo_precision":"range","state":"CA"},"type":"Feature","geometry":{"type":"Point","coordinates":[-122.04382794273,37.593396698401]}},{"properties":{"city":"Anaheim","facility type":"Plant","zip":"92806","region":"West","geo_score":0.607,"description":"Upland","facility name":"Anaheim","id":"aanfqy7xad02","address":"2121 E. Winston Rd.","geo_precision":"street","state":"CA"},"type":"Feature","geometry":{"type":"Point","coordinates":[-117.64838645265,34.097511115491]}},{"properties":{"city":"Anaheim","facility type":"Plant","zip":"92806","region":"West","geo_score":0.607,"description":"Upland","facility name":"Anaheim","id":"aanfqy1yjzyn","address":"2121 E. Winston Rd.","geo_precision":"street","state":"CA"},"type":"Feature","geometry":{"type":"Point","coordinates":[-117.64838645265,34.097511115491]}},{"properties":{"city":"Anaheim","facility type":"Plant","zip":"92806","region":"West","geo_score":0.607,"description":"Upland","facility name":"Anaheim","id":"aanfqy7dnsrn","address":"2121 E. Winston Rd.","geo_precision":"street","state":"CA"},"type":"Feature","geometry":{"type":"Point","coordinates":[-117.64838645265,34.097511115491]}},{"properties":{"city":"American Canyon","facility type":"Plant","zip":"94503","region":"Northwest","geo_score":1.0,"description":"Vallejo","facility name":"American Canyon","id":"aanfqy1ic4zx","address":"1201 Commerce Blvd","geo_precision":"range","state":"CA"},"type":"Feature","geometry":{"type":"Point","coordinates":[-122.25663517373,38.104089715757]}},{"properties":{"city":"American Canyon","facility type":"Plant","zip":"94503","region":"Northwest","geo_score":1.0,"description":"Vallejo","facility name":"American Canyon","id":"aanfqy20w07j","address":"1201 Commerce Blvd","geo_precision":"range","state":"CA"},"type":"Feature","geometry":{"type":"Point","coordinates":[-122.25663517373,38.104089715757]}},{"properties":{"city":"Anaheim","facility type":"Plant","zip":"92806","region":"West","geo_score":0.607,"description":"Ventura","facility name":"Anaheim","id":"aanfqy2c95zc","address":"2121 E. Winston Rd.","geo_precision":"street","state":"CA"},"type":"Feature","geometry":{"type":"Point","coordinates":[-119.22900048031,34.274642090673]}},{"properties":{"city":"Anaheim","facility type":"Plant","zip":"92806","region":"West","geo_score":0.607,"description":"Victorville","facility name":"Anaheim","id":"aanfqy8wo050","address":"2121 E. Winston Rd.","geo_precision":"street","state":"CA"},"type":"Feature","geometry":{"type":"Point","coordinates":[-117.29115632192,34.536109907418]}},{"properties":{"city":"Half Moon Bay","facility type":"Office","zip":"94019","region":null,"geo_score":1.0,"description":"Visalia","facility name":"Odwalla HQ","id":"aanfqy519np4","address":"120 Stone Pine Rd.","geo_precision":"range","state":"CA"},"type":"Feature","geometry":{"type":"Point","coordinates":[-119.29205534063,36.330228986538]}},{"properties":{"city":"American Canyon","facility type":"Plant","zip":"94503","region":"Northwest","geo_score":1.0,"description":"Visalia","facility name":"American Canyon","id":"aanfqyarjpz7","address":"1201 Commerce Blvd","geo_precision":"range","state":"CA"},"type":"Feature","geometry":{"type":"Point","coordinates":[-119.29205534063,36.330228986538]}},{"properties":{"city":"Anaheim","facility type":"Plant","zip":"92806","region":"West","geo_score":0.607,"description":"Vista","facility name":"Anaheim","id":"aanfqy7gd2vp","address":"2121 E. Winston Rd.","geo_precision":"street","state":"CA"},"type":"Feature","geometry":{"type":"Point","coordinates":[-117.24253330589,33.200040062936]}},{"properties":{"city":"American Canyon","facility type":"Plant","zip":"94503","region":"Northwest","geo_score":1.0,"description":"Walnut Creek","facility name":"American Canyon","id":"aanfqy45ke4o","address":"1201 Commerce Blvd","geo_precision":"range","state":"CA"},"type":"Feature","geometry":{"type":"Point","coordinates":[-122.06496066023,37.906313447626]}},{"properties":{"city":"American Canyon","facility type":"Plant","zip":"94503","region":"Northwest","geo_score":1.0,"description":"Walnut Creek","facility name":"American Canyon","id":"aanfqy4bpbu6","address":"1201 Commerce Blvd","geo_precision":"range","state":"CA"},"type":"Feature","geometry":{"type":"Point","coordinates":[-122.06496066023,37.906313447626]}},{"properties":{"city":"American Canyon","facility type":"Plant","zip":"94503","region":"Northwest","geo_score":1.0,"description":"Walnut Creek","facility name":"American Canyon","id":"aanfqyd6ekqj","address":"1201 Commerce Blvd","geo_precision":"range","state":"CA"},"type":"Feature","geometry":{"type":"Point","coordinates":[-122.06496066023,37.906313447626]}},{"properties":{"city":"Anaheim","facility type":"Plant","zip":"92806","region":"West","geo_score":0.607,"description":"West Covina","facility name":"Anaheim","id":"aanfqy9ds00i","address":"2121 E. Winston Rd.","geo_precision":"street","state":"CA"},"type":"Feature","geometry":{"type":"Point","coordinates":[-117.93894999301,34.068622611367]}},{"properties":{"city":"Anaheim","facility type":"Plant","zip":"92806","region":"West","geo_score":0.607,"description":"West Covina","facility name":"Anaheim","id":"aanfqy4cbahq","address":"2121 E. Winston Rd.","geo_precision":"street","state":"CA"},"type":"Feature","geometry":{"type":"Point","coordinates":[-117.93894999301,34.068622611367]}},{"properties":{"city":"Anaheim","facility type":"Plant","zip":"92806","region":"West","geo_score":0.607,"description":"West Covina","facility name":"Anaheim","id":"aanfqy4mv9hg","address":"2121 E. Winston Rd.","geo_precision":"street","state":"CA"},"type":"Feature","geometry":{"type":"Point","coordinates":[-117.93894999301,34.068622611367]}},{"properties":{"city":"Half Moon Bay","facility type":"Office","zip":"94019","region":null,"geo_score":1.0,"description":"West Covina","facility name":"Odwalla HQ","id":"aanfqy2pz7pk","address":"120 Stone Pine Rd.","geo_precision":"range","state":"CA"},"type":"Feature","geometry":{"type":"Point","coordinates":[-117.93894999301,34.068622611367]}},{"properties":{"city":"Anaheim","facility type":"Plant","zip":"92806","region":"West","geo_score":0.607,"description":"West Covina","facility name":"Anaheim","id":"aanfqy8ghvi6","address":"2121 E. Winston Rd.","geo_precision":"street","state":"CA"},"type":"Feature","geometry":{"type":"Point","coordinates":[-117.93894999301,34.068622611367]}},{"properties":{"city":"Anaheim","facility type":"Plant","zip":"92806","region":"West","geo_score":0.607,"description":"West Covina","facility name":"Anaheim","id":"aanfqygu6hkg","address":"2121 E. Winston Rd.","geo_precision":"street","state":"CA"},"type":"Feature","geometry":{"type":"Point","coordinates":[-117.93894999301,34.068622611367]}},{"properties":{"city":"Anaheim","facility type":"Plant","zip":"92806","region":"West","geo_score":0.607,"description":"Westminster","facility name":"Anaheim","id":"aanfqy5y1rxe","address":"2121 E. Winston Rd.","geo_precision":"street","state":"CA"},"type":"Feature","geometry":{"type":"Point","coordinates":[-117.9939916825,33.751342777868]}},{"properties":{"city":"Anaheim","facility type":"Plant","zip":"92806","region":"West","geo_score":0.607,"description":"Westminster","facility name":"Anaheim","id":"aanfqy1w0fo2","address":"2121 E. Winston Rd.","geo_precision":"street","state":"CA"},"type":"Feature","geometry":{"type":"Point","coordinates":[-117.9939916825,33.751342777868]}},{"properties":{"city":"Anaheim","facility type":"Plant","zip":"92806","region":"West","geo_score":0.607,"description":"Westminster","facility name":"Anaheim","id":"aanfqy97fk0c","address":"2121 E. Winston Rd.","geo_precision":"street","state":"CA"},"type":"Feature","geometry":{"type":"Point","coordinates":[-117.9939916825,33.751342777868]}},{"properties":{"city":"Anaheim","facility type":"Plant","zip":"92806","region":"West","geo_score":0.607,"description":"Westminster","facility name":"Anaheim","id":"aanfqyaeadps","address":"2121 E. Winston Rd.","geo_precision":"street","state":"CA"},"type":"Feature","geometry":{"type":"Point","coordinates":[-117.9939916825,33.751342777868]}},{"properties":{"city":"Half Moon Bay","facility type":"Office","zip":"94019","region":null,"geo_score":1.0,"description":"Westminster","facility name":"Odwalla HQ","id":"aanfqy8ytbmw","address":"120 Stone Pine Rd.","geo_precision":"range","state":"CA"},"type":"Feature","geometry":{"type":"Point","coordinates":[-117.9939916825,33.751342777868]}},{"properties":{"city":"Anaheim","facility type":"Plant","zip":"92806","region":"West","geo_score":0.607,"description":"Whittier","facility name":"Anaheim","id":"aanfqy9wh5x5","address":"2121 E. Winston Rd.","geo_precision":"street","state":"CA"},"type":"Feature","geometry":{"type":"Point","coordinates":[-118.03284341033,33.979182816849]}},{"properties":{"city":"Anaheim","facility type":"Plant","zip":"92806","region":"West","geo_score":0.607,"description":"Whittier","facility name":"Anaheim","id":"aanfqya4eir2","address":"2121 E. Winston Rd.","geo_precision":"street","state":"CA"},"type":"Feature","geometry":{"type":"Point","coordinates":[-118.03284341033,33.979182816849]}},{"properties":{"city":"Anaheim","facility type":"Plant","zip":"92806","region":"West","geo_score":0.607,"description":"Whittier","facility name":"Anaheim","id":"aanfqy1100zw","address":"2121 E. Winston Rd.","geo_precision":"street","state":"CA"},"type":"Feature","geometry":{"type":"Point","coordinates":[-118.03284341033,33.979182816849]}},{"properties":{"city":"Half Moon Bay","facility type":"Office","zip":"94019","region":null,"geo_score":1.0,"description":"Whittier","facility name":"Odwalla HQ","id":"aanfqy2pono3","address":"120 Stone Pine Rd.","geo_precision":"range","state":"CA"},"type":"Feature","geometry":{"type":"Point","coordinates":[-118.03284341033,33.979182816849]}},{"properties":{"city":"Anaheim","facility type":"Plant","zip":"92806","region":"West","geo_score":0.607,"description":"Whittier","facility name":"Anaheim","id":"aanfqyh0ai3d","address":"2121 E. Winston Rd.","geo_precision":"street","state":"CA"},"type":"Feature","geometry":{"type":"Point","coordinates":[-118.03284341033,33.979182816849]}},{"properties":{"city":"Anaheim","facility type":"Plant","zip":"92806","region":"West","geo_score":0.607,"description":"Whittier","facility name":"Anaheim","id":"aanfqy3ntkfg","address":"2121 E. Winston Rd.","geo_precision":"street","state":"CA"},"type":"Feature","geometry":{"type":"Point","coordinates":[-118.03284341033,33.979182816849]}},{"properties":{"city":"Anaheim","facility type":"Plant","zip":"92806","region":"West","geo_score":0.607,"description":"Whittier","facility name":"Anaheim","id":"aanfqydir6b4","address":"2121 E. Winston Rd.","geo_precision":"street","state":"CA"},"type":"Feature","geometry":{"type":"Point","coordinates":[-118.03284341033,33.979182816849]}},{"properties":{"city":"Anaheim","facility type":"Plant","zip":"92806","region":"West","geo_score":0.607,"description":"Whittier","facility name":"Anaheim","id":"aanfqyaj08u7","address":"2121 E. Winston Rd.","geo_precision":"street","state":"CA"},"type":"Feature","geometry":{"type":"Point","coordinates":[-118.03284341033,33.979182816849]}},{"properties":{"city":"Anaheim","facility type":"Plant","zip":"92806","region":"West","geo_score":0.607,"description":"Yorba Linda","facility name":"Anaheim","id":"aanfqye4i8ia","address":"2121 E. Winston Rd.","geo_precision":"street","state":"CA"},"type":"Feature","geometry":{"type":"Point","coordinates":[-117.81310975562,33.888628105579]}},{"properties":{"city":"Anaheim","facility type":"Plant","zip":"92806","region":"West","geo_score":0.607,"description":"Yorba Linda","facility name":"Anaheim","id":"aanfqy9j67rx","address":"2121 E. Winston Rd.","geo_precision":"street","state":"CA"},"type":"Feature","geometry":{"type":"Point","coordinates":[-117.81310975562,33.888628105579]}},{"properties":{"city":"Anaheim","facility type":"Plant","zip":"92806","region":"West","geo_score":0.607,"description":"Yorba Linda","facility name":"Anaheim","id":"aanfqy2px8dl","address":"2121 E. Winston Rd.","geo_precision":"street","state":"CA"},"type":"Feature","geometry":{"type":"Point","coordinates":[-117.81310975562,33.888628105579]}},{"properties":{"city":"Anaheim","facility type":"Plant","zip":"92806","region":"West","geo_score":0.607,"description":"Yorba Linda","facility name":"Anaheim","id":"aanfqygkwx99","address":"2121 E. Winston Rd.","geo_precision":"street","state":"CA"},"type":"Feature","geometry":{"type":"Point","coordinates":[-117.81310975562,33.888628105579]}},{"properties":{"city":"Anaheim","facility type":"Plant","zip":"92806","region":"West","geo_score":0.607,"description":"Yorba Linda","facility name":"Anaheim","id":"aanfqy18mzj8","address":"2121 E. Winston Rd.","geo_precision":"street","state":"CA"},"type":"Feature","geometry":{"type":"Point","coordinates":[-117.81310975562,33.888628105579]}}],"is_temporal":false,"author":{"url":null,"metadata":null,"contact_name":null,"contact_address":null,"source":null,"contact_phone":null},"source":null,"pagination":{"sort":null,"start":0,"total":371,"limit":1000000},"state":"complete","tags":"","published":"2014-08-16T17:43:22-04:00","id":303948}