{"type":"FeatureCollection","data_type":"Dataset","url_type":null,"permissions":[{"permissions":{"download":true,"view":true},"group_id":"everyone"}],"classification":null,"title":"addresses","count":17,"stream_id":304896,"contributor":{"url":"http://geocommons.com/users/57885","name":"harmony17"},"data_attributes":null,"calculation_params":null,"icon_link":null,"link":"http://geocommons.com/overlays/304896.json","extent":[-122.48,37.2119,-121.417,38.5137],"geometry_types":["point"],"unique_name":null,"name":"addresses","feature_count":17,"description":"","next_feature":null,"is_raster":false,"short_classification":"Y","stats":{},"features":[{"properties":{"city":"San jose","zip":"95110","geo_score":0.571,"street":"1754 Technology Drive, Suite 227","id":"aapchwamig5q","geo_precision":"street","state":"CA"},"type":"Feature","geometry":{"type":"Point","coordinates":[-121.917063,37.365317]}},{"properties":{"city":"Concord","zip":"94520-5738","geo_score":0.643,"street":"2003 Diamond Clvd., Room 31010D","id":"aapchw7i3omt","geo_precision":"street","state":"CA"},"type":"Feature","geometry":{"type":"Point","coordinates":[-122.052987,37.969044]}},{"properties":{"city":"Milipitas","zip":"95035","geo_score":0.585,"street":"755 Syamore","id":"aapchwhhbtwh","geo_precision":"zip","state":"CA"},"type":"Feature","geometry":{"type":"Point","coordinates":[-121.861989,37.436454]}},{"properties":{"city":"San Jose","zip":"95131","geo_score":1.0,"street":"2045 Lundy Ave","id":"aapchw3pbs74","geo_precision":"range","state":"CA"},"type":"Feature","geometry":{"type":"Point","coordinates":[-121.890905,37.395561]}},{"properties":{"city":"Sacramento","zip":"95814","geo_score":0.429,"street":"1108 O Street, Suite 303","id":"aapchw23g1af","geo_precision":"street","state":"CA"},"type":"Feature","geometry":{"type":"Point","coordinates":[-121.417197,38.513664]}},{"properties":{"city":"San Francisco","zip":"94122","geo_score":0.927,"street":"1875 22nd Ave","id":"aapchw22ehy1","geo_precision":"range","state":"CA"},"type":"Feature","geometry":{"type":"Point","coordinates":[-122.47971,37.753638]}},{"properties":{"city":"Mountain View","zip":"94043","geo_score":1.0,"street":"1600 Amphitheatre Parkway","id":"aapchwgs1oeh","geo_precision":"range","state":"CA"},"type":"Feature","geometry":{"type":"Point","coordinates":[-122.08452,37.423207]}},{"properties":{"city":"San Jose","zip":"95120","geo_score":1.0,"street":"650 Harry Road","id":"aapchwberc3l","geo_precision":"range","state":"CA"},"type":"Feature","geometry":{"type":"Point","coordinates":[-121.805159,37.211882]}},{"properties":{"city":"Concord","zip":"94520","geo_score":0.875,"street":"2540 East Street","id":"aapchw5c9vpg","geo_precision":"range","state":"CA"},"type":"Feature","geometry":{"type":"Point","coordinates":[-122.035773,37.984321]}},{"properties":{"city":"Walnut Creek","zip":"94598","geo_score":0.472,"street":"1601 Ygnacio Valley Road","id":"aapchw7u4rlc","geo_precision":"street","state":"CA"},"type":"Feature","geometry":{"type":"Point","coordinates":[-122.289471,38.007017]}},{"properties":{"city":"Walnut Creek","zip":"94597","geo_score":0.902,"street":"1400 Treat Blvd","id":"aapchwbrf5bx","geo_precision":"range","state":"CA"},"type":"Feature","geometry":{"type":"Point","coordinates":[-122.053352,37.926556]}},{"properties":{"city":"Livermore","zip":"94550","geo_score":0.857,"street":"7000 East Ave. L-429","id":"aapchw3422lw","geo_precision":"zip","state":"CA"},"type":"Feature","geometry":{"type":"Point","coordinates":[-121.91605,37.676781]}},{"properties":{"city":"Santa Clara","zip":"95050","geo_score":0.948,"street":"2701 San Tomas Expressway MS04","id":"aapchw3ynsvl","geo_precision":"range","state":"CA"},"type":"Feature","geometry":{"type":"Point","coordinates":[-121.96589,37.37347]}},{"properties":{"city":"Concord","zip":"94520","geo_score":0.614,"street":"1390 Willow Pass Rd, Suite 240","id":"aapchw5gsq6g","geo_precision":"street","state":"CA"},"type":"Feature","geometry":{"type":"Point","coordinates":[-122.053948,37.973002]}},{"properties":{"city":"Concord","zip":"94520","geo_score":0.614,"street":"1390 Willow Pass Rd, Suite 240","id":"aapchwda4g75","geo_precision":"street","state":"CA"},"type":"Feature","geometry":{"type":"Point","coordinates":[-122.053948,37.973002]}},{"properties":{"city":"Palo Alto","zip":"94301","geo_score":0.937,"street":"795 El Camino Real","id":"aapchwhqpkfc","geo_precision":"range","state":"CA"},"type":"Feature","geometry":{"type":"Point","coordinates":[-122.162205,37.439172]}},{"properties":{"city":"San Francisco","zip":"94143-0234","geo_score":0.637,"street":"500 Parnassus Ane, MU 243 East","id":"aapchw4hokjc","geo_precision":"street","state":"CA"},"type":"Feature","geometry":{"type":"Point","coordinates":[-122.457536,37.763566]}}],"is_temporal":false,"author":{"url":"","metadata":"","contact_name":"","contact_address":"","source":"","contact_phone":""},"source":"","pagination":{"sort":null,"start":0,"total":17,"limit":1000000},"state":"complete","tags":"","published":"2014-08-16T19:01:20-04:00","id":304896}