{"type":"FeatureCollection","data_type":"Dataset","url_type":null,"permissions":[{"permissions":{"download":true,"view":true},"group_id":"everyone"}],"classification":null,"title":"FY12Uniques","count":478,"stream_id":305413,"contributor":{"url":"http://geocommons.com/users/31839","name":"santillo"},"data_attributes":null,"calculation_params":null,"icon_link":null,"link":"http://geocommons.com/overlays/305413.json","extent":[-78.8629,40.5477,-71.9452,44.9028],"geometry_types":["point"],"unique_name":null,"name":"FY12Uniques","feature_count":478,"description":"","next_feature":null,"is_raster":false,"short_classification":"Y","stats":{"all patients":{"max":863,"mean":69.9497907949791,"variance":18953.1463207108,"stdev":137.670426456486,"median":5,"min":1},"lat":{"max":44.902763,"mean":41.1704074456067,"variance":0.642259818647086,"stdev":0.801411142078201,"median":40.816523,"min":40.547748},"long":{"max":-71.945208,"mean":-73.8529066087865,"variance":0.87285921554922,"stdev":0.934269348501394,"median":-73.794212,"min":-78.862866}},"features":[{"properties":{"city":"Weehawken","all patients":5,"zip code":"10001","id":"aaqs06k81kf9","lat":40.751149,"long":-73.997822},"type":"Feature","geometry":{"type":"Point","coordinates":[-73.997822,40.751149]}},{"properties":{"city":"New York","all patients":10,"zip code":"10002","id":"aaqs06sgylyu","lat":40.713704,"long":-73.985518},"type":"Feature","geometry":{"type":"Point","coordinates":[-73.985518,40.713704]}},{"properties":{"city":"New York","all patients":1,"zip code":"10006","id":"aaqs06ouk23h","lat":40.709616,"long":-74.013599},"type":"Feature","geometry":{"type":"Point","coordinates":[-74.013599,40.709616]}},{"properties":{"city":"New York","all patients":2,"zip code":"10009","id":"aaqs06wl0di0","lat":40.842674,"long":-73.942535},"type":"Feature","geometry":{"type":"Point","coordinates":[-73.942535,40.842674]}},{"properties":{"city":"New York","all patients":3,"zip code":"10010","id":"aaqs06kg0nms","lat":40.739108,"long":-73.982886},"type":"Feature","geometry":{"type":"Point","coordinates":[-73.982886,40.739108]}},{"properties":{"city":"Hoboken","all patients":4,"zip code":"10011","id":"aaqs06qnlzwq","lat":40.745841,"long":-74.005597},"type":"Feature","geometry":{"type":"Point","coordinates":[-74.005597,40.745841]}},{"properties":{"city":"New York","all patients":1,"zip code":"10012","id":"aaqs06vneh2l","lat":40.72583,"long":-73.99803},"type":"Feature","geometry":{"type":"Point","coordinates":[-73.99803,40.72583]}},{"properties":{"city":"New York","all patients":2,"zip code":"10013","id":"aaqs06v9jt02","lat":40.721045,"long":-74.007329},"type":"Feature","geometry":{"type":"Point","coordinates":[-74.007329,40.721045]}},{"properties":{"city":"New York","all patients":1,"zip code":"10014","id":"aaqs06lsehm8","lat":40.73308,"long":-74.009995},"type":"Feature","geometry":{"type":"Point","coordinates":[-74.009995,40.73308]}},{"properties":{"city":"New York","all patients":2,"zip code":"10016","id":"aaqs06l9feat","lat":40.745046,"long":-73.977768},"type":"Feature","geometry":{"type":"Point","coordinates":[-73.977768,40.745046]}},{"properties":{"city":"Weehawken","all patients":1,"zip code":"10019","id":"aaqs06jcukvc","lat":40.767302,"long":-73.987357},"type":"Feature","geometry":{"type":"Point","coordinates":[-73.987357,40.767302]}},{"properties":{"city":"Guttenberg","all patients":3,"zip code":"10021","id":"aaqs06tcgh66","lat":40.770073,"long":-73.960149},"type":"Feature","geometry":{"type":"Point","coordinates":[-73.960149,40.770073]}},{"properties":{"city":"Weehawken","all patients":2,"zip code":"10022","id":"aaqs06svuvv3","lat":40.758647,"long":-73.968399},"type":"Feature","geometry":{"type":"Point","coordinates":[-73.968399,40.758647]}},{"properties":{"city":"Guttenberg","all patients":2,"zip code":"10023","id":"aaqs06l9o0ao","lat":40.7774,"long":-73.982593},"type":"Feature","geometry":{"type":"Point","coordinates":[-73.982593,40.7774]}},{"properties":{"city":"Guttenberg","all patients":1,"zip code":"10024","id":"aaqs06o6c32u","lat":40.79064,"long":-73.978657},"type":"Feature","geometry":{"type":"Point","coordinates":[-73.978657,40.79064]}},{"properties":{"city":"Edgewater","all patients":3,"zip code":"10025","id":"aaqs06yusb3v","lat":40.799092,"long":-73.966971},"type":"Feature","geometry":{"type":"Point","coordinates":[-73.966971,40.799092]}},{"properties":{"city":"Edgewater","all patients":1,"zip code":"10026","id":"aaqs06v7a4b0","lat":40.801435,"long":-73.953414},"type":"Feature","geometry":{"type":"Point","coordinates":[-73.953414,40.801435]}},{"properties":{"city":"Edgewater","all patients":4,"zip code":"10027","id":"aaqs06vfzyep","lat":40.813202,"long":-73.955366},"type":"Feature","geometry":{"type":"Point","coordinates":[-73.955366,40.813202]}},{"properties":{"city":"Guttenberg","all patients":2,"zip code":"10028","id":"aaqs06q9zus0","lat":40.77348,"long":-73.947413},"type":"Feature","geometry":{"type":"Point","coordinates":[-73.947413,40.77348]}},{"properties":{"city":"Edgewater","all patients":5,"zip code":"10029","id":"aaqs06mjua8p","lat":40.791954,"long":-73.943863},"type":"Feature","geometry":{"type":"Point","coordinates":[-73.943863,40.791954]}},{"properties":{"city":"Edgewater","all patients":1,"zip code":"10030","id":"aaqs06xqpyv3","lat":40.818326,"long":-73.943268},"type":"Feature","geometry":{"type":"Point","coordinates":[-73.943268,40.818326]}},{"properties":{"city":"Edgewater","all patients":2,"zip code":"10031","id":"aaqs06w79hyj","lat":40.825403,"long":-73.94981},"type":"Feature","geometry":{"type":"Point","coordinates":[-73.94981,40.825403]}},{"properties":{"city":"Fort Lee","all patients":2,"zip code":"10032","id":"aaqs06nnzgkj","lat":40.838915,"long":-73.944369},"type":"Feature","geometry":{"type":"Point","coordinates":[-73.944369,40.838915]}},{"properties":{"city":"Fort Lee","all patients":1,"zip code":"10033","id":"aaqs06lmcx3r","lat":40.85475,"long":-73.938767},"type":"Feature","geometry":{"type":"Point","coordinates":[-73.938767,40.85475]}},{"properties":{"city":"Englewood Cliffs","all patients":1,"zip code":"10034","id":"aaqs06k0coek","lat":40.870164,"long":-73.920992},"type":"Feature","geometry":{"type":"Point","coordinates":[-73.920992,40.870164]}},{"properties":{"city":"Edgewater","all patients":2,"zip code":"10035","id":"aaqs06k5pv4o","lat":40.796725,"long":-73.933274},"type":"Feature","geometry":{"type":"Point","coordinates":[-73.933274,40.796725]}},{"properties":{"city":"Weehawken","all patients":2,"zip code":"10036","id":"aaqs06lsl511","lat":40.763599,"long":-73.995775},"type":"Feature","geometry":{"type":"Point","coordinates":[-73.995775,40.763599]}},{"properties":{"city":"Edgewater","all patients":1,"zip code":"10037","id":"aaqs06q4bf1s","lat":40.813006,"long":-73.937395},"type":"Feature","geometry":{"type":"Point","coordinates":[-73.937395,40.813006]}},{"properties":{"city":"Guttenberg","all patients":1,"zip code":"10044","id":"aaqs06s62115","lat":40.755368,"long":-73.955522},"type":"Feature","geometry":{"type":"Point","coordinates":[-73.955522,40.755368]}},{"properties":{"city":"NEW YORK","all patients":3,"zip code":"10065","id":"aaqs06vsa2vs","lat":40.765448,"long":-73.964135},"type":"Feature","geometry":{"type":"Point","coordinates":[-73.964135,40.765448]}},{"properties":{"city":"NEW YORK","all patients":1,"zip code":"10075","id":"aaqs06xgzr4h","lat":40.774029,"long":-73.957747},"type":"Feature","geometry":{"type":"Point","coordinates":[-73.957747,40.774029]}},{"properties":{"city":"Guttenberg","all patients":5,"zip code":"10128","id":"aaqs06xiwmb0","lat":40.783273,"long":-73.954487},"type":"Feature","geometry":{"type":"Point","coordinates":[-73.954487,40.783273]}},{"properties":{"city":"Bayonne","all patients":3,"zip code":"10301","id":"aaqs06yah7hq","lat":40.626997,"long":-74.095188},"type":"Feature","geometry":{"type":"Point","coordinates":[-74.095188,40.626997]}},{"properties":{"city":"Bayonne","all patients":1,"zip code":"10302","id":"aaqs06k5imed","lat":40.629574,"long":-74.136537},"type":"Feature","geometry":{"type":"Point","coordinates":[-74.136537,40.629574]}},{"properties":{"city":"Bayonne","all patients":1,"zip code":"10304","id":"aaqs06t6vtvp","lat":40.605871,"long":-74.093864},"type":"Feature","geometry":{"type":"Point","coordinates":[-74.093864,40.605871]}},{"properties":{"city":"Bayonne","all patients":1,"zip code":"10305","id":"aaqs06wvn681","lat":40.597329,"long":-74.074353},"type":"Feature","geometry":{"type":"Point","coordinates":[-74.074353,40.597329]}},{"properties":{"city":"Carteret","all patients":3,"zip code":"10306","id":"aaqs06v7egsy","lat":40.568594,"long":-74.122528},"type":"Feature","geometry":{"type":"Point","coordinates":[-74.122528,40.568594]}},{"properties":{"city":"Carteret","all patients":4,"zip code":"10312","id":"aaqs06msn8g9","lat":40.547748,"long":-74.182664},"type":"Feature","geometry":{"type":"Point","coordinates":[-74.182664,40.547748]}},{"properties":{"city":"Carteret","all patients":1,"zip code":"10314","id":"aaqs06rd2yk0","lat":40.603123,"long":-74.160317},"type":"Feature","geometry":{"type":"Point","coordinates":[-74.160317,40.603123]}},{"properties":{"city":"Edgewater","all patients":2,"zip code":"10451","id":"aaqs06z52j3m","lat":40.820498,"long":-73.924636},"type":"Feature","geometry":{"type":"Point","coordinates":[-73.924636,40.820498]}},{"properties":{"city":"Fort Lee","all patients":3,"zip code":"10452","id":"aaqs06ricus9","lat":40.837592,"long":-73.92332},"type":"Feature","geometry":{"type":"Point","coordinates":[-73.92332,40.837592]}},{"properties":{"city":"Fort Lee","all patients":2,"zip code":"10453","id":"aaqs06xie3to","lat":40.852355,"long":-73.913415},"type":"Feature","geometry":{"type":"Point","coordinates":[-73.913415,40.852355]}},{"properties":{"city":"Edgewater","all patients":4,"zip code":"10455","id":"aaqs06n3w014","lat":40.814525,"long":-73.908245},"type":"Feature","geometry":{"type":"Point","coordinates":[-73.908245,40.814525]}},{"properties":{"city":"Fort Lee","all patients":1,"zip code":"10456","id":"aaqs06m49id1","lat":40.830639,"long":-73.908272},"type":"Feature","geometry":{"type":"Point","coordinates":[-73.908272,40.830639]}},{"properties":{"city":"Englewood Cliffs","all patients":2,"zip code":"10458","id":"aaqs06rp4397","lat":40.862769,"long":-73.885821},"type":"Feature","geometry":{"type":"Point","coordinates":[-73.885821,40.862769]}},{"properties":{"city":"Fort Lee","all patients":2,"zip code":"10459","id":"aaqs06juf7qf","lat":40.824485,"long":-73.893947},"type":"Feature","geometry":{"type":"Point","coordinates":[-73.893947,40.824485]}},{"properties":{"city":"Pelham Manor","all patients":2,"zip code":"10461","id":"aaqs06k23z2l","lat":40.844544,"long":-73.838693},"type":"Feature","geometry":{"type":"Point","coordinates":[-73.838693,40.844544]}},{"properties":{"city":"Pelham Manor","all patients":1,"zip code":"10462","id":"aaqs06ya5z5s","lat":40.842168,"long":-73.857736},"type":"Feature","geometry":{"type":"Point","coordinates":[-73.857736,40.842168]}},{"properties":{"city":"Englewood Cliffs","all patients":6,"zip code":"10463","id":"aaqs06n7txc3","lat":40.881127,"long":-73.906389},"type":"Feature","geometry":{"type":"Point","coordinates":[-73.906389,40.881127]}},{"properties":{"city":"Kings Point","all patients":1,"zip code":"10464","id":"aaqs06sa2tsp","lat":40.864643,"long":-73.7939},"type":"Feature","geometry":{"type":"Point","coordinates":[-73.7939,40.864643]}},{"properties":{"city":"Kings Point","all patients":5,"zip code":"10465","id":"aaqs06ytuctu","lat":40.827546,"long":-73.815941},"type":"Feature","geometry":{"type":"Point","coordinates":[-73.815941,40.827546]}},{"properties":{"city":"Mount Vernon","all patients":2,"zip code":"10466","id":"aaqs06y0apz1","lat":40.890731,"long":-73.845897},"type":"Feature","geometry":{"type":"Point","coordinates":[-73.845897,40.890731]}},{"properties":{"city":"Mount Vernon","all patients":3,"zip code":"10467","id":"aaqs06q7wyxh","lat":40.875438,"long":-73.871701},"type":"Feature","geometry":{"type":"Point","coordinates":[-73.871701,40.875438]}},{"properties":{"city":"Englewood Cliffs","all patients":3,"zip code":"10468","id":"aaqs06wzaanv","lat":40.868184,"long":-73.900076},"type":"Feature","geometry":{"type":"Point","coordinates":[-73.900076,40.868184]}},{"properties":{"city":"Pelham Manor","all patients":3,"zip code":"10469","id":"aaqs06kvhohx","lat":40.868483,"long":-73.846925},"type":"Feature","geometry":{"type":"Point","coordinates":[-73.846925,40.868483]}},{"properties":{"city":"Yonkers","all patients":1,"zip code":"10471","id":"aaqs06uvq60j","lat":40.899629,"long":-73.906195},"type":"Feature","geometry":{"type":"Point","coordinates":[-73.906195,40.899629]}},{"properties":{"city":"Fort Lee","all patients":2,"zip code":"10472","id":"aaqs06rrq7pv","lat":40.829717,"long":-73.869639},"type":"Feature","geometry":{"type":"Point","coordinates":[-73.869639,40.829717]}},{"properties":{"city":"Fort Lee","all patients":7,"zip code":"10473","id":"aaqs06qbxyax","lat":40.814802,"long":-73.857939},"type":"Feature","geometry":{"type":"Point","coordinates":[-73.857939,40.814802]}},{"properties":{"city":"Edgewater","all patients":1,"zip code":"10474","id":"aaqs06ttjtvr","lat":40.804192,"long":-73.882264},"type":"Feature","geometry":{"type":"Point","coordinates":[-73.882264,40.804192]}},{"properties":{"city":"Pelham Manor","all patients":4,"zip code":"10475","id":"aaqs06qesjvd","lat":40.875804,"long":-73.825706},"type":"Feature","geometry":{"type":"Point","coordinates":[-73.825706,40.875804]}},{"properties":{"city":"Amawalk","all patients":1,"zip code":"10501","id":"aaqs06qshz4g","lat":41.280109,"long":-73.744396},"type":"Feature","geometry":{"type":"Point","coordinates":[-73.744396,41.280109]}},{"properties":{"city":"Armonk","all patients":1,"zip code":"10504","id":"aaqs06u5eyg3","lat":41.129956,"long":-73.706893},"type":"Feature","geometry":{"type":"Point","coordinates":[-73.706893,41.129956]}},{"properties":{"city":"Brewster Hill","all patients":1,"zip code":"10509","id":"aaqs06l9jj8o","lat":41.444096,"long":-73.586953},"type":"Feature","geometry":{"type":"Point","coordinates":[-73.586953,41.444096]}},{"properties":{"city":"Chappaqua","all patients":2,"zip code":"10514","id":"aaqs06vylida","lat":41.170821,"long":-73.766953},"type":"Feature","geometry":{"type":"Point","coordinates":[-73.766953,41.170821]}},{"properties":{"city":"Croton-on-Hudson","all patients":1,"zip code":"10520","id":"aaqs06n7wbxb","lat":41.215845,"long":-73.885994},"type":"Feature","geometry":{"type":"Point","coordinates":[-73.885994,41.215845]}},{"properties":{"city":"Dobbs Ferry","all patients":1,"zip code":"10522","id":"aaqs06jeh15b","lat":41.012667,"long":-73.870026},"type":"Feature","geometry":{"type":"Point","coordinates":[-73.870026,41.012667]}},{"properties":{"city":"Highland Falls","all patients":1,"zip code":"10524","id":"aaqs06vjsbyz","lat":41.368735,"long":-73.925166},"type":"Feature","geometry":{"type":"Point","coordinates":[-73.925166,41.368735]}},{"properties":{"city":"Goldens Bridge","all patients":1,"zip code":"10526","id":"aaqs06t6y0f1","lat":41.292736,"long":-73.661808},"type":"Feature","geometry":{"type":"Point","coordinates":[-73.661808,41.292736]}},{"properties":{"city":"Larchmont","all patients":1,"zip code":"10538","id":"aaqs06wqnasm","lat":40.92977,"long":-73.750294},"type":"Feature","geometry":{"type":"Point","coordinates":[-73.750294,40.92977]}},{"properties":{"city":"Mamaroneck","all patients":2,"zip code":"10543","id":"aaqs06qtl9u1","lat":40.952369,"long":-73.736826},"type":"Feature","geometry":{"type":"Point","coordinates":[-73.736826,40.952369]}},{"properties":{"city":"Montrose","all patients":13,"zip code":"10548","id":"aaqs06nknpd8","lat":41.243887,"long":-73.944846},"type":"Feature","geometry":{"type":"Point","coordinates":[-73.944846,41.243887]}},{"properties":{"city":"Mount Vernon","all patients":3,"zip code":"10550","id":"aaqs06uz85qr","lat":40.90635,"long":-73.834962},"type":"Feature","geometry":{"type":"Point","coordinates":[-73.834962,40.90635]}},{"properties":{"city":"Mount Vernon","all patients":2,"zip code":"10552","id":"aaqs06z5hmtr","lat":40.924433,"long":-73.825856},"type":"Feature","geometry":{"type":"Point","coordinates":[-73.825856,40.924433]}},{"properties":{"city":"Ossining","all patients":1,"zip code":"10562","id":"aaqs06rhfpsy","lat":41.187288,"long":-73.840963},"type":"Feature","geometry":{"type":"Point","coordinates":[-73.840963,41.187288]}},{"properties":{"city":"Peekskill","all patients":4,"zip code":"10566","id":"aaqs06pp5nxd","lat":41.288972,"long":-73.922552},"type":"Feature","geometry":{"type":"Point","coordinates":[-73.922552,41.288972]}},{"properties":{"city":"Port Chester","all patients":1,"zip code":"10573","id":"aaqs06pe1o0u","lat":41.017104,"long":-73.67764},"type":"Feature","geometry":{"type":"Point","coordinates":[-73.67764,41.017104]}},{"properties":{"city":"Pound Ridge","all patients":1,"zip code":"10576","id":"aaqs06x1449c","lat":41.212316,"long":-73.573459},"type":"Feature","geometry":{"type":"Point","coordinates":[-73.573459,41.212316]}},{"properties":{"city":"Jefferson Valley","all patients":1,"zip code":"10579","id":"aaqs06rajs88","lat":41.396806,"long":-73.833954},"type":"Feature","geometry":{"type":"Point","coordinates":[-73.833954,41.396806]}},{"properties":{"city":"Rye","all patients":1,"zip code":"10580","id":"aaqs06t6gvrg","lat":40.974954,"long":-73.690057},"type":"Feature","geometry":{"type":"Point","coordinates":[-73.690057,40.974954]}},{"properties":{"city":"Greenville","all patients":1,"zip code":"10583","id":"aaqs06nnsldn","lat":40.989119,"long":-73.794799},"type":"Feature","geometry":{"type":"Point","coordinates":[-73.794799,40.989119]}},{"properties":{"city":"Goldens Bridge","all patients":2,"zip code":"10589","id":"aaqs06y04eo0","lat":41.309391,"long":-73.686477},"type":"Feature","geometry":{"type":"Point","coordinates":[-73.686477,41.309391]}},{"properties":{"city":"Yorktown","all patients":2,"zip code":"10598","id":"aaqs06wxltr4","lat":41.290332,"long":-73.787074},"type":"Feature","geometry":{"type":"Point","coordinates":[-73.787074,41.290332]}},{"properties":{"city":"East White Plains","all patients":1,"zip code":"10604","id":"aaqs06tmtwls","lat":41.054255,"long":-73.736562},"type":"Feature","geometry":{"type":"Point","coordinates":[-73.736562,41.054255]}},{"properties":{"city":"White Plains","all patients":1,"zip code":"10605","id":"aaqs06jfxy7a","lat":41.009534,"long":-73.745626},"type":"Feature","geometry":{"type":"Point","coordinates":[-73.745626,41.009534]}},{"properties":{"city":"Hartsdale","all patients":1,"zip code":"10606","id":"aaqs06vvv1q9","lat":41.020969,"long":-73.776627},"type":"Feature","geometry":{"type":"Point","coordinates":[-73.776627,41.020969]}},{"properties":{"city":"Yonkers","all patients":4,"zip code":"10701","id":"aaqs06qjagzg","lat":40.950298,"long":-73.867283},"type":"Feature","geometry":{"type":"Point","coordinates":[-73.867283,40.950298]}},{"properties":{"city":"Yonkers","all patients":1,"zip code":"10702","id":"aaqs06wpwf97","lat":40.93,"long":-73.9},"type":"Feature","geometry":{"type":"Point","coordinates":[-73.9,40.93]}},{"properties":{"city":"Mount Vernon","all patients":3,"zip code":"10704","id":"aaqs06p9b3q3","lat":40.920497,"long":-73.861589},"type":"Feature","geometry":{"type":"Point","coordinates":[-73.861589,40.920497]}},{"properties":{"city":"Yonkers","all patients":1,"zip code":"10705","id":"aaqs06r08igu","lat":40.920484,"long":-73.894684},"type":"Feature","geometry":{"type":"Point","coordinates":[-73.894684,40.920484]}},{"properties":{"city":"Eastchester","all patients":1,"zip code":"10709","id":"aaqs06wj6w2c","lat":40.954947,"long":-73.809251},"type":"Feature","geometry":{"type":"Point","coordinates":[-73.809251,40.954947]}},{"properties":{"city":"Tuckahoe","all patients":3,"zip code":"10710","id":"aaqs06srm2xx","lat":40.969185,"long":-73.845089},"type":"Feature","geometry":{"type":"Point","coordinates":[-73.845089,40.969185]}},{"properties":{"city":"New Rochelle","all patients":1,"zip code":"10801","id":"aaqs06rsr4sb","lat":40.916273,"long":-73.779708},"type":"Feature","geometry":{"type":"Point","coordinates":[-73.779708,40.916273]}},{"properties":{"city":"Pelham","all patients":1,"zip code":"10803","id":"aaqs06mv4wru","lat":40.899529,"long":-73.80579},"type":"Feature","geometry":{"type":"Point","coordinates":[-73.80579,40.899529]}},{"properties":{"city":"Montebello","all patients":1,"zip code":"10901","id":"aaqs06yut050","lat":41.165669,"long":-74.120881},"type":"Feature","geometry":{"type":"Point","coordinates":[-74.120881,41.165669]}},{"properties":{"city":"Middletown","all patients":1,"zip code":"10940","id":"aaqs06sj82ji","lat":41.452294,"long":-74.476745},"type":"Feature","geometry":{"type":"Point","coordinates":[-74.476745,41.452294]}},{"properties":{"city":"Scotchtown","all patients":2,"zip code":"10941","id":"aaqs06o700yw","lat":41.492368,"long":-74.348106},"type":"Feature","geometry":{"type":"Point","coordinates":[-74.348106,41.492368]}},{"properties":{"city":"Spring Valley","all patients":1,"zip code":"10977","id":"aaqs06qd9lxf","lat":41.119036,"long":-74.050204},"type":"Feature","geometry":{"type":"Point","coordinates":[-74.050204,41.119036]}},{"properties":{"city":"Warwick","all patients":1,"zip code":"10990","id":"aaqs06zqpail","lat":41.262866,"long":-74.3677},"type":"Feature","geometry":{"type":"Point","coordinates":[-74.3677,41.262866]}},{"properties":{"city":"Washingtonville","all patients":1,"zip code":"10992","id":"aaqs06jdndx2","lat":41.425126,"long":-74.163429},"type":"Feature","geometry":{"type":"Point","coordinates":[-74.163429,41.425126]}},{"properties":{"city":"Cold Spring","all patients":1,"zip code":"10996","id":"aaqs06xkgm6g","lat":41.396202,"long":-73.988895},"type":"Feature","geometry":{"type":"Point","coordinates":[-73.988895,41.396202]}},{"properties":{"city":"Floral Park","all patients":149,"zip code":"11001","id":"aaqs06z5tv4g","lat":40.721926,"long":-73.706245},"type":"Feature","geometry":{"type":"Point","coordinates":[-73.706245,40.721926]}},{"properties":{"city":"Floral Park","all patients":3,"zip code":"11002","id":"aaqs06u7r81h","lat":40.726541,"long":-73.708599},"type":"Feature","geometry":{"type":"Point","coordinates":[-73.708599,40.726541]}},{"properties":{"city":"Elmont","all patients":157,"zip code":"11003","id":"aaqs06n3uj97","lat":40.699963,"long":-73.706359},"type":"Feature","geometry":{"type":"Point","coordinates":[-73.706359,40.699963]}},{"properties":{"city":"North New Hyde Park","all patients":47,"zip code":"11004","id":"aaqs06qs51m9","lat":40.74632,"long":-73.711779},"type":"Feature","geometry":{"type":"Point","coordinates":[-73.711779,40.74632]}},{"properties":{"city":"Lake Success","all patients":82,"zip code":"11005","id":"aaqs06k3mtf5","lat":40.757441,"long":-73.712857},"type":"Feature","geometry":{"type":"Point","coordinates":[-73.712857,40.757441]}},{"properties":{"city":"Franklin Square","all patients":184,"zip code":"11010","id":"aaqs06k7kd03","lat":40.700088,"long":-73.675483},"type":"Feature","geometry":{"type":"Point","coordinates":[-73.675483,40.700088]}},{"properties":{"city":"Lake Success","all patients":23,"zip code":"11020","id":"aaqs06lfv668","lat":40.770519,"long":-73.712544},"type":"Feature","geometry":{"type":"Point","coordinates":[-73.712544,40.770519]}},{"properties":{"city":"Great Neck Plaza","all patients":102,"zip code":"11021","id":"aaqs06kvxd6a","lat":40.786515,"long":-73.728335},"type":"Feature","geometry":{"type":"Point","coordinates":[-73.728335,40.786515]}},{"properties":{"city":"Great Neck Plaza","all patients":1,"zip code":"11022","id":"aaqs06zpyw60","lat":40.787368,"long":-73.724625},"type":"Feature","geometry":{"type":"Point","coordinates":[-73.724625,40.787368]}},{"properties":{"city":"Great Neck","all patients":31,"zip code":"11023","id":"aaqs06ldy4g0","lat":40.799052,"long":-73.732041},"type":"Feature","geometry":{"type":"Point","coordinates":[-73.732041,40.799052]}},{"properties":{"city":"Kings Point","all patients":18,"zip code":"11024","id":"aaqs06lzoqwy","lat":40.816523,"long":-73.742328},"type":"Feature","geometry":{"type":"Point","coordinates":[-73.742328,40.816523]}},{"properties":{"city":"Manhasset","all patients":109,"zip code":"11030","id":"aaqs06qou048","lat":40.793468,"long":-73.690973},"type":"Feature","geometry":{"type":"Point","coordinates":[-73.690973,40.793468]}},{"properties":{"city":"North New Hyde Park","all patients":327,"zip code":"11040","id":"aaqs06wqjnx4","lat":40.742648,"long":-73.682855},"type":"Feature","geometry":{"type":"Point","coordinates":[-73.682855,40.742648]}},{"properties":{"city":"Baxter Estates","all patients":172,"zip code":"11050","id":"aaqs06zjllgg","lat":40.838971,"long":-73.691796},"type":"Feature","geometry":{"type":"Point","coordinates":[-73.691796,40.838971]}},{"properties":{"city":"Inwood","all patients":17,"zip code":"11096","id":"aaqs06p6agxo","lat":40.619153,"long":-73.752027},"type":"Feature","geometry":{"type":"Point","coordinates":[-73.752027,40.619153]}},{"properties":{"city":"New York","all patients":5,"zip code":"11101","id":"aaqs06q7gh9v","lat":40.746102,"long":-73.93591},"type":"Feature","geometry":{"type":"Point","coordinates":[-73.93591,40.746102]}},{"properties":{"city":"Guttenberg","all patients":5,"zip code":"11102","id":"aaqs06n753y1","lat":40.774912,"long":-73.929694},"type":"Feature","geometry":{"type":"Point","coordinates":[-73.929694,40.774912]}},{"properties":{"city":"Guttenberg","all patients":5,"zip code":"11103","id":"aaqs06z7y6a2","lat":40.762648,"long":-73.913074},"type":"Feature","geometry":{"type":"Point","coordinates":[-73.913074,40.762648]}},{"properties":{"city":"New York","all patients":3,"zip code":"11104","id":"aaqs06wlp45h","lat":40.74458,"long":-73.920355},"type":"Feature","geometry":{"type":"Point","coordinates":[-73.920355,40.74458]}},{"properties":{"city":"Edgewater","all patients":7,"zip code":"11105","id":"aaqs06y4dl36","lat":40.783245,"long":-73.906783},"type":"Feature","geometry":{"type":"Point","coordinates":[-73.906783,40.783245]}},{"properties":{"city":"Guttenberg","all patients":4,"zip code":"11106","id":"aaqs06mzbel0","lat":40.761736,"long":-73.931492},"type":"Feature","geometry":{"type":"Point","coordinates":[-73.931492,40.761736]}},{"properties":{"city":"New York","all patients":2,"zip code":"11201","id":"aaqs06tculrl","lat":40.695502,"long":-73.993498},"type":"Feature","geometry":{"type":"Point","coordinates":[-73.993498,40.695502]}},{"properties":{"city":"New York","all patients":1,"zip code":"11202","id":"aaqs06q6ve69","lat":40.692477,"long":-73.990876},"type":"Feature","geometry":{"type":"Point","coordinates":[-73.990876,40.692477]}},{"properties":{"city":"New York","all patients":5,"zip code":"11203","id":"aaqs06qwf8hj","lat":40.649632,"long":-73.934536},"type":"Feature","geometry":{"type":"Point","coordinates":[-73.934536,40.649632]}},{"properties":{"city":"New York","all patients":1,"zip code":"11204","id":"aaqs06yq3yc1","lat":40.61853,"long":-73.984798},"type":"Feature","geometry":{"type":"Point","coordinates":[-73.984798,40.61853]}},{"properties":{"city":"New York","all patients":2,"zip code":"11205","id":"aaqs06lcmf41","lat":40.694132,"long":-73.965764},"type":"Feature","geometry":{"type":"Point","coordinates":[-73.965764,40.694132]}},{"properties":{"city":"New York","all patients":3,"zip code":"11206","id":"aaqs06p3oqak","lat":40.701888,"long":-73.942449},"type":"Feature","geometry":{"type":"Point","coordinates":[-73.942449,40.701888]}},{"properties":{"city":"New York","all patients":6,"zip code":"11207","id":"aaqs06q9yns9","lat":40.669048,"long":-73.893174},"type":"Feature","geometry":{"type":"Point","coordinates":[-73.893174,40.669048]}},{"properties":{"city":"New York","all patients":5,"zip code":"11208","id":"aaqs06yrsrjc","lat":40.672251,"long":-73.871857},"type":"Feature","geometry":{"type":"Point","coordinates":[-73.871857,40.672251]}},{"properties":{"city":"Bayonne","all patients":11,"zip code":"11209","id":"aaqs06p2bf1q","lat":40.621286,"long":-74.029813},"type":"Feature","geometry":{"type":"Point","coordinates":[-74.029813,40.621286]}},{"properties":{"city":"New York","all patients":3,"zip code":"11210","id":"aaqs06ldv5jd","lat":40.62841,"long":-73.946284},"type":"Feature","geometry":{"type":"Point","coordinates":[-73.946284,40.62841]}},{"properties":{"city":"New York","all patients":3,"zip code":"11211","id":"aaqs06rh686u","lat":40.713492,"long":-73.955021},"type":"Feature","geometry":{"type":"Point","coordinates":[-73.955021,40.713492]}},{"properties":{"city":"New York","all patients":10,"zip code":"11212","id":"aaqs06sk527q","lat":40.666643,"long":-73.915172},"type":"Feature","geometry":{"type":"Point","coordinates":[-73.915172,40.666643]}},{"properties":{"city":"New York","all patients":1,"zip code":"11213","id":"aaqs06o9v7op","lat":40.670961,"long":-73.936354},"type":"Feature","geometry":{"type":"Point","coordinates":[-73.936354,40.670961]}},{"properties":{"city":"New York","all patients":3,"zip code":"11215","id":"aaqs06qn52np","lat":40.66267,"long":-73.98648},"type":"Feature","geometry":{"type":"Point","coordinates":[-73.98648,40.66267]}},{"properties":{"city":"New York","all patients":4,"zip code":"11216","id":"aaqs06mnijz5","lat":40.680834,"long":-73.948953},"type":"Feature","geometry":{"type":"Point","coordinates":[-73.948953,40.680834]}},{"properties":{"city":"New York","all patients":2,"zip code":"11217","id":"aaqs06wn3z3e","lat":40.681816,"long":-73.978345},"type":"Feature","geometry":{"type":"Point","coordinates":[-73.978345,40.681816]}},{"properties":{"city":"New York","all patients":2,"zip code":"11218","id":"aaqs06vyhfxs","lat":40.648154,"long":-73.974301},"type":"Feature","geometry":{"type":"Point","coordinates":[-73.974301,40.648154]}},{"properties":{"city":"New York","all patients":1,"zip code":"11219","id":"aaqs06xvbtwg","lat":40.632706,"long":-73.996758},"type":"Feature","geometry":{"type":"Point","coordinates":[-73.996758,40.632706]}},{"properties":{"city":"New York","all patients":6,"zip code":"11220","id":"aaqs06kya8cz","lat":40.641181,"long":-74.016834},"type":"Feature","geometry":{"type":"Point","coordinates":[-74.016834,40.641181]}},{"properties":{"city":"New York","all patients":5,"zip code":"11221","id":"aaqs06wyxpdn","lat":40.691172,"long":-73.927788},"type":"Feature","geometry":{"type":"Point","coordinates":[-73.927788,40.691172]}},{"properties":{"city":"New York","all patients":2,"zip code":"11222","id":"aaqs06pwc2l4","lat":40.730217,"long":-73.953958},"type":"Feature","geometry":{"type":"Point","coordinates":[-73.953958,40.730217]}},{"properties":{"city":"New York","all patients":1,"zip code":"11223","id":"aaqs06n0c6ct","lat":40.596849,"long":-73.973293},"type":"Feature","geometry":{"type":"Point","coordinates":[-73.973293,40.596849]}},{"properties":{"city":"Bayonne","all patients":1,"zip code":"11224","id":"aaqs06u487ef","lat":40.576559,"long":-73.988464},"type":"Feature","geometry":{"type":"Point","coordinates":[-73.988464,40.576559]}},{"properties":{"city":"New York","all patients":3,"zip code":"11225","id":"aaqs06vytkd6","lat":40.663957,"long":-73.95619},"type":"Feature","geometry":{"type":"Point","coordinates":[-73.95619,40.663957]}},{"properties":{"city":"New York","all patients":1,"zip code":"11226","id":"aaqs06w00rwv","lat":40.64637,"long":-73.956856},"type":"Feature","geometry":{"type":"Point","coordinates":[-73.956856,40.64637]}},{"properties":{"city":"Bayonne","all patients":3,"zip code":"11228","id":"aaqs06rnc39n","lat":40.615788,"long":-74.014993},"type":"Feature","geometry":{"type":"Point","coordinates":[-74.014993,40.615788]}},{"properties":{"city":"New York","all patients":3,"zip code":"11229","id":"aaqs06x8aip1","lat":40.599469,"long":-73.941767},"type":"Feature","geometry":{"type":"Point","coordinates":[-73.941767,40.599469]}},{"properties":{"city":"New York","all patients":4,"zip code":"11230","id":"aaqs06ufoen8","lat":40.622079,"long":-73.965102},"type":"Feature","geometry":{"type":"Point","coordinates":[-73.965102,40.622079]}},{"properties":{"city":"New York","all patients":1,"zip code":"11232","id":"aaqs06vue3p0","lat":40.655613,"long":-74.007192},"type":"Feature","geometry":{"type":"Point","coordinates":[-74.007192,40.655613]}},{"properties":{"city":"New York","all patients":6,"zip code":"11233","id":"aaqs06m8gx8w","lat":40.678207,"long":-73.919969},"type":"Feature","geometry":{"type":"Point","coordinates":[-73.919969,40.678207]}},{"properties":{"city":"New York","all patients":4,"zip code":"11234","id":"aaqs06pqhvk5","lat":40.609799,"long":-73.891542},"type":"Feature","geometry":{"type":"Point","coordinates":[-73.891542,40.609799]}},{"properties":{"city":"New York","all patients":2,"zip code":"11235","id":"aaqs06qh57o2","lat":40.584151,"long":-73.949339},"type":"Feature","geometry":{"type":"Point","coordinates":[-73.949339,40.584151]}},{"properties":{"city":"New York","all patients":5,"zip code":"11236","id":"aaqs06wuozgn","lat":40.639132,"long":-73.900028},"type":"Feature","geometry":{"type":"Point","coordinates":[-73.900028,40.639132]}},{"properties":{"city":"New York","all patients":2,"zip code":"11237","id":"aaqs06qgt87s","lat":40.703901,"long":-73.920993},"type":"Feature","geometry":{"type":"Point","coordinates":[-73.920993,40.703901]}},{"properties":{"city":"New York","all patients":2,"zip code":"11238","id":"aaqs06o32ek9","lat":40.680387,"long":-73.96335},"type":"Feature","geometry":{"type":"Point","coordinates":[-73.96335,40.680387]}},{"properties":{"city":"Inwood","all patients":1,"zip code":"11239","id":"aaqs06nl75kg","lat":40.646735,"long":-73.877122},"type":"Feature","geometry":{"type":"Point","coordinates":[-73.877122,40.646735]}},{"properties":{"city":"Saddle Rock","all patients":22,"zip code":"11354","id":"aaqs06qmoixr","lat":40.768809,"long":-73.830025},"type":"Feature","geometry":{"type":"Point","coordinates":[-73.830025,40.768809]}},{"properties":{"city":"Saddle Rock","all patients":13,"zip code":"11355","id":"aaqs06uz9mhq","lat":40.750195,"long":-73.821695},"type":"Feature","geometry":{"type":"Point","coordinates":[-73.821695,40.750195]}},{"properties":{"city":"Saddle Rock","all patients":23,"zip code":"11356","id":"aaqs06sda7oi","lat":40.787493,"long":-73.847495},"type":"Feature","geometry":{"type":"Point","coordinates":[-73.847495,40.787493]}},{"properties":{"city":"Saddle Rock","all patients":67,"zip code":"11357","id":"aaqs06w0xqqq","lat":40.789627,"long":-73.81263},"type":"Feature","geometry":{"type":"Point","coordinates":[-73.81263,40.789627]}},{"properties":{"city":"Saddle Rock","all patients":52,"zip code":"11358","id":"aaqs06ximjpl","lat":40.760464,"long":-73.796447},"type":"Feature","geometry":{"type":"Point","coordinates":[-73.796447,40.760464]}},{"properties":{"city":"Saddle Rock","all patients":51,"zip code":"11360","id":"aaqs06tqexyq","lat":40.783074,"long":-73.779871},"type":"Feature","geometry":{"type":"Point","coordinates":[-73.779871,40.783074]}},{"properties":{"city":"Great Neck Estates","all patients":35,"zip code":"11361","id":"aaqs06xwfidd","lat":40.764095,"long":-73.772909},"type":"Feature","geometry":{"type":"Point","coordinates":[-73.772909,40.764095]}},{"properties":{"city":"Lake Success","all patients":75,"zip code":"11362","id":"aaqs06ld509m","lat":40.759144,"long":-73.733263},"type":"Feature","geometry":{"type":"Point","coordinates":[-73.733263,40.759144]}},{"properties":{"city":"University Gardens","all patients":14,"zip code":"11363","id":"aaqs06legp6f","lat":40.7726,"long":-73.74648},"type":"Feature","geometry":{"type":"Point","coordinates":[-73.74648,40.7726]}},{"properties":{"city":"Bellerose","all patients":58,"zip code":"11364","id":"aaqs06kvjjrh","lat":40.746051,"long":-73.757189},"type":"Feature","geometry":{"type":"Point","coordinates":[-73.757189,40.746051]}},{"properties":{"city":"Bellerose","all patients":36,"zip code":"11365","id":"aaqs06slmqnl","lat":40.73925,"long":-73.792362},"type":"Feature","geometry":{"type":"Point","coordinates":[-73.792362,40.73925]}},{"properties":{"city":"Bellerose","all patients":16,"zip code":"11366","id":"aaqs06wnzwi0","lat":40.728117,"long":-73.788276},"type":"Feature","geometry":{"type":"Point","coordinates":[-73.788276,40.728117]}},{"properties":{"city":"Bellerose","all patients":14,"zip code":"11367","id":"aaqs06n4d18y","lat":40.730705,"long":-73.82609},"type":"Feature","geometry":{"type":"Point","coordinates":[-73.82609,40.730705]}},{"properties":{"city":"Saddle Rock","all patients":4,"zip code":"11368","id":"aaqs06yy1u8f","lat":40.750528,"long":-73.853067},"type":"Feature","geometry":{"type":"Point","coordinates":[-73.853067,40.750528]}},{"properties":{"city":"Saddle Rock","all patients":7,"zip code":"11369","id":"aaqs06s8o1m3","lat":40.763323,"long":-73.86564},"type":"Feature","geometry":{"type":"Point","coordinates":[-73.86564,40.763323]}},{"properties":{"city":"Edgewater","all patients":5,"zip code":"11370","id":"aaqs06uhju57","lat":40.762663,"long":-73.890997},"type":"Feature","geometry":{"type":"Point","coordinates":[-73.890997,40.762663]}},{"properties":{"city":"Edgewater","all patients":1,"zip code":"11371","id":"aaqs06oeofxr","lat":40.768389,"long":-73.887771},"type":"Feature","geometry":{"type":"Point","coordinates":[-73.887771,40.768389]}},{"properties":{"city":"Edgewater","all patients":9,"zip code":"11372","id":"aaqs06s2gt7v","lat":40.751756,"long":-73.883517},"type":"Feature","geometry":{"type":"Point","coordinates":[-73.883517,40.751756]}},{"properties":{"city":"New York","all patients":15,"zip code":"11373","id":"aaqs06y24l6h","lat":40.736264,"long":-73.879392},"type":"Feature","geometry":{"type":"Point","coordinates":[-73.879392,40.736264]}},{"properties":{"city":"Saddle Rock","all patients":14,"zip code":"11374","id":"aaqs06kjlv9a","lat":40.726568,"long":-73.861993},"type":"Feature","geometry":{"type":"Point","coordinates":[-73.861993,40.726568]}},{"properties":{"city":"Bellerose","all patients":24,"zip code":"11375","id":"aaqs06t4to0l","lat":40.725069,"long":-73.843824},"type":"Feature","geometry":{"type":"Point","coordinates":[-73.843824,40.725069]}},{"properties":{"city":"New York","all patients":13,"zip code":"11377","id":"aaqs06uyo6qf","lat":40.744447,"long":-73.905066},"type":"Feature","geometry":{"type":"Point","coordinates":[-73.905066,40.744447]}},{"properties":{"city":"New York","all patients":18,"zip code":"11378","id":"aaqs06u534ao","lat":40.724728,"long":-73.909808},"type":"Feature","geometry":{"type":"Point","coordinates":[-73.909808,40.724728]}},{"properties":{"city":"New York","all patients":28,"zip code":"11379","id":"aaqs06lnnk0o","lat":40.720343,"long":-73.879299},"type":"Feature","geometry":{"type":"Point","coordinates":[-73.879299,40.720343]}},{"properties":{"city":"New York","all patients":34,"zip code":"11385","id":"aaqs06nxa1yi","lat":40.701113,"long":-73.890973},"type":"Feature","geometry":{"type":"Point","coordinates":[-73.890973,40.701113]}},{"properties":{"city":"Elmont","all patients":4,"zip code":"11411","id":"aaqs06ln5wgk","lat":40.694168,"long":-73.736002},"type":"Feature","geometry":{"type":"Point","coordinates":[-73.736002,40.694168]}},{"properties":{"city":"Elmont","all patients":12,"zip code":"11412","id":"aaqs06yv1nbt","lat":40.698192,"long":-73.759319},"type":"Feature","geometry":{"type":"Point","coordinates":[-73.759319,40.698192]}},{"properties":{"city":"South Valley Stream","all patients":23,"zip code":"11413","id":"aaqs06jc6s3l","lat":40.672849,"long":-73.750474},"type":"Feature","geometry":{"type":"Point","coordinates":[-73.750474,40.672849]}},{"properties":{"city":"Inwood","all patients":18,"zip code":"11414","id":"aaqs06qazf6z","lat":40.655889,"long":-73.846363},"type":"Feature","geometry":{"type":"Point","coordinates":[-73.846363,40.655889]}},{"properties":{"city":"Bellerose","all patients":10,"zip code":"11415","id":"aaqs06rki5i7","lat":40.708498,"long":-73.828748},"type":"Feature","geometry":{"type":"Point","coordinates":[-73.828748,40.708498]}},{"properties":{"city":"Inwood","all patients":8,"zip code":"11416","id":"aaqs06zmfbzd","lat":40.68458,"long":-73.849557},"type":"Feature","geometry":{"type":"Point","coordinates":[-73.849557,40.68458]}},{"properties":{"city":"Inwood","all patients":8,"zip code":"11417","id":"aaqs06wy5n8a","lat":40.675201,"long":-73.841265},"type":"Feature","geometry":{"type":"Point","coordinates":[-73.841265,40.675201]}},{"properties":{"city":"Elmont","all patients":7,"zip code":"11418","id":"aaqs06ty5n5f","lat":40.69898,"long":-73.834072},"type":"Feature","geometry":{"type":"Point","coordinates":[-73.834072,40.69898]}},{"properties":{"city":"Elmont","all patients":10,"zip code":"11419","id":"aaqs06l10ggw","lat":40.688704,"long":-73.8229},"type":"Feature","geometry":{"type":"Point","coordinates":[-73.8229,40.688704]}},{"properties":{"city":"Inwood","all patients":9,"zip code":"11420","id":"aaqs06s0zahp","lat":40.673956,"long":-73.81503},"type":"Feature","geometry":{"type":"Point","coordinates":[-73.81503,40.673956]}},{"properties":{"city":"Inwood","all patients":12,"zip code":"11421","id":"aaqs06zozn64","lat":40.693591,"long":-73.858422},"type":"Feature","geometry":{"type":"Point","coordinates":[-73.858422,40.693591]}},{"properties":{"city":"South Valley Stream","all patients":20,"zip code":"11422","id":"aaqs06mdbxsp","lat":40.649802,"long":-73.772767},"type":"Feature","geometry":{"type":"Point","coordinates":[-73.772767,40.649802]}},{"properties":{"city":"Bellerose","all patients":8,"zip code":"11423","id":"aaqs06yb22dr","lat":40.717224,"long":-73.769362},"type":"Feature","geometry":{"type":"Point","coordinates":[-73.769362,40.717224]}},{"properties":{"city":"Elmont","all patients":6,"zip code":"11425","id":"aaqs06ugayr5","lat":40.692286,"long":-73.770718},"type":"Feature","geometry":{"type":"Point","coordinates":[-73.770718,40.692286]}},{"properties":{"city":"Bellerose","all patients":29,"zip code":"11426","id":"aaqs06t8a1fb","lat":40.736471,"long":-73.723532},"type":"Feature","geometry":{"type":"Point","coordinates":[-73.723532,40.736471]}},{"properties":{"city":"Bellerose","all patients":25,"zip code":"11427","id":"aaqs06m0o7yi","lat":40.72972,"long":-73.749091},"type":"Feature","geometry":{"type":"Point","coordinates":[-73.749091,40.72972]}},{"properties":{"city":"Bellerose","all patients":16,"zip code":"11428","id":"aaqs06sw6wai","lat":40.72131,"long":-73.741786},"type":"Feature","geometry":{"type":"Point","coordinates":[-73.741786,40.72131]}},{"properties":{"city":"Elmont","all patients":8,"zip code":"11429","id":"aaqs06mk3ntr","lat":40.709777,"long":-73.73865},"type":"Feature","geometry":{"type":"Point","coordinates":[-73.73865,40.709777]}},{"properties":{"city":"Inwood","all patients":1,"zip code":"11430","id":"aaqs06slqu1z","lat":40.662735,"long":-73.805127},"type":"Feature","geometry":{"type":"Point","coordinates":[-73.805127,40.662735]}},{"properties":{"city":"Bellerose","all patients":13,"zip code":"11432","id":"aaqs06xums0h","lat":40.715219,"long":-73.793071},"type":"Feature","geometry":{"type":"Point","coordinates":[-73.793071,40.715219]}},{"properties":{"city":"Elmont","all patients":5,"zip code":"11433","id":"aaqs06s94zb5","lat":40.698368,"long":-73.787403},"type":"Feature","geometry":{"type":"Point","coordinates":[-73.787403,40.698368]}},{"properties":{"city":"South Valley Stream","all patients":12,"zip code":"11434","id":"aaqs06zpinf9","lat":40.675117,"long":-73.77639},"type":"Feature","geometry":{"type":"Point","coordinates":[-73.77639,40.675117]}},{"properties":{"city":"Elmont","all patients":9,"zip code":"11435","id":"aaqs06styctm","lat":40.704679,"long":-73.809714},"type":"Feature","geometry":{"type":"Point","coordinates":[-73.809714,40.704679]}},{"properties":{"city":"Mineola","all patients":136,"zip code":"11501","id":"aaqs06w14skz","lat":40.746156,"long":-73.639047},"type":"Feature","geometry":{"type":"Point","coordinates":[-73.639047,40.746156]}},{"properties":{"city":"Searingtown","all patients":63,"zip code":"11507","id":"aaqs06y6g6c4","lat":40.771292,"long":-73.653204},"type":"Feature","geometry":{"type":"Point","coordinates":[-73.653204,40.771292]}},{"properties":{"city":"Atlantic Beach","all patients":12,"zip code":"11509","id":"aaqs06r8wqz8","lat":40.587918,"long":-73.732294},"type":"Feature","geometry":{"type":"Point","coordinates":[-73.732294,40.587918]}},{"properties":{"city":"Baldwin","all patients":218,"zip code":"11510","id":"aaqs06re0859","lat":40.652116,"long":-73.606797},"type":"Feature","geometry":{"type":"Point","coordinates":[-73.606797,40.652116]}},{"properties":{"city":"Carle Place","all patients":44,"zip code":"11514","id":"aaqs06yo2ox3","lat":40.749216,"long":-73.612043},"type":"Feature","geometry":{"type":"Point","coordinates":[-73.612043,40.749216]}},{"properties":{"city":"Cedarhurst","all patients":22,"zip code":"11516","id":"aaqs06ynqb9c","lat":40.627956,"long":-73.729175},"type":"Feature","geometry":{"type":"Point","coordinates":[-73.729175,40.627956]}},{"properties":{"city":"East Rockaway","all patients":81,"zip code":"11518","id":"aaqs06jdef52","lat":40.638105,"long":-73.666664},"type":"Feature","geometry":{"type":"Point","coordinates":[-73.666664,40.638105]}},{"properties":{"city":"Freeport","all patients":301,"zip code":"11520","id":"aaqs06wst6iy","lat":40.636214,"long":-73.580138},"type":"Feature","geometry":{"type":"Point","coordinates":[-73.580138,40.636214]}},{"properties":{"city":"Garden City","all patients":205,"zip code":"11530","id":"aaqs06l2pq2o","lat":40.72506,"long":-73.638801},"type":"Feature","geometry":{"type":"Point","coordinates":[-73.638801,40.72506]}},{"properties":{"city":"Garden City","all patients":2,"zip code":"11531","id":"aaqs06uuhq5k","lat":40.72,"long":-73.63},"type":"Feature","geometry":{"type":"Point","coordinates":[-73.63,40.72]}},{"properties":{"city":"Glen Cove","all patients":201,"zip code":"11542","id":"aaqs06ujfg31","lat":40.866614,"long":-73.630635},"type":"Feature","geometry":{"type":"Point","coordinates":[-73.630635,40.866614]}},{"properties":{"city":"Glen Head","all patients":85,"zip code":"11545","id":"aaqs06xqospi","lat":40.82523,"long":-73.587507},"type":"Feature","geometry":{"type":"Point","coordinates":[-73.587507,40.82523]}},{"properties":{"city":"Glenwood Landing","all patients":14,"zip code":"11547","id":"aaqs06rt9fk7","lat":40.831059,"long":-73.644038},"type":"Feature","geometry":{"type":"Point","coordinates":[-73.644038,40.831059]}},{"properties":{"city":"Greenvale","all patients":7,"zip code":"11548","id":"aaqs06tw0cxg","lat":40.815346,"long":-73.62304},"type":"Feature","geometry":{"type":"Point","coordinates":[-73.62304,40.815346]}},{"properties":{"city":"Hempstead","all patients":1,"zip code":"11549","id":"aaqs06n6q9u0","lat":40.71,"long":-73.6},"type":"Feature","geometry":{"type":"Point","coordinates":[-73.6,40.71]}},{"properties":{"city":"Hempstead","all patients":247,"zip code":"11550","id":"aaqs06occj4q","lat":40.702622,"long":-73.619676},"type":"Feature","geometry":{"type":"Point","coordinates":[-73.619676,40.702622]}},{"properties":{"city":"Hempstead","all patients":6,"zip code":"11551","id":"aaqs06qmvq16","lat":40.705695,"long":-73.629382},"type":"Feature","geometry":{"type":"Point","coordinates":[-73.629382,40.705695]}},{"properties":{"city":"West Hempstead","all patients":168,"zip code":"11552","id":"aaqs06n69lct","lat":40.691879,"long":-73.651569},"type":"Feature","geometry":{"type":"Point","coordinates":[-73.651569,40.691879]}},{"properties":{"city":"Uniondale","all patients":119,"zip code":"11553","id":"aaqs06vimno0","lat":40.707539,"long":-73.593896},"type":"Feature","geometry":{"type":"Point","coordinates":[-73.593896,40.707539]}},{"properties":{"city":"East Meadow","all patients":465,"zip code":"11554","id":"aaqs06q6wxwu","lat":40.715651,"long":-73.557869},"type":"Feature","geometry":{"type":"Point","coordinates":[-73.557869,40.715651]}},{"properties":{"city":"Hewlett","all patients":45,"zip code":"11557","id":"aaqs06upjgxs","lat":40.638229,"long":-73.692344},"type":"Feature","geometry":{"type":"Point","coordinates":[-73.692344,40.638229]}},{"properties":{"city":"Barnum Island","all patients":87,"zip code":"11558","id":"aaqs06t46obc","lat":40.610424,"long":-73.663942},"type":"Feature","geometry":{"type":"Point","coordinates":[-73.663942,40.610424]}},{"properties":{"city":"Cedarhurst","all patients":22,"zip code":"11559","id":"aaqs06p18znc","lat":40.606939,"long":-73.716945},"type":"Feature","geometry":{"type":"Point","coordinates":[-73.716945,40.606939]}},{"properties":{"city":"Locust Valley","all patients":44,"zip code":"11560","id":"aaqs06v5pmt3","lat":40.880778,"long":-73.589984},"type":"Feature","geometry":{"type":"Point","coordinates":[-73.589984,40.880778]}},{"properties":{"city":"Long Beach","all patients":314,"zip code":"11561","id":"aaqs06qkxgu2","lat":40.603842,"long":-73.612524},"type":"Feature","geometry":{"type":"Point","coordinates":[-73.612524,40.603842]}},{"properties":{"city":"Lynbrook","all patients":182,"zip code":"11563","id":"aaqs06od5yh8","lat":40.657567,"long":-73.673425},"type":"Feature","geometry":{"type":"Point","coordinates":[-73.673425,40.657567]}},{"properties":{"city":"Malverne","all patients":73,"zip code":"11565","id":"aaqs06vc2j93","lat":40.67495,"long":-73.671919},"type":"Feature","geometry":{"type":"Point","coordinates":[-73.671919,40.67495]}},{"properties":{"city":"Merrick","all patients":331,"zip code":"11566","id":"aaqs06tsl5gy","lat":40.650064,"long":-73.549528},"type":"Feature","geometry":{"type":"Point","coordinates":[-73.549528,40.650064]}},{"properties":{"city":"Old Westbury","all patients":9,"zip code":"11568","id":"aaqs06ln5jap","lat":40.7861,"long":-73.598542},"type":"Feature","geometry":{"type":"Point","coordinates":[-73.598542,40.7861]}},{"properties":{"city":"Point Lookout","all patients":19,"zip code":"11569","id":"aaqs06oz9nro","lat":40.60159,"long":-73.571668},"type":"Feature","geometry":{"type":"Point","coordinates":[-73.571668,40.60159]}},{"properties":{"city":"Rockville Centre","all patients":207,"zip code":"11570","id":"aaqs06qhaaxz","lat":40.666058,"long":-73.637775},"type":"Feature","geometry":{"type":"Point","coordinates":[-73.637775,40.666058]}},{"properties":{"city":"Rockville Centre","all patients":1,"zip code":"11571","id":"aaqs06ovi2y8","lat":40.66,"long":-73.65},"type":"Feature","geometry":{"type":"Point","coordinates":[-73.65,40.66]}},{"properties":{"city":"Oceanside","all patients":268,"zip code":"11572","id":"aaqs06z5flpk","lat":40.632156,"long":-73.636817},"type":"Feature","geometry":{"type":"Point","coordinates":[-73.636817,40.632156]}},{"properties":{"city":"Roosevelt","all patients":98,"zip code":"11575","id":"aaqs06p2m75x","lat":40.680488,"long":-73.585172},"type":"Feature","geometry":{"type":"Point","coordinates":[-73.585172,40.680488]}},{"properties":{"city":"Roslyn","all patients":91,"zip code":"11576","id":"aaqs06ylrln4","lat":40.799496,"long":-73.655029},"type":"Feature","geometry":{"type":"Point","coordinates":[-73.655029,40.799496]}},{"properties":{"city":"Roslyn Heights","all patients":74,"zip code":"11577","id":"aaqs06urlqg8","lat":40.788797,"long":-73.646544},"type":"Feature","geometry":{"type":"Point","coordinates":[-73.646544,40.788797]}},{"properties":{"city":"Sea Cliff","all patients":49,"zip code":"11579","id":"aaqs06w65407","lat":40.843951,"long":-73.643854},"type":"Feature","geometry":{"type":"Point","coordinates":[-73.643854,40.843951]}},{"properties":{"city":"Valley Stream","all patients":191,"zip code":"11580","id":"aaqs06lxli7e","lat":40.674601,"long":-73.704087},"type":"Feature","geometry":{"type":"Point","coordinates":[-73.704087,40.674601]}},{"properties":{"city":"South Valley Stream","all patients":112,"zip code":"11581","id":"aaqs06zly5yw","lat":40.65247,"long":-73.714594},"type":"Feature","geometry":{"type":"Point","coordinates":[-73.714594,40.65247]}},{"properties":{"city":"Valley Stream","all patients":1,"zip code":"11582","id":"aaqs06xia3xa","lat":40.66,"long":-73.71},"type":"Feature","geometry":{"type":"Point","coordinates":[-73.71,40.66]}},{"properties":{"city":"Westbury","all patients":326,"zip code":"11590","id":"aaqs06u8l6gn","lat":40.756713,"long":-73.576658},"type":"Feature","geometry":{"type":"Point","coordinates":[-73.576658,40.756713]}},{"properties":{"city":"Williston Park","all patients":79,"zip code":"11596","id":"aaqs06yz18da","lat":40.759697,"long":-73.642298},"type":"Feature","geometry":{"type":"Point","coordinates":[-73.642298,40.759697]}},{"properties":{"city":"Woodmere","all patients":53,"zip code":"11598","id":"aaqs06mpkp5p","lat":40.626007,"long":-73.705071},"type":"Feature","geometry":{"type":"Point","coordinates":[-73.705071,40.626007]}},{"properties":{"city":"Inwood","all patients":21,"zip code":"11691","id":"aaqs06tnkm1q","lat":40.599601,"long":-73.759514},"type":"Feature","geometry":{"type":"Point","coordinates":[-73.759514,40.599601]}},{"properties":{"city":"Inwood","all patients":5,"zip code":"11692","id":"aaqs06xycs44","lat":40.593127,"long":-73.794212},"type":"Feature","geometry":{"type":"Point","coordinates":[-73.794212,40.593127]}},{"properties":{"city":"Inwood","all patients":5,"zip code":"11693","id":"aaqs06rdq3qt","lat":40.613434,"long":-73.815058},"type":"Feature","geometry":{"type":"Point","coordinates":[-73.815058,40.613434]}},{"properties":{"city":"Inwood","all patients":12,"zip code":"11694","id":"aaqs06smqg4u","lat":40.58164,"long":-73.846823},"type":"Feature","geometry":{"type":"Point","coordinates":[-73.846823,40.58164]}},{"properties":{"city":"Inwood","all patients":1,"zip code":"11695","id":"aaqs06l0ay2e","lat":40.56,"long":-73.89},"type":"Feature","geometry":{"type":"Point","coordinates":[-73.89,40.56]}},{"properties":{"city":"Inwood","all patients":2,"zip code":"11697","id":"aaqs06obc7wa","lat":40.559626,"long":-73.909242},"type":"Feature","geometry":{"type":"Point","coordinates":[-73.909242,40.559626]}},{"properties":{"city":"Amityville","all patients":356,"zip code":"11701","id":"aaqs06l2abdq","lat":40.677956,"long":-73.410405},"type":"Feature","geometry":{"type":"Point","coordinates":[-73.410405,40.677956]}},{"properties":{"city":"Babylon","all patients":205,"zip code":"11702","id":"aaqs06k7q19m","lat":40.639289,"long":-73.350924},"type":"Feature","geometry":{"type":"Point","coordinates":[-73.350924,40.639289]}},{"properties":{"city":"North Babylon","all patients":297,"zip code":"11703","id":"aaqs06sp8opr","lat":40.732882,"long":-73.325628},"type":"Feature","geometry":{"type":"Point","coordinates":[-73.325628,40.732882]}},{"properties":{"city":"West Babylon","all patients":507,"zip code":"11704","id":"aaqs06v7a98u","lat":40.716349,"long":-73.356431},"type":"Feature","geometry":{"type":"Point","coordinates":[-73.356431,40.716349]}},{"properties":{"city":"Bayport","all patients":102,"zip code":"11705","id":"aaqs06nppfos","lat":40.745546,"long":-73.054231},"type":"Feature","geometry":{"type":"Point","coordinates":[-73.054231,40.745546]}},{"properties":{"city":"North Bay Shore","all patients":815,"zip code":"11706","id":"aaqs06jk6vih","lat":40.723804,"long":-73.260544},"type":"Feature","geometry":{"type":"Point","coordinates":[-73.260544,40.723804]}},{"properties":{"city":"Bayville","all patients":86,"zip code":"11709","id":"aaqs06tfulty","lat":40.907764,"long":-73.560494},"type":"Feature","geometry":{"type":"Point","coordinates":[-73.560494,40.907764]}},{"properties":{"city":"Bellmore","all patients":348,"zip code":"11710","id":"aaqs06mk2v7n","lat":40.652622,"long":-73.526724},"type":"Feature","geometry":{"type":"Point","coordinates":[-73.526724,40.652622]}},{"properties":{"city":"North Bellport","all patients":132,"zip code":"11713","id":"aaqs06lpehvf","lat":40.748688,"long":-72.941618},"type":"Feature","geometry":{"type":"Point","coordinates":[-72.941618,40.748688]}},{"properties":{"city":"Bethpage","all patients":388,"zip code":"11714","id":"aaqs06vjqcyb","lat":40.742464,"long":-73.485868},"type":"Feature","geometry":{"type":"Point","coordinates":[-73.485868,40.742464]}},{"properties":{"city":"Blue Point","all patients":67,"zip code":"11715","id":"aaqs06ovvaex","lat":40.74975,"long":-73.035183},"type":"Feature","geometry":{"type":"Point","coordinates":[-73.035183,40.74975]}},{"properties":{"city":"Bohemia","all patients":194,"zip code":"11716","id":"aaqs06q91bdh","lat":40.771097,"long":-73.127526},"type":"Feature","geometry":{"type":"Point","coordinates":[-73.127526,40.771097]}},{"properties":{"city":"Brentwood","all patients":415,"zip code":"11717","id":"aaqs06syewx9","lat":40.78393,"long":-73.252411},"type":"Feature","geometry":{"type":"Point","coordinates":[-73.252411,40.78393]}},{"properties":{"city":"Brightwaters","all patients":58,"zip code":"11718","id":"aaqs06w9j568","lat":40.716736,"long":-73.265545},"type":"Feature","geometry":{"type":"Point","coordinates":[-73.265545,40.716736]}},{"properties":{"city":"Brookhaven","all patients":57,"zip code":"11719","id":"aaqs06k5qhms","lat":40.764539,"long":-72.911488},"type":"Feature","geometry":{"type":"Point","coordinates":[-72.911488,40.764539]}},{"properties":{"city":"Centereach","all patients":378,"zip code":"11720","id":"aaqs06jkkvsi","lat":40.869243,"long":-73.081001},"type":"Feature","geometry":{"type":"Point","coordinates":[-73.081001,40.869243]}},{"properties":{"city":"Centerport","all patients":109,"zip code":"11721","id":"aaqs06k5z7gd","lat":40.893332,"long":-73.37205},"type":"Feature","geometry":{"type":"Point","coordinates":[-73.37205,40.893332]}},{"properties":{"city":"Central Islip","all patients":383,"zip code":"11722","id":"aaqs06yicwp2","lat":40.784331,"long":-73.193694},"type":"Feature","geometry":{"type":"Point","coordinates":[-73.193694,40.784331]}},{"properties":{"city":"Laurel Hollow","all patients":17,"zip code":"11724","id":"aaqs06thcolr","lat":40.862771,"long":-73.453027},"type":"Feature","geometry":{"type":"Point","coordinates":[-73.453027,40.862771]}},{"properties":{"city":"Commack","all patients":482,"zip code":"11725","id":"aaqs06u08qdl","lat":40.840519,"long":-73.280844},"type":"Feature","geometry":{"type":"Point","coordinates":[-73.280844,40.840519]}},{"properties":{"city":"Copiague","all patients":223,"zip code":"11726","id":"aaqs06ltktti","lat":40.678359,"long":-73.39608},"type":"Feature","geometry":{"type":"Point","coordinates":[-73.39608,40.678359]}},{"properties":{"city":"Coram","all patients":419,"zip code":"11727","id":"aaqs06p7cyn8","lat":40.878727,"long":-73.005555},"type":"Feature","geometry":{"type":"Point","coordinates":[-73.005555,40.878727]}},{"properties":{"city":"Deer Park","all patients":413,"zip code":"11729","id":"aaqs06s45dnv","lat":40.76254,"long":-73.321716},"type":"Feature","geometry":{"type":"Point","coordinates":[-73.321716,40.76254]}},{"properties":{"city":"East Islip","all patients":149,"zip code":"11730","id":"aaqs06t8a7lv","lat":40.721181,"long":-73.177454},"type":"Feature","geometry":{"type":"Point","coordinates":[-73.177454,40.721181]}},{"properties":{"city":"East Northport","all patients":660,"zip code":"11731","id":"aaqs06obh7ig","lat":40.861808,"long":-73.315812},"type":"Feature","geometry":{"type":"Point","coordinates":[-73.315812,40.861808]}},{"properties":{"city":"East Norwich","all patients":56,"zip code":"11732","id":"aaqs06ocuczr","lat":40.844383,"long":-73.533073},"type":"Feature","geometry":{"type":"Point","coordinates":[-73.533073,40.844383]}},{"properties":{"city":"Setauket","all patients":177,"zip code":"11733","id":"aaqs06nvgtqj","lat":40.928079,"long":-73.116638},"type":"Feature","geometry":{"type":"Point","coordinates":[-73.116638,40.928079]}},{"properties":{"city":"Farmingdale","all patients":414,"zip code":"11735","id":"aaqs06kmb0s2","lat":40.732135,"long":-73.429488},"type":"Feature","geometry":{"type":"Point","coordinates":[-73.429488,40.732135]}},{"properties":{"city":"South Farmingdale","all patients":1,"zip code":"11736","id":"aaqs06yhfnrq","lat":40.73,"long":-73.45},"type":"Feature","geometry":{"type":"Point","coordinates":[-73.45,40.73]}},{"properties":{"city":"Farmingville","all patients":182,"zip code":"11738","id":"aaqs06vrsmbt","lat":40.842596,"long":-73.047511},"type":"Feature","geometry":{"type":"Point","coordinates":[-73.047511,40.842596]}},{"properties":{"city":"Great River","all patients":25,"zip code":"11739","id":"aaqs06jc15pl","lat":40.719563,"long":-73.152937},"type":"Feature","geometry":{"type":"Point","coordinates":[-73.152937,40.719563]}},{"properties":{"city":"Greenlawn","all patients":146,"zip code":"11740","id":"aaqs06l13s4o","lat":40.865355,"long":-73.363167},"type":"Feature","geometry":{"type":"Point","coordinates":[-73.363167,40.865355]}},{"properties":{"city":"Holbrook","all patients":409,"zip code":"11741","id":"aaqs06koenx8","lat":40.795019,"long":-73.070458},"type":"Feature","geometry":{"type":"Point","coordinates":[-73.070458,40.795019]}},{"properties":{"city":"Holtsville","all patients":147,"zip code":"11742","id":"aaqs06mb55cu","lat":40.807598,"long":-73.041061},"type":"Feature","geometry":{"type":"Point","coordinates":[-73.041061,40.807598]}},{"properties":{"city":"Huntington","all patients":598,"zip code":"11743","id":"aaqs06sztq66","lat":40.87486,"long":-73.422897},"type":"Feature","geometry":{"type":"Point","coordinates":[-73.422897,40.87486]}},{"properties":{"city":"South Huntington","all patients":772,"zip code":"11746","id":"aaqs06z2anvw","lat":40.814079,"long":-73.36007},"type":"Feature","geometry":{"type":"Point","coordinates":[-73.36007,40.814079]}},{"properties":{"city":"Melville","all patients":327,"zip code":"11747","id":"aaqs06wx7m5n","lat":40.78366,"long":-73.408464},"type":"Feature","geometry":{"type":"Point","coordinates":[-73.408464,40.78366]}},{"properties":{"city":"Islandia","all patients":45,"zip code":"11749","id":"aaqs06lak3r8","lat":40.805707,"long":-73.173117},"type":"Feature","geometry":{"type":"Point","coordinates":[-73.173117,40.805707]}},{"properties":{"city":"Islip","all patients":236,"zip code":"11751","id":"aaqs06kr6ysd","lat":40.733245,"long":-73.21427},"type":"Feature","geometry":{"type":"Point","coordinates":[-73.21427,40.733245]}},{"properties":{"city":"North Great River","all patients":127,"zip code":"11752","id":"aaqs06l5ytn6","lat":40.759284,"long":-73.175781},"type":"Feature","geometry":{"type":"Point","coordinates":[-73.175781,40.759284]}},{"properties":{"city":"Jericho","all patients":114,"zip code":"11753","id":"aaqs06nj9g2e","lat":40.788801,"long":-73.540644},"type":"Feature","geometry":{"type":"Point","coordinates":[-73.540644,40.788801]}},{"properties":{"city":"Kings Park","all patients":394,"zip code":"11754","id":"aaqs06ybo82a","lat":40.887816,"long":-73.249794},"type":"Feature","geometry":{"type":"Point","coordinates":[-73.249794,40.887816]}},{"properties":{"city":"Lake Grove","all patients":136,"zip code":"11755","id":"aaqs06vi00jj","lat":40.858093,"long":-73.117184},"type":"Feature","geometry":{"type":"Point","coordinates":[-73.117184,40.858093]}},{"properties":{"city":"Levittown","all patients":497,"zip code":"11756","id":"aaqs06u2ae2q","lat":40.725786,"long":-73.516824},"type":"Feature","geometry":{"type":"Point","coordinates":[-73.516824,40.725786]}},{"properties":{"city":"Lindenhurst","all patients":575,"zip code":"11757","id":"aaqs06ykujxq","lat":40.691362,"long":-73.372129},"type":"Feature","geometry":{"type":"Point","coordinates":[-73.372129,40.691362]}},{"properties":{"city":"Massapequa","all patients":682,"zip code":"11758","id":"aaqs06oj4yub","lat":40.605274,"long":-73.484543},"type":"Feature","geometry":{"type":"Point","coordinates":[-73.484543,40.605274]}},{"properties":{"city":"Massapequa Park","all patients":281,"zip code":"11762","id":"aaqs06uhpldx","lat":40.678502,"long":-73.445106},"type":"Feature","geometry":{"type":"Point","coordinates":[-73.445106,40.678502]}},{"properties":{"city":"Medford","all patients":383,"zip code":"11763","id":"aaqs06nbhbgs","lat":40.824363,"long":-72.98138},"type":"Feature","geometry":{"type":"Point","coordinates":[-72.98138,40.824363]}},{"properties":{"city":"Miller Place","all patients":128,"zip code":"11764","id":"aaqs06y2nx28","lat":40.939819,"long":-72.986478},"type":"Feature","geometry":{"type":"Point","coordinates":[-72.986478,40.939819]}},{"properties":{"city":"Mill Neck","all patients":8,"zip code":"11765","id":"aaqs06jsy20x","lat":40.880985,"long":-73.558743},"type":"Feature","geometry":{"type":"Point","coordinates":[-73.558743,40.880985]}},{"properties":{"city":"Mount Sinai","all patients":151,"zip code":"11766","id":"aaqs06vlx0el","lat":40.946318,"long":-73.025708},"type":"Feature","geometry":{"type":"Point","coordinates":[-73.025708,40.946318]}},{"properties":{"city":"Nesconset","all patients":143,"zip code":"11767","id":"aaqs06waihhj","lat":40.843792,"long":-73.14631},"type":"Feature","geometry":{"type":"Point","coordinates":[-73.14631,40.843792]}},{"properties":{"city":"Northport","all patients":863,"zip code":"11768","id":"aaqs06r81s2q","lat":40.909267,"long":-73.333907},"type":"Feature","geometry":{"type":"Point","coordinates":[-73.333907,40.909267]}},{"properties":{"city":"Oakdale","all patients":135,"zip code":"11769","id":"aaqs06v9zy5q","lat":40.731797,"long":-73.135301},"type":"Feature","geometry":{"type":"Point","coordinates":[-73.135301,40.731797]}},{"properties":{"city":"Ocean Beach","all patients":4,"zip code":"11770","id":"aaqs06xopl3c","lat":40.644875,"long":-73.160416},"type":"Feature","geometry":{"type":"Point","coordinates":[-73.160416,40.644875]}},{"properties":{"city":"Oyster Bay","all patients":91,"zip code":"11771","id":"aaqs06uwpdt0","lat":40.875499,"long":-73.528134},"type":"Feature","geometry":{"type":"Point","coordinates":[-73.528134,40.875499]}},{"properties":{"city":"East Patchogue","all patients":693,"zip code":"11772","id":"aaqs06pamn67","lat":40.754816,"long":-72.999481},"type":"Feature","geometry":{"type":"Point","coordinates":[-72.999481,40.754816]}},{"properties":{"city":"Port Jefferson Station","all patients":306,"zip code":"11776","id":"aaqs06telz98","lat":40.913637,"long":-73.045918},"type":"Feature","geometry":{"type":"Point","coordinates":[-73.045918,40.913637]}},{"properties":{"city":"Port Jefferson","all patients":85,"zip code":"11777","id":"aaqs06jpqyu3","lat":40.949796,"long":-73.059545},"type":"Feature","geometry":{"type":"Point","coordinates":[-73.059545,40.949796]}},{"properties":{"city":"Rocky Point","all patients":143,"zip code":"11778","id":"aaqs06yhtoj7","lat":40.93646,"long":-72.934676},"type":"Feature","geometry":{"type":"Point","coordinates":[-72.934676,40.93646]}},{"properties":{"city":"Ronkonkoma","all patients":599,"zip code":"11779","id":"aaqs06lolh9x","lat":40.815362,"long":-73.11056},"type":"Feature","geometry":{"type":"Point","coordinates":[-73.11056,40.815362]}},{"properties":{"city":"Saint James","all patients":182,"zip code":"11780","id":"aaqs06upef8z","lat":40.893231,"long":-73.181228},"type":"Feature","geometry":{"type":"Point","coordinates":[-73.181228,40.893231]}},{"properties":{"city":"Sayville","all patients":195,"zip code":"11782","id":"aaqs06ujqo29","lat":40.697816,"long":-72.974106},"type":"Feature","geometry":{"type":"Point","coordinates":[-72.974106,40.697816]}},{"properties":{"city":"Massapequa","all patients":275,"zip code":"11783","id":"aaqs06n8en6w","lat":40.652976,"long":-73.48774},"type":"Feature","geometry":{"type":"Point","coordinates":[-73.48774,40.652976]}},{"properties":{"city":"Selden","all patients":327,"zip code":"11784","id":"aaqs06nnhwkm","lat":40.86573,"long":-73.035545},"type":"Feature","geometry":{"type":"Point","coordinates":[-73.035545,40.86573]}},{"properties":{"city":"East Shoreham","all patients":57,"zip code":"11786","id":"aaqs06lqzddl","lat":40.946675,"long":-72.887132},"type":"Feature","geometry":{"type":"Point","coordinates":[-72.887132,40.946675]}},{"properties":{"city":"Smithtown","all patients":483,"zip code":"11787","id":"aaqs06wwr958","lat":40.853492,"long":-73.207257},"type":"Feature","geometry":{"type":"Point","coordinates":[-73.207257,40.853492]}},{"properties":{"city":"Hauppauge","all patients":243,"zip code":"11788","id":"aaqs06sku5kq","lat":40.817801,"long":-73.210038},"type":"Feature","geometry":{"type":"Point","coordinates":[-73.210038,40.817801]}},{"properties":{"city":"Sound Beach","all patients":101,"zip code":"11789","id":"aaqs06yw4s6a","lat":40.95713,"long":-72.97125},"type":"Feature","geometry":{"type":"Point","coordinates":[-72.97125,40.95713]}},{"properties":{"city":"Head of the Harbor","all patients":149,"zip code":"11790","id":"aaqs06uu9pix","lat":40.904537,"long":-73.126626},"type":"Feature","geometry":{"type":"Point","coordinates":[-73.126626,40.904537]}},{"properties":{"city":"Syosset","all patients":185,"zip code":"11791","id":"aaqs06uuvpbt","lat":40.828342,"long":-73.503483},"type":"Feature","geometry":{"type":"Point","coordinates":[-73.503483,40.828342]}},{"properties":{"city":"Wading River","all patients":84,"zip code":"11792","id":"aaqs06pvmkzg","lat":40.947151,"long":-72.835717},"type":"Feature","geometry":{"type":"Point","coordinates":[-72.835717,40.947151]}},{"properties":{"city":"Wantagh","all patients":359,"zip code":"11793","id":"aaqs06ov8ijg","lat":40.643404,"long":-73.50862},"type":"Feature","geometry":{"type":"Point","coordinates":[-73.50862,40.643404]}},{"properties":{"city":"West Islip","all patients":295,"zip code":"11795","id":"aaqs06taet8w","lat":40.709265,"long":-73.29848},"type":"Feature","geometry":{"type":"Point","coordinates":[-73.29848,40.709265]}},{"properties":{"city":"West Sayville","all patients":45,"zip code":"11796","id":"aaqs06yg2gvy","lat":40.731247,"long":-73.100156},"type":"Feature","geometry":{"type":"Point","coordinates":[-73.100156,40.731247]}},{"properties":{"city":"Woodbury","all patients":126,"zip code":"11797","id":"aaqs06ze6poa","lat":40.817392,"long":-73.470038},"type":"Feature","geometry":{"type":"Point","coordinates":[-73.470038,40.817392]}},{"properties":{"city":"Wyandanch","all patients":171,"zip code":"11798","id":"aaqs06rr7qal","lat":40.751875,"long":-73.371127},"type":"Feature","geometry":{"type":"Point","coordinates":[-73.371127,40.751875]}},{"properties":{"city":"Hicksville","all patients":424,"zip code":"11801","id":"aaqs06nvh31q","lat":40.767608,"long":-73.524698},"type":"Feature","geometry":{"type":"Point","coordinates":[-73.524698,40.767608]}},{"properties":{"city":"Hicksville","all patients":6,"zip code":"11802","id":"aaqs06kds5y3","lat":40.77,"long":-73.53},"type":"Feature","geometry":{"type":"Point","coordinates":[-73.53,40.77]}},{"properties":{"city":"Plainview","all patients":348,"zip code":"11803","id":"aaqs06ttq830","lat":40.781792,"long":-73.47333},"type":"Feature","geometry":{"type":"Point","coordinates":[-73.47333,40.781792]}},{"properties":{"city":"Plainview","all patients":55,"zip code":"11804","id":"aaqs06zqgwdm","lat":40.756785,"long":-73.454311},"type":"Feature","geometry":{"type":"Point","coordinates":[-73.454311,40.756785]}},{"properties":{"city":"Riverhead","all patients":437,"zip code":"11901","id":"aaqs06pbjjxp","lat":40.92404,"long":-72.650989},"type":"Feature","geometry":{"type":"Point","coordinates":[-72.650989,40.92404]}},{"properties":{"city":"Amagansett","all patients":15,"zip code":"11930","id":"aaqs06knitdt","lat":40.990862,"long":-72.095919},"type":"Feature","geometry":{"type":"Point","coordinates":[-72.095919,40.990862]}},{"properties":{"city":"Aquebogue","all patients":30,"zip code":"11931","id":"aaqs06lwz6qg","lat":40.939435,"long":-72.637606},"type":"Feature","geometry":{"type":"Point","coordinates":[-72.637606,40.939435]}},{"properties":{"city":"Bridgehampton","all patients":18,"zip code":"11932","id":"aaqs06kwt6dk","lat":40.936194,"long":-72.30097},"type":"Feature","geometry":{"type":"Point","coordinates":[-72.30097,40.936194]}},{"properties":{"city":"Calverton","all patients":165,"zip code":"11933","id":"aaqs06uev3ik","lat":40.92538,"long":-72.754445},"type":"Feature","geometry":{"type":"Point","coordinates":[-72.754445,40.92538]}},{"properties":{"city":"Center Moriches","all patients":120,"zip code":"11934","id":"aaqs06w2gjmu","lat":40.797526,"long":-72.792351},"type":"Feature","geometry":{"type":"Point","coordinates":[-72.792351,40.797526]}},{"properties":{"city":"Cutchogue","all patients":74,"zip code":"11935","id":"aaqs06sl43x6","lat":41.015934,"long":-72.48691},"type":"Feature","geometry":{"type":"Point","coordinates":[-72.48691,41.015934]}},{"properties":{"city":"Springs","all patients":155,"zip code":"11937","id":"aaqs06usmcr8","lat":41.027438,"long":-72.183606},"type":"Feature","geometry":{"type":"Point","coordinates":[-72.183606,41.027438]}},{"properties":{"city":"Greenport","all patients":27,"zip code":"11939","id":"aaqs06mdhqvv","lat":41.12933,"long":-72.34227},"type":"Feature","geometry":{"type":"Point","coordinates":[-72.34227,41.12933]}},{"properties":{"city":"East Moriches","all patients":94,"zip code":"11940","id":"aaqs06whrv4c","lat":40.800525,"long":-72.759351},"type":"Feature","geometry":{"type":"Point","coordinates":[-72.759351,40.800525]}},{"properties":{"city":"Eastport","all patients":39,"zip code":"11941","id":"aaqs06rdhd89","lat":40.824099,"long":-72.718941},"type":"Feature","geometry":{"type":"Point","coordinates":[-72.718941,40.824099]}},{"properties":{"city":"East Quogue","all patients":68,"zip code":"11942","id":"aaqs06t2kgvr","lat":40.838061,"long":-72.577283},"type":"Feature","geometry":{"type":"Point","coordinates":[-72.577283,40.838061]}},{"properties":{"city":"Greenport","all patients":68,"zip code":"11944","id":"aaqs06x8xdi5","lat":41.095404,"long":-72.373464},"type":"Feature","geometry":{"type":"Point","coordinates":[-72.373464,41.095404]}},{"properties":{"city":"Hampton Bays","all patients":204,"zip code":"11946","id":"aaqs06mibwrz","lat":40.870826,"long":-72.524562},"type":"Feature","geometry":{"type":"Point","coordinates":[-72.524562,40.870826]}},{"properties":{"city":"Jamesport","all patients":16,"zip code":"11947","id":"aaqs06ql2fc6","lat":40.947229,"long":-72.586562},"type":"Feature","geometry":{"type":"Point","coordinates":[-72.586562,40.947229]}},{"properties":{"city":"Laurel","all patients":21,"zip code":"11948","id":"aaqs06sgpeqz","lat":40.96903,"long":-72.557619},"type":"Feature","geometry":{"type":"Point","coordinates":[-72.557619,40.96903]}},{"properties":{"city":"Manorville","all patients":183,"zip code":"11949","id":"aaqs06r8aiav","lat":40.868696,"long":-72.773005},"type":"Feature","geometry":{"type":"Point","coordinates":[-72.773005,40.868696]}},{"properties":{"city":"Mastic","all patients":212,"zip code":"11950","id":"aaqs06nsekwk","lat":40.808001,"long":-72.84841},"type":"Feature","geometry":{"type":"Point","coordinates":[-72.84841,40.808001]}},{"properties":{"city":"Mastic Beach","all patients":205,"zip code":"11951","id":"aaqs06knbekj","lat":40.759939,"long":-72.834973},"type":"Feature","geometry":{"type":"Point","coordinates":[-72.834973,40.759939]}},{"properties":{"city":"Mattituck","all patients":77,"zip code":"11952","id":"aaqs06sqpjhn","lat":40.999338,"long":-72.541702},"type":"Feature","geometry":{"type":"Point","coordinates":[-72.541702,40.999338]}},{"properties":{"city":"Middle Island","all patients":273,"zip code":"11953","id":"aaqs06tda9gb","lat":40.885911,"long":-72.949762},"type":"Feature","geometry":{"type":"Point","coordinates":[-72.949762,40.885911]}},{"properties":{"city":"Montauk","all patients":63,"zip code":"11954","id":"aaqs06xv2nfg","lat":41.046972,"long":-71.945208},"type":"Feature","geometry":{"type":"Point","coordinates":[-71.945208,41.046972]}},{"properties":{"city":"Mastic","all patients":77,"zip code":"11955","id":"aaqs06m3jyrj","lat":40.809952,"long":-72.819629},"type":"Feature","geometry":{"type":"Point","coordinates":[-72.819629,40.809952]}},{"properties":{"city":"Cutchogue","all patients":7,"zip code":"11956","id":"aaqs06xlcuis","lat":40.993237,"long":-72.475952},"type":"Feature","geometry":{"type":"Point","coordinates":[-72.475952,40.993237]}},{"properties":{"city":"Dering Harbor","all patients":16,"zip code":"11957","id":"aaqs06pzn82f","lat":41.155245,"long":-72.249939},"type":"Feature","geometry":{"type":"Point","coordinates":[-72.249939,41.155245]}},{"properties":{"city":"Peconic","all patients":11,"zip code":"11958","id":"aaqs06mqlhx0","lat":41.037822,"long":-72.464992},"type":"Feature","geometry":{"type":"Point","coordinates":[-72.464992,41.037822]}},{"properties":{"city":"Quogue","all patients":20,"zip code":"11959","id":"aaqs06lzprl3","lat":40.815181,"long":-72.606211},"type":"Feature","geometry":{"type":"Point","coordinates":[-72.606211,40.815181]}},{"properties":{"city":"Westhampton Beach","all patients":21,"zip code":"11960","id":"aaqs06zhn3pd","lat":40.806604,"long":-72.705151},"type":"Feature","geometry":{"type":"Point","coordinates":[-72.705151,40.806604]}},{"properties":{"city":"Ridge","all patients":355,"zip code":"11961","id":"aaqs06thsrv5","lat":40.902588,"long":-72.883779},"type":"Feature","geometry":{"type":"Point","coordinates":[-72.883779,40.902588]}},{"properties":{"city":"Bridgehampton","all patients":2,"zip code":"11962","id":"aaqs06mcoym7","lat":40.931611,"long":-72.277951},"type":"Feature","geometry":{"type":"Point","coordinates":[-72.277951,40.931611]}},{"properties":{"city":"Noyack","all patients":99,"zip code":"11963","id":"aaqs06ubqr24","lat":40.995604,"long":-72.318885},"type":"Feature","geometry":{"type":"Point","coordinates":[-72.318885,40.995604]}},{"properties":{"city":"Shelter Island","all patients":26,"zip code":"11964","id":"aaqs06nal2xo","lat":41.066132,"long":-72.317991},"type":"Feature","geometry":{"type":"Point","coordinates":[-72.317991,41.066132]}},{"properties":{"city":"Shelter Island Heights","all patients":13,"zip code":"11965","id":"aaqs06m4qa0j","lat":41.083057,"long":-72.305805},"type":"Feature","geometry":{"type":"Point","coordinates":[-72.305805,41.083057]}},{"properties":{"city":"Shirley","all patients":344,"zip code":"11967","id":"aaqs06uhel6f","lat":40.790182,"long":-72.879809},"type":"Feature","geometry":{"type":"Point","coordinates":[-72.879809,40.790182]}},{"properties":{"city":"North Sea","all patients":137,"zip code":"11968","id":"aaqs06sqqmwe","lat":40.894196,"long":-72.41262},"type":"Feature","geometry":{"type":"Point","coordinates":[-72.41262,40.894196]}},{"properties":{"city":"Southampton","all patients":24,"zip code":"11969","id":"aaqs06xh6rbg","lat":40.88,"long":-72.39},"type":"Feature","geometry":{"type":"Point","coordinates":[-72.39,40.88]}},{"properties":{"city":"Jamesport","all patients":6,"zip code":"11970","id":"aaqs06xf2cqz","lat":40.937007,"long":-72.575193},"type":"Feature","geometry":{"type":"Point","coordinates":[-72.575193,40.937007]}},{"properties":{"city":"Southold","all patients":116,"zip code":"11971","id":"aaqs06m7m4b1","lat":41.059748,"long":-72.426146},"type":"Feature","geometry":{"type":"Point","coordinates":[-72.426146,41.059748]}},{"properties":{"city":"Speonk","all patients":22,"zip code":"11972","id":"aaqs06uve57i","lat":40.819312,"long":-72.706552},"type":"Feature","geometry":{"type":"Point","coordinates":[-72.706552,40.819312]}},{"properties":{"city":"East Hampton","all patients":6,"zip code":"11975","id":"aaqs06y55yzv","lat":40.940437,"long":-72.245987},"type":"Feature","geometry":{"type":"Point","coordinates":[-72.245987,40.940437]}},{"properties":{"city":"Watermill","all patients":18,"zip code":"11976","id":"aaqs06vdktux","lat":40.93015,"long":-72.342202},"type":"Feature","geometry":{"type":"Point","coordinates":[-72.342202,40.93015]}},{"properties":{"city":"Westhampton Beach","all patients":33,"zip code":"11977","id":"aaqs06oxumuo","lat":40.825084,"long":-72.680079},"type":"Feature","geometry":{"type":"Point","coordinates":[-72.680079,40.825084]}},{"properties":{"city":"Westhampton Beach","all patients":52,"zip code":"11978","id":"aaqs06nmkpyh","lat":40.80539,"long":-72.658983},"type":"Feature","geometry":{"type":"Point","coordinates":[-72.658983,40.80539]}},{"properties":{"city":"Yaphank","all patients":85,"zip code":"11980","id":"aaqs06vhcnuv","lat":40.830109,"long":-72.920395},"type":"Feature","geometry":{"type":"Point","coordinates":[-72.920395,40.830109]}},{"properties":{"city":"Ballston Spa","all patients":1,"zip code":"12020","id":"aaqs06siwanj","lat":43.003694,"long":-73.84534},"type":"Feature","geometry":{"type":"Point","coordinates":[-73.84534,43.003694]}},{"properties":{"city":"Central Bridge","all patients":1,"zip code":"12035","id":"aaqs06lc4jla","lat":42.726644,"long":-74.365833},"type":"Feature","geometry":{"type":"Point","coordinates":[-74.365833,42.726644]}},{"properties":{"city":"Clifton Park","all patients":3,"zip code":"12065","id":"aaqs06tr1irf","lat":42.866348,"long":-73.785921},"type":"Feature","geometry":{"type":"Point","coordinates":[-73.785921,42.866348]}},{"properties":{"city":"Westmere","all patients":1,"zip code":"12084","id":"aaqs06s8yh6n","lat":42.704299,"long":-73.899798},"type":"Feature","geometry":{"type":"Point","coordinates":[-73.899798,42.704299]}},{"properties":{"city":"Worcester","all patients":1,"zip code":"12093","id":"aaqs06wn2jgt","lat":42.493039,"long":-74.648867},"type":"Feature","geometry":{"type":"Point","coordinates":[-74.648867,42.493039]}},{"properties":{"city":"Johnstown","all patients":1,"zip code":"12095","id":"aaqs06nmbqxw","lat":43.118679,"long":-74.507439},"type":"Feature","geometry":{"type":"Point","coordinates":[-74.507439,43.118679]}},{"properties":{"city":"Latham","all patients":1,"zip code":"12110","id":"aaqs06jl48lf","lat":42.753199,"long":-73.775476},"type":"Feature","geometry":{"type":"Point","coordinates":[-73.775476,42.753199]}},{"properties":{"city":"Milford","all patients":1,"zip code":"12116","id":"aaqs06vubmvy","lat":42.541341,"long":-74.913242},"type":"Feature","geometry":{"type":"Point","coordinates":[-74.913242,42.541341]}},{"properties":{"city":"Middleburgh","all patients":1,"zip code":"12122","id":"aaqs06w1km6o","lat":42.545133,"long":-74.298353},"type":"Feature","geometry":{"type":"Point","coordinates":[-74.298353,42.545133]}},{"properties":{"city":"Ravena","all patients":1,"zip code":"12143","id":"aaqs06ui7gzk","lat":42.484921,"long":-73.842111},"type":"Feature","geometry":{"type":"Point","coordinates":[-73.842111,42.484921]}},{"properties":{"city":"Richmondville","all patients":1,"zip code":"12149","id":"aaqs06num24u","lat":42.626594,"long":-74.570821},"type":"Feature","geometry":{"type":"Point","coordinates":[-74.570821,42.626594]}},{"properties":{"city":"Troy","all patients":1,"zip code":"12180","id":"aaqs06pdupab","lat":42.753531,"long":-73.602445},"type":"Feature","geometry":{"type":"Point","coordinates":[-73.602445,42.753531]}},{"properties":{"city":"Waterford","all patients":2,"zip code":"12188","id":"aaqs06vk2902","lat":42.819893,"long":-73.695275},"type":"Feature","geometry":{"type":"Point","coordinates":[-73.695275,42.819893]}},{"properties":{"city":"Watervliet","all patients":1,"zip code":"12189","id":"aaqs06u24afs","lat":42.734164,"long":-73.716554},"type":"Feature","geometry":{"type":"Point","coordinates":[-73.716554,42.734164]}},{"properties":{"city":"Roessleville","all patients":1,"zip code":"12203","id":"aaqs06vy92m4","lat":42.684835,"long":-73.841896},"type":"Feature","geometry":{"type":"Point","coordinates":[-73.841896,42.684835]}},{"properties":{"city":"Menands","all patients":1,"zip code":"12204","id":"aaqs06v2asyn","lat":42.693245,"long":-73.735222},"type":"Feature","geometry":{"type":"Point","coordinates":[-73.735222,42.693245]}},{"properties":{"city":"Roessleville","all patients":1,"zip code":"12205","id":"aaqs06o0fcc1","lat":42.720048,"long":-73.820471},"type":"Feature","geometry":{"type":"Point","coordinates":[-73.820471,42.720048]}},{"properties":{"city":"Loudonville","all patients":1,"zip code":"12211","id":"aaqs06r0u44z","lat":42.710471,"long":-73.765958},"type":"Feature","geometry":{"type":"Point","coordinates":[-73.765958,42.710471]}},{"properties":{"city":"Roessleville","all patients":1,"zip code":"12222","id":"aaqs06mvckcy","lat":42.4403,"long":-73.787102},"type":"Feature","geometry":{"type":"Point","coordinates":[-73.787102,42.4403]}},{"properties":{"city":"Niskayuna","all patients":1,"zip code":"12309","id":"aaqs06xbsu7p","lat":42.801129,"long":-73.871147},"type":"Feature","geometry":{"type":"Point","coordinates":[-73.871147,42.801129]}},{"properties":{"city":"Kingston","all patients":1,"zip code":"12401","id":"aaqs06un7tbp","lat":41.906151,"long":-73.992664},"type":"Feature","geometry":{"type":"Point","coordinates":[-73.992664,41.906151]}},{"properties":{"city":"Fleischmanns","all patients":1,"zip code":"12430","id":"aaqs06whu4sv","lat":42.202701,"long":-74.500848},"type":"Feature","geometry":{"type":"Point","coordinates":[-74.500848,42.202701]}},{"properties":{"city":"Tannersville","all patients":1,"zip code":"12436","id":"aaqs06nwxidw","lat":42.195667,"long":-74.098179},"type":"Feature","geometry":{"type":"Point","coordinates":[-74.098179,42.195667]}},{"properties":{"city":"Kerhonkson","all patients":1,"zip code":"12446","id":"aaqs06q60xec","lat":41.776155,"long":-74.307906},"type":"Feature","geometry":{"type":"Point","coordinates":[-74.307906,41.776155]}},{"properties":{"city":"Margaretville","all patients":1,"zip code":"12455","id":"aaqs06p6q0gb","lat":42.143669,"long":-74.656271},"type":"Feature","geometry":{"type":"Point","coordinates":[-74.656271,42.143669]}},{"properties":{"city":"Saugerties","all patients":1,"zip code":"12477","id":"aaqs06nle72x","lat":42.053427,"long":-73.980972},"type":"Feature","geometry":{"type":"Point","coordinates":[-73.980972,42.053427]}},{"properties":{"city":"Rosendale","all patients":1,"zip code":"12484","id":"aaqs06jb901b","lat":41.868541,"long":-74.172859},"type":"Feature","geometry":{"type":"Point","coordinates":[-74.172859,41.868541]}},{"properties":{"city":"Tillson","all patients":1,"zip code":"12486","id":"aaqs06rvlmj8","lat":41.83346,"long":-74.063231},"type":"Feature","geometry":{"type":"Point","coordinates":[-74.063231,41.83346]}},{"properties":{"city":"Hunter","all patients":1,"zip code":"12496","id":"aaqs06pxdj7i","lat":42.334918,"long":-74.271},"type":"Feature","geometry":{"type":"Point","coordinates":[-74.271,42.334918]}},{"properties":{"city":"Beacon","all patients":2,"zip code":"12508","id":"aaqs06jalrxu","lat":41.520035,"long":-73.944831},"type":"Feature","geometry":{"type":"Point","coordinates":[-73.944831,41.520035]}},{"properties":{"city":"Firthcliffe","all patients":1,"zip code":"12518","id":"aaqs06o9006x","lat":41.3978,"long":-74.037741},"type":"Feature","geometry":{"type":"Point","coordinates":[-74.037741,41.3978]}},{"properties":{"city":"Cornwall on Hudson","all patients":1,"zip code":"12520","id":"aaqs06pk62uc","lat":41.432396,"long":-74.00118},"type":"Feature","geometry":{"type":"Point","coordinates":[-74.00118,41.432396]}},{"properties":{"city":"Tivoli","all patients":1,"zip code":"12523","id":"aaqs06wk705l","lat":42.078591,"long":-73.761612},"type":"Feature","geometry":{"type":"Point","coordinates":[-73.761612,42.078591]}},{"properties":{"city":"Fishkill","all patients":1,"zip code":"12524","id":"aaqs06un0lk3","lat":41.532311,"long":-73.899493},"type":"Feature","geometry":{"type":"Point","coordinates":[-73.899493,41.532311]}},{"properties":{"city":"Hopewell Junction","all patients":1,"zip code":"12533","id":"aaqs06ujkk8f","lat":41.577158,"long":-73.775571},"type":"Feature","geometry":{"type":"Point","coordinates":[-73.775571,41.577158]}},{"properties":{"city":"Hyde Park","all patients":1,"zip code":"12538","id":"aaqs06nvv5o7","lat":41.784629,"long":-73.901171},"type":"Feature","geometry":{"type":"Point","coordinates":[-73.901171,41.784629]}},{"properties":{"city":"Balmville","all patients":1,"zip code":"12550","id":"aaqs06zfgqjb","lat":41.536274,"long":-74.052814},"type":"Feature","geometry":{"type":"Point","coordinates":[-74.052814,41.536274]}},{"properties":{"city":"New Windsor","all patients":2,"zip code":"12553","id":"aaqs06yzsq4x","lat":41.454163,"long":-74.08277},"type":"Feature","geometry":{"type":"Point","coordinates":[-74.08277,41.454163]}},{"properties":{"city":"New Paltz","all patients":2,"zip code":"12561","id":"aaqs06zcxrwm","lat":41.755045,"long":-74.095277},"type":"Feature","geometry":{"type":"Point","coordinates":[-74.095277,41.755045]}},{"properties":{"city":"Red Hook","all patients":2,"zip code":"12571","id":"aaqs06kc8320","lat":42.003368,"long":-73.869177},"type":"Feature","geometry":{"type":"Point","coordinates":[-73.869177,42.003368]}},{"properties":{"city":"Rhinebeck","all patients":1,"zip code":"12572","id":"aaqs06t1ne9s","lat":41.918762,"long":-73.865253},"type":"Feature","geometry":{"type":"Point","coordinates":[-73.865253,41.918762]}},{"properties":{"city":"Hopewell Junction","all patients":1,"zip code":"12582","id":"aaqs06tygvqb","lat":41.544704,"long":-73.728679},"type":"Feature","geometry":{"type":"Point","coordinates":[-73.728679,41.544704]}},{"properties":{"city":"Wappingers Falls","all patients":1,"zip code":"12590","id":"aaqs06r4fday","lat":41.596111,"long":-73.889438},"type":"Feature","geometry":{"type":"Point","coordinates":[-73.889438,41.596111]}},{"properties":{"city":"Poughkeepsie","all patients":1,"zip code":"12601","id":"aaqs06uu3zxq","lat":41.708944,"long":-73.904083},"type":"Feature","geometry":{"type":"Point","coordinates":[-73.904083,41.708944]}},{"properties":{"city":"Red Oaks Mill","all patients":3,"zip code":"12603","id":"aaqs06vufo44","lat":41.664059,"long":-73.878817},"type":"Feature","geometry":{"type":"Point","coordinates":[-73.878817,41.664059]}},{"properties":{"city":"Barryville","all patients":1,"zip code":"12719","id":"aaqs06vx5u4b","lat":41.481308,"long":-74.901755},"type":"Feature","geometry":{"type":"Point","coordinates":[-74.901755,41.481308]}},{"properties":{"city":"Eldred","all patients":1,"zip code":"12732","id":"aaqs06ywk0h5","lat":41.55716,"long":-74.884265},"type":"Feature","geometry":{"type":"Point","coordinates":[-74.884265,41.55716]}},{"properties":{"city":"Liberty","all patients":1,"zip code":"12754","id":"aaqs06qkhgq5","lat":41.801821,"long":-74.740523},"type":"Feature","geometry":{"type":"Point","coordinates":[-74.740523,41.801821]}},{"properties":{"city":"Livingston Manor","all patients":1,"zip code":"12758","id":"aaqs06tsr4sh","lat":41.936449,"long":-74.736735},"type":"Feature","geometry":{"type":"Point","coordinates":[-74.736735,41.936449]}},{"properties":{"city":"Port Jervis","all patients":2,"zip code":"12771","id":"aaqs06quemcz","lat":41.375687,"long":-74.629434},"type":"Feature","geometry":{"type":"Point","coordinates":[-74.629434,41.375687]}},{"properties":{"city":"Woodbourne","all patients":1,"zip code":"12788","id":"aaqs06o192qq","lat":41.787572,"long":-74.605212},"type":"Feature","geometry":{"type":"Point","coordinates":[-74.605212,41.787572]}},{"properties":{"city":"South Glens Falls","all patients":1,"zip code":"12803","id":"aaqs06x9tmfn","lat":43.286616,"long":-73.634058},"type":"Feature","geometry":{"type":"Point","coordinates":[-73.634058,43.286616]}},{"properties":{"city":"Glens Falls","all patients":1,"zip code":"12804","id":"aaqs06w4j412","lat":43.374916,"long":-73.713523},"type":"Feature","geometry":{"type":"Point","coordinates":[-73.713523,43.374916]}},{"properties":{"city":"Cambridge","all patients":1,"zip code":"12816","id":"aaqs06vf18wh","lat":43.04161,"long":-73.38688},"type":"Feature","geometry":{"type":"Point","coordinates":[-73.38688,43.04161]}},{"properties":{"city":"Fort Edward","all patients":1,"zip code":"12828","id":"aaqs06mf3wvh","lat":43.235673,"long":-73.592786},"type":"Feature","geometry":{"type":"Point","coordinates":[-73.592786,43.235673]}},{"properties":{"city":"The Glen","all patients":1,"zip code":"12843","id":"aaqs06t4us6a","lat":43.551615,"long":-74.010687},"type":"Feature","geometry":{"type":"Point","coordinates":[-74.010687,43.551615]}},{"properties":{"city":"North Creek","all patients":1,"zip code":"12853","id":"aaqs06owx6ys","lat":43.665915,"long":-74.046244},"type":"Feature","geometry":{"type":"Point","coordinates":[-74.046244,43.665915]}},{"properties":{"city":"Salem","all patients":1,"zip code":"12865","id":"aaqs06tp2y3p","lat":43.191129,"long":-73.353398},"type":"Feature","geometry":{"type":"Point","coordinates":[-73.353398,43.191129]}},{"properties":{"city":"Plattsburgh","all patients":1,"zip code":"12901","id":"aaqs06owdzqn","lat":44.729277,"long":-73.920006},"type":"Feature","geometry":{"type":"Point","coordinates":[-73.920006,44.729277]}},{"properties":{"city":"Keeseville","all patients":1,"zip code":"12944","id":"aaqs06m3y5u8","lat":44.455833,"long":-73.504072},"type":"Feature","geometry":{"type":"Point","coordinates":[-73.504072,44.455833]}},{"properties":{"city":"Auburn","all patients":1,"zip code":"13021","id":"aaqs06xvf4f2","lat":42.923678,"long":-76.571402},"type":"Feature","geometry":{"type":"Point","coordinates":[-76.571402,42.923678]}},{"properties":{"city":"Baldwinsville","all patients":1,"zip code":"13027","id":"aaqs06jjxyqy","lat":43.152009,"long":-76.337322},"type":"Feature","geometry":{"type":"Point","coordinates":[-76.337322,43.152009]}},{"properties":{"city":"Constantia","all patients":1,"zip code":"13044","id":"aaqs06z7aojo","lat":43.296642,"long":-76.002687},"type":"Feature","geometry":{"type":"Point","coordinates":[-76.002687,43.296642]}},{"properties":{"city":"Skaneateles","all patients":1,"zip code":"13152","id":"aaqs06l5475h","lat":42.892416,"long":-76.383444},"type":"Feature","geometry":{"type":"Point","coordinates":[-76.383444,42.892416]}},{"properties":{"city":"Weedsport","all patients":1,"zip code":"13166","id":"aaqs06y071q1","lat":43.071283,"long":-76.554725},"type":"Feature","geometry":{"type":"Point","coordinates":[-76.554725,43.071283]}},{"properties":{"city":"Nedrow","all patients":1,"zip code":"13205","id":"aaqs06xwvuxb","lat":43.004838,"long":-76.142274},"type":"Feature","geometry":{"type":"Point","coordinates":[-76.142274,43.004838]}},{"properties":{"city":"Boonville","all patients":1,"zip code":"13309","id":"aaqs06tzxoar","lat":43.495722,"long":-75.311706},"type":"Feature","geometry":{"type":"Point","coordinates":[-75.311706,43.495722]}},{"properties":{"city":"New Berlin","all patients":1,"zip code":"13411","id":"aaqs06pebe2k","lat":42.632109,"long":-75.351888},"type":"Feature","geometry":{"type":"Point","coordinates":[-75.351888,42.632109]}},{"properties":{"city":"Rome","all patients":1,"zip code":"13440","id":"aaqs06mbpjg8","lat":43.228004,"long":-75.488334},"type":"Feature","geometry":{"type":"Point","coordinates":[-75.488334,43.228004]}},{"properties":{"city":"Old Forge","all patients":1,"zip code":"13472","id":"aaqs06sakdxj","lat":43.660372,"long":-74.959864},"type":"Feature","geometry":{"type":"Point","coordinates":[-74.959864,43.660372]}},{"properties":{"city":"Constableville","all patients":1,"zip code":"13489","id":"aaqs06ym0rui","lat":43.488147,"long":-75.540383},"type":"Feature","geometry":{"type":"Point","coordinates":[-75.540383,43.488147]}},{"properties":{"city":"Utica","all patients":1,"zip code":"13502","id":"aaqs06mho4i6","lat":43.14187,"long":-75.16371},"type":"Feature","geometry":{"type":"Point","coordinates":[-75.16371,43.14187]}},{"properties":{"city":"Copenhagen","all patients":1,"zip code":"13626","id":"aaqs06p5icfv","lat":43.851384,"long":-75.701415},"type":"Feature","geometry":{"type":"Point","coordinates":[-75.701415,43.851384]}},{"properties":{"city":"Evans Mills","all patients":2,"zip code":"13637","id":"aaqs06jdy3lq","lat":44.095014,"long":-75.833452},"type":"Feature","geometry":{"type":"Point","coordinates":[-75.833452,44.095014]}},{"properties":{"city":"Massena","all patients":1,"zip code":"13662","id":"aaqs06v25tc1","lat":44.902763,"long":-74.916916},"type":"Feature","geometry":{"type":"Point","coordinates":[-74.916916,44.902763]}},{"properties":{"city":"Bainbridge","all patients":2,"zip code":"13733","id":"aaqs06p7l32x","lat":42.291742,"long":-75.479339},"type":"Feature","geometry":{"type":"Point","coordinates":[-75.479339,42.291742]}},{"properties":{"city":"Candor","all patients":1,"zip code":"13743","id":"aaqs06lq06is","lat":42.22258,"long":-76.341268},"type":"Feature","geometry":{"type":"Point","coordinates":[-76.341268,42.22258]}},{"properties":{"city":"De Lancey","all patients":1,"zip code":"13752","id":"aaqs06oafiar","lat":42.19661,"long":-74.885019},"type":"Feature","geometry":{"type":"Point","coordinates":[-74.885019,42.19661]}},{"properties":{"city":"Hancock","all patients":1,"zip code":"13783","id":"aaqs06mz67n3","lat":42.007532,"long":-75.262787},"type":"Feature","geometry":{"type":"Point","coordinates":[-75.262787,42.007532]}},{"properties":{"city":"Milford","all patients":1,"zip code":"13807","id":"aaqs06nuu3ux","lat":42.598136,"long":-74.981595},"type":"Feature","geometry":{"type":"Point","coordinates":[-74.981595,42.598136]}},{"properties":{"city":"Norwich","all patients":1,"zip code":"13815","id":"aaqs06whtybd","lat":42.545587,"long":-75.533089},"type":"Feature","geometry":{"type":"Point","coordinates":[-75.533089,42.545587]}},{"properties":{"city":"Unadilla","all patients":1,"zip code":"13849","id":"aaqs06lnlgql","lat":42.350677,"long":-75.326463},"type":"Feature","geometry":{"type":"Point","coordinates":[-75.326463,42.350677]}},{"properties":{"city":"Walton","all patients":1,"zip code":"13856","id":"aaqs06lxh2zc","lat":42.168771,"long":-75.164854},"type":"Feature","geometry":{"type":"Point","coordinates":[-75.164854,42.168771]}},{"properties":{"city":"Johnson City","all patients":1,"zip code":"13905","id":"aaqs06rw7vrl","lat":42.176152,"long":-75.944132},"type":"Feature","geometry":{"type":"Point","coordinates":[-75.944132,42.176152]}},{"properties":{"city":"Springville","all patients":1,"zip code":"14055","id":"aaqs06s3uz4d","lat":42.558123,"long":-78.60177},"type":"Feature","geometry":{"type":"Point","coordinates":[-78.60177,42.558123]}},{"properties":{"city":"Buffalo","all patients":1,"zip code":"14209","id":"aaqs06lq17jk","lat":42.912104,"long":-78.862866},"type":"Feature","geometry":{"type":"Point","coordinates":[-78.862866,42.912104]}},{"properties":{"city":"Canandaigua","all patients":1,"zip code":"14424","id":"aaqs06o5yec0","lat":42.815662,"long":-77.342582},"type":"Feature","geometry":{"type":"Point","coordinates":[-77.342582,42.815662]}},{"properties":{"city":"Victor","all patients":1,"zip code":"14425","id":"aaqs06ms27nn","lat":42.992479,"long":-77.318126},"type":"Feature","geometry":{"type":"Point","coordinates":[-77.318126,42.992479]}},{"properties":{"city":"Clyde","all patients":1,"zip code":"14433","id":"aaqs06ktp96h","lat":43.082604,"long":-76.879408},"type":"Feature","geometry":{"type":"Point","coordinates":[-76.879408,43.082604]}},{"properties":{"city":"Fairport","all patients":1,"zip code":"14450","id":"aaqs06lw9m78","lat":43.091179,"long":-77.441145},"type":"Feature","geometry":{"type":"Point","coordinates":[-77.441145,43.091179]}},{"properties":{"city":"Geneseo","all patients":1,"zip code":"14454","id":"aaqs06y66nys","lat":42.778638,"long":-77.780902},"type":"Feature","geometry":{"type":"Point","coordinates":[-77.780902,42.778638]}},{"properties":{"city":"Victor","all patients":1,"zip code":"14564","id":"aaqs06zafsu9","lat":42.984298,"long":-77.425984},"type":"Feature","geometry":{"type":"Point","coordinates":[-77.425984,42.984298]}},{"properties":{"city":"Webster","all patients":1,"zip code":"14580","id":"aaqs06w5cpbh","lat":43.2136,"long":-77.455724},"type":"Feature","geometry":{"type":"Point","coordinates":[-77.455724,43.2136]}},{"properties":{"city":"Rochester","all patients":1,"zip code":"14619","id":"aaqs06szitbk","lat":43.13564,"long":-77.6494},"type":"Feature","geometry":{"type":"Point","coordinates":[-77.6494,43.13564]}},{"properties":{"city":"Avoca","all patients":1,"zip code":"14809","id":"aaqs06t4lihj","lat":42.418973,"long":-77.445401},"type":"Feature","geometry":{"type":"Point","coordinates":[-77.445401,42.418973]}},{"properties":{"city":"Bath","all patients":3,"zip code":"14810","id":"aaqs06nh4fl2","lat":42.360208,"long":-77.327423},"type":"Feature","geometry":{"type":"Point","coordinates":[-77.327423,42.360208]}},{"properties":{"city":"Ithaca","all patients":1,"zip code":"14850","id":"aaqs06p2r0gr","lat":42.431159,"long":-76.477518},"type":"Feature","geometry":{"type":"Point","coordinates":[-76.477518,42.431159]}},{"properties":{"city":"Wellsville","all patients":1,"zip code":"14895","id":"aaqs06mvkiqv","lat":42.078528,"long":-77.96924},"type":"Feature","geometry":{"type":"Point","coordinates":[-77.96924,42.078528]}},{"properties":{"city":"Elmira","all patients":1,"zip code":"14901","id":"aaqs06wa1hpv","lat":42.073242,"long":-76.748529},"type":"Feature","geometry":{"type":"Point","coordinates":[-76.748529,42.073242]}}],"is_temporal":false,"author":{"url":"","metadata":"","contact_name":"","contact_address":"","source":"","contact_phone":""},"source":"","pagination":{"sort":null,"start":0,"total":478,"limit":1000000},"state":"complete","tags":"","published":"2014-08-16T19:52:04-04:00","id":305413}