{"type":"FeatureCollection","data_type":"Dataset","url_type":null,"permissions":[{"permissions":{"download":true,"view":true},"group_id":"everyone"}],"classification":null,"title":"KCMetroActive","count":17,"stream_id":305503,"contributor":{"url":"http://geocommons.com/users/57989","name":"xkaluv"},"data_attributes":null,"calculation_params":null,"icon_link":null,"link":"http://geocommons.com/overlays/305503.json","extent":[-94.817,38.8576,-94.4197,39.2476],"geometry_types":["point"],"unique_name":null,"name":"KCMetroActive","feature_count":17,"description":"","next_feature":null,"is_raster":false,"short_classification":"Y","stats":{},"features":[{"properties":{"city":"LIBERTY","name":"KSCYMO42","zipcode":"64068","geo_score":1.0,"area":"KCMetroActive","id":"aaqybys89t0p","address":"140 N GALLATIN ST","geo_precision":"range","state":"MO"},"type":"Feature","geometry":{"type":"Point","coordinates":[-94.421363,39.247641]}},{"properties":{"city":"KANSAS CITY","name":"KSCYMO21","zipcode":"64119","geo_score":0.805,"area":"KCMetroActive","id":"aaqybyux81m6","address":"5112 NE ANTIOCH RD","geo_precision":"street","state":"MO"},"type":"Feature","geometry":{"type":"Point","coordinates":[-94.535379,39.212944]}},{"properties":{"city":"KANSAS CITY","name":"KSCYMO23","zipcode":"64151","geo_score":0.883,"area":"KCMetroActive","id":"aaqybyy59dk8","address":"6407 ROANRIDGE","geo_precision":"range","state":"MO"},"type":"Feature","geometry":{"type":"Point","coordinates":[-94.636716,39.210633]}},{"properties":{"city":"INDEPENDENCE","name":"KSCYMO22","zipcode":"64050","geo_score":0.927,"area":"KCMetroActive","id":"aaqybyuswnyy","address":"215 N SPRING AVE","geo_precision":"range","state":"MO"},"type":"Feature","geometry":{"type":"Point","coordinates":[-94.419728,39.093785]}},{"properties":{"city":"KANSAS CITY","name":"KSCYMO01","zipcode":"64127","geo_score":1.0,"area":"KCMetroActive","id":"aaqybyqb968m","address":"1123 CLEVELAND AVE","geo_precision":"range","state":"MO"},"type":"Feature","geometry":{"type":"Point","coordinates":[-94.537523,39.098638]}},{"properties":{"city":"KANSAS CITY","name":"KSCYMO41","zipcode":"64106","geo_score":0.902,"area":"KCMetroActive","id":"aaqybyw7g4b3","address":"202 E 3RD ST","geo_precision":"range","state":"MO"},"type":"Feature","geometry":{"type":"Point","coordinates":[-94.579785,39.110662]}},{"properties":{"city":"KANSAS CITY","name":"KSCYMO55","zipcode":"64106","geo_score":1.0,"area":"KCMetroActive","id":"aaqybz4sy4hb","address":"1101 MCGEE ST","geo_precision":"range","state":"MO"},"type":"Feature","geometry":{"type":"Point","coordinates":[-94.579737,39.09981]}},{"properties":{"city":"KANSAS CITY","name":"KSCYMOSW","zipcode":"64106","geo_score":1.0,"area":"KCMetroActive","id":"aaqybyu3ean9","address":"324 E 11TH ST","geo_precision":"range","state":"MO"},"type":"Feature","geometry":{"type":"Point","coordinates":[-94.578696,39.101031]}},{"properties":{"city":"KANSAS CITY","name":"KSCYKS10","zipcode":"66101","geo_score":0.74,"area":"KCMetroActive","id":"aaqybz3ayrd9","address":"901 N 10TH ST","geo_precision":"range","state":"KS"},"type":"Feature","geometry":{"type":"Point","coordinates":[-94.63255,39.106313]}},{"properties":{"city":"KANSAS CITY","name":"KSCYMO05","zipcode":"64111","geo_score":1.0,"area":"KCMetroActive","id":"aaqybyvlr2d7","address":"107 E 39TH ST","geo_precision":"range","state":"MO"},"type":"Feature","geometry":{"type":"Point","coordinates":[-94.583833,39.056419]}},{"properties":{"city":"KANSAS CITY","name":"KSCYMO02","zipcode":"64110","geo_score":1.0,"area":"KCMetroActive","id":"aaqybz1m0xjv","address":"6213 HOLMES ST","geo_precision":"range","state":"MO"},"type":"Feature","geometry":{"type":"Point","coordinates":[-94.579101,39.01356]}},{"properties":{"city":"OVERLAND PARK","name":"KSCYKSJO","zipcode":"66202","geo_score":1.0,"area":"KCMetroActive","id":"aaqybyrodkuo","address":"7400 JOHNSON DR","geo_precision":"range","state":"KS"},"type":"Feature","geometry":{"type":"Point","coordinates":[-94.672395,39.022236]}},{"properties":{"city":"OVERLAND PARK","name":"KSCYKSNA","zipcode":"66207","geo_score":0.902,"area":"KCMetroActive","id":"aaqybyxtrc9c","address":"9444 NALL AVE","geo_precision":"range","state":"KS"},"type":"Feature","geometry":{"type":"Point","coordinates":[-94.649098,38.957352]}},{"properties":{"city":"LENEXA","name":"KSCYKSLE","zipcode":"66215","geo_score":1.0,"area":"KCMetroActive","id":"aaqybyr1trnq","address":"9532 PFLUMM RD","geo_precision":"range","state":"KS"},"type":"Feature","geometry":{"type":"Point","coordinates":[-94.742289,38.956389]}},{"properties":{"city":"KANSAS CITY","name":"KSCYKSCB","zipcode":"66210","geo_score":0.88,"area":"KCMetroActive","id":"aaqybyqdqrgi","address":"8686 W COLLEGE BLVD","geo_precision":"range","state":"KS"},"type":"Feature","geometry":{"type":"Point","coordinates":[-94.685109,38.927543]}},{"properties":{"city":"KANSAS CITY","name":"KSCYKSST","zipcode":"66223","geo_score":0.929,"area":"KCMetroActive","id":"aaqybys3wkiw","address":"14969 METCALF AVE","geo_precision":"range","state":"KS"},"type":"Feature","geometry":{"type":"Point","coordinates":[-94.667717,38.857583]}},{"properties":{"city":"OLATHE","name":"KSCYKSOL","zipcode":"66061","geo_score":1.0,"area":"KCMetroActive","id":"aaqybyqynwdy","address":"114 N WATER ST","geo_precision":"range","state":"KS"},"type":"Feature","geometry":{"type":"Point","coordinates":[-94.817003,38.883317]}}],"is_temporal":false,"author":{"url":"","metadata":"","contact_name":"","contact_address":"","source":"","contact_phone":""},"source":"","pagination":{"sort":null,"start":0,"total":17,"limit":1000000},"state":"complete","tags":"","published":"2014-08-16T20:02:18-04:00","id":305503}