{"type":"FeatureCollection","data_type":"Dataset","url_type":null,"permissions":[{"permissions":{"download":true,"view":true},"group_id":"everyone"}],"classification":null,"title":"HA Sales Data for Map 2012","count":568,"stream_id":306494,"contributor":{"url":"http://geocommons.com/users/57814","name":"jddaniel21"},"data_attributes":null,"calculation_params":null,"icon_link":null,"link":"http://geocommons.com/overlays/306494.json","extent":[-123.083,25.8257,-71.0426,48.2291],"geometry_types":["point"],"unique_name":null,"name":"HA Sales Data for Map 2012","feature_count":568,"description":"","next_feature":null,"is_raster":false,"short_classification":"Y","stats":{"qty":{"max":20,"mean":1.22535211267606,"variance":1.12373003452816,"stdev":1.06006133526705,"median":1,"min":1},"sales amount":{"max":108060.0,"mean":16836.0112852113,"variance":380567726.004752,"stdev":19508.1451195328,"median":8145.0,"min":2381.9},"year":{"max":2012,"mean":2012.0,"variance":0.0,"stdev":0.0,"median":2012,"min":2012}},"features":[{"properties":{"qty":1,"city":"WATERLOO","zipcode":"50702","country":"US","geo_score":0.935,"sales amount":2381.9,"year":2012,"id":"aaugbxb5tol5","address":"324 WEST 15TH STREET","geo_precision":"range","state":"IA"},"type":"Feature","geometry":{"type":"Point","coordinates":[-92.3298,42.486193]}},{"properties":{"qty":1,"city":"ELIZABETHTOWN","zipcode":"42701","country":"US","geo_score":0.762,"sales amount":2400.46,"year":2012,"id":"aaugbx711lzw","address":"400 PRODUCTION COURT","geo_precision":"street","state":"KY"},"type":"Feature","geometry":{"type":"Point","coordinates":[-85.838336,37.658029]}},{"properties":{"qty":1,"city":"WATERLOO","zipcode":"50702","country":"US","geo_score":0.935,"sales amount":2430.0,"year":2012,"id":"aaugbxcw7ve6","address":"324 WEST 15TH STREET","geo_precision":"range","state":"IA"},"type":"Feature","geometry":{"type":"Point","coordinates":[-92.3298,42.486193]}},{"properties":{"qty":1,"city":"CINCINNATI","zipcode":"45215","country":"US","geo_score":1.0,"sales amount":2430.0,"year":2012,"id":"aaugbx079lp5","address":"712 SHEPHERD AVE","geo_precision":"range","state":"OH"},"type":"Feature","geometry":{"type":"Point","coordinates":[-84.447933,39.234748]}},{"properties":{"qty":1,"city":"RICHFIELD","zipcode":"44286","country":"US","geo_score":0.585,"sales amount":2430.0,"year":2012,"id":"aaugbx5ysvcn","address":"3942 BRECKSVILLE RD","geo_precision":"zip","state":"OH"},"type":"Feature","geometry":{"type":"Point","coordinates":[-81.655124,41.239499]}},{"properties":{"qty":1,"city":"RICHFIELD","zipcode":"44286","country":"US","geo_score":0.585,"sales amount":2430.0,"year":2012,"id":"aaugbxakuuvb","address":"3942 BRECKSVILLE RD","geo_precision":"zip","state":"OH"},"type":"Feature","geometry":{"type":"Point","coordinates":[-81.655124,41.239499]}},{"properties":{"qty":1,"city":"ELIZABETHTOWN","zipcode":"42701","country":"US","geo_score":0.762,"sales amount":3133.81,"year":2012,"id":"aaugbwydijny","address":"400 PRODUCTION COURT","geo_precision":"street","state":"KY"},"type":"Feature","geometry":{"type":"Point","coordinates":[-85.838336,37.658029]}},{"properties":{"qty":1,"city":"EAST PEORIA","zipcode":"61611","country":"US","geo_score":0.619,"sales amount":3213.99,"year":2012,"id":"aaugbx16pbsc","address":"3407 N. MAIN ST","geo_precision":"street","state":"IL"},"type":"Feature","geometry":{"type":"Point","coordinates":[-89.581773,40.664733]}},{"properties":{"qty":1,"city":"NORTH ANDOVER","zipcode":"01845","country":"US","geo_score":0.789,"sales amount":3213.99,"year":2012,"id":"aaugbx3b2pyl","address":"15 SHARPNERS POND ROAD","geo_precision":"street","state":"MA"},"type":"Feature","geometry":{"type":"Point","coordinates":[-71.042648,42.633289]}},{"properties":{"qty":1,"city":"NORTH ANDOVER","zipcode":"01845","country":"US","geo_score":0.789,"sales amount":3213.99,"year":2012,"id":"aaugbx1df92m","address":"15 SHARPNERS POND ROAD","geo_precision":"street","state":"MA"},"type":"Feature","geometry":{"type":"Point","coordinates":[-71.042648,42.633289]}},{"properties":{"qty":1,"city":"ELIZABETHTOWN","zipcode":"42701","country":"US","geo_score":0.762,"sales amount":3298.75,"year":2012,"id":"aaugbx5s8oh5","address":"400 PRODUCTION COURT","geo_precision":"street","state":"KY"},"type":"Feature","geometry":{"type":"Point","coordinates":[-85.838336,37.658029]}},{"properties":{"qty":1,"city":"LEES SUMMIT","zipcode":"64086","country":"US","geo_score":1.0,"sales amount":3300.0,"year":2012,"id":"aaugbx5ak3w7","address":"1300 NE DOUGLAS STREET","geo_precision":"range","state":"MO"},"type":"Feature","geometry":{"type":"Point","coordinates":[-94.378615,38.935099]}},{"properties":{"qty":1,"city":"O'FALLON","zipcode":"63366","country":"US","geo_score":0.837,"sales amount":3363.0,"year":2012,"id":"aaugbx1p5m34","address":"705 WOODLAWN AVE","geo_precision":"street","state":"MO"},"type":"Feature","geometry":{"type":"Point","coordinates":[-90.705092,38.803105]}},{"properties":{"qty":1,"city":"PISCATAWAY","zipcode":"08855","country":"US","geo_score":0.805,"sales amount":3407.4,"year":2012,"id":"aaugbx0outuk","address":"833 CENTENNIAL AVENUE","geo_precision":"range","state":"NJ"},"type":"Feature","geometry":{"type":"Point","coordinates":[-74.486012,40.5494]}},{"properties":{"qty":1,"city":"LEXINGTON","zipcode":"40510","country":"US","geo_score":1.0,"sales amount":3474.85,"year":2012,"id":"aaugbwzdiywu","address":"2180 OLD FRANKFORT PIKE","geo_precision":"range","state":"KY"},"type":"Feature","geometry":{"type":"Point","coordinates":[-84.551974,38.065476]}},{"properties":{"qty":1,"city":"LANSING","zipcode":"48906","country":"US","geo_score":0.914,"sales amount":3519.75,"year":2012,"id":"aaugbxbq3lwp","address":"3600 N GRAND RIVER RD","geo_precision":"range","state":"MI"},"type":"Feature","geometry":{"type":"Point","coordinates":[-84.582486,42.764459]}},{"properties":{"qty":1,"city":"COLUMBUS","zipcode":"43207","country":"US","geo_score":0.607,"sales amount":3519.75,"year":2012,"id":"aaugbx11ia2l","address":"65 E. KINGSTON AVE.","geo_precision":"street","state":"OH"},"type":"Feature","geometry":{"type":"Point","coordinates":[-82.995386,39.918445]}},{"properties":{"qty":1,"city":"COLUMBUS","zipcode":"43207","country":"US","geo_score":0.607,"sales amount":3519.75,"year":2012,"id":"aaugbx0wlqv0","address":"50 E. KINGSTON AVE.","geo_precision":"street","state":"OH"},"type":"Feature","geometry":{"type":"Point","coordinates":[-82.995386,39.918445]}},{"properties":{"qty":1,"city":"COLUMBUS","zipcode":"43207","country":"US","geo_score":0.607,"sales amount":3519.75,"year":2012,"id":"aaugbx80u16j","address":"50 E. KINGSTON AVE.","geo_precision":"street","state":"OH"},"type":"Feature","geometry":{"type":"Point","coordinates":[-82.995386,39.918445]}},{"properties":{"qty":1,"city":"COLUMBUS","zipcode":"43207","country":"US","geo_score":0.607,"sales amount":3519.75,"year":2012,"id":"aaugbx5il0u9","address":"50 E. KINGSTON AVE.","geo_precision":"street","state":"OH"},"type":"Feature","geometry":{"type":"Point","coordinates":[-82.995386,39.918445]}},{"properties":{"qty":1,"city":"COLUMBUS","zipcode":"43207","country":"US","geo_score":0.607,"sales amount":3519.75,"year":2012,"id":"aaugbx961t07","address":"50 E. KINGSTON AVE.","geo_precision":"street","state":"OH"},"type":"Feature","geometry":{"type":"Point","coordinates":[-82.995386,39.918445]}},{"properties":{"qty":1,"city":"COLUMBUS","zipcode":"43207","country":"US","geo_score":0.607,"sales amount":3519.75,"year":2012,"id":"aaugbx7d7dbg","address":"50 E. KINGSTON AVE","geo_precision":"street","state":"OH"},"type":"Feature","geometry":{"type":"Point","coordinates":[-82.995386,39.918445]}},{"properties":{"qty":1,"city":"TROY","zipcode":"36079","country":"US","geo_score":0.807,"sales amount":3570.0,"year":2012,"id":"aaugbxb4jfan","address":"1220 HENDERSON HWY","geo_precision":"street","state":"AL"},"type":"Feature","geometry":{"type":"Point","coordinates":[-86.004691,31.774911]}},{"properties":{"qty":1,"city":"MONROE","zipcode":"98272","country":"US","geo_score":1.0,"sales amount":3570.0,"year":2012,"id":"aaugbx18k48o","address":"1130 VILLAGE WAY","geo_precision":"range","state":"WA"},"type":"Feature","geometry":{"type":"Point","coordinates":[-121.985976,47.849945]}},{"properties":{"qty":1,"city":"CHEYENNE","zipcode":"82007","country":"US","geo_score":0.39,"sales amount":3570.0,"year":2012,"id":"aaugbx1ixt26","address":"6335 Clear Creek Parkway","geo_precision":"street","state":"WY"},"type":"Feature","geometry":{"type":"Point","coordinates":[-104.762232,41.161842]}},{"properties":{"qty":1,"city":"CHEYENNE","zipcode":"82007","country":"US","geo_score":0.39,"sales amount":3570.0,"year":2012,"id":"aaugbx7yo02b","address":"6335 Clear Creek Parkway","geo_precision":"street","state":"WY"},"type":"Feature","geometry":{"type":"Point","coordinates":[-104.762232,41.161842]}},{"properties":{"qty":1,"city":"COLUMBUS","zipcode":"43207","country":"US","geo_score":0.607,"sales amount":3674.72,"year":2012,"id":"aaugbx0lctfm","address":"50 E. KINGSTON AVE.","geo_precision":"street","state":"OH"},"type":"Feature","geometry":{"type":"Point","coordinates":[-82.995386,39.918445]}},{"properties":{"qty":1,"city":"NORTH PLAINS","zipcode":"97133","country":"US","geo_score":1.0,"sales amount":3736.8,"year":2012,"id":"aaugbwyxq33e","address":"26000 NW BUMP ROAD","geo_precision":"range","state":"OR"},"type":"Feature","geometry":{"type":"Point","coordinates":[-123.083256,45.710004]}},{"properties":{"qty":1,"city":"FAIRFIELD","zipcode":"94534","country":"US","geo_score":0.862,"sales amount":3738.0,"year":2012,"id":"aaugbx86n747","address":"5170 FULTON DR SUITE 2","geo_precision":"range","state":"CA"},"type":"Feature","geometry":{"type":"Point","coordinates":[-122.142763,38.207201]}},{"properties":{"qty":1,"city":"CHESTERFIELD","zipcode":"63005","country":"US","geo_score":0.688,"sales amount":3738.0,"year":2012,"id":"aaugbx5ugmlt","address":"621 SPRIRT VALLEY EAST","geo_precision":"street","state":"MO"},"type":"Feature","geometry":{"type":"Point","coordinates":[-90.617824,38.646921]}},{"properties":{"qty":1,"city":"MONROE","zipcode":"98272","country":"US","geo_score":1.0,"sales amount":3738.0,"year":2012,"id":"aaugbx59gkai","address":"1144 VILLAGE WAY","geo_precision":"range","state":"WA"},"type":"Feature","geometry":{"type":"Point","coordinates":[-121.98589,47.84947]}},{"properties":{"qty":1,"city":"LEES SUMMIT","zipcode":"64086","country":"US","geo_score":1.0,"sales amount":3780.0,"year":2012,"id":"aaugbxbhg93e","address":"1300 NE DOUGLAS STREET","geo_precision":"range","state":"MO"},"type":"Feature","geometry":{"type":"Point","coordinates":[-94.378615,38.935099]}},{"properties":{"qty":1,"city":"TACOMA","zipcode":"98421","country":"US","geo_score":0.643,"sales amount":3780.0,"year":2012,"id":"aaugbwyrqyt5","address":"C/O:CARLILE TRANSPORTATION","geo_precision":"street","state":"WA"},"type":"Feature","geometry":{"type":"Point","coordinates":[-122.43077,47.239503]}},{"properties":{"qty":1,"city":"BOERNE","zipcode":"78006","country":"US","geo_score":0.861,"sales amount":3896.15,"year":2012,"id":"aaugbx2il0yt","address":"29880 I-10 WEST","geo_precision":"street","state":"TX"},"type":"Feature","geometry":{"type":"Point","coordinates":[-98.68792,29.738588]}},{"properties":{"qty":1,"city":"BOERNE","zipcode":"78006","country":"US","geo_score":0.861,"sales amount":3896.15,"year":2012,"id":"aaugbxdqauce","address":"29880 I-10 WEST","geo_precision":"street","state":"TX"},"type":"Feature","geometry":{"type":"Point","coordinates":[-98.68792,29.738588]}},{"properties":{"qty":1,"city":"BOERNE","zipcode":"78006","country":"US","geo_score":0.861,"sales amount":3896.15,"year":2012,"id":"aaugbx6hlzba","address":"29880 I-10 WEST","geo_precision":"street","state":"TX"},"type":"Feature","geometry":{"type":"Point","coordinates":[-98.68792,29.738588]}},{"properties":{"qty":1,"city":"BOERNE","zipcode":"78006","country":"US","geo_score":0.861,"sales amount":3896.15,"year":2012,"id":"aaugbx78xtm2","address":"29880 I-10 WEST","geo_precision":"street","state":"TX"},"type":"Feature","geometry":{"type":"Point","coordinates":[-98.68792,29.738588]}},{"properties":{"qty":1,"city":"PELLA","zipcode":"50219","country":"US","geo_score":0.357,"sales amount":3990.0,"year":2012,"id":"aaugbxc7jyiv","address":"TRENCHLESS PRODUCT GROUP","geo_precision":"street","state":"IA"},"type":"Feature","geometry":{"type":"Point","coordinates":[-93.17324,42.280118]}},{"properties":{"qty":1,"city":"PELLA","zipcode":"50219","country":"US","geo_score":0.707,"sales amount":3990.0,"year":2012,"id":"aaugbwzl242w","address":"2010 VERMEER RD EAST PLT #7","geo_precision":"range","state":"IA"},"type":"Feature","geometry":{"type":"Point","coordinates":[-92.898516,41.407267]}},{"properties":{"qty":1,"city":"PELLA","zipcode":"50219","country":"US","geo_score":0.857,"sales amount":3990.0,"year":2012,"id":"aaugbxdb5yia","address":"ATTN: LACEY ROORDA","geo_precision":"zip","state":"IA"},"type":"Feature","geometry":{"type":"Point","coordinates":[-92.801306,41.461943]}},{"properties":{"qty":1,"city":"PELLA","zipcode":"50219","country":"US","geo_score":0.857,"sales amount":3990.0,"year":2012,"id":"aaugbx00l7a7","address":"ATTN: LACEY ROORDA","geo_precision":"zip","state":"IA"},"type":"Feature","geometry":{"type":"Point","coordinates":[-92.801306,41.461943]}},{"properties":{"qty":1,"city":"PELLA","zipcode":"50219","country":"US","geo_score":0.857,"sales amount":3990.0,"year":2012,"id":"aaugbwy4hljy","address":"ATTN: LACEY ROORDA","geo_precision":"zip","state":"IA"},"type":"Feature","geometry":{"type":"Point","coordinates":[-92.801306,41.461943]}},{"properties":{"qty":1,"city":"PELLA","zipcode":"50219","country":"US","geo_score":0.357,"sales amount":3990.0,"year":2012,"id":"aaugbx7jjbfb","address":"TRENCHLESS PRODUCT GROUP","geo_precision":"street","state":"IA"},"type":"Feature","geometry":{"type":"Point","coordinates":[-93.17324,42.280118]}},{"properties":{"qty":1,"city":"PELLA","zipcode":"50219","country":"US","geo_score":0.357,"sales amount":3990.0,"year":2012,"id":"aaugbx8rnw4m","address":"TRENCHLESS PRODUCT GROUP","geo_precision":"street","state":"IA"},"type":"Feature","geometry":{"type":"Point","coordinates":[-93.17324,42.280118]}},{"properties":{"qty":1,"city":"COLUMBUS","zipcode":"43207","country":"US","geo_score":0.607,"sales amount":4027.05,"year":2012,"id":"aaugbxconr18","address":"50 E. KINGSTON AVE.","geo_precision":"street","state":"OH"},"type":"Feature","geometry":{"type":"Point","coordinates":[-82.995386,39.918445]}},{"properties":{"qty":1,"city":"COLUMBUS","zipcode":"43207","country":"US","geo_score":0.607,"sales amount":4027.05,"year":2012,"id":"aaugbx88bllx","address":"50 E. KINGSTON AVE.","geo_precision":"street","state":"OH"},"type":"Feature","geometry":{"type":"Point","coordinates":[-82.995386,39.918445]}},{"properties":{"qty":1,"city":"SOUTH WINDSOR","zipcode":"06074","country":"US","geo_score":0.958,"sales amount":4095.0,"year":2012,"id":"aaugbxd2686n","address":"187 SATELLITE ROAD","geo_precision":"range","state":"CT"},"type":"Feature","geometry":{"type":"Point","coordinates":[-72.600657,41.822909]}},{"properties":{"qty":1,"city":"OSAGE BEACH","zipcode":"65065","country":"US","geo_score":0.78,"sales amount":4128.57,"year":2012,"id":"aaugbx22g4eg","address":"5635 HIGHWAY 54","geo_precision":"range","state":"MO"},"type":"Feature","geometry":{"type":"Point","coordinates":[-92.666914,38.126675]}},{"properties":{"qty":1,"city":"BOWLING GREEN","zipcode":"42103","country":"US","geo_score":1.0,"sales amount":4236.0,"year":2012,"id":"aaugbx858juf","address":"1046 LOVERS LANE","geo_precision":"range","state":"KY"},"type":"Feature","geometry":{"type":"Point","coordinates":[-86.421927,36.954281]}},{"properties":{"qty":1,"city":"FORT WAYNE","zipcode":"46809","country":"US","geo_score":0.927,"sales amount":4239.0,"year":2012,"id":"aaugbx8lljlc","address":"3911 LIMESTONE","geo_precision":"range","state":"IN"},"type":"Feature","geometry":{"type":"Point","coordinates":[-85.187992,41.020336]}},{"properties":{"qty":1,"city":"LENOX","zipcode":"48050","country":"US","geo_score":0.424,"sales amount":4239.0,"year":2012,"id":"aaugbxc1be8j","address":"65809 GATIOT AVE","geo_precision":"street","state":"MI"},"type":"Feature","geometry":{"type":"Point","coordinates":[-82.714303,42.696878]}},{"properties":{"qty":1,"city":"MURRAY","zipcode":"84107","country":"US","geo_score":0.625,"sales amount":4326.0,"year":2012,"id":"aaugbx8p676v","address":"4231 S. State Street","geo_precision":"street","state":"UT"},"type":"Feature","geometry":{"type":"Point","coordinates":[-111.888249,40.68701]}},{"properties":{"qty":1,"city":"SUN PRAIRIE","zipcode":"53590","country":"US","geo_score":1.0,"sales amount":4326.0,"year":2012,"id":"aaugbx3aqfaw","address":"1900 WEST MAIN STREET","geo_precision":"range","state":"WI"},"type":"Feature","geometry":{"type":"Point","coordinates":[-89.24658,43.176306]}},{"properties":{"qty":1,"city":"LEXINGTON","zipcode":"40509","country":"US","geo_score":1.0,"sales amount":4332.84,"year":2012,"id":"aaugbx24bqsg","address":"2150 TRADE CENTER DRIVE","geo_precision":"range","state":"KY"},"type":"Feature","geometry":{"type":"Point","coordinates":[-84.450485,38.036224]}},{"properties":{"qty":1,"city":"OSAGE BEACH","zipcode":"65065","country":"US","geo_score":0.78,"sales amount":4571.0,"year":2012,"id":"aaugbwzkeklj","address":"5635 HIGHWAY 54","geo_precision":"range","state":"MO"},"type":"Feature","geometry":{"type":"Point","coordinates":[-92.666914,38.126675]}},{"properties":{"qty":1,"city":"MANASSAS","zipcode":"20109","country":"US","geo_score":1.0,"sales amount":4571.0,"year":2012,"id":"aaugbx8w4qp1","address":"12391 RANDOLPH RIDGE LN","geo_precision":"range","state":"VA"},"type":"Feature","geometry":{"type":"Point","coordinates":[-77.560453,38.790127]}},{"properties":{"qty":1,"city":"MANASSAS","zipcode":"20109","country":"US","geo_score":1.0,"sales amount":4571.0,"year":2012,"id":"aaugbx1eejtx","address":"12391 RANDOLPH RIDGE LN","geo_precision":"range","state":"VA"},"type":"Feature","geometry":{"type":"Point","coordinates":[-77.560453,38.790127]}},{"properties":{"qty":1,"city":"ATLANTA","zipcode":"30336","country":"US","geo_score":1.0,"sales amount":4635.32,"year":2012,"id":"aaugbxa4pdl4","address":"4500 WENDELL DRIVE SW","geo_precision":"range","state":"GA"},"type":"Feature","geometry":{"type":"Point","coordinates":[-84.52608,33.769225]}},{"properties":{"qty":1,"city":"MABELVALE","zipcode":"72103","country":"US","geo_score":0.763,"sales amount":4705.5,"year":2012,"id":"aaugbxeap05i","address":"11618 OTTER CREEK SOUTH","geo_precision":"street","state":"AR"},"type":"Feature","geometry":{"type":"Point","coordinates":[-92.411189,34.655778]}},{"properties":{"qty":1,"city":"MABELVALE","zipcode":"72103","country":"US","geo_score":0.763,"sales amount":4705.5,"year":2012,"id":"aaugbxaqht73","address":"11618 OTTER CREEK SOUTH","geo_precision":"street","state":"AR"},"type":"Feature","geometry":{"type":"Point","coordinates":[-92.411189,34.655778]}},{"properties":{"qty":1,"city":"PINE BLUFF","zipcode":"71602","country":"US","geo_score":0.854,"sales amount":4705.5,"year":2012,"id":"aaugbx1lxl9u","address":"6520 WEST BARRAQUE","geo_precision":"range","state":"AR"},"type":"Feature","geometry":{"type":"Point","coordinates":[-92.074783,34.228917]}},{"properties":{"qty":1,"city":"FORT SMITH","zipcode":"72901","country":"US","geo_score":1.0,"sales amount":4705.5,"year":2012,"id":"aaugbx8a48yi","address":"3616 TOWSON AVENUE","geo_precision":"range","state":"AR"},"type":"Feature","geometry":{"type":"Point","coordinates":[-94.422409,35.348825]}},{"properties":{"qty":1,"city":"BLYTHEVILLE","zipcode":"72315","country":"US","geo_score":0.539,"sales amount":4705.5,"year":2012,"id":"aaugbxegwdsl","address":"4885 NORTH COUNTY ROAD 773","geo_precision":"street","state":"AR"},"type":"Feature","geometry":{"type":"Point","coordinates":[-89.884715,35.924285]}},{"properties":{"qty":1,"city":"RIVERSIDE","zipcode":"92507","country":"US","geo_score":0.607,"sales amount":4705.5,"year":2012,"id":"aaugbwyotb86","address":"520 E. LA CADENA DRIVE","geo_precision":"street","state":"CA"},"type":"Feature","geometry":{"type":"Point","coordinates":[-117.361783,33.987184]}},{"properties":{"qty":1,"city":"SANTA ANA","zipcode":"92705","country":"US","geo_score":1.0,"sales amount":4705.5,"year":2012,"id":"aaugbxdaho99","address":"1000 SOUTH GRAND AVENUE","geo_precision":"range","state":"CA"},"type":"Feature","geometry":{"type":"Point","coordinates":[-117.850347,33.736653]}},{"properties":{"qty":1,"city":"SUN VALLEY","zipcode":"91352","country":"US","geo_score":1.0,"sales amount":4705.5,"year":2012,"id":"aaugbx3saz7u","address":"8450 HADDON AVE","geo_precision":"range","state":"CA"},"type":"Feature","geometry":{"type":"Point","coordinates":[-118.390053,34.224581]}},{"properties":{"qty":1,"city":"TEMECULA","zipcode":"92590","country":"US","geo_score":0.5,"sales amount":4705.5,"year":2012,"id":"aaugbx6pugp7","address":"28377 FELIX VALDEZ AVE","geo_precision":"street","state":"CA"},"type":"Feature","geometry":{"type":"Point","coordinates":[-117.435599,33.987809]}},{"properties":{"qty":1,"city":"RIVERSIDE","zipcode":"92507","country":"US","geo_score":0.607,"sales amount":4705.5,"year":2012,"id":"aaugbx5jn6js","address":"520 E. LA CADENA DRIVE","geo_precision":"street","state":"CA"},"type":"Feature","geometry":{"type":"Point","coordinates":[-117.361783,33.987184]}},{"properties":{"qty":1,"city":"RIVERSIDE","zipcode":"92507","country":"US","geo_score":0.607,"sales amount":4705.5,"year":2012,"id":"aaugbx9vch7t","address":"520 E. LA CADENA DRIVE","geo_precision":"street","state":"CA"},"type":"Feature","geometry":{"type":"Point","coordinates":[-117.361783,33.987184]}},{"properties":{"qty":1,"city":"BAKERSFIELD","zipcode":"93308","country":"US","geo_score":0.878,"sales amount":4705.5,"year":2012,"id":"aaugbxde8yq9","address":"4117 ROSEDALE HWY","geo_precision":"range","state":"CA"},"type":"Feature","geometry":{"type":"Point","coordinates":[-119.054214,35.38336]}},{"properties":{"qty":1,"city":"LONG BEACH","zipcode":"90806","country":"US","geo_score":0.61,"sales amount":4705.5,"year":2012,"id":"aaugbwzhcbyr","address":"2900 E. SPRING ST","geo_precision":"street","state":"CA"},"type":"Feature","geometry":{"type":"Point","coordinates":[-118.191704,33.81165]}},{"properties":{"qty":1,"city":"SANTA ANA","zipcode":"92705","country":"US","geo_score":1.0,"sales amount":4705.5,"year":2012,"id":"aaugbx71njac","address":"1000 SOUTH GRAND AVENUE","geo_precision":"range","state":"CA"},"type":"Feature","geometry":{"type":"Point","coordinates":[-117.850347,33.736653]}},{"properties":{"qty":1,"city":"SUN VALLEY","zipcode":"91352","country":"US","geo_score":1.0,"sales amount":4705.5,"year":2012,"id":"aaugbxdrcbo2","address":"8450 HADDON AVE","geo_precision":"range","state":"CA"},"type":"Feature","geometry":{"type":"Point","coordinates":[-118.390053,34.224581]}},{"properties":{"qty":1,"city":"NEW BRITAIN","zipcode":"06052","country":"US","geo_score":1.0,"sales amount":4705.5,"year":2012,"id":"aaugbxbenc54","address":"60 WOOSTER STREET","geo_precision":"range","state":"CT"},"type":"Feature","geometry":{"type":"Point","coordinates":[-72.816774,41.666453]}},{"properties":{"qty":1,"city":"SIOUX CITY","zipcode":"51106","country":"US","geo_score":0.619,"sales amount":4705.5,"year":2012,"id":"aaugbx5o29c5","address":"4700 S. YORK STREET","geo_precision":"street","state":"IA"},"type":"Feature","geometry":{"type":"Point","coordinates":[-96.372222,42.434512]}},{"properties":{"qty":1,"city":"MUSCATINE","zipcode":"52761","country":"US","geo_score":1.0,"sales amount":4705.5,"year":2012,"id":"aaugbwzy2vub","address":"1303 WASHINGTON STREET","geo_precision":"range","state":"IA"},"type":"Feature","geometry":{"type":"Point","coordinates":[-91.035124,41.434997]}},{"properties":{"qty":1,"city":"MUSCATINE","zipcode":"52761","country":"US","geo_score":1.0,"sales amount":4705.5,"year":2012,"id":"aaugbx3k9a2t","address":"1303 WASHINGTON STREET","geo_precision":"range","state":"IA"},"type":"Feature","geometry":{"type":"Point","coordinates":[-91.035124,41.434997]}},{"properties":{"qty":1,"city":"EAST PEORIA","zipcode":"61611","country":"US","geo_score":0.619,"sales amount":4705.5,"year":2012,"id":"aaugbx3bvij3","address":"3407 N. MAIN ST","geo_precision":"street","state":"IL"},"type":"Feature","geometry":{"type":"Point","coordinates":[-89.581773,40.664733]}},{"properties":{"qty":1,"city":"EAST PEORIA","zipcode":"61611","country":"US","geo_score":0.619,"sales amount":4705.5,"year":2012,"id":"aaugbxanlg7o","address":"3407 N. MAIN ST","geo_precision":"street","state":"IL"},"type":"Feature","geometry":{"type":"Point","coordinates":[-89.581773,40.664733]}},{"properties":{"qty":1,"city":"MOLINE","zipcode":"61265","country":"US","geo_score":0.916,"sales amount":4705.5,"year":2012,"id":"aaugbx4r691x","address":"3913 24TH STREET","geo_precision":"range","state":"IL"},"type":"Feature","geometry":{"type":"Point","coordinates":[-90.504243,41.472344]}},{"properties":{"qty":1,"city":"DEKALB","zipcode":"60115","country":"US","geo_score":0.61,"sales amount":4705.5,"year":2012,"id":"aaugbwys7itt","address":"1845 E. LINCOLN HIGHWAY","geo_precision":"street","state":"IL"},"type":"Feature","geometry":{"type":"Point","coordinates":[-88.765727,41.931909]}},{"properties":{"qty":1,"city":"QUINCY","zipcode":"62305","country":"US","geo_score":0.89,"sales amount":4705.5,"year":2012,"id":"aaugbx7i74sk","address":"3639 MAINE","geo_precision":"range","state":"IL"},"type":"Feature","geometry":{"type":"Point","coordinates":[-91.357641,39.931687]}},{"properties":{"qty":1,"city":"OLATHE","zipcode":"66062","country":"US","geo_score":1.0,"sales amount":4705.5,"year":2012,"id":"aaugbx5gjfn1","address":"11615 S ROGERS ROAD","geo_precision":"range","state":"KS"},"type":"Feature","geometry":{"type":"Point","coordinates":[-94.764389,38.918317]}},{"properties":{"qty":1,"city":"GONZALES","zipcode":"70737","country":"US","geo_score":0.659,"sales amount":4705.5,"year":2012,"id":"aaugbx805idv","address":"38385 HIGHWAY 30","geo_precision":"range","state":"LA"},"type":"Feature","geometry":{"type":"Point","coordinates":[-90.961263,30.210532]}},{"properties":{"qty":1,"city":"GONZALES","zipcode":"70737","country":"US","geo_score":0.659,"sales amount":4705.5,"year":2012,"id":"aaugbx26fx3s","address":"38385 HIGHWAY 30","geo_precision":"range","state":"LA"},"type":"Feature","geometry":{"type":"Point","coordinates":[-90.961263,30.210532]}},{"properties":{"qty":1,"city":"GONZALES","zipcode":"70737","country":"US","geo_score":0.659,"sales amount":4705.5,"year":2012,"id":"aaugbxag5nc5","address":"38385 HIGHWAY 30","geo_precision":"range","state":"LA"},"type":"Feature","geometry":{"type":"Point","coordinates":[-90.961263,30.210532]}},{"properties":{"qty":1,"city":"GONZALES","zipcode":"70737","country":"US","geo_score":0.659,"sales amount":4705.5,"year":2012,"id":"aaugbx14vzfq","address":"38385 HIGHWAY 30","geo_precision":"range","state":"LA"},"type":"Feature","geometry":{"type":"Point","coordinates":[-90.961263,30.210532]}},{"properties":{"qty":1,"city":"FORESTVILLE","zipcode":"20747","country":"US","geo_score":1.0,"sales amount":4705.5,"year":2012,"id":"aaugbx32eh12","address":"8200 CRYDEN WAY","geo_precision":"range","state":"MD"},"type":"Feature","geometry":{"type":"Point","coordinates":[-76.86575,38.847968]}},{"properties":{"qty":1,"city":"FORESTVILLE","zipcode":"20747","country":"US","geo_score":1.0,"sales amount":4705.5,"year":2012,"id":"aaugbx210doj","address":"8200 CRYDEN WAY","geo_precision":"range","state":"MD"},"type":"Feature","geometry":{"type":"Point","coordinates":[-76.86575,38.847968]}},{"properties":{"qty":1,"city":"FORESTVILLE","zipcode":"20747","country":"US","geo_score":1.0,"sales amount":4705.5,"year":2012,"id":"aaugbx842miu","address":"8200 CRYDEN WAY","geo_precision":"range","state":"MD"},"type":"Feature","geometry":{"type":"Point","coordinates":[-76.86575,38.847968]}},{"properties":{"qty":1,"city":"FORESTVILLE","zipcode":"20747","country":"US","geo_score":1.0,"sales amount":4705.5,"year":2012,"id":"aaugbx6c2f16","address":"8200 CRYDEN WAY","geo_precision":"range","state":"MD"},"type":"Feature","geometry":{"type":"Point","coordinates":[-76.86575,38.847968]}},{"properties":{"qty":1,"city":"FORESTVILLE","zipcode":"20747","country":"US","geo_score":1.0,"sales amount":4705.5,"year":2012,"id":"aaugbx3m1mub","address":"8200 CRYDEN WAY","geo_precision":"range","state":"MD"},"type":"Feature","geometry":{"type":"Point","coordinates":[-76.86575,38.847968]}},{"properties":{"qty":1,"city":"FORESTVILLE","zipcode":"20747","country":"US","geo_score":1.0,"sales amount":4705.5,"year":2012,"id":"aaugbwzo0635","address":"8200 CRYDEN WAY","geo_precision":"range","state":"MD"},"type":"Feature","geometry":{"type":"Point","coordinates":[-76.86575,38.847968]}},{"properties":{"qty":1,"city":"FORESTVILLE","zipcode":"20747","country":"US","geo_score":1.0,"sales amount":4705.5,"year":2012,"id":"aaugbxdkbn0z","address":"8200 CRYDEN WAY","geo_precision":"range","state":"MD"},"type":"Feature","geometry":{"type":"Point","coordinates":[-76.86575,38.847968]}},{"properties":{"qty":1,"city":"FORESTVILLE","zipcode":"20747","country":"US","geo_score":1.0,"sales amount":4705.5,"year":2012,"id":"aaugbx8eav8x","address":"8200 CRYDEN WAY","geo_precision":"range","state":"MD"},"type":"Feature","geometry":{"type":"Point","coordinates":[-76.86575,38.847968]}},{"properties":{"qty":1,"city":"FORESTVILLE","zipcode":"20747","country":"US","geo_score":1.0,"sales amount":4705.5,"year":2012,"id":"aaugbxck3aer","address":"8200 CRYDEN WAY","geo_precision":"range","state":"MD"},"type":"Feature","geometry":{"type":"Point","coordinates":[-76.86575,38.847968]}},{"properties":{"qty":1,"city":"FORESTVILLE","zipcode":"20747","country":"US","geo_score":1.0,"sales amount":4705.5,"year":2012,"id":"aaugbxausv31","address":"8200 CRYDEN WAY","geo_precision":"range","state":"MD"},"type":"Feature","geometry":{"type":"Point","coordinates":[-76.86575,38.847968]}},{"properties":{"qty":1,"city":"OAKDALE","zipcode":"55128","country":"US","geo_score":1.0,"sales amount":4705.5,"year":2012,"id":"aaugbx5x3us4","address":"6740 HUDSON BLVD","geo_precision":"range","state":"MN"},"type":"Feature","geometry":{"type":"Point","coordinates":[-92.971458,44.949084]}},{"properties":{"qty":1,"city":"BURNSVILLE","zipcode":"55337","country":"US","geo_score":0.769,"sales amount":4705.5,"year":2012,"id":"aaugbx2vadj8","address":"3750 HIGHWAY 13 WEST","geo_precision":"street","state":"MN"},"type":"Feature","geometry":{"type":"Point","coordinates":[-93.214541,44.817485]}},{"properties":{"qty":1,"city":"HIBBING","zipcode":"55746","country":"US","geo_score":0.837,"sales amount":4705.5,"year":2012,"id":"aaugbx3jzcub","address":"1226 EAST 16TH AVENUE","geo_precision":"range","state":"MN"},"type":"Feature","geometry":{"type":"Point","coordinates":[-92.927231,47.431378]}},{"properties":{"qty":1,"city":"HIBBING","zipcode":"55746","country":"US","geo_score":0.837,"sales amount":4705.5,"year":2012,"id":"aaugbx17inec","address":"1226 EAST 16TH AVENUE","geo_precision":"range","state":"MN"},"type":"Feature","geometry":{"type":"Point","coordinates":[-92.927231,47.431378]}},{"properties":{"qty":1,"city":"OSAGE BEACH","zipcode":"65065","country":"US","geo_score":0.78,"sales amount":4705.5,"year":2012,"id":"aaugbx81pbcc","address":"5635 HIGHWAY 54","geo_precision":"range","state":"MO"},"type":"Feature","geometry":{"type":"Point","coordinates":[-92.666914,38.126675]}},{"properties":{"qty":1,"city":"OSAGE BEACH","zipcode":"65065","country":"US","geo_score":0.78,"sales amount":4705.5,"year":2012,"id":"aaugbx8ch7hr","address":"5635 HIGHWAY 54","geo_precision":"range","state":"MO"},"type":"Feature","geometry":{"type":"Point","coordinates":[-92.666914,38.126675]}},{"properties":{"qty":1,"city":"OSAGE BEACH","zipcode":"65065","country":"US","geo_score":0.78,"sales amount":4705.5,"year":2012,"id":"aaugbwzhmxpr","address":"5635 HIGHWAY 54","geo_precision":"range","state":"MO"},"type":"Feature","geometry":{"type":"Point","coordinates":[-92.666914,38.126675]}},{"properties":{"qty":1,"city":"WARRENSBURG","zipcode":"64093","country":"US","geo_score":0.614,"sales amount":4705.5,"year":2012,"id":"aaugbx2qhr85","address":"754 E. YOUNG","geo_precision":"street","state":"MO"},"type":"Feature","geometry":{"type":"Point","coordinates":[-93.722674,38.7715]}},{"properties":{"qty":1,"city":"KIRKSVILLE","zipcode":"63501","country":"US","geo_score":1.0,"sales amount":4705.5,"year":2012,"id":"aaugbx6zogug","address":"3008 NORTH BALTIMORE STREET","geo_precision":"range","state":"MO"},"type":"Feature","geometry":{"type":"Point","coordinates":[-92.582593,40.226172]}},{"properties":{"qty":1,"city":"OSAGE BEACH","zipcode":"65065","country":"US","geo_score":0.78,"sales amount":4705.5,"year":2012,"id":"aaugbx2nq3tk","address":"5635 HIGHWAY 54","geo_precision":"range","state":"MO"},"type":"Feature","geometry":{"type":"Point","coordinates":[-92.666914,38.126675]}},{"properties":{"qty":1,"city":"OSAGE BEACH","zipcode":"65065","country":"US","geo_score":0.78,"sales amount":4705.5,"year":2012,"id":"aaugbx3axeik","address":"5635 HIGHWAY 54","geo_precision":"range","state":"MO"},"type":"Feature","geometry":{"type":"Point","coordinates":[-92.666914,38.126675]}},{"properties":{"qty":1,"city":"O'FALLON","zipcode":"63366","country":"US","geo_score":0.805,"sales amount":4705.5,"year":2012,"id":"aaugbxbemoeh","address":"9080 VETERANS MEMORIAL PKWY","geo_precision":"street","state":"MO"},"type":"Feature","geometry":{"type":"Point","coordinates":[-90.66476,38.802488]}},{"properties":{"qty":1,"city":"SOUTHAVEN","zipcode":"38671","country":"US","geo_score":1.0,"sales amount":4705.5,"year":2012,"id":"aaugbx89e7nr","address":"7217 AIRWAYS BLVD","geo_precision":"range","state":"MS"},"type":"Feature","geometry":{"type":"Point","coordinates":[-89.989981,34.965666]}},{"properties":{"qty":1,"city":"ASHEVILLE","zipcode":"28803","country":"US","geo_score":0.829,"sales amount":4705.5,"year":2012,"id":"aaugbx745z0t","address":"141 SWEETEN CREEK ROAD","geo_precision":"street","state":"NC"},"type":"Feature","geometry":{"type":"Point","coordinates":[-82.525381,35.561347]}},{"properties":{"qty":1,"city":"WILMINGTON","zipcode":"28401","country":"US","geo_score":1.0,"sales amount":4705.5,"year":2012,"id":"aaugbxcq8dtr","address":"1020 NORTH FRONT STREET","geo_precision":"range","state":"NC"},"type":"Feature","geometry":{"type":"Point","coordinates":[-77.948756,34.247494]}},{"properties":{"qty":1,"city":"WILMINGTON","zipcode":"28401","country":"US","geo_score":1.0,"sales amount":4705.5,"year":2012,"id":"aaugbx9egqsf","address":"1020 NORTH FRONT STREET","geo_precision":"range","state":"NC"},"type":"Feature","geometry":{"type":"Point","coordinates":[-77.948756,34.247494]}},{"properties":{"qty":1,"city":"BISMARCK","zipcode":"58501","country":"US","geo_score":1.0,"sales amount":4705.5,"year":2012,"id":"aaugbx7xmj8q","address":"3131 EAST BROADWAY AVE.","geo_precision":"range","state":"ND"},"type":"Feature","geometry":{"type":"Point","coordinates":[-100.74361,46.80598]}},{"properties":{"qty":1,"city":"BISMARCK","zipcode":"58501","country":"US","geo_score":1.0,"sales amount":4705.5,"year":2012,"id":"aaugbx52xclc","address":"3131 EAST BROADWAY AVE.","geo_precision":"range","state":"ND"},"type":"Feature","geometry":{"type":"Point","coordinates":[-100.74361,46.80598]}},{"properties":{"qty":1,"city":"LINCOLN","zipcode":"68521","country":"US","geo_score":1.0,"sales amount":4705.5,"year":2012,"id":"aaugbxeax2fu","address":"1821 CORNHUSKER HIGHWAY","geo_precision":"range","state":"NE"},"type":"Feature","geometry":{"type":"Point","coordinates":[-96.691777,40.842527]}},{"properties":{"qty":1,"city":"GALLUP","zipcode":"87301","country":"US","geo_score":0.805,"sales amount":4705.5,"year":2012,"id":"aaugbxb9bn9f","address":"2323 WEST HIGHWAY 66","geo_precision":"street","state":"NM"},"type":"Feature","geometry":{"type":"Point","coordinates":[-108.827307,35.509107]}},{"properties":{"qty":1,"city":"NORMAN","zipcode":"73072","country":"US","geo_score":0.6,"sales amount":4705.5,"year":2012,"id":"aaugbx1y83xm","address":"2900 NO. INTERSTATE DRIVE","geo_precision":"street","state":"OK"},"type":"Feature","geometry":{"type":"Point","coordinates":[-97.487723,35.219364]}},{"properties":{"qty":1,"city":"NORMAN","zipcode":"73072","country":"US","geo_score":0.6,"sales amount":4705.5,"year":2012,"id":"aaugbx3f8tvz","address":"2900 NO. INTERSTATE DRIVE","geo_precision":"street","state":"OK"},"type":"Feature","geometry":{"type":"Point","coordinates":[-97.487723,35.219364]}},{"properties":{"qty":1,"city":"NORMAN","zipcode":"73072","country":"US","geo_score":0.6,"sales amount":4705.5,"year":2012,"id":"aaugbxcro91c","address":"2900 NO. INTERSTATE DRIVE","geo_precision":"street","state":"OK"},"type":"Feature","geometry":{"type":"Point","coordinates":[-97.487723,35.219364]}},{"properties":{"qty":1,"city":"NORMAN","zipcode":"73072","country":"US","geo_score":0.6,"sales amount":4705.5,"year":2012,"id":"aaugbx1cy86h","address":"2900 NO. INTERSTATE DRIVE","geo_precision":"street","state":"OK"},"type":"Feature","geometry":{"type":"Point","coordinates":[-97.487723,35.219364]}},{"properties":{"qty":1,"city":"NORMAN","zipcode":"73072","country":"US","geo_score":0.6,"sales amount":4705.5,"year":2012,"id":"aaugbx2k0t6v","address":"2900 NO. INTERSTATE DRIVE","geo_precision":"street","state":"OK"},"type":"Feature","geometry":{"type":"Point","coordinates":[-97.487723,35.219364]}},{"properties":{"qty":1,"city":"MUSKOGEE","zipcode":"74401","country":"US","geo_score":0.935,"sales amount":4705.5,"year":2012,"id":"aaugbx2uevc5","address":"2500 SOUTH 32ND STREET","geo_precision":"range","state":"OK"},"type":"Feature","geometry":{"type":"Point","coordinates":[-95.402483,35.724219]}},{"properties":{"qty":1,"city":"ENID","zipcode":"73701","country":"US","geo_score":0.414,"sales amount":4705.5,"year":2012,"id":"aaugbx6jll85","address":"125 EAST OWEN K. GARRIOTT","geo_precision":"street","state":"OK"},"type":"Feature","geometry":{"type":"Point","coordinates":[-97.931985,35.866185]}},{"properties":{"qty":1,"city":"ENID","zipcode":"73701","country":"US","geo_score":0.414,"sales amount":4705.5,"year":2012,"id":"aaugbxcwl90p","address":"125 EAST OWEN K. GARRIOTT","geo_precision":"street","state":"OK"},"type":"Feature","geometry":{"type":"Point","coordinates":[-97.931985,35.866185]}},{"properties":{"qty":1,"city":"GREENVILLE","zipcode":"29607","country":"US","geo_score":0.878,"sales amount":4705.5,"year":2012,"id":"aaugbx1xrpdm","address":"1000 WOODRUFF ROAD","geo_precision":"range","state":"SC"},"type":"Feature","geometry":{"type":"Point","coordinates":[-82.309232,34.83337]}},{"properties":{"qty":1,"city":"GREENVILLE","zipcode":"29607","country":"US","geo_score":0.878,"sales amount":4705.5,"year":2012,"id":"aaugbx01bc4f","address":"1000 WOODRUFF ROAD","geo_precision":"range","state":"SC"},"type":"Feature","geometry":{"type":"Point","coordinates":[-82.309232,34.83337]}},{"properties":{"qty":1,"city":"PRINCE ALBERT","zipcode":"S6V 3X2","country":"CA","geo_score":0.0,"sales amount":4705.5,"year":2012,"id":"aaugbxaszsw4","address":"59-17 ST. WEST","geo_precision":"unmatched","state":"SK"},"type":"Feature","geometry":null},{"properties":{"qty":1,"city":"COOKEVILLE","zipcode":"38501","country":"US","geo_score":1.0,"sales amount":4705.5,"year":2012,"id":"aaugbx3vwuig","address":"1830 FOREMAN DRIVE","geo_precision":"range","state":"TN"},"type":"Feature","geometry":{"type":"Point","coordinates":[-85.533266,36.140443]}},{"properties":{"qty":1,"city":"PHARR","zipcode":"78577","country":"US","geo_score":0.61,"sales amount":4705.5,"year":2012,"id":"aaugbx9tajh0","address":"3925 N. CAGE BLVD","geo_precision":"street","state":"TX"},"type":"Feature","geometry":{"type":"Point","coordinates":[-98.183983,26.195112]}},{"properties":{"qty":1,"city":"PHARR","zipcode":"78577","country":"US","geo_score":0.61,"sales amount":4705.5,"year":2012,"id":"aaugbwz9g0za","address":"3925 N. CAGE BLVD","geo_precision":"street","state":"TX"},"type":"Feature","geometry":{"type":"Point","coordinates":[-98.183983,26.195112]}},{"properties":{"qty":1,"city":"GARLAND","zipcode":"75041","country":"US","geo_score":0.604,"sales amount":4705.5,"year":2012,"id":"aaugbx15sqyp","address":"2809 W. KINGSLEY ROAD","geo_precision":"street","state":"TX"},"type":"Feature","geometry":{"type":"Point","coordinates":[-96.630918,32.878693]}},{"properties":{"qty":1,"city":"GARLAND","zipcode":"75041","country":"US","geo_score":0.604,"sales amount":4705.5,"year":2012,"id":"aaugbx59r00r","address":"2809 W. KINGSLEY ROAD","geo_precision":"street","state":"TX"},"type":"Feature","geometry":{"type":"Point","coordinates":[-96.630918,32.878693]}},{"properties":{"qty":1,"city":"SAN BENITO","zipcode":"78586","country":"US","geo_score":0.752,"sales amount":4705.5,"year":2012,"id":"aaugbwy12hgq","address":"1720 W US HWY 77","geo_precision":"street","state":"TX"},"type":"Feature","geometry":{"type":"Point","coordinates":[-97.628113,26.120611]}},{"properties":{"qty":1,"city":"SAN BENITO","zipcode":"78586","country":"US","geo_score":0.752,"sales amount":4705.5,"year":2012,"id":"aaugbxc071rz","address":"1720 W US HWY 77","geo_precision":"street","state":"TX"},"type":"Feature","geometry":{"type":"Point","coordinates":[-97.628113,26.120611]}},{"properties":{"qty":1,"city":"BOERNE","zipcode":"78006","country":"US","geo_score":0.861,"sales amount":4705.5,"year":2012,"id":"aaugbxbynz2d","address":"29880 I-10 WEST","geo_precision":"street","state":"TX"},"type":"Feature","geometry":{"type":"Point","coordinates":[-98.68792,29.738588]}},{"properties":{"qty":1,"city":"BOERNE","zipcode":"78006","country":"US","geo_score":0.861,"sales amount":4705.5,"year":2012,"id":"aaugbx7njwa4","address":"29880 I-10 WEST","geo_precision":"street","state":"TX"},"type":"Feature","geometry":{"type":"Point","coordinates":[-98.68792,29.738588]}},{"properties":{"qty":1,"city":"SAN MARCOS","zipcode":"78666","country":"US","geo_score":0.74,"sales amount":4705.5,"year":2012,"id":"aaugbx6oghb7","address":"4542 SOUTH INTERSTATE HWY 35 S","geo_precision":"street","state":"TX"},"type":"Feature","geometry":{"type":"Point","coordinates":[-97.957814,29.853154]}},{"properties":{"qty":1,"city":"VICTORIA","zipcode":"77904","country":"US","geo_score":0.854,"sales amount":4705.5,"year":2012,"id":"aaugbxah3q5t","address":"12104 NAVARRO STREET","geo_precision":"range","state":"TX"},"type":"Feature","geometry":{"type":"Point","coordinates":[-96.995049,28.890447]}},{"properties":{"qty":1,"city":"VICTORIA","zipcode":"77904","country":"US","geo_score":0.854,"sales amount":4705.5,"year":2012,"id":"aaugbx98bnq8","address":"12104 NAVARRO STREET","geo_precision":"range","state":"TX"},"type":"Feature","geometry":{"type":"Point","coordinates":[-96.995049,28.890447]}},{"properties":{"qty":1,"city":"SAN MARCOS","zipcode":"78666","country":"US","geo_score":0.74,"sales amount":4705.5,"year":2012,"id":"aaugbwzdldk2","address":"4542 SOUTH INTERSTATE HWY 35 S","geo_precision":"street","state":"TX"},"type":"Feature","geometry":{"type":"Point","coordinates":[-97.957814,29.853154]}},{"properties":{"qty":1,"city":"AMARILLO","zipcode":"79103","country":"US","geo_score":0.675,"sales amount":4705.5,"year":2012,"id":"aaugbx2e561g","address":"3900 I-40 EAST","geo_precision":"range","state":"TX"},"type":"Feature","geometry":{"type":"Point","coordinates":[-101.88047,35.222198]}},{"properties":{"qty":1,"city":"AMARILLO","zipcode":"79103","country":"US","geo_score":0.675,"sales amount":4705.5,"year":2012,"id":"aaugbxc7f8gj","address":"3900 I-40 EAST","geo_precision":"range","state":"TX"},"type":"Feature","geometry":{"type":"Point","coordinates":[-101.88047,35.222198]}},{"properties":{"qty":1,"city":"CHARLOTTESVILLE","zipcode":"22902","country":"US","geo_score":1.0,"sales amount":4705.5,"year":2012,"id":"aaugbx3pm2e0","address":"104 MEADE AVE","geo_precision":"range","state":"VA"},"type":"Feature","geometry":{"type":"Point","coordinates":[-78.46738,38.026243]}},{"properties":{"qty":1,"city":"CHESAPEAKE","zipcode":"23323","country":"US","geo_score":1.0,"sales amount":4705.5,"year":2012,"id":"aaugbx6u0kpa","address":"3501 BUSINESS CENTER DR","geo_precision":"range","state":"VA"},"type":"Feature","geometry":{"type":"Point","coordinates":[-76.35982,36.786336]}},{"properties":{"qty":1,"city":"HAMPTON","zipcode":"23661","country":"US","geo_score":1.0,"sales amount":4705.5,"year":2012,"id":"aaugbx23dfs7","address":"602 COPELAND DRIVE","geo_precision":"range","state":"VA"},"type":"Feature","geometry":{"type":"Point","coordinates":[-76.397724,37.014049]}},{"properties":{"qty":1,"city":"SALEM","zipcode":"24153","country":"US","geo_score":1.0,"sales amount":4705.5,"year":2012,"id":"aaugbxd1hfwn","address":"1201 ELECTRIC ROAD","geo_precision":"range","state":"VA"},"type":"Feature","geometry":{"type":"Point","coordinates":[-80.035057,37.279636]}},{"properties":{"qty":1,"city":"SALEM","zipcode":"24153","country":"US","geo_score":1.0,"sales amount":4882.12,"year":2012,"id":"aaugbx7cze7j","address":"1201 ELECTRIC ROAD","geo_precision":"range","state":"VA"},"type":"Feature","geometry":{"type":"Point","coordinates":[-80.035057,37.279636]}},{"properties":{"qty":1,"city":"MONROE","zipcode":"98272","country":"US","geo_score":1.0,"sales amount":4905.6,"year":2012,"id":"aaugbx9f4mhg","address":"1166A VILLAGE WAY","geo_precision":"range","state":"WA"},"type":"Feature","geometry":{"type":"Point","coordinates":[-121.985198,47.848834]}},{"properties":{"qty":1,"city":"MONROE","zipcode":"98272","country":"US","geo_score":1.0,"sales amount":4905.6,"year":2012,"id":"aaugbx3sit8d","address":"1166A VILLAGE WAY","geo_precision":"range","state":"WA"},"type":"Feature","geometry":{"type":"Point","coordinates":[-121.985198,47.848834]}},{"properties":{"qty":1,"city":"FAIRFIELD","zipcode":"94534","country":"US","geo_score":0.862,"sales amount":4908.0,"year":2012,"id":"aaugbxcut60x","address":"5170 FULTON DR SUITE 2","geo_precision":"range","state":"CA"},"type":"Feature","geometry":{"type":"Point","coordinates":[-122.142763,38.207201]}},{"properties":{"qty":1,"city":"FAIRFIELD","zipcode":"94534","country":"US","geo_score":0.862,"sales amount":4908.0,"year":2012,"id":"aaugbx7x3yj9","address":"5170 FULTON DR SUITE 2","geo_precision":"range","state":"CA"},"type":"Feature","geometry":{"type":"Point","coordinates":[-122.142763,38.207201]}},{"properties":{"qty":1,"city":"FAIRFIELD","zipcode":"94534","country":"US","geo_score":0.862,"sales amount":4908.0,"year":2012,"id":"aaugbwyaye0c","address":"5170 FULTON DR SUITE 2","geo_precision":"range","state":"CA"},"type":"Feature","geometry":{"type":"Point","coordinates":[-122.142763,38.207201]}},{"properties":{"qty":1,"city":"FAIRFIELD","zipcode":"94534","country":"US","geo_score":0.862,"sales amount":4908.0,"year":2012,"id":"aaugbxe7jhv6","address":"5170 FULTON DR SUITE 2","geo_precision":"range","state":"CA"},"type":"Feature","geometry":{"type":"Point","coordinates":[-122.142763,38.207201]}},{"properties":{"qty":1,"city":"FAIRFIELD","zipcode":"94534","country":"US","geo_score":0.862,"sales amount":4908.0,"year":2012,"id":"aaugbx5ja080","address":"5170 FULTON DR SUITE 2","geo_precision":"range","state":"CA"},"type":"Feature","geometry":{"type":"Point","coordinates":[-122.142763,38.207201]}},{"properties":{"qty":1,"city":"FAIRFIELD","zipcode":"94534","country":"US","geo_score":0.862,"sales amount":4908.0,"year":2012,"id":"aaugbx6ffq63","address":"5170 FULTON DR SUITE 2","geo_precision":"range","state":"CA"},"type":"Feature","geometry":{"type":"Point","coordinates":[-122.142763,38.207201]}},{"properties":{"qty":1,"city":"FAIRFIELD","zipcode":"94534","country":"US","geo_score":0.862,"sales amount":4908.0,"year":2012,"id":"aaugbxbd9pe5","address":"5170 FULTON DR SUITE 2","geo_precision":"range","state":"CA"},"type":"Feature","geometry":{"type":"Point","coordinates":[-122.142763,38.207201]}},{"properties":{"qty":1,"city":"FAIRFIELD","zipcode":"94534","country":"US","geo_score":0.862,"sales amount":4908.0,"year":2012,"id":"aaugbx458247","address":"5170 FULTON DR SUITE 2","geo_precision":"range","state":"CA"},"type":"Feature","geometry":{"type":"Point","coordinates":[-122.142763,38.207201]}},{"properties":{"qty":1,"city":"FAIRFIELD","zipcode":"94534","country":"US","geo_score":0.862,"sales amount":4908.0,"year":2012,"id":"aaugbx55c4jt","address":"5170 FULTON DR SUITE 2","geo_precision":"range","state":"CA"},"type":"Feature","geometry":{"type":"Point","coordinates":[-122.142763,38.207201]}},{"properties":{"qty":1,"city":"FAIRFIELD","zipcode":"94534","country":"US","geo_score":0.862,"sales amount":4908.0,"year":2012,"id":"aaugbx122qgz","address":"5170 FULTON DR SUITE 2","geo_precision":"range","state":"CA"},"type":"Feature","geometry":{"type":"Point","coordinates":[-122.142763,38.207201]}},{"properties":{"qty":1,"city":"FAIRFIELD","zipcode":"94533","country":"US","geo_score":0.581,"sales amount":4908.0,"year":2012,"id":"aaugbx3sqny4","address":"5170 FULTON DRIVE SUITE 4","geo_precision":"street","state":"CA"},"type":"Feature","geometry":{"type":"Point","coordinates":[-122.05863,38.253057]}},{"properties":{"qty":1,"city":"MONROE","zipcode":"48161","country":"US","geo_score":1.0,"sales amount":4908.0,"year":2012,"id":"aaugbx97fkux","address":"3500 East Front Street","geo_precision":"range","state":"MI"},"type":"Feature","geometry":{"type":"Point","coordinates":[-83.351524,41.892163]}},{"properties":{"qty":1,"city":"MONROE","zipcode":"48161","country":"US","geo_score":1.0,"sales amount":4908.0,"year":2012,"id":"aaugbxe8ege4","address":"3500 East Front Street","geo_precision":"range","state":"MI"},"type":"Feature","geometry":{"type":"Point","coordinates":[-83.351524,41.892163]}},{"properties":{"qty":1,"city":"FARGO","zipcode":"58104","country":"US","geo_score":0.935,"sales amount":4908.0,"year":2012,"id":"aaugbx9l9nle","address":"4001 38TH ST S","geo_precision":"range","state":"ND"},"type":"Feature","geometry":{"type":"Point","coordinates":[-96.840392,46.818386]}},{"properties":{"qty":1,"city":"CHESTERFIELD","zipcode":"63005","country":"US","geo_score":0.688,"sales amount":4961.86,"year":2012,"id":"aaugbx4uak1z","address":"621 SPRIRT VALLEY EAST","geo_precision":"street","state":"MO"},"type":"Feature","geometry":{"type":"Point","coordinates":[-90.617824,38.646921]}},{"properties":{"qty":1,"city":"COLUMBUS","zipcode":"43207","country":"US","geo_score":0.607,"sales amount":5030.0,"year":2012,"id":"aaugbwyeuqjh","address":"50 E. KINGSTON AVE.","geo_precision":"street","state":"OH"},"type":"Feature","geometry":{"type":"Point","coordinates":[-82.995386,39.918445]}},{"properties":{"qty":1,"city":"MACON","zipcode":"63552","country":"US","geo_score":0.604,"sales amount":5042.51,"year":2012,"id":"aaugbxabnkkk","address":"1121 S. MISSOURI ST.","geo_precision":"street","state":"MO"},"type":"Feature","geometry":{"type":"Point","coordinates":[-92.465459,39.735312]}},{"properties":{"qty":1,"city":"HOUSTON","zipcode":"77028","country":"US","geo_score":0.408,"sales amount":5058.0,"year":2012,"id":"aaugbxci3o81","address":"PICKUP:TOM LING","geo_precision":"street","state":"TX"},"type":"Feature","geometry":{"type":"Point","coordinates":[-95.375452,29.807883]}},{"properties":{"qty":1,"city":"LANSING","zipcode":"48906","country":"US","geo_score":0.914,"sales amount":5241.15,"year":2012,"id":"aaugbxbfpgsx","address":"3600 N GRAND RIVER RD","geo_precision":"range","state":"MI"},"type":"Feature","geometry":{"type":"Point","coordinates":[-84.582486,42.764459]}},{"properties":{"qty":1,"city":"LEXINGTON","zipcode":"40510","country":"US","geo_score":1.0,"sales amount":5295.0,"year":2012,"id":"aaugbx1ok0u9","address":"2180 OLD FRANKFORT PIKE","geo_precision":"range","state":"KY"},"type":"Feature","geometry":{"type":"Point","coordinates":[-84.551974,38.065476]}},{"properties":{"qty":1,"city":"FAIRFIELD","zipcode":"94534","country":"US","geo_score":0.862,"sales amount":5346.0,"year":2012,"id":"aaugbx6upzyz","address":"5170 FULTON DR SUITE 2","geo_precision":"range","state":"CA"},"type":"Feature","geometry":{"type":"Point","coordinates":[-122.142763,38.207201]}},{"properties":{"qty":1,"city":"FAIRFIELD","zipcode":"94534","country":"US","geo_score":0.862,"sales amount":5346.0,"year":2012,"id":"aaugbwzs9t0g","address":"5170 FULTON DR SUITE 2","geo_precision":"range","state":"CA"},"type":"Feature","geometry":{"type":"Point","coordinates":[-122.142763,38.207201]}},{"properties":{"qty":1,"city":"FAIRFIELD","zipcode":"94534","country":"US","geo_score":0.862,"sales amount":5346.0,"year":2012,"id":"aaugbx6erxmk","address":"5170 FULTON DR SUITE 2","geo_precision":"range","state":"CA"},"type":"Feature","geometry":{"type":"Point","coordinates":[-122.142763,38.207201]}},{"properties":{"qty":1,"city":"FAIRFIELD","zipcode":"94534","country":"US","geo_score":0.862,"sales amount":5346.0,"year":2012,"id":"aaugbxe8zr5p","address":"5170 FULTON DR SUITE 2","geo_precision":"range","state":"CA"},"type":"Feature","geometry":{"type":"Point","coordinates":[-122.142763,38.207201]}},{"properties":{"qty":1,"city":"FAIRFIELD","zipcode":"94534","country":"US","geo_score":0.862,"sales amount":5346.0,"year":2012,"id":"aaugbx6yq2q6","address":"5170 FULTON DR SUITE 2","geo_precision":"range","state":"CA"},"type":"Feature","geometry":{"type":"Point","coordinates":[-122.142763,38.207201]}},{"properties":{"qty":1,"city":"FAIRFIELD","zipcode":"94534","country":"US","geo_score":0.862,"sales amount":5346.0,"year":2012,"id":"aaugbx1hjs0r","address":"5170 FULTON DR SUITE 2","geo_precision":"range","state":"CA"},"type":"Feature","geometry":{"type":"Point","coordinates":[-122.142763,38.207201]}},{"properties":{"qty":1,"city":"FAIRFIELD","zipcode":"94534","country":"US","geo_score":0.862,"sales amount":5346.0,"year":2012,"id":"aaugbxbilre5","address":"5170 FULTON DR SUITE 2","geo_precision":"range","state":"CA"},"type":"Feature","geometry":{"type":"Point","coordinates":[-122.142763,38.207201]}},{"properties":{"qty":1,"city":"FAIRFIELD","zipcode":"94534","country":"US","geo_score":0.862,"sales amount":5346.0,"year":2012,"id":"aaugbx52oxpi","address":"5170 FULTON DR SUITE 2","geo_precision":"range","state":"CA"},"type":"Feature","geometry":{"type":"Point","coordinates":[-122.142763,38.207201]}},{"properties":{"qty":1,"city":"FAIRFIELD","zipcode":"94534","country":"US","geo_score":0.862,"sales amount":5346.0,"year":2012,"id":"aaugbx7z7qaq","address":"5170 FULTON DR SUITE 2","geo_precision":"range","state":"CA"},"type":"Feature","geometry":{"type":"Point","coordinates":[-122.142763,38.207201]}},{"properties":{"qty":1,"city":"BEAUMONT","zipcode":"77705","country":"US","geo_score":0.865,"sales amount":5346.0,"year":2012,"id":"aaugbx56urzd","address":"6325 HWY 347","geo_precision":"range","state":"TX"},"type":"Feature","geometry":{"type":"Point","coordinates":[-94.04521,30.018318]}},{"properties":{"qty":1,"city":"MANHATTAN","zipcode":"66502","country":"US","geo_score":1.0,"sales amount":5375.24,"year":2012,"id":"aaugbx2a4ryi","address":"915 ENOCH LANE","geo_precision":"range","state":"KS"},"type":"Feature","geometry":{"type":"Point","coordinates":[-96.547971,39.187667]}},{"properties":{"qty":1,"city":"SUN PRAIRIE","zipcode":"53590","country":"US","geo_score":1.0,"sales amount":5401.2,"year":2012,"id":"aaugbxc1t6mp","address":"1900 WEST MAIN ST","geo_precision":"range","state":"WI"},"type":"Feature","geometry":{"type":"Point","coordinates":[-89.24658,43.176306]}},{"properties":{"qty":1,"city":"LEXINGTON","zipcode":"40510","country":"US","geo_score":1.0,"sales amount":5403.0,"year":2012,"id":"aaugbwy1k5ce","address":"2180 OLD FRANKFORT PIKE","geo_precision":"range","state":"KY"},"type":"Feature","geometry":{"type":"Point","coordinates":[-84.551974,38.065476]}},{"properties":{"qty":1,"city":"GRAND RAPIDS","zipcode":"49548","country":"US","geo_score":0.814,"sales amount":5403.0,"year":2012,"id":"aaugbxeisd4q","address":"600 AIS DRIVE","geo_precision":"range","state":"MI"},"type":"Feature","geometry":{"type":"Point","coordinates":[-85.681514,42.879808]}},{"properties":{"qty":1,"city":"CINCINNATI","zipcode":"45215","country":"US","geo_score":1.0,"sales amount":5403.0,"year":2012,"id":"aaugbx9lwde5","address":"712 SHEPHERD AVE","geo_precision":"range","state":"OH"},"type":"Feature","geometry":{"type":"Point","coordinates":[-84.447933,39.234748]}},{"properties":{"qty":1,"city":"DAYTON","zipcode":"45424-155","country":"US","geo_score":0.931,"sales amount":5403.0,"year":2012,"id":"aaugbx54fges","address":"7570 NEW CARLISLE PIKE","geo_precision":"range","state":"OH"},"type":"Feature","geometry":{"type":"Point","coordinates":[-84.060938,39.85982]}},{"properties":{"qty":1,"city":"DES MOINES","zipcode":"50322","country":"US","geo_score":0.912,"sales amount":5407.2,"year":2012,"id":"aaugbxa70taz","address":"4101 106TH ST.","geo_precision":"range","state":"IA"},"type":"Feature","geometry":{"type":"Point","coordinates":[-93.762935,41.630063]}},{"properties":{"qty":1,"city":"LEXINGTON","zipcode":"40510","country":"US","geo_score":1.0,"sales amount":5459.16,"year":2012,"id":"aaugbx280tn1","address":"2180 OLD FRANKFORT PIKE","geo_precision":"range","state":"KY"},"type":"Feature","geometry":{"type":"Point","coordinates":[-84.551974,38.065476]}},{"properties":{"qty":1,"city":"CHEYENNE","zipcode":"82001","country":"US","geo_score":1.0,"sales amount":5466.0,"year":2012,"id":"aaugbx87fmzk","address":"2105 MORRIE AVENUE","geo_precision":"range","state":"WY"},"type":"Feature","geometry":{"type":"Point","coordinates":[-104.807461,41.142216]}},{"properties":{"qty":1,"city":"WEST SPRINGFIELD","zipcode":"01089","country":"US","geo_score":1.0,"sales amount":5515.0,"year":2012,"id":"aaugbxb7euz3","address":"154 WAYSIDE AVENUE","geo_precision":"range","state":"MA"},"type":"Feature","geometry":{"type":"Point","coordinates":[-72.62636,42.143602]}},{"properties":{"qty":1,"city":"SOUTH WINDSOR","zipcode":"06074","country":"US","geo_score":1.0,"sales amount":5516.0,"year":2012,"id":"aaugbx0vfh3q","address":"410 BURNHAM STREET","geo_precision":"range","state":"CT"},"type":"Feature","geometry":{"type":"Point","coordinates":[-72.608029,41.799541]}},{"properties":{"qty":1,"city":"COMMERCE CITY","zipcode":"80022","country":"US","geo_score":1.0,"sales amount":5517.0,"year":2012,"id":"aaugbxa6gxoz","address":"5250 COLORADO BLVD","geo_precision":"range","state":"CO"},"type":"Feature","geometry":{"type":"Point","coordinates":[-104.939564,39.791598]}},{"properties":{"qty":1,"city":"SOUTH WINDSOR","zipcode":"06074","country":"US","geo_score":1.0,"sales amount":5517.0,"year":2012,"id":"aaugbxb87tds","address":"410 BURNHAM STREET","geo_precision":"range","state":"CT"},"type":"Feature","geometry":{"type":"Point","coordinates":[-72.608029,41.799541]}},{"properties":{"qty":1,"city":"ATHENS","zipcode":"30601","country":"US","geo_score":0.941,"sales amount":5517.0,"year":2012,"id":"aaugbx18xagz","address":"1460 CHASE STREET","geo_precision":"range","state":"GA"},"type":"Feature","geometry":{"type":"Point","coordinates":[-83.392649,33.973289]}},{"properties":{"qty":1,"city":"WAUCONDA","zipcode":"60084","country":"US","geo_score":1.0,"sales amount":5517.0,"year":2012,"id":"aaugbwzs9iz5","address":"1560 N OLD RAND RD","geo_precision":"range","state":"IL"},"type":"Feature","geometry":{"type":"Point","coordinates":[-88.154494,42.28292]}},{"properties":{"qty":1,"city":"O'FALLON","zipcode":"63366","country":"US","geo_score":0.837,"sales amount":5517.0,"year":2012,"id":"aaugbx22h9u8","address":"705 WOODLAWN AVE","geo_precision":"street","state":"MO"},"type":"Feature","geometry":{"type":"Point","coordinates":[-90.705092,38.803105]}},{"properties":{"qty":1,"city":"RICHFIELD","zipcode":"44286","country":"US","geo_score":0.585,"sales amount":5517.0,"year":2012,"id":"aaugbx3pwitz","address":"3942 BRECKSVILLE RD","geo_precision":"zip","state":"OH"},"type":"Feature","geometry":{"type":"Point","coordinates":[-81.655124,41.239499]}},{"properties":{"qty":1,"city":"MONROE","zipcode":"98272","country":"US","geo_score":1.0,"sales amount":5627.0,"year":2012,"id":"aaugbxbcm2bh","address":"1130 VILLAGE WAY","geo_precision":"range","state":"WA"},"type":"Feature","geometry":{"type":"Point","coordinates":[-121.985976,47.849945]}},{"properties":{"qty":1,"city":"MONROE","zipcode":"98272","country":"US","geo_score":1.0,"sales amount":5627.0,"year":2012,"id":"aaugbx4viq46","address":"1144 VILLAGE WAY","geo_precision":"range","state":"WA"},"type":"Feature","geometry":{"type":"Point","coordinates":[-121.98589,47.84947]}},{"properties":{"qty":1,"city":"LENOX","zipcode":"48050","country":"US","geo_score":0.913,"sales amount":5627.4,"year":2012,"id":"aaugbxehykdf","address":"65809 GRATIOT AVE","geo_precision":"range","state":"MI"},"type":"Feature","geometry":{"type":"Point","coordinates":[-82.744501,42.78506]}},{"properties":{"qty":1,"city":"SALT LAKE CITY","zipcode":"84119","country":"US","geo_score":1.0,"sales amount":5627.4,"year":2012,"id":"aaugbx83l98p","address":"3333 WEST 2100 SOUTH","geo_precision":"range","state":"UT"},"type":"Feature","geometry":{"type":"Point","coordinates":[-111.968819,40.726749]}},{"properties":{"qty":1,"city":"JESSUP","zipcode":"20794","country":"US","geo_score":0.585,"sales amount":5628.0,"year":2012,"id":"aaugbxdjzzs2","address":"10421 GUIFORD ROAD","geo_precision":"zip","state":"MD"},"type":"Feature","geometry":{"type":"Point","coordinates":[-76.813394,39.155266]}},{"properties":{"qty":1,"city":"GRAND RAPIDS","zipcode":"49548","country":"US","geo_score":0.814,"sales amount":5628.0,"year":2012,"id":"aaugbx5vhw0q","address":"600 AIS DRIVE","geo_precision":"range","state":"MI"},"type":"Feature","geometry":{"type":"Point","coordinates":[-85.681514,42.879808]}},{"properties":{"qty":1,"city":"GRAND RAPIDS","zipcode":"49548","country":"US","geo_score":0.814,"sales amount":5628.0,"year":2012,"id":"aaugbx5zrj1d","address":"600 AIS DRIVE","geo_precision":"range","state":"MI"},"type":"Feature","geometry":{"type":"Point","coordinates":[-85.681514,42.879808]}},{"properties":{"qty":1,"city":"MINNEAPOLIS","zipcode":"55428","country":"US","geo_score":0.916,"sales amount":5628.0,"year":2012,"id":"aaugbx4jqf3j","address":"6800 WEST BROADWAY","geo_precision":"range","state":"MN"},"type":"Feature","geometry":{"type":"Point","coordinates":[-93.376281,45.078804]}},{"properties":{"qty":1,"city":"ROGERS","zipcode":"55374","country":"US","geo_score":1.0,"sales amount":5628.0,"year":2012,"id":"aaugbxbnabyc","address":"14375 JAMES ROAD","geo_precision":"range","state":"MN"},"type":"Feature","geometry":{"type":"Point","coordinates":[-93.550019,45.212705]}},{"properties":{"qty":1,"city":"ROSEMOUNT","zipcode":"55068","country":"US","geo_score":0.902,"sales amount":5628.0,"year":2012,"id":"aaugbx8holwj","address":"15125 SOUTH ROBERT TRAIL","geo_precision":"range","state":"MN"},"type":"Feature","geometry":{"type":"Point","coordinates":[-93.128675,44.729795]}},{"properties":{"qty":1,"city":"SHAKOPEE","zipcode":"55379","country":"US","geo_score":0.717,"sales amount":5628.0,"year":2012,"id":"aaugbx7p83tw","address":"6340 HWY 101","geo_precision":"street","state":"MN"},"type":"Feature","geometry":{"type":"Point","coordinates":[-93.509256,44.800784]}},{"properties":{"qty":1,"city":"CROOKSTON","zipcode":"56716","country":"US","geo_score":0.902,"sales amount":5628.0,"year":2012,"id":"aaugbx3z8dww","address":"500 INGERSOLL AVE","geo_precision":"street","state":"MN"},"type":"Feature","geometry":{"type":"Point","coordinates":[-96.631919,47.760355]}},{"properties":{"qty":1,"city":"HERMANTOWN","zipcode":"55811","country":"US","geo_score":0.912,"sales amount":5628.0,"year":2012,"id":"aaugbx1jg8xp","address":"4311 HAINES ROAD","geo_precision":"range","state":"MN"},"type":"Feature","geometry":{"type":"Point","coordinates":[-92.174893,46.827528]}},{"properties":{"qty":1,"city":"CROOKSTON","zipcode":"56716","country":"US","geo_score":0.902,"sales amount":5628.0,"year":2012,"id":"aaugbxckp8un","address":"500 INGERSOLL AVE","geo_precision":"street","state":"MN"},"type":"Feature","geometry":{"type":"Point","coordinates":[-96.631919,47.760355]}},{"properties":{"qty":1,"city":"JOPLIN","zipcode":"64801","country":"US","geo_score":0.625,"sales amount":5628.0,"year":2012,"id":"aaugbx9snnjt","address":"1405 E. 7TH STREET","geo_precision":"street","state":"MO"},"type":"Feature","geometry":{"type":"Point","coordinates":[-94.513494,37.084044]}},{"properties":{"qty":1,"city":"FESTUS","zipcode":"63028","country":"US","geo_score":1.0,"sales amount":5628.0,"year":2012,"id":"aaugbxcyms1s","address":"11840 COUNTY ROAD CC","geo_precision":"range","state":"MO"},"type":"Feature","geometry":{"type":"Point","coordinates":[-90.415258,38.192349]}},{"properties":{"qty":1,"city":"SAINT LOUIS","zipcode":"63125","country":"US","geo_score":1.0,"sales amount":5628.0,"year":2012,"id":"aaugbx6wv510","address":"4190 HOFFMEISTER AVE","geo_precision":"range","state":"MO"},"type":"Feature","geometry":{"type":"Point","coordinates":[-90.299505,38.542069]}},{"properties":{"qty":1,"city":"NIXA","zipcode":"65714","country":"US","geo_score":0.619,"sales amount":5628.0,"year":2012,"id":"aaugbx32qazw","address":"1376 W. MT. VERNON","geo_precision":"street","state":"MO"},"type":"Feature","geometry":{"type":"Point","coordinates":[-93.318598,37.047411]}},{"properties":{"qty":1,"city":"WILLISTON","zipcode":"58801","country":"US","geo_score":0.807,"sales amount":5628.0,"year":2012,"id":"aaugbxccciri","address":"13954 WEST FRONT STREET","geo_precision":"street","state":"ND"},"type":"Feature","geometry":{"type":"Point","coordinates":[-103.690699,48.139693]}},{"properties":{"qty":1,"city":"MINOT","zipcode":"58701","country":"US","geo_score":0.732,"sales amount":5628.0,"year":2012,"id":"aaugbx4cipj3","address":"5015 HWY 2 EAST","geo_precision":"range","state":"ND"},"type":"Feature","geometry":{"type":"Point","coordinates":[-101.222066,48.229131]}},{"properties":{"qty":1,"city":"BISMARCK","zipcode":"58501","country":"US","geo_score":1.0,"sales amount":5628.0,"year":2012,"id":"aaugbx485t2p","address":"1500 INDUSTRIAL DRIVE","geo_precision":"range","state":"ND"},"type":"Feature","geometry":{"type":"Point","coordinates":[-100.73122,46.820855]}},{"properties":{"qty":1,"city":"DICKINSON","zipcode":"58601","country":"US","geo_score":0.585,"sales amount":5628.0,"year":2012,"id":"aaugbx62x6dt","address":"3079 ENERGY DRIVE","geo_precision":"zip","state":"ND"},"type":"Feature","geometry":{"type":"Point","coordinates":[-102.756514,46.805716]}},{"properties":{"qty":1,"city":"WEST FARGO","zipcode":"58078","country":"US","geo_score":0.779,"sales amount":5628.0,"year":2012,"id":"aaugbx3023p1","address":"644 EAST BEATON DRIVE","geo_precision":"street","state":"ND"},"type":"Feature","geometry":{"type":"Point","coordinates":[-96.902834,46.848471]}},{"properties":{"qty":1,"city":"GRAND FORKS","zipcode":"58203","country":"US","geo_score":1.0,"sales amount":5628.0,"year":2012,"id":"aaugbx9jn2ic","address":"1601 NORTH WASHINGTON ST","geo_precision":"range","state":"ND"},"type":"Feature","geometry":{"type":"Point","coordinates":[-97.056961,47.936479]}},{"properties":{"qty":1,"city":"GRAND FORKS","zipcode":"58203","country":"US","geo_score":1.0,"sales amount":5628.0,"year":2012,"id":"aaugbwyrbgjs","address":"1601 NORTH WASHINGTON ST","geo_precision":"range","state":"ND"},"type":"Feature","geometry":{"type":"Point","coordinates":[-97.056961,47.936479]}},{"properties":{"qty":1,"city":"COLUMBUS","zipcode":"43207","country":"US","geo_score":0.607,"sales amount":5628.0,"year":2012,"id":"aaugbx0ge61b","address":"65 E. KINGSTON AVE.","geo_precision":"street","state":"OH"},"type":"Feature","geometry":{"type":"Point","coordinates":[-82.995386,39.918445]}},{"properties":{"qty":1,"city":"KNOX","zipcode":"16232","country":"US","geo_score":0.865,"sales amount":5628.0,"year":2012,"id":"aaugbxbwq056","address":"423 EAST RAILROAD ST.","geo_precision":"range","state":"PA"},"type":"Feature","geometry":{"type":"Point","coordinates":[-79.534097,41.236244]}},{"properties":{"qty":1,"city":"MURRAY","zipcode":"84107","country":"US","geo_score":0.625,"sales amount":5628.0,"year":2012,"id":"aaugbx84y67o","address":"4231 S. State Street","geo_precision":"street","state":"UT"},"type":"Feature","geometry":{"type":"Point","coordinates":[-111.888249,40.68701]}},{"properties":{"qty":1,"city":"MURRAY","zipcode":"84107","country":"US","geo_score":0.625,"sales amount":5628.0,"year":2012,"id":"aaugbx7jcawe","address":"4231 S. State Street","geo_precision":"street","state":"UT"},"type":"Feature","geometry":{"type":"Point","coordinates":[-111.888249,40.68701]}},{"properties":{"qty":1,"city":"MURRAY","zipcode":"84107","country":"US","geo_score":1.0,"sales amount":5628.0,"year":2012,"id":"aaugbx3dz32w","address":"4231 SOUTH STATE STREET","geo_precision":"range","state":"UT"},"type":"Feature","geometry":{"type":"Point","coordinates":[-111.888171,40.678948]}},{"properties":{"qty":1,"city":"MURRAY","zipcode":"84107","country":"US","geo_score":1.0,"sales amount":5628.0,"year":2012,"id":"aaugbx9ynnhf","address":"4231 SOUTH STATE STREET","geo_precision":"range","state":"UT"},"type":"Feature","geometry":{"type":"Point","coordinates":[-111.888171,40.678948]}},{"properties":{"qty":1,"city":"CHEYENNE","zipcode":"82007","country":"US","geo_score":0.39,"sales amount":5628.0,"year":2012,"id":"aaugbxcwqxyg","address":"6335 Clear Creek Parkway","geo_precision":"street","state":"WY"},"type":"Feature","geometry":{"type":"Point","coordinates":[-104.762232,41.161842]}},{"properties":{"qty":1,"city":"CHEYENNE","zipcode":"82007","country":"US","geo_score":0.39,"sales amount":5628.0,"year":2012,"id":"aaugbx13hm1q","address":"6335 Clear Creek Parkway","geo_precision":"street","state":"WY"},"type":"Feature","geometry":{"type":"Point","coordinates":[-104.762232,41.161842]}},{"properties":{"qty":1,"city":"ENGLEWOOD","zipcode":"34224","country":"US","geo_score":1.0,"sales amount":5734.16,"year":2012,"id":"aaugbxce93i0","address":"2860 AVE OF THE AMERICAS","geo_precision":"range","state":"FL"},"type":"Feature","geometry":{"type":"Point","coordinates":[-82.311448,26.918825]}},{"properties":{"qty":2,"city":"LENOX","zipcode":"48050","country":"US","geo_score":0.913,"sales amount":5977.01,"year":2012,"id":"aaugbx60xng4","address":"65809 GRATIOT AVE","geo_precision":"range","state":"MI"},"type":"Feature","geometry":{"type":"Point","coordinates":[-82.744501,42.78506]}},{"properties":{"qty":1,"city":"COLUMBUS","zipcode":"43207","country":"US","geo_score":0.607,"sales amount":5982.55,"year":2012,"id":"aaugbx1ojaap","address":"50 E. KINGSTON AVE.","geo_precision":"street","state":"OH"},"type":"Feature","geometry":{"type":"Point","coordinates":[-82.995386,39.918445]}},{"properties":{"qty":1,"city":"COLUMBUS","zipcode":"43207","country":"US","geo_score":0.607,"sales amount":5982.55,"year":2012,"id":"aaugbx4p6e4q","address":"50 E. KINGSTON AVE.","geo_precision":"street","state":"OH"},"type":"Feature","geometry":{"type":"Point","coordinates":[-82.995386,39.918445]}},{"properties":{"qty":1,"city":"RAPID CITY","zipcode":"57701","country":"US","geo_score":1.0,"sales amount":6097.0,"year":2012,"id":"aaugbx14smrq","address":"311 NORTH CAMBELL ST","geo_precision":"range","state":"SD"},"type":"Feature","geometry":{"type":"Point","coordinates":[-103.191755,44.085659]}},{"properties":{"qty":1,"city":"COLUMBUS","zipcode":"43207","country":"US","geo_score":0.607,"sales amount":6167.36,"year":2012,"id":"aaugbxcx76au","address":"50 E. KINGSTON AVE.","geo_precision":"street","state":"OH"},"type":"Feature","geometry":{"type":"Point","coordinates":[-82.995386,39.918445]}},{"properties":{"qty":1,"city":"COLUMBUS","zipcode":"43207","country":"US","geo_score":0.607,"sales amount":6167.36,"year":2012,"id":"aaugbx9wlwnl","address":"50 E. KINGSTON AVE.","geo_precision":"street","state":"OH"},"type":"Feature","geometry":{"type":"Point","coordinates":[-82.995386,39.918445]}},{"properties":{"qty":1,"city":"CHESTERFIELD","zipcode":"63005","country":"US","geo_score":0.688,"sales amount":6289.95,"year":2012,"id":"aaugbx458dhz","address":"621 SPRIRT VALLEY EAST","geo_precision":"street","state":"MO"},"type":"Feature","geometry":{"type":"Point","coordinates":[-90.617824,38.646921]}},{"properties":{"qty":1,"city":"LANSING","zipcode":"48906","country":"US","geo_score":0.914,"sales amount":6483.75,"year":2012,"id":"aaugbx0zp6km","address":"3600 N GRAND RIVER RD","geo_precision":"range","state":"MI"},"type":"Feature","geometry":{"type":"Point","coordinates":[-84.582486,42.764459]}},{"properties":{"qty":1,"city":"COLUMBUS","zipcode":"43207","country":"US","geo_score":0.607,"sales amount":6483.75,"year":2012,"id":"aaugbx5eq9rx","address":"50 E. KINGSTON AVE.","geo_precision":"street","state":"OH"},"type":"Feature","geometry":{"type":"Point","coordinates":[-82.995386,39.918445]}},{"properties":{"qty":1,"city":"COLUMBUS","zipcode":"43207","country":"US","geo_score":0.607,"sales amount":6483.75,"year":2012,"id":"aaugbx80ua7x","address":"50 E. KINGSTON AVE.","geo_precision":"street","state":"OH"},"type":"Feature","geometry":{"type":"Point","coordinates":[-82.995386,39.918445]}},{"properties":{"qty":1,"city":"CLIFTON","zipcode":"81520","country":"US","geo_score":0.428,"sales amount":6633.0,"year":2012,"id":"aaugbx86dlh1","address":"549 32 ROAD   R","geo_precision":"street","state":"CO"},"type":"Feature","geometry":{"type":"Point","coordinates":[-108.882866,39.274751]}},{"properties":{"qty":1,"city":"FLEMINGTON","zipcode":"08822","country":"US","geo_score":0.375,"sales amount":6633.0,"year":2012,"id":"aaugbxbr2oyk","address":"DBA FUSCO'S RENTAL WORLD","geo_precision":"street","state":"NJ"},"type":"Feature","geometry":{"type":"Point","coordinates":[-74.246774,40.443978]}},{"properties":{"qty":1,"city":"OKLAHOMA CITY","zipcode":"73125","country":"US","geo_score":0.857,"sales amount":6747.32,"year":2012,"id":"aaugbx9r9hrl","address":"P.O.BOX 25030","geo_precision":"zip","state":"OK"},"type":"Feature","geometry":{"type":"Point","coordinates":[-97.521816,35.465418]}},{"properties":{"qty":1,"city":"OKLAHOMA CITY","zipcode":"73125","country":"US","geo_score":0.857,"sales amount":6747.32,"year":2012,"id":"aaugbx8budqy","address":"P.O.BOX 25030","geo_precision":"zip","state":"OK"},"type":"Feature","geometry":{"type":"Point","coordinates":[-97.521816,35.465418]}},{"properties":{"qty":1,"city":"MECHANICSBURG","zipcode":"17050","country":"US","geo_score":1.0,"sales amount":6825.0,"year":2012,"id":"aaugbx3q1zpx","address":"6779 CARLISLE PIKE","geo_precision":"range","state":"PA"},"type":"Feature","geometry":{"type":"Point","coordinates":[-77.068863,40.235812]}},{"properties":{"qty":1,"city":"MEDFORD","zipcode":"11763","country":"US","geo_score":1.0,"sales amount":6894.92,"year":2012,"id":"aaugbx9hnczh","address":"22 PECONIC AVE","geo_precision":"range","state":"NY"},"type":"Feature","geometry":{"type":"Point","coordinates":[-72.968156,40.817775]}},{"properties":{"qty":1,"city":"OROVILLE","zipcode":"95915","country":"US","geo_score":0.74,"sales amount":6989.81,"year":2012,"id":"aaugbx76pqym","address":"2526 SOUTH 5TH AVE","geo_precision":"range","state":"CA"},"type":"Feature","geometry":{"type":"Point","coordinates":[-121.565473,39.498859]}},{"properties":{"qty":1,"city":"PORT CHESTER","zipcode":"10573","country":"US","geo_score":1.0,"sales amount":7034.25,"year":2012,"id":"aaugbx19s9r7","address":"52-54 BEECH STREET","geo_precision":"range","state":"NY"},"type":"Feature","geometry":{"type":"Point","coordinates":[-73.662719,40.99614]}},{"properties":{"qty":1,"city":"PORT CHESTER","zipcode":"10573","country":"US","geo_score":1.0,"sales amount":7034.25,"year":2012,"id":"aaugbxehucby","address":"52-54 BEECH STREET","geo_precision":"range","state":"NY"},"type":"Feature","geometry":{"type":"Point","coordinates":[-73.662719,40.99614]}},{"properties":{"qty":1,"city":"PORT CHESTER","zipcode":"10573","country":"US","geo_score":1.0,"sales amount":7034.25,"year":2012,"id":"aaugbx0avbnf","address":"52-54 BEECH STREET","geo_precision":"range","state":"NY"},"type":"Feature","geometry":{"type":"Point","coordinates":[-73.662719,40.99614]}},{"properties":{"qty":1,"city":"CUMMING","zipcode":"30040","country":"US","geo_score":0.668,"sales amount":7062.0,"year":2012,"id":"aaugbx9qt3fn","address":"520 PIRKLE PERRY RD","geo_precision":"street","state":"GA"},"type":"Feature","geometry":{"type":"Point","coordinates":[-84.122069,34.32401]}},{"properties":{"qty":2,"city":"LONGMONT","zipcode":"80504","country":"US","geo_score":1.0,"sales amount":7140.0,"year":2012,"id":"aaugbx2mezjj","address":"4068 CAMELOT CIRCLE","geo_precision":"range","state":"CO"},"type":"Feature","geometry":{"type":"Point","coordinates":[-104.972073,40.214891]}},{"properties":{"qty":1,"city":"TULSA","zipcode":"74116","country":"US","geo_score":1.0,"sales amount":7256.4,"year":2012,"id":"aaugbx6l0fur","address":"4045 NORTH GARNETT ROAD","geo_precision":"range","state":"OK"},"type":"Feature","geometry":{"type":"Point","coordinates":[-95.849605,36.219272]}},{"properties":{"qty":1,"city":"LENOX","zipcode":"48050","country":"US","geo_score":0.913,"sales amount":7320.0,"year":2012,"id":"aaugbx755qa8","address":"65809 GRATIOT AVE","geo_precision":"range","state":"MI"},"type":"Feature","geometry":{"type":"Point","coordinates":[-82.744501,42.78506]}},{"properties":{"qty":1,"city":"MILWAUKEE","zipcode":"53225","country":"US","geo_score":0.595,"sales amount":7320.0,"year":2012,"id":"aaugbx3oujp6","address":"12101 W. SILVER SPRING DR","geo_precision":"street","state":"WI"},"type":"Feature","geometry":{"type":"Point","coordinates":[-88.018514,43.119554]}},{"properties":{"qty":1,"city":"SEDALIA","zipcode":"65301","country":"US","geo_score":0.935,"sales amount":7330.5,"year":2012,"id":"aaugbx410pax","address":"21474 WEST HWY 50","geo_precision":"range","state":"MO"},"type":"Feature","geometry":{"type":"Point","coordinates":[-93.294306,38.718634]}},{"properties":{"qty":1,"city":"PHOENIX","zipcode":"85009","country":"US","geo_score":0.941,"sales amount":7350.0,"year":2012,"id":"aaugbwzpsuol","address":"1219 S 19TH AVENUE","geo_precision":"range","state":"AZ"},"type":"Feature","geometry":{"type":"Point","coordinates":[-112.099913,33.436364]}},{"properties":{"qty":1,"city":"MILWAUKEE","zipcode":"53225","country":"US","geo_score":1.0,"sales amount":7460.0,"year":2012,"id":"aaugbx3z7ved","address":"12101 WEST SILVER SPRING DRIVE","geo_precision":"range","state":"WI"},"type":"Feature","geometry":{"type":"Point","coordinates":[-88.064106,43.116989]}},{"properties":{"qty":1,"city":"MILWAUKEE","zipcode":"53225","country":"US","geo_score":1.0,"sales amount":7460.0,"year":2012,"id":"aaugbxba6ur6","address":"12101 WEST SILVER SPRING DRIVE","geo_precision":"range","state":"WI"},"type":"Feature","geometry":{"type":"Point","coordinates":[-88.064106,43.116989]}},{"properties":{"qty":1,"city":"MILWAUKEE","zipcode":"53225","country":"US","geo_score":1.0,"sales amount":7460.0,"year":2012,"id":"aaugbx7k4g37","address":"12101 WEST SILVER SPRING DRIVE","geo_precision":"range","state":"WI"},"type":"Feature","geometry":{"type":"Point","coordinates":[-88.064106,43.116989]}},{"properties":{"qty":1,"city":"MILWAUKEE","zipcode":"53225","country":"US","geo_score":0.595,"sales amount":7466.4,"year":2012,"id":"aaugbxacvaac","address":"12101 W. SILVER SPRING DR","geo_precision":"street","state":"WI"},"type":"Feature","geometry":{"type":"Point","coordinates":[-88.018514,43.119554]}},{"properties":{"qty":1,"city":"MECHANICSBURG","zipcode":"17050","country":"US","geo_score":1.0,"sales amount":7467.0,"year":2012,"id":"aaugbx6o7wsb","address":"6779 CARLISLE PIKE","geo_precision":"range","state":"PA"},"type":"Feature","geometry":{"type":"Point","coordinates":[-77.068863,40.235812]}},{"properties":{"qty":1,"city":"EL PASO","zipcode":"79925","country":"US","geo_score":0.571,"sales amount":7474.25,"year":2012,"id":"aaugbx8nwejs","address":"6425 BOEING DR. C9","geo_precision":"street","state":"TX"},"type":"Feature","geometry":{"type":"Point","coordinates":[-106.404454,31.792295]}},{"properties":{"qty":1,"city":"KNOXVILLE","zipcode":"37921","country":"US","geo_score":0.805,"sales amount":7500.0,"year":2012,"id":"aaugbx2h8vla","address":"1902 MIDDLEBROOK PIKE","geo_precision":"street","state":"TN"},"type":"Feature","geometry":{"type":"Point","coordinates":[-83.947678,35.962226]}},{"properties":{"qty":1,"city":"SAUGERTIES","zipcode":"12477","country":"US","geo_score":0.894,"sales amount":7539.0,"year":2012,"id":"aaugbwzokmt6","address":"571 ROUTE 212","geo_precision":"range","state":"NY"},"type":"Feature","geometry":{"type":"Point","coordinates":[-74.072822,42.044763]}},{"properties":{"qty":1,"city":"SAUGERTIES","zipcode":"12477","country":"US","geo_score":0.894,"sales amount":7539.0,"year":2012,"id":"aaugbx8v5xbr","address":"571 ROUTE 212","geo_precision":"range","state":"NY"},"type":"Feature","geometry":{"type":"Point","coordinates":[-74.072822,42.044763]}},{"properties":{"qty":1,"city":"CLOVERDALE","zipcode":"24077","country":"US","geo_score":0.805,"sales amount":7540.0,"year":2012,"id":"aaugbxdvrsua","address":"210 UPDIKE LN","geo_precision":"range","state":"VA"},"type":"Feature","geometry":{"type":"Point","coordinates":[-79.909808,37.369485]}},{"properties":{"qty":1,"city":"SOUTH WINDSOR","zipcode":"06074","country":"US","geo_score":1.0,"sales amount":7616.0,"year":2012,"id":"aaugbx69c2kc","address":"410 BURNHAM STREET","geo_precision":"range","state":"CT"},"type":"Feature","geometry":{"type":"Point","coordinates":[-72.608029,41.799541]}},{"properties":{"qty":1,"city":"MONROE","zipcode":"98272","country":"US","geo_score":1.0,"sales amount":7690.0,"year":2012,"id":"aaugbx5f5ka7","address":"1144 VILLAGE WAY","geo_precision":"range","state":"WA"},"type":"Feature","geometry":{"type":"Point","coordinates":[-121.98589,47.84947]}},{"properties":{"qty":1,"city":"MONROE","zipcode":"98272","country":"US","geo_score":1.0,"sales amount":7690.0,"year":2012,"id":"aaugbx9omt4u","address":"1144 VILLAGE WAY","geo_precision":"range","state":"WA"},"type":"Feature","geometry":{"type":"Point","coordinates":[-121.98589,47.84947]}},{"properties":{"qty":1,"city":"MONROE","zipcode":"98272","country":"US","geo_score":1.0,"sales amount":7690.0,"year":2012,"id":"aaugbx964ixe","address":"1166A VILLAGE WAY","geo_precision":"range","state":"WA"},"type":"Feature","geometry":{"type":"Point","coordinates":[-121.985198,47.848834]}},{"properties":{"qty":1,"city":"LENOX","zipcode":"48050","country":"US","geo_score":0.913,"sales amount":7690.2,"year":2012,"id":"aaugbxec5snf","address":"65809 GRATIOT AVE","geo_precision":"range","state":"MI"},"type":"Feature","geometry":{"type":"Point","coordinates":[-82.744501,42.78506]}},{"properties":{"qty":1,"city":"ROANOKE","zipcode":"24019","country":"US","geo_score":1.0,"sales amount":7690.2,"year":2012,"id":"aaugbwzavtwe","address":"210 UPDIKE LANE","geo_precision":"range","state":"VA"},"type":"Feature","geometry":{"type":"Point","coordinates":[-79.909808,37.369485]}},{"properties":{"qty":1,"city":"MONROE","zipcode":"98272","country":"US","geo_score":1.0,"sales amount":7690.2,"year":2012,"id":"aaugbxe6aq8o","address":"1144 VILLAGE WAY","geo_precision":"range","state":"WA"},"type":"Feature","geometry":{"type":"Point","coordinates":[-121.98589,47.84947]}},{"properties":{"qty":1,"city":"CLIFTON","zipcode":"81520","country":"US","geo_score":0.596,"sales amount":7692.0,"year":2012,"id":"aaugbx1l3xlw","address":"549 32 ROAD","geo_precision":"street","state":"CO"},"type":"Feature","geometry":{"type":"Point","coordinates":[-108.451758,39.06865]}},{"properties":{"qty":1,"city":"BRASELTON","zipcode":"30517","country":"US","geo_score":0.878,"sales amount":7692.0,"year":2012,"id":"aaugbx5r48ix","address":"5333 BBS WAY","geo_precision":"range","state":"GA"},"type":"Feature","geometry":{"type":"Point","coordinates":[-83.803043,34.15256]}},{"properties":{"qty":1,"city":"NAPERVILLE","zipcode":"60563","country":"US","geo_score":1.0,"sales amount":7692.0,"year":2012,"id":"aaugbx913mbr","address":"1400 WEST OGDEN AVE","geo_precision":"range","state":"IL"},"type":"Feature","geometry":{"type":"Point","coordinates":[-88.183085,41.779983]}},{"properties":{"qty":1,"city":"LENOX","zipcode":"48050","country":"US","geo_score":0.913,"sales amount":7692.0,"year":2012,"id":"aaugbx097b7h","address":"65809 GRATIOT AVE","geo_precision":"range","state":"MI"},"type":"Feature","geometry":{"type":"Point","coordinates":[-82.744501,42.78506]}},{"properties":{"qty":2,"city":"CHESTERFIELD","zipcode":"63005","country":"US","geo_score":0.688,"sales amount":7775.29,"year":2012,"id":"aaugbx88m0tl","address":"621 SPRIRT VALLEY EAST","geo_precision":"street","state":"MO"},"type":"Feature","geometry":{"type":"Point","coordinates":[-90.617824,38.646921]}},{"properties":{"qty":3,"city":"ELIZABETHTOWN","zipcode":"42701","country":"US","geo_score":0.762,"sales amount":7897.5,"year":2012,"id":"aaugbxdqq57j","address":"400 PRODUCTION COURT","geo_precision":"street","state":"KY"},"type":"Feature","geometry":{"type":"Point","coordinates":[-85.838336,37.658029]}},{"properties":{"qty":2,"city":"PELLA","zipcode":"50219","country":"US","geo_score":0.707,"sales amount":7980.0,"year":2012,"id":"aaugbxaksu2v","address":"VERMEER RD EAST PLT #7","geo_precision":"range","state":"IA"},"type":"Feature","geometry":{"type":"Point","coordinates":[-92.898516,41.407267]}},{"properties":{"qty":2,"city":"PELLA","zipcode":"50219","country":"US","geo_score":0.707,"sales amount":7980.0,"year":2012,"id":"aaugbx80lwsc","address":"VERMEER RD EAST PLT #7","geo_precision":"range","state":"IA"},"type":"Feature","geometry":{"type":"Point","coordinates":[-92.898516,41.407267]}},{"properties":{"qty":1,"city":"BROOKVILLE","zipcode":"45309","country":"US","geo_score":0.927,"sales amount":8128.0,"year":2012,"id":"aaugbxcukdlu","address":"295 UPPER LEWISBURG ROAD","geo_precision":"range","state":"OH"},"type":"Feature","geometry":{"type":"Point","coordinates":[-84.376601,39.846495]}},{"properties":{"qty":1,"city":"JASPER","zipcode":"47546","country":"US","geo_score":1.0,"sales amount":8145.0,"year":2012,"id":"aaugbx6rh3b4","address":"635 MACARTHUR ST","geo_precision":"range","state":"IN"},"type":"Feature","geometry":{"type":"Point","coordinates":[-86.939204,38.392061]}},{"properties":{"qty":1,"city":"HAZELWOOD","zipcode":"63042","country":"US","geo_score":0.598,"sales amount":8685.0,"year":2012,"id":"aaugbwysp4mr","address":"5920 N. LINDBERGH BLVD","geo_precision":"street","state":"MO"},"type":"Feature","geometry":{"type":"Point","coordinates":[-90.376227,38.758039]}},{"properties":{"qty":2,"city":"SAINT LOUIS","zipcode":"63125","country":"US","geo_score":1.0,"sales amount":9180.0,"year":2012,"id":"aaugbx5gdj94","address":"4190 HOFFMEISTER AVE","geo_precision":"range","state":"MO"},"type":"Feature","geometry":{"type":"Point","coordinates":[-90.299505,38.542069]}},{"properties":{"qty":1,"city":"CRANBERRY TOWNSHIP","zipcode":"16066","country":"US","geo_score":0.793,"sales amount":9526.36,"year":2012,"id":"aaugbx74qvzb","address":"100 SMITH ROAD","geo_precision":"street","state":"PA"},"type":"Feature","geometry":{"type":"Point","coordinates":[-80.102007,40.697562]}},{"properties":{"qty":1,"city":"LANSING","zipcode":"48906","country":"US","geo_score":0.914,"sales amount":9567.45,"year":2012,"id":"aaugbxao9sme","address":"3600 N GRAND RIVER RD","geo_precision":"range","state":"MI"},"type":"Feature","geometry":{"type":"Point","coordinates":[-84.582486,42.764459]}},{"properties":{"qty":1,"city":"KNOXVILLE","zipcode":"37920","country":"US","geo_score":1.0,"sales amount":9582.57,"year":2012,"id":"aaugbx2cr7sg","address":"3300 ALCOA HWY","geo_precision":"range","state":"TN"},"type":"Feature","geometry":{"type":"Point","coordinates":[-83.953024,35.895638]}},{"properties":{"qty":1,"city":"FREEPORT","zipcode":"77541","country":"US","geo_score":0.585,"sales amount":9615.0,"year":2012,"id":"aaugbx9gniri","address":"2301 BRAZOPORT BLVD","geo_precision":"zip","state":"TX"},"type":"Feature","geometry":{"type":"Point","coordinates":[-95.455221,28.968582]}},{"properties":{"qty":1,"city":"MONROE","zipcode":"98272","country":"US","geo_score":1.0,"sales amount":9781.01,"year":2012,"id":"aaugbx9yh103","address":"1166A VILLAGE WAY","geo_precision":"range","state":"WA"},"type":"Feature","geometry":{"type":"Point","coordinates":[-121.985198,47.848834]}},{"properties":{"qty":1,"city":"COLUMBUS","zipcode":"43207","country":"US","geo_score":0.607,"sales amount":9849.6,"year":2012,"id":"aaugbx5e6wsr","address":"50 E. KINGSTON AVE.","geo_precision":"street","state":"OH"},"type":"Feature","geometry":{"type":"Point","coordinates":[-82.995386,39.918445]}},{"properties":{"qty":1,"city":"COLUMBUS","zipcode":"43207","country":"US","geo_score":0.607,"sales amount":9849.6,"year":2012,"id":"aaugbx3vaiy4","address":"50 E. KINGSTON AVE.","geo_precision":"street","state":"OH"},"type":"Feature","geometry":{"type":"Point","coordinates":[-82.995386,39.918445]}},{"properties":{"qty":1,"city":"COLUMBUS","zipcode":"43207","country":"US","geo_score":0.607,"sales amount":9849.6,"year":2012,"id":"aaugbx0jfn1t","address":"50 E. KINGSTON AVE.","geo_precision":"street","state":"OH"},"type":"Feature","geometry":{"type":"Point","coordinates":[-82.995386,39.918445]}},{"properties":{"qty":2,"city":"ENGLEWOOD","zipcode":"34224","country":"US","geo_score":1.0,"sales amount":9975.86,"year":2012,"id":"aaugbx7xfff4","address":"2860 AVE OF THE AMERICAS","geo_precision":"range","state":"FL"},"type":"Feature","geometry":{"type":"Point","coordinates":[-82.311448,26.918825]}},{"properties":{"qty":1,"city":"MANHATTAN","zipcode":"66502","country":"US","geo_score":1.0,"sales amount":10011.39,"year":2012,"id":"aaugbx5u2c7n","address":"915 ENOCH LANE","geo_precision":"range","state":"KS"},"type":"Feature","geometry":{"type":"Point","coordinates":[-96.547971,39.187667]}},{"properties":{"qty":1,"city":"SAINT CLOUD","zipcode":"56301","country":"US","geo_score":1.0,"sales amount":10011.39,"year":2012,"id":"aaugbxcuogft","address":"3352 SOUTHWAY DRIVE","geo_precision":"range","state":"MN"},"type":"Feature","geometry":{"type":"Point","coordinates":[-94.165849,45.513133]}},{"properties":{"qty":1,"city":"REPUBLIC","zipcode":"65738","country":"US","geo_score":0.286,"sales amount":10011.39,"year":2012,"id":"aaugbx40v4ca","address":"6876 W. REPUBLIC RD.","geo_precision":"street","state":"MO"},"type":"Feature","geometry":{"type":"Point","coordinates":[-91.805912,36.499082]}},{"properties":{"qty":1,"city":"SOUTHAVEN","zipcode":"38671","country":"US","geo_score":1.0,"sales amount":10011.39,"year":2012,"id":"aaugbx3r02s3","address":"7217 AIRWAYS BLVD","geo_precision":"range","state":"MS"},"type":"Feature","geometry":{"type":"Point","coordinates":[-89.989981,34.965666]}},{"properties":{"qty":1,"city":"MUSKOGEE","zipcode":"74401","country":"US","geo_score":0.935,"sales amount":10011.39,"year":2012,"id":"aaugbx7pxs6h","address":"2500 SOUTH 32ND STREET","geo_precision":"range","state":"OK"},"type":"Feature","geometry":{"type":"Point","coordinates":[-95.402483,35.724219]}},{"properties":{"qty":1,"city":"KNOXVILLE","zipcode":"37920","country":"US","geo_score":1.0,"sales amount":10060.5,"year":2012,"id":"aaugbx7tpbs1","address":"3300 ALCOA HWY","geo_precision":"range","state":"TN"},"type":"Feature","geometry":{"type":"Point","coordinates":[-83.953024,35.895638]}},{"properties":{"qty":1,"city":"SAN MARCOS","zipcode":"78666","country":"US","geo_score":0.74,"sales amount":10084.96,"year":2012,"id":"aaugbx1nw4cr","address":"4542 SOUTH INTERSTATE HWY 35 S","geo_precision":"street","state":"TX"},"type":"Feature","geometry":{"type":"Point","coordinates":[-97.957814,29.853154]}},{"properties":{"qty":1,"city":"SAN MARCOS","zipcode":"78666","country":"US","geo_score":0.74,"sales amount":10084.96,"year":2012,"id":"aaugbxcvejyr","address":"4542 SOUTH INTERSTATE HWY 35 S","geo_precision":"street","state":"TX"},"type":"Feature","geometry":{"type":"Point","coordinates":[-97.957814,29.853154]}},{"properties":{"qty":1,"city":"SAN MARCOS","zipcode":"78666","country":"US","geo_score":0.74,"sales amount":10084.96,"year":2012,"id":"aaugbxbos06g","address":"4542 SOUTH INTERSTATE HWY 35 S","geo_precision":"street","state":"TX"},"type":"Feature","geometry":{"type":"Point","coordinates":[-97.957814,29.853154]}},{"properties":{"qty":1,"city":"LUFKIN","zipcode":"75904","country":"US","geo_score":1.0,"sales amount":10105.3,"year":2012,"id":"aaugbxamvms8","address":"3500 ELLEN TROUT DRIVE","geo_precision":"range","state":"TX"},"type":"Feature","geometry":{"type":"Point","coordinates":[-94.741469,31.372307]}},{"properties":{"qty":1,"city":"LUFKIN","zipcode":"75904","country":"US","geo_score":1.0,"sales amount":10105.3,"year":2012,"id":"aaugbx3jabj5","address":"3500 ELLEN TROUT DRIVE","geo_precision":"range","state":"TX"},"type":"Feature","geometry":{"type":"Point","coordinates":[-94.741469,31.372307]}},{"properties":{"qty":1,"city":"LUFKIN","zipcode":"75904","country":"US","geo_score":1.0,"sales amount":10105.3,"year":2012,"id":"aaugbx3xkv6d","address":"3500 ELLEN TROUT DRIVE","geo_precision":"range","state":"TX"},"type":"Feature","geometry":{"type":"Point","coordinates":[-94.741469,31.372307]}},{"properties":{"qty":1,"city":"MANASSAS","zipcode":"20109","country":"US","geo_score":1.0,"sales amount":10105.3,"year":2012,"id":"aaugbx16m295","address":"12391 RANDOLPH RIDGE LN","geo_precision":"range","state":"VA"},"type":"Feature","geometry":{"type":"Point","coordinates":[-77.560453,38.790127]}},{"properties":{"qty":1,"city":"WATERTOWN","zipcode":"02472","country":"US","geo_score":1.0,"sales amount":10122.16,"year":2012,"id":"aaugbx4etdyg","address":"340 PLEASANT STREET","geo_precision":"range","state":"MA"},"type":"Feature","geometry":{"type":"Point","coordinates":[-71.19682,42.368135]}},{"properties":{"qty":1,"city":"SANTA FE","zipcode":"87507","country":"US","geo_score":0.902,"sales amount":10122.16,"year":2012,"id":"aaugbx01yedp","address":"2707 CERILLOS","geo_precision":"range","state":"NM"},"type":"Feature","geometry":{"type":"Point","coordinates":[-105.986024,35.658256]}},{"properties":{"qty":1,"city":"SAN BENITO","zipcode":"78586","country":"US","geo_score":0.752,"sales amount":10122.16,"year":2012,"id":"aaugbx3kxy5j","address":"1720 W US HWY 77","geo_precision":"street","state":"TX"},"type":"Feature","geometry":{"type":"Point","coordinates":[-97.628113,26.120611]}},{"properties":{"qty":1,"city":"SAN BENITO","zipcode":"78586","country":"US","geo_score":0.752,"sales amount":10122.16,"year":2012,"id":"aaugbxa3sqsl","address":"1720 W US HWY 77","geo_precision":"street","state":"TX"},"type":"Feature","geometry":{"type":"Point","coordinates":[-97.628113,26.120611]}},{"properties":{"qty":1,"city":"GARLAND","zipcode":"75041","country":"US","geo_score":0.604,"sales amount":10122.16,"year":2012,"id":"aaugbxegj3yi","address":"2809 W. KINGSLEY ROAD","geo_precision":"street","state":"TX"},"type":"Feature","geometry":{"type":"Point","coordinates":[-96.630918,32.878693]}},{"properties":{"qty":1,"city":"GARLAND","zipcode":"75041","country":"US","geo_score":0.604,"sales amount":10122.16,"year":2012,"id":"aaugbwzw6bew","address":"2809 W. KINGSLEY ROAD","geo_precision":"street","state":"TX"},"type":"Feature","geometry":{"type":"Point","coordinates":[-96.630918,32.878693]}},{"properties":{"qty":1,"city":"EL PASO","zipcode":"79915","country":"US","geo_score":0.895,"sales amount":10122.16,"year":2012,"id":"aaugbxaeks15","address":"6914 GATEWAY EAST","geo_precision":"range","state":"TX"},"type":"Feature","geometry":{"type":"Point","coordinates":[-106.381799,31.773148]}},{"properties":{"qty":1,"city":"CHARLOTTESVILLE","zipcode":"22902","country":"US","geo_score":1.0,"sales amount":10122.16,"year":2012,"id":"aaugbwyf1zq5","address":"104 MEADE AVE","geo_precision":"range","state":"VA"},"type":"Feature","geometry":{"type":"Point","coordinates":[-78.46738,38.026243]}},{"properties":{"qty":1,"city":"CHRISTIANSBURG","zipcode":"24073","country":"US","geo_score":1.0,"sales amount":10130.36,"year":2012,"id":"aaugbx3oedbx","address":"1570 RADFORD ROAD","geo_precision":"range","state":"VA"},"type":"Feature","geometry":{"type":"Point","coordinates":[-80.444591,37.128853]}},{"properties":{"qty":1,"city":"FORT WAYNE","zipcode":"46809","country":"US","geo_score":1.0,"sales amount":10368.0,"year":2012,"id":"aaugbx17pm0d","address":"3911 LIMESTONE DRIVE","geo_precision":"range","state":"IN"},"type":"Feature","geometry":{"type":"Point","coordinates":[-85.187992,41.020336]}},{"properties":{"qty":1,"city":"JOHNSON CITY","zipcode":"37601","country":"US","geo_score":1.0,"sales amount":10368.0,"year":2012,"id":"aaugbxcqc1wp","address":"2212 EDDIE WILLIAMS ROAD","geo_precision":"range","state":"TN"},"type":"Feature","geometry":{"type":"Point","coordinates":[-82.322927,36.349332]}},{"properties":{"qty":1,"city":"UNION","zipcode":"63084","country":"US","geo_score":0.958,"sales amount":10380.0,"year":2012,"id":"aaugbx1khtdk","address":"1320 STYLEMASTER DRIVE","geo_precision":"range","state":"MO"},"type":"Feature","geometry":{"type":"Point","coordinates":[-91.019456,38.458334]}},{"properties":{"qty":4,"city":"ELIZABETHTOWN","zipcode":"42701","country":"US","geo_score":0.762,"sales amount":10530.0,"year":2012,"id":"aaugbx65qwxl","address":"400 PRODUCTION COURT","geo_precision":"street","state":"KY"},"type":"Feature","geometry":{"type":"Point","coordinates":[-85.838336,37.658029]}},{"properties":{"qty":1,"city":"SUN PRAIRIE","zipcode":"53590","country":"US","geo_score":1.0,"sales amount":10575.6,"year":2012,"id":"aaugbx163n5d","address":"1900 WEST MAIN ST","geo_precision":"range","state":"WI"},"type":"Feature","geometry":{"type":"Point","coordinates":[-89.24658,43.176306]}},{"properties":{"qty":1,"city":"REDMOND","zipcode":"97756","country":"US","geo_score":1.0,"sales amount":10578.0,"year":2012,"id":"aaugbwyuxna2","address":"1520 NORTH HIGHWAY 97","geo_precision":"range","state":"OR"},"type":"Feature","geometry":{"type":"Point","coordinates":[-121.17386,44.289834]}},{"properties":{"qty":1,"city":"CRANBERRY TOWNSHIP","zipcode":"16066","country":"US","geo_score":0.829,"sales amount":10578.0,"year":2012,"id":"aaugbx88ytx1","address":"100 SMITH DRIVE","geo_precision":"street","state":"PA"},"type":"Feature","geometry":{"type":"Point","coordinates":[-80.102007,40.697562]}},{"properties":{"qty":1,"city":"CRANBERRY TOWNSHIP","zipcode":"16066","country":"US","geo_score":0.829,"sales amount":10578.0,"year":2012,"id":"aaugbx528ryp","address":"100 SMITH DRIVE","geo_precision":"street","state":"PA"},"type":"Feature","geometry":{"type":"Point","coordinates":[-80.102007,40.697562]}},{"properties":{"qty":1,"city":"CRANBERRY TOWNSHIP","zipcode":"16066","country":"US","geo_score":0.829,"sales amount":10578.0,"year":2012,"id":"aaugbxb2t53r","address":"100 SMITH DRIVE","geo_precision":"street","state":"PA"},"type":"Feature","geometry":{"type":"Point","coordinates":[-80.102007,40.697562]}},{"properties":{"qty":1,"city":"CRANBERRY TOWNSHIP","zipcode":"16066","country":"US","geo_score":0.829,"sales amount":10578.0,"year":2012,"id":"aaugbxdrv8ib","address":"100 SMITH DRIVE","geo_precision":"street","state":"PA"},"type":"Feature","geometry":{"type":"Point","coordinates":[-80.102007,40.697562]}},{"properties":{"qty":1,"city":"CRANBERRY TOWNSHIP","zipcode":"16066","country":"US","geo_score":0.829,"sales amount":10578.0,"year":2012,"id":"aaugbx5fgvxo","address":"100 SMITH DRIVE","geo_precision":"street","state":"PA"},"type":"Feature","geometry":{"type":"Point","coordinates":[-80.102007,40.697562]}},{"properties":{"qty":1,"city":"MECHANICSBURG","zipcode":"17050","country":"US","geo_score":1.0,"sales amount":10578.0,"year":2012,"id":"aaugbwz6unkn","address":"6779 CARLISLE PIKE","geo_precision":"range","state":"PA"},"type":"Feature","geometry":{"type":"Point","coordinates":[-77.068863,40.235812]}},{"properties":{"qty":1,"city":"MECHANICSBURG","zipcode":"17050","country":"US","geo_score":1.0,"sales amount":10578.0,"year":2012,"id":"aaugbxedjvdh","address":"6779 CARLISLE PIKE","geo_precision":"range","state":"PA"},"type":"Feature","geometry":{"type":"Point","coordinates":[-77.068863,40.235812]}},{"properties":{"qty":1,"city":"MECHANICSBURG","zipcode":"17050","country":"US","geo_score":1.0,"sales amount":10578.0,"year":2012,"id":"aaugbx3k0m8r","address":"6779 CARLISLE PIKE","geo_precision":"range","state":"PA"},"type":"Feature","geometry":{"type":"Point","coordinates":[-77.068863,40.235812]}},{"properties":{"qty":1,"city":"MECHANICSBURG","zipcode":"17050","country":"US","geo_score":1.0,"sales amount":10578.0,"year":2012,"id":"aaugbxe493s9","address":"6779 CARLISLE PIKE","geo_precision":"range","state":"PA"},"type":"Feature","geometry":{"type":"Point","coordinates":[-77.068863,40.235812]}},{"properties":{"qty":1,"city":"MECHANICSBURG","zipcode":"17050","country":"US","geo_score":1.0,"sales amount":10578.0,"year":2012,"id":"aaugbx2w2owo","address":"6779 CARLISLE PIKE","geo_precision":"range","state":"PA"},"type":"Feature","geometry":{"type":"Point","coordinates":[-77.068863,40.235812]}},{"properties":{"qty":1,"city":"MEMPHIS","zipcode":"38116","country":"US","geo_score":1.0,"sales amount":10578.0,"year":2012,"id":"aaugbx8nyb0p","address":"3050 FERRELL PARK COVE","geo_precision":"range","state":"TN"},"type":"Feature","geometry":{"type":"Point","coordinates":[-90.008335,35.066722]}},{"properties":{"qty":1,"city":"MILWAUKEE","zipcode":"53225","country":"US","geo_score":0.595,"sales amount":10578.0,"year":2012,"id":"aaugbx27c5rc","address":"12101 W. SILVER SPRING DR","geo_precision":"street","state":"WI"},"type":"Feature","geometry":{"type":"Point","coordinates":[-88.018514,43.119554]}},{"properties":{"qty":1,"city":"BOSTON","zipcode":"02125","country":"US","geo_score":1.0,"sales amount":10586.94,"year":2012,"id":"aaugbwzra5jt","address":"33 LOCUST STREET","geo_precision":"range","state":"MA"},"type":"Feature","geometry":{"type":"Point","coordinates":[-71.055324,42.323315]}},{"properties":{"qty":1,"city":"BOSTON","zipcode":"02125","country":"US","geo_score":1.0,"sales amount":10586.94,"year":2012,"id":"aaugbx5mmxcy","address":"33 LOCUST STREET","geo_precision":"range","state":"MA"},"type":"Feature","geometry":{"type":"Point","coordinates":[-71.055324,42.323315]}},{"properties":{"qty":1,"city":"COMMERCE CITY","zipcode":"80022","country":"US","geo_score":1.0,"sales amount":10590.0,"year":2012,"id":"aaugbxcpnpvv","address":"5250 COLORADO BLVD","geo_precision":"range","state":"CO"},"type":"Feature","geometry":{"type":"Point","coordinates":[-104.939564,39.791598]}},{"properties":{"qty":1,"city":"BOSTON","zipcode":"02125","country":"US","geo_score":1.0,"sales amount":10590.0,"year":2012,"id":"aaugbx9d6uyh","address":"33 LOCUST STREET","geo_precision":"range","state":"MA"},"type":"Feature","geometry":{"type":"Point","coordinates":[-71.055324,42.323315]}},{"properties":{"qty":2,"city":"HAZELWOOD","zipcode":"63042","country":"US","geo_score":0.598,"sales amount":10590.0,"year":2012,"id":"aaugbx5vzznv","address":"5920 N. LINDBERGH BLVD","geo_precision":"street","state":"MO"},"type":"Feature","geometry":{"type":"Point","coordinates":[-90.376227,38.758039]}},{"properties":{"qty":2,"city":"MECHANICSBURG","zipcode":"17050","country":"US","geo_score":1.0,"sales amount":10590.0,"year":2012,"id":"aaugbx9wb2vx","address":"6779 CARLISLE PIKE","geo_precision":"range","state":"PA"},"type":"Feature","geometry":{"type":"Point","coordinates":[-77.068863,40.235812]}},{"properties":{"qty":1,"city":"CASPER","zipcode":"82601","country":"US","geo_score":0.607,"sales amount":10590.0,"year":2012,"id":"aaugbxb09kja","address":"1100 W. COYOTE AVE","geo_precision":"street","state":"WY"},"type":"Feature","geometry":{"type":"Point","coordinates":[-106.338045,42.916669]}},{"properties":{"qty":1,"city":"OKLAHOMA CITY","zipcode":"73125","country":"US","geo_score":0.857,"sales amount":10765.47,"year":2012,"id":"aaugbwzrcct0","address":"P.O.BOX 25030","geo_precision":"zip","state":"OK"},"type":"Feature","geometry":{"type":"Point","coordinates":[-97.521816,35.465418]}},{"properties":{"qty":2,"city":"MILWAUKEE","zipcode":"53225","country":"US","geo_score":1.0,"sales amount":10796.0,"year":2012,"id":"aaugbxd61mdp","address":"12101 WEST SILVER SPRING DRIVE","geo_precision":"range","state":"WI"},"type":"Feature","geometry":{"type":"Point","coordinates":[-88.064106,43.116989]}},{"properties":{"qty":1,"city":"HAZELWOOD","zipcode":"63042","country":"US","geo_score":0.598,"sales amount":10801.8,"year":2012,"id":"aaugbx4he2ea","address":"5920 N. LINDBERGH BLVD","geo_precision":"street","state":"MO"},"type":"Feature","geometry":{"type":"Point","coordinates":[-90.376227,38.758039]}},{"properties":{"qty":1,"city":"CLOVERDALE","zipcode":"24077","country":"US","geo_score":0.805,"sales amount":10801.8,"year":2012,"id":"aaugbx17pp5b","address":"210 UPDIKE LN","geo_precision":"range","state":"VA"},"type":"Feature","geometry":{"type":"Point","coordinates":[-79.909808,37.369485]}},{"properties":{"qty":1,"city":"PHOENIX","zipcode":"85009","country":"US","geo_score":0.595,"sales amount":10803.0,"year":2012,"id":"aaugbx7releb","address":"4044 W. LOWER BUCKEYE RD.","geo_precision":"street","state":"AZ"},"type":"Feature","geometry":{"type":"Point","coordinates":[-112.099731,33.422239]}},{"properties":{"qty":1,"city":"PLACENTIA","zipcode":"92870","country":"US","geo_score":1.0,"sales amount":10803.0,"year":2012,"id":"aaugbx2vxg2c","address":"569 S VAN BUREN ST","geo_precision":"range","state":"CA"},"type":"Feature","geometry":{"type":"Point","coordinates":[-117.831364,33.866537]}},{"properties":{"qty":1,"city":"ROGERS","zipcode":"55374","country":"US","geo_score":1.0,"sales amount":10803.0,"year":2012,"id":"aaugbwz5pkah","address":"14375 JAMES ROAD","geo_precision":"range","state":"MN"},"type":"Feature","geometry":{"type":"Point","coordinates":[-93.550019,45.212705]}},{"properties":{"qty":1,"city":"ROSEMOUNT","zipcode":"55068","country":"US","geo_score":0.902,"sales amount":10803.0,"year":2012,"id":"aaugbx1bl6jd","address":"15125 SOUTH ROBERT TRAIL","geo_precision":"range","state":"MN"},"type":"Feature","geometry":{"type":"Point","coordinates":[-93.128675,44.729795]}},{"properties":{"qty":1,"city":"SHAKOPEE","zipcode":"55379","country":"US","geo_score":0.717,"sales amount":10803.0,"year":2012,"id":"aaugbx5lu9co","address":"6340 HWY 101","geo_precision":"street","state":"MN"},"type":"Feature","geometry":{"type":"Point","coordinates":[-93.509256,44.800784]}},{"properties":{"qty":1,"city":"CROOKSTON","zipcode":"56716","country":"US","geo_score":0.902,"sales amount":10803.0,"year":2012,"id":"aaugbxa2789z","address":"500 INGERSOLL AVE","geo_precision":"street","state":"MN"},"type":"Feature","geometry":{"type":"Point","coordinates":[-96.631919,47.760355]}},{"properties":{"qty":1,"city":"HERMANTOWN","zipcode":"55811","country":"US","geo_score":0.912,"sales amount":10803.0,"year":2012,"id":"aaugbx2sgazh","address":"4311 HAINES ROAD","geo_precision":"range","state":"MN"},"type":"Feature","geometry":{"type":"Point","coordinates":[-92.174893,46.827528]}},{"properties":{"qty":1,"city":"BOZEMAN","zipcode":"59718","country":"US","geo_score":0.698,"sales amount":10803.0,"year":2012,"id":"aaugbx6kl20r","address":"80 SHIRE TRAIL","geo_precision":"street","state":"MT"},"type":"Feature","geometry":{"type":"Point","coordinates":[-111.18703,45.666351]}},{"properties":{"qty":1,"city":"MINOT","zipcode":"58701","country":"US","geo_score":0.732,"sales amount":10803.0,"year":2012,"id":"aaugbx5q7s2y","address":"5015 HWY 2 EAST","geo_precision":"range","state":"ND"},"type":"Feature","geometry":{"type":"Point","coordinates":[-101.222066,48.229131]}},{"properties":{"qty":1,"city":"WILLISTON","zipcode":"58801","country":"US","geo_score":0.807,"sales amount":10803.0,"year":2012,"id":"aaugbwz0ksb6","address":"13954 WEST FRONT STREET","geo_precision":"street","state":"ND"},"type":"Feature","geometry":{"type":"Point","coordinates":[-103.690699,48.139693]}},{"properties":{"qty":1,"city":"BISMARCK","zipcode":"58501","country":"US","geo_score":1.0,"sales amount":10803.0,"year":2012,"id":"aaugbx9qz1x0","address":"1500 INDUSTRIAL DRIVE","geo_precision":"range","state":"ND"},"type":"Feature","geometry":{"type":"Point","coordinates":[-100.73122,46.820855]}},{"properties":{"qty":1,"city":"DICKINSON","zipcode":"58601","country":"US","geo_score":0.585,"sales amount":10803.0,"year":2012,"id":"aaugbx3ue1oc","address":"3079 ENERGY DRIVE","geo_precision":"zip","state":"ND"},"type":"Feature","geometry":{"type":"Point","coordinates":[-102.756514,46.805716]}},{"properties":{"qty":1,"city":"WEST FARGO","zipcode":"58078","country":"US","geo_score":0.779,"sales amount":10803.0,"year":2012,"id":"aaugbx9hb055","address":"644 EAST BEATON DRIVE","geo_precision":"street","state":"ND"},"type":"Feature","geometry":{"type":"Point","coordinates":[-96.902834,46.848471]}},{"properties":{"qty":1,"city":"GRAND FORKS","zipcode":"58203","country":"US","geo_score":1.0,"sales amount":10803.0,"year":2012,"id":"aaugbx3fz0qx","address":"1601 NORTH WASHINGTON ST","geo_precision":"range","state":"ND"},"type":"Feature","geometry":{"type":"Point","coordinates":[-97.056961,47.936479]}},{"properties":{"qty":1,"city":"RICHFIELD","zipcode":"44286","country":"US","geo_score":0.585,"sales amount":10803.0,"year":2012,"id":"aaugbx7qqngv","address":"3942 BRECKSVILLE ROAD","geo_precision":"zip","state":"OH"},"type":"Feature","geometry":{"type":"Point","coordinates":[-81.655124,41.239499]}},{"properties":{"qty":1,"city":"MEMPHIS","zipcode":"38116","country":"US","geo_score":1.0,"sales amount":10803.0,"year":2012,"id":"aaugbwz5u4s0","address":"3050 FERRELL PARK COVE","geo_precision":"range","state":"TN"},"type":"Feature","geometry":{"type":"Point","coordinates":[-90.008335,35.066722]}},{"properties":{"qty":1,"city":"CHEYENNE","zipcode":"82007","country":"US","geo_score":0.39,"sales amount":10803.0,"year":2012,"id":"aaugbx1nwxna","address":"6335 Clear Creek Parkway","geo_precision":"street","state":"WY"},"type":"Feature","geometry":{"type":"Point","coordinates":[-104.762232,41.161842]}},{"properties":{"qty":2,"city":"LEXINGTON","zipcode":"40510","country":"US","geo_score":1.0,"sales amount":10806.0,"year":2012,"id":"aaugbxbc1nuy","address":"2180 OLD FRANKFORT PIKE","geo_precision":"range","state":"KY"},"type":"Feature","geometry":{"type":"Point","coordinates":[-84.551974,38.065476]}},{"properties":{"qty":2,"city":"IOWA CITY","zipcode":"52240","country":"US","geo_score":1.0,"sales amount":10814.4,"year":2012,"id":"aaugbx1lu5eu","address":"227 KIRKWOOD AVE","geo_precision":"range","state":"IA"},"type":"Feature","geometry":{"type":"Point","coordinates":[-91.532123,41.64937]}},{"properties":{"qty":2,"city":"MURRAY","zipcode":"84107","country":"US","geo_score":1.0,"sales amount":11034.0,"year":2012,"id":"aaugbx03v32p","address":"4231 SOUTH STATE STREET","geo_precision":"range","state":"UT"},"type":"Feature","geometry":{"type":"Point","coordinates":[-111.888171,40.678948]}},{"properties":{"qty":3,"city":"MECHANICSBURG","zipcode":"17050","country":"US","geo_score":1.0,"sales amount":11115.0,"year":2012,"id":"aaugbx9udi0t","address":"6779 CARLISLE PIKE","geo_precision":"range","state":"PA"},"type":"Feature","geometry":{"type":"Point","coordinates":[-77.068863,40.235812]}},{"properties":{"qty":2,"city":"MONROE","zipcode":"98272","country":"US","geo_score":1.0,"sales amount":11254.0,"year":2012,"id":"aaugbx68oy89","address":"1130 VILLAGE WAY","geo_precision":"range","state":"WA"},"type":"Feature","geometry":{"type":"Point","coordinates":[-121.985976,47.849945]}},{"properties":{"qty":2,"city":"ROSEMOUNT","zipcode":"55068","country":"US","geo_score":0.902,"sales amount":11256.0,"year":2012,"id":"aaugbwyyz6fo","address":"15125 SOUTH ROBERT TRAIL","geo_precision":"range","state":"MN"},"type":"Feature","geometry":{"type":"Point","coordinates":[-93.128675,44.729795]}},{"properties":{"qty":2,"city":"ROGERS","zipcode":"55374","country":"US","geo_score":1.0,"sales amount":11256.0,"year":2012,"id":"aaugbx8ggchn","address":"14375 JAMES ROAD","geo_precision":"range","state":"MN"},"type":"Feature","geometry":{"type":"Point","coordinates":[-93.550019,45.212705]}},{"properties":{"qty":2,"city":"SHAKOPEE","zipcode":"55379","country":"US","geo_score":0.717,"sales amount":11256.0,"year":2012,"id":"aaugbxajzry3","address":"6340 HWY 101","geo_precision":"street","state":"MN"},"type":"Feature","geometry":{"type":"Point","coordinates":[-93.509256,44.800784]}},{"properties":{"qty":2,"city":"HERMANTOWN","zipcode":"55811","country":"US","geo_score":0.912,"sales amount":11256.0,"year":2012,"id":"aaugbxaw57o7","address":"4311 HAINES ROAD","geo_precision":"range","state":"MN"},"type":"Feature","geometry":{"type":"Point","coordinates":[-92.174893,46.827528]}},{"properties":{"qty":2,"city":"SAINT PETERS","zipcode":"63376","country":"US","geo_score":1.0,"sales amount":11256.0,"year":2012,"id":"aaugbxcvygbu","address":"420 S CHURCH STREET","geo_precision":"range","state":"MO"},"type":"Feature","geometry":{"type":"Point","coordinates":[-90.629545,38.792821]}},{"properties":{"qty":2,"city":"SAINT LOUIS","zipcode":"63125","country":"US","geo_score":1.0,"sales amount":11256.0,"year":2012,"id":"aaugbx6pax7x","address":"4190 HOFFMEISTER AVE","geo_precision":"range","state":"MO"},"type":"Feature","geometry":{"type":"Point","coordinates":[-90.299505,38.542069]}},{"properties":{"qty":2,"city":"SAINT LOUIS","zipcode":"63125","country":"US","geo_score":1.0,"sales amount":11256.0,"year":2012,"id":"aaugbx9m3m01","address":"4190 HOFFMEISTER AVE","geo_precision":"range","state":"MO"},"type":"Feature","geometry":{"type":"Point","coordinates":[-90.299505,38.542069]}},{"properties":{"qty":2,"city":"WILLISTON","zipcode":"58801","country":"US","geo_score":0.807,"sales amount":11256.0,"year":2012,"id":"aaugbx0h95ww","address":"13954 WEST FRONT STREET","geo_precision":"street","state":"ND"},"type":"Feature","geometry":{"type":"Point","coordinates":[-103.690699,48.139693]}},{"properties":{"qty":2,"city":"MINOT","zipcode":"58701","country":"US","geo_score":0.732,"sales amount":11256.0,"year":2012,"id":"aaugbx14isvs","address":"5015 HWY 2 EAST","geo_precision":"range","state":"ND"},"type":"Feature","geometry":{"type":"Point","coordinates":[-101.222066,48.229131]}},{"properties":{"qty":2,"city":"BISMARCK","zipcode":"58501","country":"US","geo_score":1.0,"sales amount":11256.0,"year":2012,"id":"aaugbx3ilpan","address":"1500 INDUSTRIAL DRIVE","geo_precision":"range","state":"ND"},"type":"Feature","geometry":{"type":"Point","coordinates":[-100.73122,46.820855]}},{"properties":{"qty":2,"city":"DICKINSON","zipcode":"58601","country":"US","geo_score":0.585,"sales amount":11256.0,"year":2012,"id":"aaugbx1lcqlj","address":"3079 ENERGY DRIVE","geo_precision":"zip","state":"ND"},"type":"Feature","geometry":{"type":"Point","coordinates":[-102.756514,46.805716]}},{"properties":{"qty":2,"city":"WEST FARGO","zipcode":"58078","country":"US","geo_score":0.779,"sales amount":11256.0,"year":2012,"id":"aaugbx834cbv","address":"644 EAST BEATON DRIVE","geo_precision":"street","state":"ND"},"type":"Feature","geometry":{"type":"Point","coordinates":[-96.902834,46.848471]}},{"properties":{"qty":1,"city":"FLEMINGTON","zipcode":"08822","country":"US","geo_score":0.375,"sales amount":11769.0,"year":2012,"id":"aaugbx2rl57s","address":"DBA FUSCO'S RENTAL WORLD","geo_precision":"street","state":"NJ"},"type":"Feature","geometry":{"type":"Point","coordinates":[-74.246774,40.443978]}},{"properties":{"qty":1,"city":"JESSUP","zipcode":"20794","country":"US","geo_score":1.0,"sales amount":11796.0,"year":2012,"id":"aaugbx4yg9u9","address":"10421 GUILFORD RD","geo_precision":"range","state":"MD"},"type":"Feature","geometry":{"type":"Point","coordinates":[-76.807193,39.140942]}},{"properties":{"qty":1,"city":"WILKES-BARRE","zipcode":"18702","country":"US","geo_score":1.0,"sales amount":11796.0,"year":2012,"id":"aaugbxbb6wsk","address":"1500 HIGHWAY 315","geo_precision":"range","state":"PA"},"type":"Feature","geometry":{"type":"Point","coordinates":[-75.799359,41.275056]}},{"properties":{"qty":1,"city":"PORT CHESTER","zipcode":"10573","country":"US","geo_score":1.0,"sales amount":11948.25,"year":2012,"id":"aaugbx2o4ukz","address":"52-54 BEECH STREET","geo_precision":"range","state":"NY"},"type":"Feature","geometry":{"type":"Point","coordinates":[-73.662719,40.99614]}},{"properties":{"qty":3,"city":"PELLA","zipcode":"50219","country":"US","geo_score":0.806,"sales amount":11970.0,"year":2012,"id":"aaugbx4cyrgv","address":"2010 VERMEER ROAD EAST","geo_precision":"street","state":"IA"},"type":"Feature","geometry":{"type":"Point","coordinates":[-92.895046,41.407391]}},{"properties":{"qty":3,"city":"PELLA","zipcode":"50219","country":"US","geo_score":0.707,"sales amount":11970.0,"year":2012,"id":"aaugbxbca3tn","address":"2010 VERMEER RD EAST PLT #7","geo_precision":"range","state":"IA"},"type":"Feature","geometry":{"type":"Point","coordinates":[-92.898516,41.407267]}},{"properties":{"qty":1,"city":"CUMMING","zipcode":"30040","country":"US","geo_score":0.668,"sales amount":12493.0,"year":2012,"id":"aaugbx3xpycm","address":"520 PIRKLE PERRY RD","geo_precision":"street","state":"GA"},"type":"Feature","geometry":{"type":"Point","coordinates":[-84.122069,34.32401]}},{"properties":{"qty":2,"city":"BALTIMORE","zipcode":"21224","country":"US","geo_score":0.39,"sales amount":12700.0,"year":2012,"id":"aaugbxdunusy","address":"5501 O'DONNELL ST","geo_precision":"street","state":"MD"},"type":"Feature","geometry":{"type":"Point","coordinates":[-76.722746,39.354755]}},{"properties":{"qty":1,"city":"FLEMINGTON","zipcode":"08822","country":"US","geo_score":0.375,"sales amount":12789.0,"year":2012,"id":"aaugbxcxddxg","address":"DBA FUSCO'S RENTAL WORLD","geo_precision":"street","state":"NJ"},"type":"Feature","geometry":{"type":"Point","coordinates":[-74.246774,40.443978]}},{"properties":{"qty":1,"city":"FAIRFIELD","zipcode":"94534","country":"US","geo_score":0.862,"sales amount":12827.85,"year":2012,"id":"aaugbx3vtonr","address":"5170 FULTON DR SUITE 2","geo_precision":"range","state":"CA"},"type":"Feature","geometry":{"type":"Point","coordinates":[-122.142763,38.207201]}},{"properties":{"qty":1,"city":"FAIRFIELD","zipcode":"94534","country":"US","geo_score":0.862,"sales amount":12827.85,"year":2012,"id":"aaugbx66rsmb","address":"5170 FULTON DR SUITE 2","geo_precision":"range","state":"CA"},"type":"Feature","geometry":{"type":"Point","coordinates":[-122.142763,38.207201]}},{"properties":{"qty":1,"city":"FAIRFIELD","zipcode":"94534","country":"US","geo_score":0.862,"sales amount":12827.85,"year":2012,"id":"aaugbx8uiapb","address":"5170 FULTON DR SUITE 2","geo_precision":"range","state":"CA"},"type":"Feature","geometry":{"type":"Point","coordinates":[-122.142763,38.207201]}},{"properties":{"qty":1,"city":"FAIRFIELD","zipcode":"94534","country":"US","geo_score":0.862,"sales amount":12827.85,"year":2012,"id":"aaugbxdpnrdm","address":"5170 FULTON DR SUITE 2","geo_precision":"range","state":"CA"},"type":"Feature","geometry":{"type":"Point","coordinates":[-122.142763,38.207201]}},{"properties":{"qty":1,"city":"FAIRFIELD","zipcode":"94534","country":"US","geo_score":0.862,"sales amount":12827.85,"year":2012,"id":"aaugbwyellps","address":"5170 FULTON DR SUITE 2","geo_precision":"range","state":"CA"},"type":"Feature","geometry":{"type":"Point","coordinates":[-122.142763,38.207201]}},{"properties":{"qty":1,"city":"IRON RIVER","zipcode":"49935","country":"US","geo_score":0.585,"sales amount":12960.0,"year":2012,"id":"aaugbx9lru50","address":"1520 W ADAM ST","geo_precision":"zip","state":"MI"},"type":"Feature","geometry":{"type":"Point","coordinates":[-88.618995,46.12047]}},{"properties":{"qty":2,"city":"DENVER","zipcode":"80239","country":"US","geo_score":0.971,"sales amount":13132.0,"year":2012,"id":"aaugbx3m2fc2","address":"5530 JOLIETT STREET","geo_precision":"range","state":"CO"},"type":"Feature","geometry":{"type":"Point","coordinates":[-104.861259,39.797606]}},{"properties":{"qty":1,"city":"BOSTON","zipcode":"02125","country":"US","geo_score":1.0,"sales amount":13236.0,"year":2012,"id":"aaugbx9qi2r3","address":"33 LOCUST STREET","geo_precision":"range","state":"MA"},"type":"Feature","geometry":{"type":"Point","coordinates":[-71.055324,42.323315]}},{"properties":{"qty":1,"city":"MONROE","zipcode":"98272","country":"US","geo_score":1.0,"sales amount":13236.0,"year":2012,"id":"aaugbx5u2rza","address":"1144 VILLAGE WAY","geo_precision":"range","state":"WA"},"type":"Feature","geometry":{"type":"Point","coordinates":[-121.98589,47.84947]}},{"properties":{"qty":2,"city":"STILLWATER","zipcode":"74074","country":"US","geo_score":0.619,"sales amount":13266.0,"year":2012,"id":"aaugbx6lyscz","address":"707 E. 6TH ST.","geo_precision":"street","state":"OK"},"type":"Feature","geometry":{"type":"Point","coordinates":[-97.059953,36.115682]}},{"properties":{"qty":1,"city":"INDIANAPOLIS","zipcode":"46268","country":"US","geo_score":1.0,"sales amount":13503.0,"year":2012,"id":"aaugbx8op3zf","address":"8410 ZIONSVILLE ROAD","geo_precision":"range","state":"IN"},"type":"Feature","geometry":{"type":"Point","coordinates":[-86.259943,39.903876]}},{"properties":{"qty":1,"city":"MONROE","zipcode":"98272","country":"US","geo_score":1.0,"sales amount":13503.0,"year":2012,"id":"aaugbxcnsf2s","address":"1144 VILLAGE WAY","geo_precision":"range","state":"WA"},"type":"Feature","geometry":{"type":"Point","coordinates":[-121.98589,47.84947]}},{"properties":{"qty":2,"city":"CRANBERRY TOWNSHIP","zipcode":"16066","country":"US","geo_score":0.829,"sales amount":13650.0,"year":2012,"id":"aaugbwycg58k","address":"100 SMITH DRIVE","geo_precision":"street","state":"PA"},"type":"Feature","geometry":{"type":"Point","coordinates":[-80.102007,40.697562]}},{"properties":{"qty":1,"city":"IRON RIVER","zipcode":"49935","country":"US","geo_score":1.0,"sales amount":13780.0,"year":2012,"id":"aaugbx94d5d1","address":"1520 W ADAMS ST","geo_precision":"range","state":"MI"},"type":"Feature","geometry":{"type":"Point","coordinates":[-88.654894,46.092625]}},{"properties":{"qty":2,"city":"CRANBERRY TOWNSHIP","zipcode":"16066","country":"US","geo_score":0.829,"sales amount":14130.0,"year":2012,"id":"aaugbx1hudp5","address":"100 SMITH DRIVE","geo_precision":"street","state":"PA"},"type":"Feature","geometry":{"type":"Point","coordinates":[-80.102007,40.697562]}},{"properties":{"qty":2,"city":"AUSTIN","zipcode":"78728","country":"US","geo_score":0.902,"sales amount":14370.0,"year":2012,"id":"aaugbx494mvg","address":"15404 MARSHA","geo_precision":"range","state":"TX"},"type":"Feature","geometry":{"type":"Point","coordinates":[-97.668835,30.449374]}},{"properties":{"qty":2,"city":"FORT WORTH","zipcode":"76107","country":"US","geo_score":1.0,"sales amount":14370.0,"year":2012,"id":"aaugbxaytyqu","address":"220 UNIVERSITY DRIVE","geo_precision":"range","state":"TX"},"type":"Feature","geometry":{"type":"Point","coordinates":[-97.36119,32.756522]}},{"properties":{"qty":2,"city":"MILWAUKEE","zipcode":"53225","country":"US","geo_score":1.0,"sales amount":14932.8,"year":2012,"id":"aaugbwyhwvnl","address":"12101 WEST SILVER SPRING DRIVE","geo_precision":"range","state":"WI"},"type":"Feature","geometry":{"type":"Point","coordinates":[-88.064106,43.116989]}},{"properties":{"qty":2,"city":"MONROE","zipcode":"98272","country":"US","geo_score":1.0,"sales amount":15380.4,"year":2012,"id":"aaugbxa0ownb","address":"1144 VILLAGE WAY","geo_precision":"range","state":"WA"},"type":"Feature","geometry":{"type":"Point","coordinates":[-121.98589,47.84947]}},{"properties":{"qty":1,"city":"IRVING","zipcode":"75061","country":"US","geo_score":1.0,"sales amount":15778.0,"year":2012,"id":"aaugbxaxgxg3","address":"415 N LOOP 12","geo_precision":"range","state":"TX"},"type":"Feature","geometry":{"type":"Point","coordinates":[-96.922329,32.815083]}},{"properties":{"qty":1,"city":"FALMOUTH","zipcode":"22406","country":"US","geo_score":0.916,"sales amount":16815.25,"year":2012,"id":"aaugbx79ar5m","address":"4 COMMERCE PARKWAY","geo_precision":"range","state":"VA"},"type":"Feature","geometry":{"type":"Point","coordinates":[-77.504511,38.350321]}},{"properties":{"qty":3,"city":"MONROE","zipcode":"98272","country":"US","geo_score":1.0,"sales amount":16881.0,"year":2012,"id":"aaugbx1rgs1a","address":"1130 VILLAGE WAY","geo_precision":"range","state":"WA"},"type":"Feature","geometry":{"type":"Point","coordinates":[-121.985976,47.849945]}},{"properties":{"qty":3,"city":"CLIFTON","zipcode":"81520","country":"US","geo_score":0.596,"sales amount":16884.0,"year":2012,"id":"aaugbx9yknv8","address":"549 32 ROAD","geo_precision":"street","state":"CO"},"type":"Feature","geometry":{"type":"Point","coordinates":[-108.451758,39.06865]}},{"properties":{"qty":2,"city":"CHESTERFIELD","zipcode":"63005","country":"US","geo_score":0.688,"sales amount":16901.5,"year":2012,"id":"aaugbx2go8lm","address":"621 SPRIRT VALLEY EAST","geo_precision":"street","state":"MO"},"type":"Feature","geometry":{"type":"Point","coordinates":[-90.617824,38.646921]}},{"properties":{"qty":1,"city":"FORESTVILLE","zipcode":"20747","country":"US","geo_score":1.0,"sales amount":17537.94,"year":2012,"id":"aaugbx9i0aeu","address":"8200 CRYDEN WAY","geo_precision":"range","state":"MD"},"type":"Feature","geometry":{"type":"Point","coordinates":[-76.86575,38.847968]}},{"properties":{"qty":1,"city":"THOMASVILLE","zipcode":"17364","country":"US","geo_score":1.0,"sales amount":17537.94,"year":2012,"id":"aaugbx1ghl8z","address":"6778 LINCOLN HIGHWAY WEST","geo_precision":"range","state":"PA"},"type":"Feature","geometry":{"type":"Point","coordinates":[-76.898666,39.920498]}},{"properties":{"qty":1,"city":"THOMASVILLE","zipcode":"17364","country":"US","geo_score":1.0,"sales amount":17537.94,"year":2012,"id":"aaugbx3s0acw","address":"6778 LINCOLN HIGHWAY WEST","geo_precision":"range","state":"PA"},"type":"Feature","geometry":{"type":"Point","coordinates":[-76.898666,39.920498]}},{"properties":{"qty":1,"city":"HAMPTON","zipcode":"23661","country":"US","geo_score":1.0,"sales amount":17537.94,"year":2012,"id":"aaugbxaticbs","address":"602 COPELAND DRIVE","geo_precision":"range","state":"VA"},"type":"Feature","geometry":{"type":"Point","coordinates":[-76.397724,37.014049]}},{"properties":{"qty":1,"city":"LANSING","zipcode":"48906","country":"US","geo_score":0.914,"sales amount":17869.5,"year":2012,"id":"aaugbx26sp38","address":"3600 N GRAND RIVER RD","geo_precision":"range","state":"MI"},"type":"Feature","geometry":{"type":"Point","coordinates":[-84.582486,42.764459]}},{"properties":{"qty":1,"city":"BRASELTON","zipcode":"30517","country":"US","geo_score":0.878,"sales amount":19188.0,"year":2012,"id":"aaugbx59bch8","address":"5333 BBS WAY","geo_precision":"range","state":"GA"},"type":"Feature","geometry":{"type":"Point","coordinates":[-83.803043,34.15256]}},{"properties":{"qty":1,"city":"CANTON","zipcode":"44706","country":"US","geo_score":0.902,"sales amount":19188.0,"year":2012,"id":"aaugbwz1nhf5","address":"1601 SHEPLER-CHURCH ROAD","geo_precision":"range","state":"OH"},"type":"Feature","geometry":{"type":"Point","coordinates":[-81.394075,40.772921]}},{"properties":{"qty":3,"city":"LAS CRUCES","zipcode":"88005","country":"US","geo_score":0.61,"sales amount":19812.0,"year":2012,"id":"aaugbwzrkkcq","address":"1905 S. VALLEY ROAD","geo_precision":"street","state":"NM"},"type":"Feature","geometry":{"type":"Point","coordinates":[-106.79122,32.301239]}},{"properties":{"qty":2,"city":"BOSTON","zipcode":"02125","country":"US","geo_score":1.0,"sales amount":21174.0,"year":2012,"id":"aaugbxcn82aj","address":"33 LOCUST STREET","geo_precision":"range","state":"MA"},"type":"Feature","geometry":{"type":"Point","coordinates":[-71.055324,42.323315]}},{"properties":{"qty":4,"city":"CRANBERRY TOWNSHIP","zipcode":"16066","country":"US","geo_score":0.829,"sales amount":21180.0,"year":2012,"id":"aaugbxeep71r","address":"100 SMITH DRIVE","geo_precision":"street","state":"PA"},"type":"Feature","geometry":{"type":"Point","coordinates":[-80.102007,40.697562]}},{"properties":{"qty":2,"city":"ATLANTA","zipcode":"30336","country":"US","geo_score":0.932,"sales amount":21603.6,"year":2012,"id":"aaugbx1oby17","address":"4500 WENDELL DRIVE","geo_precision":"range","state":"GA"},"type":"Feature","geometry":{"type":"Point","coordinates":[-84.52608,33.769225]}},{"properties":{"qty":4,"city":"GARY","zipcode":"46401","country":"US","geo_score":0.746,"sales amount":21840.0,"year":2012,"id":"aaugbxegfoam","address":"1 NORTH BROADWAY","geo_precision":"range","state":"IN"},"type":"Feature","geometry":{"type":"Point","coordinates":[-87.337207,41.608314]}},{"properties":{"qty":1,"city":"HOUSTON","zipcode":"77028","country":"US","geo_score":1.0,"sales amount":21871.0,"year":2012,"id":"aaugbxb9u6yr","address":"7075 BENNINGTON STREET","geo_precision":"range","state":"TX"},"type":"Feature","geometry":{"type":"Point","coordinates":[-95.303106,29.817219]}},{"properties":{"qty":1,"city":"COLUMBUS","zipcode":"43207","country":"US","geo_score":0.607,"sales amount":21945.0,"year":2012,"id":"aaugbx63cjqn","address":"50 E. KINGSTON AVE.","geo_precision":"street","state":"OH"},"type":"Feature","geometry":{"type":"Point","coordinates":[-82.995386,39.918445]}},{"properties":{"qty":1,"city":"COLUMBUS","zipcode":"43207","country":"US","geo_score":0.607,"sales amount":21945.0,"year":2012,"id":"aaugbxazkapu","address":"50 E. KINGSTON AVE.","geo_precision":"street","state":"OH"},"type":"Feature","geometry":{"type":"Point","coordinates":[-82.995386,39.918445]}},{"properties":{"qty":1,"city":"COLUMBUS","zipcode":"43207","country":"US","geo_score":0.607,"sales amount":21945.0,"year":2012,"id":"aaugbx4bjkw9","address":"50 E. KINGSTON AVE.","geo_precision":"street","state":"OH"},"type":"Feature","geometry":{"type":"Point","coordinates":[-82.995386,39.918445]}},{"properties":{"qty":2,"city":"ALLEN","zipcode":"75013","country":"US","geo_score":0.416,"sales amount":22000.0,"year":2012,"id":"aaugbx03biqt","address":"817 481 7581 WHEN READY","geo_precision":"street","state":"TX"},"type":"Feature","geometry":{"type":"Point","coordinates":[-96.78997,33.31686]}},{"properties":{"qty":1,"city":"MARTINEZ","zipcode":"94553","country":"US","geo_score":1.0,"sales amount":22383.9,"year":2012,"id":"aaugbx7jtb7y","address":"191 HOWE ROAD","geo_precision":"range","state":"CA"},"type":"Feature","geometry":{"type":"Point","coordinates":[-122.110671,38.009748]}},{"properties":{"qty":1,"city":"MANASSAS","zipcode":"20110","country":"US","geo_score":1.0,"sales amount":22965.0,"year":2012,"id":"aaugbxctsln4","address":"10119 RESIDENCY RD","geo_precision":"range","state":"VA"},"type":"Feature","geometry":{"type":"Point","coordinates":[-77.527645,38.738999]}},{"properties":{"qty":1,"city":"BOSTON","zipcode":"02125","country":"US","geo_score":1.0,"sales amount":23100.0,"year":2012,"id":"aaugbx35jloq","address":"33 LOCUST STREET","geo_precision":"range","state":"MA"},"type":"Feature","geometry":{"type":"Point","coordinates":[-71.055324,42.323315]}},{"properties":{"qty":1,"city":"CRANBERRY TOWNSHIP","zipcode":"16066","country":"US","geo_score":0.829,"sales amount":23100.0,"year":2012,"id":"aaugbwywn49g","address":"100 SMITH DRIVE","geo_precision":"street","state":"PA"},"type":"Feature","geometry":{"type":"Point","coordinates":[-80.102007,40.697562]}},{"properties":{"qty":1,"city":"INDIANAPOLIS","zipcode":"46219","country":"US","geo_score":0.935,"sales amount":23562.0,"year":2012,"id":"aaugbx2rwr98","address":"7355 EAST 30TH STREET","geo_precision":"range","state":"IN"},"type":"Feature","geometry":{"type":"Point","coordinates":[-86.036513,39.81099]}},{"properties":{"qty":1,"city":"ROGERS","zipcode":"55374","country":"US","geo_score":1.0,"sales amount":23562.0,"year":2012,"id":"aaugbx5vcqy6","address":"14375 JAMES ROAD","geo_precision":"range","state":"MN"},"type":"Feature","geometry":{"type":"Point","coordinates":[-93.550019,45.212705]}},{"properties":{"qty":1,"city":"ROSEMOUNT","zipcode":"55068","country":"US","geo_score":0.902,"sales amount":23562.0,"year":2012,"id":"aaugbx2bw0zi","address":"15125 SOUTH ROBERT TRAIL","geo_precision":"range","state":"MN"},"type":"Feature","geometry":{"type":"Point","coordinates":[-93.128675,44.729795]}},{"properties":{"qty":1,"city":"SHAKOPEE","zipcode":"55379","country":"US","geo_score":0.717,"sales amount":23562.0,"year":2012,"id":"aaugbx2ixjqz","address":"6340 HWY 101","geo_precision":"street","state":"MN"},"type":"Feature","geometry":{"type":"Point","coordinates":[-93.509256,44.800784]}},{"properties":{"qty":1,"city":"HERMANTOWN","zipcode":"55811","country":"US","geo_score":0.912,"sales amount":23562.0,"year":2012,"id":"aaugbx2ur1dy","address":"4311 HAINES ROAD","geo_precision":"range","state":"MN"},"type":"Feature","geometry":{"type":"Point","coordinates":[-92.174893,46.827528]}},{"properties":{"qty":1,"city":"WEST FARGO","zipcode":"58078","country":"US","geo_score":0.779,"sales amount":23562.0,"year":2012,"id":"aaugbx98npok","address":"644 EAST BEATON DRIVE","geo_precision":"street","state":"ND"},"type":"Feature","geometry":{"type":"Point","coordinates":[-96.902834,46.848471]}},{"properties":{"qty":1,"city":"MECHANICSBURG","zipcode":"17050","country":"US","geo_score":1.0,"sales amount":23562.0,"year":2012,"id":"aaugbxbv39sx","address":"6779 CARLISLE PIKE","geo_precision":"range","state":"PA"},"type":"Feature","geometry":{"type":"Point","coordinates":[-77.068863,40.235812]}},{"properties":{"qty":1,"city":"MECHANICSBURG","zipcode":"17050","country":"US","geo_score":1.0,"sales amount":23562.0,"year":2012,"id":"aaugbwyz8vln","address":"6779 CARLISLE PIKE","geo_precision":"range","state":"PA"},"type":"Feature","geometry":{"type":"Point","coordinates":[-77.068863,40.235812]}},{"properties":{"qty":1,"city":"TACOMA","zipcode":"98421","country":"US","geo_score":1.0,"sales amount":23562.0,"year":2012,"id":"aaugbx3hls2u","address":"2301 TAYLOR WAY","geo_precision":"range","state":"WA"},"type":"Feature","geometry":{"type":"Point","coordinates":[-122.382604,47.270563]}},{"properties":{"qty":1,"city":"AUBURN","zipcode":"01501","country":"US","geo_score":0.902,"sales amount":23850.0,"year":2012,"id":"aaugbwytzgux","address":"487 WASHINGTON ST","geo_precision":"street","state":"MA"},"type":"Feature","geometry":{"type":"Point","coordinates":[-71.834068,42.187109]}},{"properties":{"qty":1,"city":"AUBURN","zipcode":"01501","country":"US","geo_score":0.902,"sales amount":23850.0,"year":2012,"id":"aaugbxawgn6j","address":"487 WASHINGTON ST","geo_precision":"street","state":"MA"},"type":"Feature","geometry":{"type":"Point","coordinates":[-71.834068,42.187109]}},{"properties":{"qty":1,"city":"MILLBURY","zipcode":"01527","country":"US","geo_score":0.742,"sales amount":23935.2,"year":2012,"id":"aaugbx569d1y","address":"130 WESTBOROUGH ST","geo_precision":"range","state":"MA"},"type":"Feature","geometry":{"type":"Point","coordinates":[-71.61025,42.197109]}},{"properties":{"qty":6,"city":"PELLA","zipcode":"50219","country":"US","geo_score":0.857,"sales amount":23940.0,"year":2012,"id":"aaugbx7r1s0c","address":"ATTN: LACEY ROORDA","geo_precision":"zip","state":"IA"},"type":"Feature","geometry":{"type":"Point","coordinates":[-92.801306,41.461943]}},{"properties":{"qty":1,"city":"CRANBERRY TOWNSHIP","zipcode":"16066","country":"US","geo_score":0.829,"sales amount":26400.0,"year":2012,"id":"aaugbwziy0yz","address":"100 SMITH DRIVE","geo_precision":"street","state":"PA"},"type":"Feature","geometry":{"type":"Point","coordinates":[-80.102007,40.697562]}},{"properties":{"qty":1,"city":"CRANBERRY TOWNSHIP","zipcode":"16066","country":"US","geo_score":0.829,"sales amount":26400.0,"year":2012,"id":"aaugbxdh9v8q","address":"100 SMITH DRIVE","geo_precision":"street","state":"PA"},"type":"Feature","geometry":{"type":"Point","coordinates":[-80.102007,40.697562]}},{"properties":{"qty":1,"city":"LOUISVILLE","zipcode":"40299","country":"US","geo_score":1.0,"sales amount":26538.74,"year":2012,"id":"aaugbx90th6s","address":"1801 WATTERSON TRAIL","geo_precision":"range","state":"KY"},"type":"Feature","geometry":{"type":"Point","coordinates":[-85.555862,38.21682]}},{"properties":{"qty":1,"city":"LOUISVILLE","zipcode":"40299","country":"US","geo_score":1.0,"sales amount":26538.74,"year":2012,"id":"aaugbx519tgw","address":"1801 WATTERSON TRAIL","geo_precision":"range","state":"KY"},"type":"Feature","geometry":{"type":"Point","coordinates":[-85.555862,38.21682]}},{"properties":{"qty":1,"city":"BILLINGS","zipcode":"59107","country":"US","geo_score":0.585,"sales amount":26928.0,"year":2012,"id":"aaugbx8k3xqn","address":"1728 OLD HARDING ROAD","geo_precision":"zip","state":"MT"},"type":"Feature","geometry":{"type":"Point","coordinates":[-108.393388,45.825204]}},{"properties":{"qty":1,"city":"CRANBERRY TOWNSHIP","zipcode":"16066","country":"US","geo_score":0.829,"sales amount":26928.0,"year":2012,"id":"aaugbwzp522w","address":"100 SMITH DRIVE","geo_precision":"street","state":"PA"},"type":"Feature","geometry":{"type":"Point","coordinates":[-80.102007,40.697562]}},{"properties":{"qty":1,"city":"CRANBERRY TOWNSHIP","zipcode":"16066","country":"US","geo_score":0.829,"sales amount":26928.0,"year":2012,"id":"aaugbx62nlm7","address":"100 SMITH DRIVE","geo_precision":"street","state":"PA"},"type":"Feature","geometry":{"type":"Point","coordinates":[-80.102007,40.697562]}},{"properties":{"qty":1,"city":"MECHANICSBURG","zipcode":"17050","country":"US","geo_score":1.0,"sales amount":26928.0,"year":2012,"id":"aaugbx7kg1jz","address":"6779 CARLISLE PIKE","geo_precision":"range","state":"PA"},"type":"Feature","geometry":{"type":"Point","coordinates":[-77.068863,40.235812]}},{"properties":{"qty":1,"city":"MECHANICSBURG","zipcode":"17050","country":"US","geo_score":1.0,"sales amount":26928.0,"year":2012,"id":"aaugbxdwytcu","address":"6779 CARLISLE PIKE","geo_precision":"range","state":"PA"},"type":"Feature","geometry":{"type":"Point","coordinates":[-77.068863,40.235812]}},{"properties":{"qty":1,"city":"MURRAY","zipcode":"84107","country":"US","geo_score":1.0,"sales amount":26928.0,"year":2012,"id":"aaugbxdigeoy","address":"4231 SOUTH STATE ST","geo_precision":"range","state":"UT"},"type":"Feature","geometry":{"type":"Point","coordinates":[-111.888171,40.678948]}},{"properties":{"qty":1,"city":"KNOXVILLE","zipcode":"37920","country":"US","geo_score":1.0,"sales amount":27358.89,"year":2012,"id":"aaugbx49he6v","address":"3300 ALCOA HWY","geo_precision":"range","state":"TN"},"type":"Feature","geometry":{"type":"Point","coordinates":[-83.953024,35.895638]}},{"properties":{"qty":1,"city":"MEMPHIS","zipcode":"38116","country":"US","geo_score":1.0,"sales amount":27511.2,"year":2012,"id":"aaugbxe8v8r4","address":"3050 FERRELL PARK COVE","geo_precision":"range","state":"TN"},"type":"Feature","geometry":{"type":"Point","coordinates":[-90.008335,35.066722]}},{"properties":{"qty":1,"city":"MEMPHIS","zipcode":"38116","country":"US","geo_score":1.0,"sales amount":27511.2,"year":2012,"id":"aaugbx93fx3q","address":"3050 FERRELL PARK COVE","geo_precision":"range","state":"TN"},"type":"Feature","geometry":{"type":"Point","coordinates":[-90.008335,35.066722]}},{"properties":{"qty":1,"city":"MEMPHIS","zipcode":"38116","country":"US","geo_score":1.0,"sales amount":27511.2,"year":2012,"id":"aaugbx7cu3t7","address":"3050 FERRELL PARK COVE","geo_precision":"range","state":"TN"},"type":"Feature","geometry":{"type":"Point","coordinates":[-90.008335,35.066722]}},{"properties":{"qty":1,"city":"MEMPHIS","zipcode":"38116","country":"US","geo_score":1.0,"sales amount":27511.2,"year":2012,"id":"aaugbwyfa05t","address":"3050 FERRELL PARK COVE","geo_precision":"range","state":"TN"},"type":"Feature","geometry":{"type":"Point","coordinates":[-90.008335,35.066722]}},{"properties":{"qty":1,"city":"FLEMINGTON","zipcode":"08822","country":"US","geo_score":0.375,"sales amount":29214.0,"year":2012,"id":"aaugbx0d5m03","address":"DBA FUSCO'S RENTAL WORLD","geo_precision":"street","state":"NJ"},"type":"Feature","geometry":{"type":"Point","coordinates":[-74.246774,40.443978]}},{"properties":{"qty":1,"city":"WILKES-BARRE","zipcode":"18711","country":"US","geo_score":0.805,"sales amount":29214.0,"year":2012,"id":"aaugbx85emep","address":"1500 HIGHWAY 315","geo_precision":"range","state":"PA"},"type":"Feature","geometry":{"type":"Point","coordinates":[-75.799359,41.275056]}},{"properties":{"qty":1,"city":"LOUISVILLE","zipcode":"40299","country":"US","geo_score":1.0,"sales amount":29260.95,"year":2012,"id":"aaugbxbjwj89","address":"1801 WATTERSON TRAIL","geo_precision":"range","state":"KY"},"type":"Feature","geometry":{"type":"Point","coordinates":[-85.555862,38.21682]}},{"properties":{"qty":1,"city":"LOUISVILLE","zipcode":"40299","country":"US","geo_score":1.0,"sales amount":29260.95,"year":2012,"id":"aaugbwygsboy","address":"1801 WATTERSON TRAIL","geo_precision":"range","state":"KY"},"type":"Feature","geometry":{"type":"Point","coordinates":[-85.555862,38.21682]}},{"properties":{"qty":1,"city":"KNOXVILLE","zipcode":"37920","country":"US","geo_score":1.0,"sales amount":29260.95,"year":2012,"id":"aaugbxe91puy","address":"3300 ALCOA HWY","geo_precision":"range","state":"TN"},"type":"Feature","geometry":{"type":"Point","coordinates":[-83.953024,35.895638]}},{"properties":{"qty":4,"city":"MILWAUKEE","zipcode":"53225","country":"US","geo_score":1.0,"sales amount":29840.0,"year":2012,"id":"aaugbx6aoxa1","address":"12101 WEST SILVER SPRING DRIVE","geo_precision":"range","state":"WI"},"type":"Feature","geometry":{"type":"Point","coordinates":[-88.064106,43.116989]}},{"properties":{"qty":1,"city":"FAIRFIELD","zipcode":"94534","country":"US","geo_score":0.862,"sales amount":29848.0,"year":2012,"id":"aaugbx5lo4tw","address":"5170 FULTON DR SUITE 2","geo_precision":"range","state":"CA"},"type":"Feature","geometry":{"type":"Point","coordinates":[-122.142763,38.207201]}},{"properties":{"qty":1,"city":"FAIRFIELD","zipcode":"94534","country":"US","geo_score":0.862,"sales amount":29848.0,"year":2012,"id":"aaugbxcjdxh8","address":"5170 FULTON DR SUITE 2","geo_precision":"range","state":"CA"},"type":"Feature","geometry":{"type":"Point","coordinates":[-122.142763,38.207201]}},{"properties":{"qty":1,"city":"FAIRFIELD","zipcode":"94534","country":"US","geo_score":0.862,"sales amount":29848.0,"year":2012,"id":"aaugbxa2zsyn","address":"5170 FULTON DR SUITE 2","geo_precision":"range","state":"CA"},"type":"Feature","geometry":{"type":"Point","coordinates":[-122.142763,38.207201]}},{"properties":{"qty":1,"city":"NASHVILLE","zipcode":"37213","country":"US","geo_score":0.902,"sales amount":29952.15,"year":2012,"id":"aaugbx2fnx2f","address":"301 CRUTCHER STREET","geo_precision":"range","state":"TN"},"type":"Feature","geometry":{"type":"Point","coordinates":[-86.760821,36.162185]}},{"properties":{"qty":1,"city":"NASHVILLE","zipcode":"37213","country":"US","geo_score":0.902,"sales amount":29952.15,"year":2012,"id":"aaugbx9vech7","address":"301 CRUTCHER STREET","geo_precision":"range","state":"TN"},"type":"Feature","geometry":{"type":"Point","coordinates":[-86.760821,36.162185]}},{"properties":{"qty":1,"city":"CROSSVILLE","zipcode":"38555","country":"US","geo_score":0.89,"sales amount":29952.15,"year":2012,"id":"aaugbx9wk18n","address":"608 WEST AVENUE","geo_precision":"range","state":"TN"},"type":"Feature","geometry":{"type":"Point","coordinates":[-85.033669,35.952059]}},{"properties":{"qty":1,"city":"OKLAHOMA CITY","zipcode":"73125","country":"US","geo_score":0.857,"sales amount":30759.96,"year":2012,"id":"aaugbx2z5zyz","address":"P.O.BOX 25030","geo_precision":"zip","state":"OK"},"type":"Feature","geometry":{"type":"Point","coordinates":[-97.521816,35.465418]}},{"properties":{"qty":3,"city":"MECHANICSBURG","zipcode":"17050","country":"US","geo_score":1.0,"sales amount":31104.0,"year":2012,"id":"aaugbxeido8i","address":"6779 CARLISLE PIKE","geo_precision":"range","state":"PA"},"type":"Feature","geometry":{"type":"Point","coordinates":[-77.068863,40.235812]}},{"properties":{"qty":1,"city":"FALMOUTH","zipcode":"22406","country":"US","geo_score":0.916,"sales amount":31152.09,"year":2012,"id":"aaugbx6st6he","address":"4 COMMERCE PARKWAY","geo_precision":"range","state":"VA"},"type":"Feature","geometry":{"type":"Point","coordinates":[-77.504511,38.350321]}},{"properties":{"qty":1,"city":"FALMOUTH","zipcode":"22406","country":"US","geo_score":0.916,"sales amount":31152.09,"year":2012,"id":"aaugbxaf3jjx","address":"4 COMMERCE PARKWAY","geo_precision":"range","state":"VA"},"type":"Feature","geometry":{"type":"Point","coordinates":[-77.504511,38.350321]}},{"properties":{"qty":1,"city":"FALMOUTH","zipcode":"22406","country":"US","geo_score":0.916,"sales amount":31152.09,"year":2012,"id":"aaugbxc7irpz","address":"4 COMMERCE PARKWAY","geo_precision":"range","state":"VA"},"type":"Feature","geometry":{"type":"Point","coordinates":[-77.504511,38.350321]}},{"properties":{"qty":1,"city":"NASHVILLE","zipcode":"37213","country":"US","geo_score":0.902,"sales amount":31221.08,"year":2012,"id":"aaugbwziqy4o","address":"301 CRUTCHER STREET","geo_precision":"range","state":"TN"},"type":"Feature","geometry":{"type":"Point","coordinates":[-86.760821,36.162185]}},{"properties":{"qty":6,"city":"NAPERVILLE","zipcode":"60563","country":"US","geo_score":1.0,"sales amount":33102.0,"year":2012,"id":"aaugbxbwtrbr","address":"1400 WEST OGDEN AVE","geo_precision":"range","state":"IL"},"type":"Feature","geometry":{"type":"Point","coordinates":[-88.183085,41.779983]}},{"properties":{"qty":6,"city":"NAPERVILLE","zipcode":"60563","country":"US","geo_score":1.0,"sales amount":33102.0,"year":2012,"id":"aaugbx0oryna","address":"1400 WEST OGDEN AVE","geo_precision":"range","state":"IL"},"type":"Feature","geometry":{"type":"Point","coordinates":[-88.183085,41.779983]}},{"properties":{"qty":1,"city":"COLUMBUS","zipcode":"43207","country":"US","geo_score":0.607,"sales amount":33544.5,"year":2012,"id":"aaugbx58htas","address":"65 E. KINGSTON AVE.","geo_precision":"street","state":"OH"},"type":"Feature","geometry":{"type":"Point","coordinates":[-82.995386,39.918445]}},{"properties":{"qty":1,"city":"COLUMBUS","zipcode":"43207","country":"US","geo_score":0.607,"sales amount":33544.5,"year":2012,"id":"aaugbxaumtsd","address":"65 E. KINGSTON AVE.","geo_precision":"street","state":"OH"},"type":"Feature","geometry":{"type":"Point","coordinates":[-82.995386,39.918445]}},{"properties":{"qty":1,"city":"COLUMBUS","zipcode":"43207","country":"US","geo_score":0.607,"sales amount":33544.5,"year":2012,"id":"aaugbx2w9qlc","address":"65 E. KINGSTON AVE.","geo_precision":"street","state":"OH"},"type":"Feature","geometry":{"type":"Point","coordinates":[-82.995386,39.918445]}},{"properties":{"qty":6,"city":"DES MOINES","zipcode":"50313","country":"US","geo_score":0.787,"sales amount":33768.0,"year":2012,"id":"aaugbxcrx1hr","address":"2290 54TH AVE NW","geo_precision":"range","state":"IA"},"type":"Feature","geometry":{"type":"Point","coordinates":[-93.578017,41.658745]}},{"properties":{"qty":6,"city":"DES MOINES","zipcode":"50313","country":"US","geo_score":0.787,"sales amount":33768.0,"year":2012,"id":"aaugbx229hgz","address":"2290 54TH AVE NW","geo_precision":"range","state":"IA"},"type":"Feature","geometry":{"type":"Point","coordinates":[-93.578017,41.658745]}},{"properties":{"qty":1,"city":"SEATTLE","zipcode":"98106","country":"US","geo_score":0.602,"sales amount":34217.0,"year":2012,"id":"aaugbx38uith","address":"5615 W. MARGINAL WAY SW","geo_precision":"street","state":"WA"},"type":"Feature","geometry":{"type":"Point","coordinates":[-122.35588,47.569832]}},{"properties":{"qty":1,"city":"MECHANICSBURG","zipcode":"17050","country":"US","geo_score":1.0,"sales amount":35310.0,"year":2012,"id":"aaugbx4t1rvs","address":"6779 CARLISLE PIKE","geo_precision":"range","state":"PA"},"type":"Feature","geometry":{"type":"Point","coordinates":[-77.068863,40.235812]}},{"properties":{"qty":1,"city":"CLOVERDALE","zipcode":"24077","country":"US","geo_score":0.805,"sales amount":35310.0,"year":2012,"id":"aaugbx5yt3e5","address":"210 UPDIKE LN","geo_precision":"range","state":"VA"},"type":"Feature","geometry":{"type":"Point","coordinates":[-79.909808,37.369485]}},{"properties":{"qty":1,"city":"CINCINNATI","zipcode":"45215","country":"US","geo_score":1.0,"sales amount":36016.0,"year":2012,"id":"aaugbx6ui2vd","address":"712 SHEPHERD AVE","geo_precision":"range","state":"OH"},"type":"Feature","geometry":{"type":"Point","coordinates":[-84.447933,39.234748]}},{"properties":{"qty":1,"city":"ROGERS","zipcode":"55374","country":"US","geo_score":1.0,"sales amount":36018.0,"year":2012,"id":"aaugbx0ozspi","address":"14375 JAMES ROAD","geo_precision":"range","state":"MN"},"type":"Feature","geometry":{"type":"Point","coordinates":[-93.550019,45.212705]}},{"properties":{"qty":1,"city":"ROSEMOUNT","zipcode":"55068","country":"US","geo_score":0.902,"sales amount":36018.0,"year":2012,"id":"aaugbxblw6ce","address":"15125 SOUTH ROBERT TRAIL","geo_precision":"range","state":"MN"},"type":"Feature","geometry":{"type":"Point","coordinates":[-93.128675,44.729795]}},{"properties":{"qty":1,"city":"SHAKOPEE","zipcode":"55379","country":"US","geo_score":0.717,"sales amount":36018.0,"year":2012,"id":"aaugbwyu6nf4","address":"6340 HWY 101","geo_precision":"street","state":"MN"},"type":"Feature","geometry":{"type":"Point","coordinates":[-93.509256,44.800784]}},{"properties":{"qty":1,"city":"HERMANTOWN","zipcode":"55811","country":"US","geo_score":0.912,"sales amount":36018.0,"year":2012,"id":"aaugbxbqxksv","address":"4311 HAINES ROAD","geo_precision":"range","state":"MN"},"type":"Feature","geometry":{"type":"Point","coordinates":[-92.174893,46.827528]}},{"properties":{"qty":1,"city":"WEST FARGO","zipcode":"58078","country":"US","geo_score":0.779,"sales amount":36018.0,"year":2012,"id":"aaugbxd156mj","address":"644 EAST BEATON DRIVE","geo_precision":"street","state":"ND"},"type":"Feature","geometry":{"type":"Point","coordinates":[-96.902834,46.848471]}},{"properties":{"qty":1,"city":"CINCINNATI","zipcode":"45215","country":"US","geo_score":1.0,"sales amount":36018.0,"year":2012,"id":"aaugbx2utli7","address":"712 SHEPHERD AVE","geo_precision":"range","state":"OH"},"type":"Feature","geometry":{"type":"Point","coordinates":[-84.447933,39.234748]}},{"properties":{"qty":1,"city":"COLUMBUS","zipcode":"43207","country":"US","geo_score":0.958,"sales amount":36018.0,"year":2012,"id":"aaugbxbx7wnz","address":"50 E KINGSTON AVE","geo_precision":"range","state":"OH"},"type":"Feature","geometry":{"type":"Point","coordinates":[-82.994615,39.9185]}},{"properties":{"qty":1,"city":"COLUMBUS","zipcode":"43207","country":"US","geo_score":0.958,"sales amount":36018.0,"year":2012,"id":"aaugbx7m4z5p","address":"50 E KINGSTON AVE","geo_precision":"range","state":"OH"},"type":"Feature","geometry":{"type":"Point","coordinates":[-82.994615,39.9185]}},{"properties":{"qty":1,"city":"COLUMBUS","zipcode":"43207","country":"US","geo_score":0.607,"sales amount":36018.0,"year":2012,"id":"aaugbxc0h87l","address":"50 E. KINGSTON AVE.","geo_precision":"street","state":"OH"},"type":"Feature","geometry":{"type":"Point","coordinates":[-82.995386,39.918445]}},{"properties":{"qty":1,"city":"COLUMBUS","zipcode":"43207","country":"US","geo_score":0.607,"sales amount":36018.0,"year":2012,"id":"aaugbx3283ms","address":"50 E. KINGSTON AVE.","geo_precision":"street","state":"OH"},"type":"Feature","geometry":{"type":"Point","coordinates":[-82.995386,39.918445]}},{"properties":{"qty":1,"city":"NASHVILLE","zipcode":"37207","country":"US","geo_score":0.585,"sales amount":36018.0,"year":2012,"id":"aaugbxar895j","address":"3570 DICKERSON ROAD","geo_precision":"zip","state":"TN"},"type":"Feature","geometry":{"type":"Point","coordinates":[-86.784698,36.233916]}},{"properties":{"qty":1,"city":"NASHVILLE","zipcode":"37207","country":"US","geo_score":0.585,"sales amount":36018.0,"year":2012,"id":"aaugbwzkt762","address":"3570 DICKERSON ROAD","geo_precision":"zip","state":"TN"},"type":"Feature","geometry":{"type":"Point","coordinates":[-86.784698,36.233916]}},{"properties":{"qty":4,"city":"CRANBERRY TOWNSHIP","zipcode":"16066","country":"US","geo_score":0.829,"sales amount":41472.0,"year":2012,"id":"aaugbxbm9uzj","address":"100 SMITH DRIVE","geo_precision":"street","state":"PA"},"type":"Feature","geometry":{"type":"Point","coordinates":[-80.102007,40.697562]}},{"properties":{"qty":6,"city":"NAPERVILLE","zipcode":"60563","country":"US","geo_score":1.0,"sales amount":45234.0,"year":2012,"id":"aaugbx5xepsu","address":"1400 WEST OGDEN AVE","geo_precision":"range","state":"IL"},"type":"Feature","geometry":{"type":"Point","coordinates":[-88.183085,41.779983]}},{"properties":{"qty":1,"city":"MIAMI","zipcode":"33178","country":"US","geo_score":0.746,"sales amount":46515.0,"year":2012,"id":"aaugbx1k5x9o","address":"13100 NW 113TH AVE RD","geo_precision":"street","state":"FL"},"type":"Feature","geometry":{"type":"Point","coordinates":[-80.380406,25.825654]}},{"properties":{"qty":1,"city":"LEWISBURG","zipcode":"24901","country":"US","geo_score":0.357,"sales amount":46515.0,"year":2012,"id":"aaugbx8oixh9","address":"HC 40 BOX 49","geo_precision":"street","state":"WV"},"type":"Feature","geometry":{"type":"Point","coordinates":[-80.297529,37.804143]}},{"properties":{"qty":1,"city":"LOUISVILLE","zipcode":"40299","country":"US","geo_score":1.0,"sales amount":48840.65,"year":2012,"id":"aaugbx29gcwx","address":"1801 WATTERSON TRAIL","geo_precision":"range","state":"KY"},"type":"Feature","geometry":{"type":"Point","coordinates":[-85.555862,38.21682]}},{"properties":{"qty":1,"city":"LOUISVILLE","zipcode":"40299","country":"US","geo_score":1.0,"sales amount":48840.65,"year":2012,"id":"aaugbx1mzvym","address":"1801 WATTERSON TRAIL","geo_precision":"range","state":"KY"},"type":"Feature","geometry":{"type":"Point","coordinates":[-85.555862,38.21682]}},{"properties":{"qty":1,"city":"KNOXVILLE","zipcode":"37920","country":"US","geo_score":1.0,"sales amount":48982.9,"year":2012,"id":"aaugbx1uc29q","address":"3300 ALCOA HWY","geo_precision":"range","state":"TN"},"type":"Feature","geometry":{"type":"Point","coordinates":[-83.953024,35.895638]}},{"properties":{"qty":2,"city":"LANSING","zipcode":"48906","country":"US","geo_score":0.914,"sales amount":50160.0,"year":2012,"id":"aaugbx9ostit","address":"3600 N GRAND RIVER RD","geo_precision":"range","state":"MI"},"type":"Feature","geometry":{"type":"Point","coordinates":[-84.582486,42.764459]}},{"properties":{"qty":1,"city":"GREENSBORO","zipcode":"27409","country":"US","geo_score":1.0,"sales amount":50744.92,"year":2012,"id":"aaugbx7wjiz8","address":"6382 BURNT POPLAR ROAD","geo_precision":"range","state":"NC"},"type":"Feature","geometry":{"type":"Point","coordinates":[-79.938308,36.075717]}},{"properties":{"qty":1,"city":"DURHAM","zipcode":"27707","country":"US","geo_score":1.0,"sales amount":50744.92,"year":2012,"id":"aaugbwy1v93o","address":"2323 SOUTH ALSTON AVE","geo_precision":"range","state":"NC"},"type":"Feature","geometry":{"type":"Point","coordinates":[-78.88369,35.957567]}},{"properties":{"qty":1,"city":"CHARLOTTE","zipcode":"28206","country":"US","geo_score":0.805,"sales amount":50744.92,"year":2012,"id":"aaugbx44ygkr","address":"4501 EQUIPMENT DRIVE","geo_precision":"range","state":"NC"},"type":"Feature","geometry":{"type":"Point","coordinates":[-80.803318,35.276736]}},{"properties":{"qty":1,"city":"GREER","zipcode":"29651","country":"US","geo_score":0.82,"sales amount":50744.92,"year":2012,"id":"aaugbx5mkeqi","address":"1936 HWY 101 SOUTH","geo_precision":"range","state":"SC"},"type":"Feature","geometry":{"type":"Point","coordinates":[-82.153832,34.886797]}},{"properties":{"qty":1,"city":"RICHMOND","zipcode":"23237","country":"US","geo_score":1.0,"sales amount":50744.92,"year":2012,"id":"aaugbwz7s26n","address":"9030 BURGE AVE","geo_precision":"range","state":"VA"},"type":"Feature","geometry":{"type":"Point","coordinates":[-77.422951,37.403661]}},{"properties":{"qty":1,"city":"WEST VALLEY CITY","zipcode":"84119","country":"US","geo_score":0.957,"sales amount":50751.0,"year":2012,"id":"aaugbx12wiqf","address":"3333 WEST 2100 SOUTH","geo_precision":"range","state":"UT"},"type":"Feature","geometry":{"type":"Point","coordinates":[-111.968819,40.726749]}},{"properties":{"qty":1,"city":"SALT LAKE CITY","zipcode":"84119","country":"US","geo_score":1.0,"sales amount":50757.0,"year":2012,"id":"aaugbx0dq1oj","address":"3333 WEST 2100 SOUTH","geo_precision":"range","state":"UT"},"type":"Feature","geometry":{"type":"Point","coordinates":[-111.968819,40.726749]}},{"properties":{"qty":1,"city":"ELKO","zipcode":"89801","country":"US","geo_score":0.941,"sales amount":50932.0,"year":2012,"id":"aaugbx4m8yox","address":"355 WEST RIVER STREET","geo_precision":"range","state":"NV"},"type":"Feature","geometry":{"type":"Point","coordinates":[-115.76665,40.826284]}},{"properties":{"qty":1,"city":"FALMOUTH","zipcode":"22406","country":"US","geo_score":0.916,"sales amount":51141.75,"year":2012,"id":"aaugbwz2wr9l","address":"4 COMMERCE PARKWAY","geo_precision":"range","state":"VA"},"type":"Feature","geometry":{"type":"Point","coordinates":[-77.504511,38.350321]}},{"properties":{"qty":2,"city":"MECHANICSBURG","zipcode":"17050","country":"US","geo_score":1.0,"sales amount":52800.0,"year":2012,"id":"aaugbx2addol","address":"6779 CARLISLE PIKE","geo_precision":"range","state":"PA"},"type":"Feature","geometry":{"type":"Point","coordinates":[-77.068863,40.235812]}},{"properties":{"qty":1,"city":"LOUISVILLE","zipcode":"40299","country":"US","geo_score":1.0,"sales amount":53391.9,"year":2012,"id":"aaugbx4ufuhu","address":"1801 WATTERSON TRAIL","geo_precision":"range","state":"KY"},"type":"Feature","geometry":{"type":"Point","coordinates":[-85.555862,38.21682]}},{"properties":{"qty":1,"city":"LOUISVILLE","zipcode":"40299","country":"US","geo_score":1.0,"sales amount":53391.9,"year":2012,"id":"aaugbx5x8tdg","address":"1801 WATTERSON TRAIL","geo_precision":"range","state":"KY"},"type":"Feature","geometry":{"type":"Point","coordinates":[-85.555862,38.21682]}},{"properties":{"qty":1,"city":"KNOXVILLE","zipcode":"37920","country":"US","geo_score":1.0,"sales amount":53391.9,"year":2012,"id":"aaugbx03lnon","address":"3300 ALCOA HWY","geo_precision":"range","state":"TN"},"type":"Feature","geometry":{"type":"Point","coordinates":[-83.953024,35.895638]}},{"properties":{"qty":1,"city":"KNOXVILLE","zipcode":"37920","country":"US","geo_score":1.0,"sales amount":53391.9,"year":2012,"id":"aaugbx7h64ub","address":"3300 ALCOA HWY","geo_precision":"range","state":"TN"},"type":"Feature","geometry":{"type":"Point","coordinates":[-83.953024,35.895638]}},{"properties":{"qty":7,"city":"NAPERVILLE","zipcode":"60563","country":"US","geo_score":1.0,"sales amount":53844.0,"year":2012,"id":"aaugbx95fisg","address":"1400 WEST OGDEN AVE","geo_precision":"range","state":"IL"},"type":"Feature","geometry":{"type":"Point","coordinates":[-88.183085,41.779983]}},{"properties":{"qty":1,"city":"FULLERTON","zipcode":"92831","country":"US","geo_score":1.0,"sales amount":54804.0,"year":2012,"id":"aaugbx2zctne","address":"1130 EAST ELM AVE.","geo_precision":"range","state":"CA"},"type":"Feature","geometry":{"type":"Point","coordinates":[-117.90836,33.864005]}},{"properties":{"qty":1,"city":"MECHANICSBURG","zipcode":"17050","country":"US","geo_score":1.0,"sales amount":56201.99,"year":2012,"id":"aaugbwzd9abx","address":"6779 CARLISLE PIKE","geo_precision":"range","state":"PA"},"type":"Feature","geometry":{"type":"Point","coordinates":[-77.068863,40.235812]}},{"properties":{"qty":1,"city":"ROCKDALE","zipcode":"60436","country":"US","geo_score":0.61,"sales amount":57300.0,"year":2012,"id":"aaugbx14dnj2","address":"600 WALNUT CT","geo_precision":"street","state":"IL"},"type":"Feature","geometry":{"type":"Point","coordinates":[-87.933157,41.604853]}},{"properties":{"qty":1,"city":"BIRMINGHAM","zipcode":"35217","country":"US","geo_score":0.971,"sales amount":61535.93,"year":2012,"id":"aaugbxbu5dod","address":"3000 A PINSON VALLEY PARKWAY","geo_precision":"range","state":"AL"},"type":"Feature","geometry":{"type":"Point","coordinates":[-86.737051,33.620801]}},{"properties":{"qty":1,"city":"ATHENS","zipcode":"30601","country":"US","geo_score":0.941,"sales amount":61535.93,"year":2012,"id":"aaugbx621c2a","address":"1460 CHASE STREET","geo_precision":"range","state":"GA"},"type":"Feature","geometry":{"type":"Point","coordinates":[-83.392649,33.973289]}},{"properties":{"qty":1,"city":"RALEIGH","zipcode":"27615","country":"US","geo_score":0.809,"sales amount":61535.93,"year":2012,"id":"aaugbx1vktdz","address":"2951 ROWLAND ROAD","geo_precision":"street","state":"NC"},"type":"Feature","geometry":{"type":"Point","coordinates":[-78.590533,35.881346]}},{"properties":{"qty":1,"city":"GREER","zipcode":"29651","country":"US","geo_score":0.82,"sales amount":61535.93,"year":2012,"id":"aaugbx5py8ap","address":"1936 HWY 101 SOUTH","geo_precision":"range","state":"SC"},"type":"Feature","geometry":{"type":"Point","coordinates":[-82.153832,34.886797]}},{"properties":{"qty":1,"city":"WEST VALLEY CITY","zipcode":"84119","country":"US","geo_score":0.957,"sales amount":62415.0,"year":2012,"id":"aaugbx3bb8cb","address":"3333 WEST 2100 SOUTH","geo_precision":"range","state":"UT"},"type":"Feature","geometry":{"type":"Point","coordinates":[-111.968819,40.726749]}},{"properties":{"qty":1,"city":"COLUMBUS","zipcode":"43207","country":"US","geo_score":0.607,"sales amount":65122.5,"year":2012,"id":"aaugbxccbng5","address":"50 E. KINGSTON AVE.","geo_precision":"street","state":"OH"},"type":"Feature","geometry":{"type":"Point","coordinates":[-82.995386,39.918445]}},{"properties":{"qty":1,"city":"CHARLOTTE","zipcode":"28206","country":"US","geo_score":0.805,"sales amount":69379.02,"year":2012,"id":"aaugbx01z64c","address":"4501 EQUIPMENT DRIVE","geo_precision":"range","state":"NC"},"type":"Feature","geometry":{"type":"Point","coordinates":[-80.803318,35.276736]}},{"properties":{"qty":1,"city":"DURHAM","zipcode":"27707","country":"US","geo_score":1.0,"sales amount":69379.02,"year":2012,"id":"aaugbx4g2g71","address":"2323 SOUTH ALSTON AVENUE","geo_precision":"range","state":"NC"},"type":"Feature","geometry":{"type":"Point","coordinates":[-78.88369,35.957567]}},{"properties":{"qty":1,"city":"RALEIGH","zipcode":"27615","country":"US","geo_score":0.809,"sales amount":69379.02,"year":2012,"id":"aaugbx6i317j","address":"2951 ROWLAND ROAD","geo_precision":"street","state":"NC"},"type":"Feature","geometry":{"type":"Point","coordinates":[-78.590533,35.881346]}},{"properties":{"qty":1,"city":"ANTIOCH","zipcode":"37013","country":"US","geo_score":1.0,"sales amount":69379.02,"year":2012,"id":"aaugbwz482aa","address":"4326 HURRICANE CREEK BLVD","geo_precision":"range","state":"TN"},"type":"Feature","geometry":{"type":"Point","coordinates":[-86.594692,36.028312]}},{"properties":{"qty":1,"city":"FALMOUTH","zipcode":"22406","country":"US","geo_score":0.916,"sales amount":69379.02,"year":2012,"id":"aaugbx6gktf2","address":"4 COMMERCE PARKWAY","geo_precision":"range","state":"VA"},"type":"Feature","geometry":{"type":"Point","coordinates":[-77.504511,38.350321]}},{"properties":{"qty":1,"city":"ROGERS","zipcode":"55374","country":"US","geo_score":1.0,"sales amount":69921.0,"year":2012,"id":"aaugbxeabiaj","address":"14375 JAMES ROAD","geo_precision":"range","state":"MN"},"type":"Feature","geometry":{"type":"Point","coordinates":[-93.550019,45.212705]}},{"properties":{"qty":1,"city":"HERMANTOWN","zipcode":"55811","country":"US","geo_score":0.912,"sales amount":69921.0,"year":2012,"id":"aaugbxby9xnp","address":"4311 HAINES ROAD","geo_precision":"range","state":"MN"},"type":"Feature","geometry":{"type":"Point","coordinates":[-92.174893,46.827528]}},{"properties":{"qty":1,"city":"WEST FARGO","zipcode":"58078","country":"US","geo_score":0.779,"sales amount":69921.0,"year":2012,"id":"aaugbxact9qm","address":"644 EAST BEATON DRIVE","geo_precision":"street","state":"ND"},"type":"Feature","geometry":{"type":"Point","coordinates":[-96.902834,46.848471]}},{"properties":{"qty":1,"city":"COLUMBUS","zipcode":"43207","country":"US","geo_score":0.958,"sales amount":69921.0,"year":2012,"id":"aaugbx3kf18a","address":"50 E KINGSTON AVE","geo_precision":"range","state":"OH"},"type":"Feature","geometry":{"type":"Point","coordinates":[-82.994615,39.9185]}},{"properties":{"qty":1,"city":"COLUMBUS","zipcode":"43207","country":"US","geo_score":0.958,"sales amount":69921.0,"year":2012,"id":"aaugbx757c5l","address":"50 E KINGSTON AVE","geo_precision":"range","state":"OH"},"type":"Feature","geometry":{"type":"Point","coordinates":[-82.994615,39.9185]}},{"properties":{"qty":1,"city":"COLUMBUS","zipcode":"43207","country":"US","geo_score":0.958,"sales amount":69921.0,"year":2012,"id":"aaugbx76jkia","address":"50 E KINGSTON AVE","geo_precision":"range","state":"OH"},"type":"Feature","geometry":{"type":"Point","coordinates":[-82.994615,39.9185]}},{"properties":{"qty":1,"city":"NEW STANTON","zipcode":"15672","country":"US","geo_score":0.806,"sales amount":69921.0,"year":2012,"id":"aaugbwzgdrvz","address":"963 SOUTH CENTER AVE","geo_precision":"street","state":"PA"},"type":"Feature","geometry":{"type":"Point","coordinates":[-79.60552,40.209285]}},{"properties":{"qty":1,"city":"SALT LAKE CITY","zipcode":"84119","country":"US","geo_score":1.0,"sales amount":69921.0,"year":2012,"id":"aaugbxdg1mhm","address":"3333 WEST 2100 SOUTH","geo_precision":"range","state":"UT"},"type":"Feature","geometry":{"type":"Point","coordinates":[-111.968819,40.726749]}},{"properties":{"qty":1,"city":"CLOVERDALE","zipcode":"24077","country":"US","geo_score":0.805,"sales amount":69921.0,"year":2012,"id":"aaugbx8yddbl","address":"210 UPDIKE LANE","geo_precision":"range","state":"VA"},"type":"Feature","geometry":{"type":"Point","coordinates":[-79.909808,37.369485]}},{"properties":{"qty":1,"city":"PHOENIX","zipcode":"85009","country":"US","geo_score":0.595,"sales amount":70021.65,"year":2012,"id":"aaugbx72kgl2","address":"4044 W. LOWER BUCKEYE RD.","geo_precision":"street","state":"AZ"},"type":"Feature","geometry":{"type":"Point","coordinates":[-112.099731,33.422239]}},{"properties":{"qty":1,"city":"CANTON","zipcode":"44706","country":"US","geo_score":0.986,"sales amount":71921.0,"year":2012,"id":"aaugbx96myjk","address":"1601 SHEPLER CHURCH AV SW","geo_precision":"range","state":"OH"},"type":"Feature","geometry":{"type":"Point","coordinates":[-81.394075,40.772921]}},{"properties":{"qty":2,"city":"NEW STANTON","zipcode":"15672","country":"US","geo_score":0.806,"sales amount":72036.0,"year":2012,"id":"aaugbx3x3i0m","address":"963 SOUTH CENTER AVE","geo_precision":"street","state":"PA"},"type":"Feature","geometry":{"type":"Point","coordinates":[-79.60552,40.209285]}},{"properties":{"qty":1,"city":"SAUGERTIES","zipcode":"12477","country":"US","geo_score":0.894,"sales amount":72556.99,"year":2012,"id":"aaugbx6abny2","address":"571 ROUTE 212","geo_precision":"range","state":"NY"},"type":"Feature","geometry":{"type":"Point","coordinates":[-74.072822,42.044763]}},{"properties":{"qty":1,"city":"KNOXVILLE","zipcode":"37920","country":"US","geo_score":1.0,"sales amount":74135.94,"year":2012,"id":"aaugbwzuvk8l","address":"3300 ALCOA HWY","geo_precision":"range","state":"TN"},"type":"Feature","geometry":{"type":"Point","coordinates":[-83.953024,35.895638]}},{"properties":{"qty":1,"city":"DE PERE","zipcode":"54115","country":"US","geo_score":1.0,"sales amount":76696.98,"year":2012,"id":"aaugbx1xtbsi","address":"1031 LAWRENCE DR","geo_precision":"range","state":"WI"},"type":"Feature","geometry":{"type":"Point","coordinates":[-88.106611,44.428204]}},{"properties":{"qty":1,"city":"INDEPENDENCE","zipcode":"44131","country":"US","geo_score":0.6,"sales amount":77142.0,"year":2012,"id":"aaugbxdps99x","address":"7171 E. PLEASANT VALLEY RD","geo_precision":"street","state":"OH"},"type":"Feature","geometry":{"type":"Point","coordinates":[-81.654442,41.366254]}},{"properties":{"qty":1,"city":"ERIE","zipcode":"80516","country":"US","geo_score":0.446,"sales amount":78231.0,"year":2012,"id":"aaugbx07t3de","address":"2114 I 25 FRONTAGE ROAD","geo_precision":"street","state":"CO"},"type":"Feature","geometry":{"type":"Point","coordinates":[-104.980629,40.029406]}},{"properties":{"qty":1,"city":"NEW STANTON","zipcode":"15672","country":"US","geo_score":0.806,"sales amount":78687.0,"year":2012,"id":"aaugbx3asb9h","address":"963 SOUTH CENTER AVE","geo_precision":"street","state":"PA"},"type":"Feature","geometry":{"type":"Point","coordinates":[-79.60552,40.209285]}},{"properties":{"qty":1,"city":"NEW STANTON","zipcode":"15672","country":"US","geo_score":0.806,"sales amount":78687.0,"year":2012,"id":"aaugbwzsy12r","address":"963 SOUTH CENTER AVE","geo_precision":"street","state":"PA"},"type":"Feature","geometry":{"type":"Point","coordinates":[-79.60552,40.209285]}},{"properties":{"qty":1,"city":"NEW STANTON","zipcode":"15672","country":"US","geo_score":0.806,"sales amount":78687.0,"year":2012,"id":"aaugbx85yofl","address":"963 SOUTH CENTER AVE","geo_precision":"street","state":"PA"},"type":"Feature","geometry":{"type":"Point","coordinates":[-79.60552,40.209285]}},{"properties":{"qty":1,"city":"MIAMI","zipcode":"33178","country":"US","geo_score":0.857,"sales amount":79950.0,"year":2012,"id":"aaugbwyka5ju","address":"SUITE 400","geo_precision":"zip","state":"FL"},"type":"Feature","geometry":{"type":"Point","coordinates":[-80.381857,25.859963]}},{"properties":{"qty":1,"city":"WILKES-BARRE","zipcode":"18711","country":"US","geo_score":0.61,"sales amount":81573.0,"year":2012,"id":"aaugbwyjk7nb","address":"315 HIGHWAY 315","geo_precision":"street","state":"PA"},"type":"Feature","geometry":{"type":"Point","coordinates":[-75.83227,41.251847]}},{"properties":{"qty":1,"city":"WILKES-BARRE","zipcode":"18711","country":"US","geo_score":0.61,"sales amount":81573.0,"year":2012,"id":"aaugbx3mi2lr","address":"315 HIGHWAY 315","geo_precision":"street","state":"PA"},"type":"Feature","geometry":{"type":"Point","coordinates":[-75.83227,41.251847]}},{"properties":{"qty":1,"city":"ROANOKE","zipcode":"24019","country":"US","geo_score":1.0,"sales amount":89712.0,"year":2012,"id":"aaugbxccy2eu","address":"210 UPDIKE LANE","geo_precision":"range","state":"VA"},"type":"Feature","geometry":{"type":"Point","coordinates":[-79.909808,37.369485]}},{"properties":{"qty":1,"city":"COLUMBUS","zipcode":"31902","country":"US","geo_score":0.805,"sales amount":91257.0,"year":2012,"id":"aaugbx4chygz","address":"2400 VICTORY DRIVE","geo_precision":"range","state":"GA"},"type":"Feature","geometry":{"type":"Point","coordinates":[-84.964797,32.439975]}},{"properties":{"qty":1,"city":"EPHRATA","zipcode":"17522","country":"US","geo_score":0.612,"sales amount":103824.0,"year":2012,"id":"aaugbxb3ub00","address":"20 STAUFFER LN","geo_precision":"street","state":"PA"},"type":"Feature","geometry":{"type":"Point","coordinates":[-76.390166,40.162335]}},{"properties":{"qty":20,"city":"SAINT LOUIS","zipcode":"63125","country":"US","geo_score":1.0,"sales amount":108060.0,"year":2012,"id":"aaugbx6mbgeq","address":"4190 HOFFMEISTER AVE","geo_precision":"range","state":"MO"},"type":"Feature","geometry":{"type":"Point","coordinates":[-90.299505,38.542069]}}],"is_temporal":false,"author":{"url":"","metadata":"","contact_name":"","contact_address":"","source":"","contact_phone":""},"source":"","pagination":{"sort":null,"start":0,"total":568,"limit":1000000},"state":"complete","tags":"","published":"2014-08-16T21:05:14-04:00","id":306494}