{"type":"FeatureCollection","data_type":"Dataset","url_type":null,"permissions":[{"permissions":{"download":true,"view":true},"group_id":"everyone"}],"classification":null,"title":"Completed_Residential_Projects","count":8,"stream_id":306424,"contributor":{"url":"http://geocommons.com/users/42452","name":"OPDC"},"data_attributes":null,"calculation_params":null,"icon_link":null,"link":"http://geocommons.com/overlays/306424.json","extent":[-79.9816,40.4326,-79.9514,40.4383],"geometry_types":["point"],"unique_name":null,"name":"Completed_Residential_Projects","feature_count":8,"description":"","next_feature":null,"is_raster":false,"short_classification":"Y","stats":{},"features":[{"properties":{"project name":"3615 Parkview Avenue","city":"Pittsburgh","category":"Completed Residential Projects","selling date":"8-May","geo_score":1.0,"zip code":"15213","column_9":null,"description":"One unit, home ownership","id":"aaua9xki35hc","address":"3615 Parkview Avenue","geo_precision":"range","state":"Pennsylvania"},"type":"Feature","geometry":{"type":"Point","coordinates":[-79.951437,40.436932]}},{"properties":{"project name":"South Oakland-Phase 2","city":"Pittsburgh","category":"Completed Residential Projects","selling date":"9-May","geo_score":1.0,"zip code":"15213","column_9":null,"description":"Three units, new construction","id":"aaua9x9m8qom","address":"3261 Ward St","geo_precision":"range","state":"Pennsylvania"},"type":"Feature","geometry":{"type":"Point","coordinates":[-79.955088,40.432698]}},{"properties":{"project name":"South Oakland-Phase 2","city":"Pittsburgh","category":"Completed Residential Projects","selling date":"9-May","geo_score":1.0,"zip code":"15213","column_9":null,"description":null,"id":"aaua9x6wl2t0","address":"3263 Ward St","geo_precision":"range","state":"Pennsylvania"},"type":"Feature","geometry":{"type":"Point","coordinates":[-79.955109,40.432618]}},{"properties":{"project name":"Uptown Scattered Sites","city":"Pittsburgh","category":"Completed Residential Projects","selling date":"7-Jan","geo_score":0.883,"zip code":"15219","column_9":null,"description":"Four units, rehab, owner-occupied housing","id":"aaua9x6r8ux3","address":"1713 Forbes","geo_precision":"range","state":"Pennsylvania"},"type":"Feature","geometry":{"type":"Point","coordinates":[-79.981543,40.43758]}},{"properties":{"project name":"Uptown Scattered Sites","city":"Pittsburgh","category":"Completed Residential Projects","selling date":"7-Jan","geo_score":0.883,"zip code":"15219","column_9":null,"description":null,"id":"aaua9xk0vepo","address":"1715 Forbes","geo_precision":"range","state":"Pennsylvania"},"type":"Feature","geometry":{"type":"Point","coordinates":[-79.981562,40.437581]}},{"properties":{"project name":"Uptown Scattered Sites","city":"Pittsburgh","category":"Completed Residential Projects","selling date":"7-Jan","geo_score":0.941,"zip code":"15219","column_9":null,"description":null,"id":"aaua9x9ejqc6","address":"33 Miltenberger","geo_precision":"range","state":"Pennsylvania"},"type":"Feature","geometry":{"type":"Point","coordinates":[-79.981378,40.437198]}},{"properties":{"project name":"Uptown Scattered Sites","city":"Pittsburgh","category":"Completed Residential Projects","selling date":"7-Jan","geo_score":0.941,"zip code":"15219","column_9":null,"description":null,"id":"aaua9x9pt002","address":"114 Miltenberger","geo_precision":"range","state":"Pennsylvania"},"type":"Feature","geometry":{"type":"Point","coordinates":[-79.981444,40.438334]}},{"properties":{"project name":"Uptown Scattered Sites","city":"Pittsburgh","category":"Completed Residential Projects","selling date":"7-Jan","geo_score":0.912,"zip code":"15213","column_9":null,"description":null,"id":"aaua9x6vysaj","address":"208 Ophelia","geo_precision":"range","state":"Pennsylvania"},"type":"Feature","geometry":{"type":"Point","coordinates":[-79.963457,40.43513]}}],"is_temporal":false,"author":{"url":"","metadata":null,"contact_name":null,"contact_address":null,"source":null,"contact_phone":null},"source":"","pagination":{"sort":null,"start":0,"total":8,"limit":1000000},"state":"complete","tags":"","published":"2014-08-16T20:57:36-04:00","id":306424}