{"type":"FeatureCollection","data_type":"Dataset","url_type":null,"permissions":[{"permissions":{"download":true,"view":true},"group_id":"everyone"}],"classification":null,"title":"HA Sales Data for Map 2010","count":187,"stream_id":306492,"contributor":{"url":"http://geocommons.com/users/57814","name":"jddaniel21"},"data_attributes":null,"calculation_params":null,"icon_link":null,"link":"http://geocommons.com/overlays/306492.json","extent":[-122.414,26.6229,-71.0553,48.0724],"geometry_types":["point"],"unique_name":null,"name":"HA Sales Data for Map 2010","feature_count":187,"description":"","next_feature":null,"is_raster":false,"short_classification":"Y","stats":{"qty":{"max":4,"mean":1.13903743315508,"variance":0.184865735150365,"stdev":0.429960155305541,"median":1,"min":1},"sales amount":{"max":147000.0,"mean":18519.6898930481,"variance":734374590.19479,"stdev":27099.3466746855,"median":7245.0,"min":2122.4},"year":{"max":"2010/01/01 00:00:00 -0500","mean":"2010/01/01 00:00:00 -0500","variance":0.0,"stdev":0.0,"median":"2010/01/01 00:00:00 -0500","min":"2010/01/01 00:00:00 -0500"}},"features":[{"properties":{"qty":1,"city":"LIVERMORE","zipcode":"94550","country":"US","geo_score":1.0,"sales amount":147000.0,"year":{"end_time":"2011/01/01 00:00:00 -0500","original":"2010","granularity":"year","time":"2010/01/01 00:00:00 -0500"},"id":"aaug7u466om4","address":"550 GREENVILLE RD","geo_precision":"range","state":"CA"},"type":"Feature","geometry":{"type":"Point","coordinates":[-121.696944,37.70314]}},{"properties":{"qty":1,"city":"ASHLAND","zipcode":"23005","country":"US","geo_score":1.0,"sales amount":143000.0,"year":{"end_time":"2011/01/01 00:00:00 -0500","original":"2010","granularity":"year","time":"2010/01/01 00:00:00 -0500"},"id":"aaug7u2oi0bs","address":"11351 VIRGINIA CRANE DR","geo_precision":"range","state":"VA"},"type":"Feature","geometry":{"type":"Point","coordinates":[-77.436944,37.713779]}},{"properties":{"qty":1,"city":"MILWAUKEE","zipcode":"53225","country":"US","geo_score":0.595,"sales amount":2122.4,"year":{"end_time":"2011/01/01 00:00:00 -0500","original":"2010","granularity":"year","time":"2010/01/01 00:00:00 -0500"},"id":"aaug7u0v5eod","address":"121014 W. SILVER SPRING DR.","geo_precision":"street","state":"WI"},"type":"Feature","geometry":{"type":"Point","coordinates":[-88.018514,43.119554]}},{"properties":{"qty":1,"city":"SOUTH WINDSOR","zipcode":"06074","country":"US","geo_score":1.0,"sales amount":3028.8,"year":{"end_time":"2011/01/01 00:00:00 -0500","original":"2010","granularity":"year","time":"2010/01/01 00:00:00 -0500"},"id":"aaug7u800ivk","address":"410 BURNHAM STREET","geo_precision":"range","state":"CT"},"type":"Feature","geometry":{"type":"Point","coordinates":[-72.608029,41.799541]}},{"properties":{"qty":1,"city":"MECHANICSBURG","zipcode":"17055","country":"US","geo_score":0.814,"sales amount":3514.71,"year":{"end_time":"2011/01/01 00:00:00 -0500","original":"2010","granularity":"year","time":"2010/01/01 00:00:00 -0500"},"id":"aaug7ubfgubv","address":"6779 CARLISLE PIKE","geo_precision":"street","state":"PA"},"type":"Feature","geometry":{"type":"Point","coordinates":[-77.072754,40.235852]}},{"properties":{"qty":1,"city":"PELLA","zipcode":"50219","country":"US","geo_score":0.916,"sales amount":3518.45,"year":{"end_time":"2011/01/01 00:00:00 -0500","original":"2010","granularity":"year","time":"2010/01/01 00:00:00 -0500"},"id":"aaug7uc4s6x3","address":"661 HWY T14","geo_precision":"range","state":"IA"},"type":"Feature","geometry":{"type":"Point","coordinates":[-92.915748,41.43186]}},{"properties":{"qty":1,"city":"RICHFIELD","zipcode":"44286","country":"US","geo_score":0.585,"sales amount":3519.2,"year":{"end_time":"2011/01/01 00:00:00 -0500","original":"2010","granularity":"year","time":"2010/01/01 00:00:00 -0500"},"id":"aaug7u5q46qr","address":"3942 BRECKSVILLE RD","geo_precision":"zip","state":"OH"},"type":"Feature","geometry":{"type":"Point","coordinates":[-81.655124,41.239499]}},{"properties":{"qty":1,"city":"BRASELTON","zipcode":"30517","country":"US","geo_score":0.878,"sales amount":3625.59,"year":{"end_time":"2011/01/01 00:00:00 -0500","original":"2010","granularity":"year","time":"2010/01/01 00:00:00 -0500"},"id":"aaug7u44obfp","address":"5333 BBS WAY","geo_precision":"range","state":"GA"},"type":"Feature","geometry":{"type":"Point","coordinates":[-83.803043,34.15256]}},{"properties":{"qty":1,"city":"CHARLOTTE","zipcode":"28206","country":"US","geo_score":0.61,"sales amount":3665.17,"year":{"end_time":"2011/01/01 00:00:00 -0500","original":"2010","granularity":"year","time":"2010/01/01 00:00:00 -0500"},"id":"aaug7u38kueu","address":"3535 N. GRAHAM ST.","geo_precision":"street","state":"NC"},"type":"Feature","geometry":{"type":"Point","coordinates":[-80.83939,35.236033]}},{"properties":{"qty":1,"city":"LENOX","zipcode":"48050","country":"US","geo_score":0.807,"sales amount":3778.22,"year":{"end_time":"2011/01/01 00:00:00 -0500","original":"2010","granularity":"year","time":"2010/01/01 00:00:00 -0500"},"id":"aaug7uagsd9u","address":"65809 GRATIOT","geo_precision":"range","state":"MI"},"type":"Feature","geometry":{"type":"Point","coordinates":[-82.744501,42.78506]}},{"properties":{"qty":1,"city":"TIPTON","zipcode":"52772","country":"US","geo_score":0.614,"sales amount":3789.5,"year":{"end_time":"2011/01/01 00:00:00 -0500","original":"2010","granularity":"year","time":"2010/01/01 00:00:00 -0500"},"id":"aaug7u6u07kq","address":"212 W. SOUTH STREET","geo_precision":"street","state":"IA"},"type":"Feature","geometry":{"type":"Point","coordinates":[-91.346676,41.666136]}},{"properties":{"qty":1,"city":"JACKSONVILLE","zipcode":"72076","country":"US","geo_score":0.707,"sales amount":3926.54,"year":{"end_time":"2011/01/01 00:00:00 -0500","original":"2010","granularity":"year","time":"2010/01/01 00:00:00 -0500"},"id":"aaug7u4ya2mv","address":"2600 WEST MAIN","geo_precision":"street","state":"AR"},"type":"Feature","geometry":{"type":"Point","coordinates":[-92.118924,34.867216]}},{"properties":{"qty":1,"city":"FORT SMITH","zipcode":"72901","country":"US","geo_score":1.0,"sales amount":3926.54,"year":{"end_time":"2011/01/01 00:00:00 -0500","original":"2010","granularity":"year","time":"2010/01/01 00:00:00 -0500"},"id":"aaug7u2cmofe","address":"3616 TOWSON AVENUE","geo_precision":"range","state":"AR"},"type":"Feature","geometry":{"type":"Point","coordinates":[-94.422409,35.348825]}},{"properties":{"qty":1,"city":"SHOW LOW","zipcode":"85901","country":"US","geo_score":1.0,"sales amount":3926.54,"year":{"end_time":"2011/01/01 00:00:00 -0500","original":"2010","granularity":"year","time":"2010/01/01 00:00:00 -0500"},"id":"aaug7u5wpy5g","address":"3461 EAST DEUCE OF CLUBS","geo_precision":"range","state":"AZ"},"type":"Feature","geometry":{"type":"Point","coordinates":[-110.004003,34.259543]}},{"properties":{"qty":1,"city":"AUGUSTA","zipcode":"30906","country":"US","geo_score":1.0,"sales amount":3926.54,"year":{"end_time":"2011/01/01 00:00:00 -0500","original":"2010","granularity":"year","time":"2010/01/01 00:00:00 -0500"},"id":"aaug7u5ss7h4","address":"3521 MIKE PADGETT HIGHWAY","geo_precision":"range","state":"GA"},"type":"Feature","geometry":{"type":"Point","coordinates":[-82.00517,33.392429]}},{"properties":{"qty":1,"city":"RIVERDALE","zipcode":"30274","country":"US","geo_score":0.604,"sales amount":3926.54,"year":{"end_time":"2011/01/01 00:00:00 -0500","original":"2010","granularity":"year","time":"2010/01/01 00:00:00 -0500"},"id":"aaug7u1uv0fa","address":"616 HWY 138 S.W.","geo_precision":"street","state":"GA"},"type":"Feature","geometry":{"type":"Point","coordinates":[-84.394654,33.541989]}},{"properties":{"qty":1,"city":"MARIETTA","zipcode":"30066","country":"US","geo_score":1.0,"sales amount":3926.54,"year":{"end_time":"2011/01/01 00:00:00 -0500","original":"2010","granularity":"year","time":"2010/01/01 00:00:00 -0500"},"id":"aaug7ube6fd7","address":"1950 GUFFIN LANE","geo_precision":"range","state":"GA"},"type":"Feature","geometry":{"type":"Point","coordinates":[-84.528661,33.998572]}},{"properties":{"qty":1,"city":"FREDERICK","zipcode":"21703","country":"US","geo_score":1.0,"sales amount":3926.54,"year":{"end_time":"2011/01/01 00:00:00 -0500","original":"2010","granularity":"year","time":"2010/01/01 00:00:00 -0500"},"id":"aaug7u55xnt3","address":"4622 WEDGEWOOD BLVD","geo_precision":"range","state":"MD"},"type":"Feature","geometry":{"type":"Point","coordinates":[-77.424673,39.362399]}},{"properties":{"qty":1,"city":"RALEIGH","zipcode":"27607","country":"US","geo_score":1.0,"sales amount":3926.54,"year":{"end_time":"2011/01/01 00:00:00 -0500","original":"2010","granularity":"year","time":"2010/01/01 00:00:00 -0500"},"id":"aaug7u5htlyw","address":"5600 CHAPEL HILL ROAD","geo_precision":"range","state":"NC"},"type":"Feature","geometry":{"type":"Point","coordinates":[-78.720087,35.789044]}},{"properties":{"qty":1,"city":"MYRTLE BEACH","zipcode":"29577","country":"US","geo_score":1.0,"sales amount":3926.54,"year":{"end_time":"2011/01/01 00:00:00 -0500","original":"2010","granularity":"year","time":"2010/01/01 00:00:00 -0500"},"id":"aaug7tyq0sli","address":"709 SEABOARD STREET","geo_precision":"range","state":"SC"},"type":"Feature","geometry":{"type":"Point","coordinates":[-78.904116,33.708783]}},{"properties":{"qty":1,"city":"CRANBERRY TOWNSHIP","zipcode":"16066","country":"US","geo_score":0.829,"sales amount":3977.1,"year":{"end_time":"2011/01/01 00:00:00 -0500","original":"2010","granularity":"year","time":"2010/01/01 00:00:00 -0500"},"id":"aaug7uapgxei","address":"100 SMITH DRIVE","geo_precision":"street","state":"PA"},"type":"Feature","geometry":{"type":"Point","coordinates":[-80.102007,40.697562]}},{"properties":{"qty":1,"city":"MECHANICSBURG","zipcode":"17055","country":"US","geo_score":0.814,"sales amount":3977.1,"year":{"end_time":"2011/01/01 00:00:00 -0500","original":"2010","granularity":"year","time":"2010/01/01 00:00:00 -0500"},"id":"aaug7ty0a830","address":"6779 CARLISLE PIKE","geo_precision":"street","state":"PA"},"type":"Feature","geometry":{"type":"Point","coordinates":[-77.072754,40.235852]}},{"properties":{"qty":1,"city":"LAKE CHARLES","zipcode":"70615","country":"US","geo_score":0.655,"sales amount":3984.75,"year":{"end_time":"2011/01/01 00:00:00 -0500","original":"2010","granularity":"year","time":"2010/01/01 00:00:00 -0500"},"id":"aaug7u9wl2q5","address":"3062 HWY 397 SOUTH","geo_precision":"street","state":"LA"},"type":"Feature","geometry":{"type":"Point","coordinates":[-93.128875,30.19106]}},{"properties":{"qty":1,"city":"MECHANICSBURG","zipcode":"17055","country":"US","geo_score":0.814,"sales amount":3990.69,"year":{"end_time":"2011/01/01 00:00:00 -0500","original":"2010","granularity":"year","time":"2010/01/01 00:00:00 -0500"},"id":"aaug7u8cs36h","address":"6779 CARLISLE PIKE","geo_precision":"street","state":"PA"},"type":"Feature","geometry":{"type":"Point","coordinates":[-77.072754,40.235852]}},{"properties":{"qty":1,"city":"CRANBERRY TOWNSHIP","zipcode":"16066","country":"US","geo_score":0.829,"sales amount":4064.46,"year":{"end_time":"2011/01/01 00:00:00 -0500","original":"2010","granularity":"year","time":"2010/01/01 00:00:00 -0500"},"id":"aaug7u4dvhdn","address":"100 SMITH DRIVE","geo_precision":"street","state":"PA"},"type":"Feature","geometry":{"type":"Point","coordinates":[-80.102007,40.697562]}},{"properties":{"qty":1,"city":"LANSING","zipcode":"48906","country":"US","geo_score":0.966,"sales amount":4085.33,"year":{"end_time":"2011/01/01 00:00:00 -0500","original":"2010","granularity":"year","time":"2010/01/01 00:00:00 -0500"},"id":"aaug7ua0mb36","address":"3600 NORTH GRAND RIVER AVE","geo_precision":"range","state":"MI"},"type":"Feature","geometry":{"type":"Point","coordinates":[-84.582486,42.764459]}},{"properties":{"qty":1,"city":"PRESTONSBURG","zipcode":"41653","country":"US","geo_score":0.585,"sales amount":4162.21,"year":{"end_time":"2011/01/01 00:00:00 -0500","original":"2010","granularity":"year","time":"2010/01/01 00:00:00 -0500"},"id":"aaug7u2i38ih","address":"2124 WATERGAP ROAD","geo_precision":"zip","state":"KY"},"type":"Feature","geometry":{"type":"Point","coordinates":[-82.771139,37.536748]}},{"properties":{"qty":1,"city":"INDIANAPOLIS","zipcode":"46268","country":"US","geo_score":1.0,"sales amount":4239.0,"year":{"end_time":"2011/01/01 00:00:00 -0500","original":"2010","granularity":"year","time":"2010/01/01 00:00:00 -0500"},"id":"aaug7udy8xog","address":"8410 ZIONSVILLE ROAD","geo_precision":"range","state":"IN"},"type":"Feature","geometry":{"type":"Point","coordinates":[-86.259943,39.903876]}},{"properties":{"qty":1,"city":"WILLISTON","zipcode":"58801","country":"US","geo_score":0.633,"sales amount":4239.0,"year":{"end_time":"2011/01/01 00:00:00 -0500","original":"2010","granularity":"year","time":"2010/01/01 00:00:00 -0500"},"id":"aaug7u24usxj","address":"3320 3RD AVE. E","geo_precision":"street","state":"ND"},"type":"Feature","geometry":{"type":"Point","coordinates":[-103.8397,48.072374]}},{"properties":{"qty":1,"city":"DE PERE","zipcode":"54115","country":"US","geo_score":1.0,"sales amount":4239.0,"year":{"end_time":"2011/01/01 00:00:00 -0500","original":"2010","granularity":"year","time":"2010/01/01 00:00:00 -0500"},"id":"aaug7u199w73","address":"1031 Lawrence Dr","geo_precision":"range","state":"WI"},"type":"Feature","geometry":{"type":"Point","coordinates":[-88.106611,44.428204]}},{"properties":{"qty":1,"city":"MONROE","zipcode":"98272","country":"US","geo_score":0.614,"sales amount":4329.25,"year":{"end_time":"2011/01/01 00:00:00 -0500","original":"2010","granularity":"year","time":"2010/01/01 00:00:00 -0500"},"id":"aaug7udvs4nq","address":"1166 VILLAGE WAY #A","geo_precision":"street","state":"WA"},"type":"Feature","geometry":{"type":"Point","coordinates":[-121.983551,47.849107]}},{"properties":{"qty":1,"city":"HAYS","zipcode":"67601","country":"US","geo_score":1.0,"sales amount":4373.06,"year":{"end_time":"2011/01/01 00:00:00 -0500","original":"2010","granularity":"year","time":"2010/01/01 00:00:00 -0500"},"id":"aaug7u2qy1mb","address":"1100 VINE STREET","geo_precision":"range","state":"KS"},"type":"Feature","geometry":{"type":"Point","coordinates":[-99.317945,38.869298]}},{"properties":{"qty":1,"city":"CINCINNATI","zipcode":"45241","country":"US","geo_score":1.0,"sales amount":4379.3,"year":{"end_time":"2011/01/01 00:00:00 -0500","original":"2010","granularity":"year","time":"2010/01/01 00:00:00 -0500"},"id":"aaug7u7g68fq","address":"11512 GONDOLA ST","geo_precision":"range","state":"OH"},"type":"Feature","geometry":{"type":"Point","coordinates":[-84.440542,39.283265]}},{"properties":{"qty":1,"city":"EBENSBURG","zipcode":"15931","country":"US","geo_score":1.0,"sales amount":4379.58,"year":{"end_time":"2011/01/01 00:00:00 -0500","original":"2010","granularity":"year","time":"2010/01/01 00:00:00 -0500"},"id":"aaug7uathwvf","address":"4355 ADMIRAL PEARY HWY","geo_precision":"range","state":"PA"},"type":"Feature","geometry":{"type":"Point","coordinates":[-78.753228,40.470216]}},{"properties":{"qty":1,"city":"MILWAUKEE","zipcode":"53225","country":"US","geo_score":0.595,"sales amount":4379.58,"year":{"end_time":"2011/01/01 00:00:00 -0500","original":"2010","granularity":"year","time":"2010/01/01 00:00:00 -0500"},"id":"aaug7u0w7n11","address":"12101 W. SILVER SPRING DR","geo_precision":"street","state":"WI"},"type":"Feature","geometry":{"type":"Point","coordinates":[-88.018514,43.119554]}},{"properties":{"qty":1,"city":"LEXINGTON","zipcode":"40510","country":"US","geo_score":1.0,"sales amount":4392.73,"year":{"end_time":"2011/01/01 00:00:00 -0500","original":"2010","granularity":"year","time":"2010/01/01 00:00:00 -0500"},"id":"aaug7u6mxv3w","address":"2180 OLD FRANKFORT PIKE","geo_precision":"range","state":"KY"},"type":"Feature","geometry":{"type":"Point","coordinates":[-84.551974,38.065476]}},{"properties":{"qty":1,"city":"MOUNTAIN IRON","zipcode":"55768","country":"US","geo_score":0.679,"sales amount":4500.0,"year":{"end_time":"2011/01/01 00:00:00 -0500","original":"2010","granularity":"year","time":"2010/01/01 00:00:00 -0500"},"id":"aaug7u50q58j","address":"MINNTAC MINE","geo_precision":"street","state":"MN"},"type":"Feature","geometry":{"type":"Point","coordinates":[-92.6222,47.532484]}},{"properties":{"qty":1,"city":"MONROE","zipcode":"98272","country":"US","geo_score":1.0,"sales amount":4517.36,"year":{"end_time":"2011/01/01 00:00:00 -0500","original":"2010","granularity":"year","time":"2010/01/01 00:00:00 -0500"},"id":"aaug7u833poe","address":"1130 VILLAGE WAY","geo_precision":"range","state":"WA"},"type":"Feature","geometry":{"type":"Point","coordinates":[-121.985976,47.849945]}},{"properties":{"qty":1,"city":"WEST SPRINGFIELD","zipcode":"01089","country":"US","geo_score":1.0,"sales amount":4577.86,"year":{"end_time":"2011/01/01 00:00:00 -0500","original":"2010","granularity":"year","time":"2010/01/01 00:00:00 -0500"},"id":"aaug7udxwosl","address":"154 WAYSIDE AVENUE","geo_precision":"range","state":"MA"},"type":"Feature","geometry":{"type":"Point","coordinates":[-72.62636,42.143602]}},{"properties":{"qty":1,"city":"COLUMBUS","zipcode":"43207","country":"US","geo_score":0.958,"sales amount":4588.87,"year":{"end_time":"2011/01/01 00:00:00 -0500","original":"2010","granularity":"year","time":"2010/01/01 00:00:00 -0500"},"id":"aaug7ucei6cl","address":"50 E KINGSTON AVE","geo_precision":"range","state":"OH"},"type":"Feature","geometry":{"type":"Point","coordinates":[-82.994615,39.9185]}},{"properties":{"qty":1,"city":"HANOVER","zipcode":"21076","country":"US","geo_score":0.477,"sales amount":4592.25,"year":{"end_time":"2011/01/01 00:00:00 -0500","original":"2010","granularity":"year","time":"2010/01/01 00:00:00 -0500"},"id":"aaug7u67kg33","address":"6940 O'CONNER DRIVE","geo_precision":"street","state":"MD"},"type":"Feature","geometry":{"type":"Point","coordinates":[-76.380457,39.559756]}},{"properties":{"qty":1,"city":"RICHFIELD","zipcode":"44286","country":"US","geo_score":0.585,"sales amount":4608.71,"year":{"end_time":"2011/01/01 00:00:00 -0500","original":"2010","granularity":"year","time":"2010/01/01 00:00:00 -0500"},"id":"aaug7u66y37l","address":"3942 BRECKSVILLE RD","geo_precision":"zip","state":"OH"},"type":"Feature","geometry":{"type":"Point","coordinates":[-81.655124,41.239499]}},{"properties":{"qty":1,"city":"MONROE","zipcode":"98272","country":"US","geo_score":0.614,"sales amount":4620.0,"year":{"end_time":"2011/01/01 00:00:00 -0500","original":"2010","granularity":"year","time":"2010/01/01 00:00:00 -0500"},"id":"aaug7u2lf3u0","address":"1166 VILLAGE WAY #A","geo_precision":"street","state":"WA"},"type":"Feature","geometry":{"type":"Point","coordinates":[-121.983551,47.849107]}},{"properties":{"qty":1,"city":"EUNICE","zipcode":"88231","country":"US","geo_score":0.585,"sales amount":4735.73,"year":{"end_time":"2011/01/01 00:00:00 -0500","original":"2010","granularity":"year","time":"2010/01/01 00:00:00 -0500"},"id":"aaug7u4ivurr","address":"1804 EAST TEXAS AVENUE","geo_precision":"zip","state":"NM"},"type":"Feature","geometry":{"type":"Point","coordinates":[-103.18336,32.440629]}},{"properties":{"qty":1,"city":"SUN VALLEY","zipcode":"91352","country":"US","geo_score":1.0,"sales amount":4735.74,"year":{"end_time":"2011/01/01 00:00:00 -0500","original":"2010","granularity":"year","time":"2010/01/01 00:00:00 -0500"},"id":"aaug7ucuugs1","address":"8450 HADDON AVE","geo_precision":"range","state":"CA"},"type":"Feature","geometry":{"type":"Point","coordinates":[-118.390053,34.224581]}},{"properties":{"qty":1,"city":"LONG BEACH","zipcode":"90806","country":"US","geo_score":0.61,"sales amount":4735.74,"year":{"end_time":"2011/01/01 00:00:00 -0500","original":"2010","granularity":"year","time":"2010/01/01 00:00:00 -0500"},"id":"aaug7u192d3d","address":"2900 E. SPRING ST","geo_precision":"street","state":"CA"},"type":"Feature","geometry":{"type":"Point","coordinates":[-118.191704,33.81165]}},{"properties":{"qty":1,"city":"RIVERSIDE","zipcode":"92507","country":"US","geo_score":0.607,"sales amount":4735.74,"year":{"end_time":"2011/01/01 00:00:00 -0500","original":"2010","granularity":"year","time":"2010/01/01 00:00:00 -0500"},"id":"aaug7u45baun","address":"520 E. LA CADENA DRIVE","geo_precision":"street","state":"CA"},"type":"Feature","geometry":{"type":"Point","coordinates":[-117.361783,33.987184]}},{"properties":{"qty":1,"city":"ORLANDO","zipcode":"32811","country":"US","geo_score":0.979,"sales amount":4735.74,"year":{"end_time":"2011/01/01 00:00:00 -0500","original":"2010","granularity":"year","time":"2010/01/01 00:00:00 -0500"},"id":"aaug7u853swc","address":"4201 L B MC LEOD ROAD","geo_precision":"range","state":"FL"},"type":"Feature","geometry":{"type":"Point","coordinates":[-81.42815,28.508821]}},{"properties":{"qty":1,"city":"OSAGE BEACH","zipcode":"65065","country":"US","geo_score":0.78,"sales amount":4735.74,"year":{"end_time":"2011/01/01 00:00:00 -0500","original":"2010","granularity":"year","time":"2010/01/01 00:00:00 -0500"},"id":"aaug7ty1phrg","address":"5635 HIGHWAY 54","geo_precision":"range","state":"MO"},"type":"Feature","geometry":{"type":"Point","coordinates":[-92.666914,38.126675]}},{"properties":{"qty":1,"city":"CHALFONT","zipcode":"18914","country":"US","geo_score":1.0,"sales amount":4735.74,"year":{"end_time":"2011/01/01 00:00:00 -0500","original":"2010","granularity":"year","time":"2010/01/01 00:00:00 -0500"},"id":"aaug7ubzh37l","address":"100 LIBERTY LANE","geo_precision":"range","state":"PA"},"type":"Feature","geometry":{"type":"Point","coordinates":[-75.248381,40.278864]}},{"properties":{"qty":1,"city":"MOUNT JULIET","zipcode":"37122","country":"US","geo_score":0.424,"sales amount":4735.74,"year":{"end_time":"2011/01/01 00:00:00 -0500","original":"2010","granularity":"year","time":"2010/01/01 00:00:00 -0500"},"id":"aaug7u4b9w08","address":"8155 EAST GATE BLVD","geo_precision":"street","state":"TN"},"type":"Feature","geometry":{"type":"Point","coordinates":[-86.707203,36.265467]}},{"properties":{"qty":1,"city":"KNOXVILLE","zipcode":"37921","country":"US","geo_score":0.71,"sales amount":4735.74,"year":{"end_time":"2011/01/01 00:00:00 -0500","original":"2010","granularity":"year","time":"2010/01/01 00:00:00 -0500"},"id":"aaug7u9btfhd","address":"5417 MIDDLEBROOK PIKE","geo_precision":"street","state":"TN"},"type":"Feature","geometry":{"type":"Point","coordinates":[-84.011974,35.952616]}},{"properties":{"qty":1,"city":"CHRISTIANSBURG","zipcode":"24073","country":"US","geo_score":1.0,"sales amount":4735.74,"year":{"end_time":"2011/01/01 00:00:00 -0500","original":"2010","granularity":"year","time":"2010/01/01 00:00:00 -0500"},"id":"aaug7u3qg7ug","address":"1570 RADFORD ROAD","geo_precision":"range","state":"VA"},"type":"Feature","geometry":{"type":"Point","coordinates":[-80.444591,37.128853]}},{"properties":{"qty":1,"city":"CHARLOTTESVILLE","zipcode":"22902","country":"US","geo_score":1.0,"sales amount":4735.74,"year":{"end_time":"2011/01/01 00:00:00 -0500","original":"2010","granularity":"year","time":"2010/01/01 00:00:00 -0500"},"id":"aaug7u8hz2sr","address":"104 MEADE AVE","geo_precision":"range","state":"VA"},"type":"Feature","geometry":{"type":"Point","coordinates":[-78.46738,38.026243]}},{"properties":{"qty":1,"city":"LA CROSSE","zipcode":"54603","country":"US","geo_score":1.0,"sales amount":4735.74,"year":{"end_time":"2011/01/01 00:00:00 -0500","original":"2010","granularity":"year","time":"2010/01/01 00:00:00 -0500"},"id":"aaug7u6wyrrp","address":"2809 LARSON STREET","geo_precision":"range","state":"WI"},"type":"Feature","geometry":{"type":"Point","coordinates":[-91.225049,43.857897]}},{"properties":{"qty":1,"city":"SAN FRANCISCO","zipcode":"94103","country":"US","geo_score":1.0,"sales amount":4736.97,"year":{"end_time":"2011/01/01 00:00:00 -0500","original":"2010","granularity":"year","time":"2010/01/01 00:00:00 -0500"},"id":"aaug7ua146r3","address":"1530 FOLSOM STREET","geo_precision":"range","state":"CA"},"type":"Feature","geometry":{"type":"Point","coordinates":[-122.414336,37.771741]}},{"properties":{"qty":1,"city":"SAINT LOUIS","zipcode":"63125","country":"US","geo_score":1.0,"sales amount":4852.62,"year":{"end_time":"2011/01/01 00:00:00 -0500","original":"2010","granularity":"year","time":"2010/01/01 00:00:00 -0500"},"id":"aaug7tz7qjko","address":"4190 HOFFMEISTER AVE","geo_precision":"range","state":"MO"},"type":"Feature","geometry":{"type":"Point","coordinates":[-90.299505,38.542069]}},{"properties":{"qty":1,"city":"WICHITA","zipcode":"67213","country":"US","geo_score":0.619,"sales amount":4895.3,"year":{"end_time":"2011/01/01 00:00:00 -0500","original":"2010","granularity":"year","time":"2010/01/01 00:00:00 -0500"},"id":"aaug7u7lz1hg","address":"1750 S. WEST STREET","geo_precision":"street","state":"KS"},"type":"Feature","geometry":{"type":"Point","coordinates":[-97.389381,37.683907]}},{"properties":{"qty":1,"city":"SUN PRAIRIE","zipcode":"53590","country":"US","geo_score":1.0,"sales amount":4917.21,"year":{"end_time":"2011/01/01 00:00:00 -0500","original":"2010","granularity":"year","time":"2010/01/01 00:00:00 -0500"},"id":"aaug7ud778kk","address":"1900 WEST MAIN STREET","geo_precision":"range","state":"WI"},"type":"Feature","geometry":{"type":"Point","coordinates":[-89.24658,43.176306]}},{"properties":{"qty":1,"city":"SOUTH WINDSOR","zipcode":"06074","country":"US","geo_score":1.0,"sales amount":4957.5,"year":{"end_time":"2011/01/01 00:00:00 -0500","original":"2010","granularity":"year","time":"2010/01/01 00:00:00 -0500"},"id":"aaug7ud8d7rm","address":"410 BURNHAM STREET","geo_precision":"range","state":"CT"},"type":"Feature","geometry":{"type":"Point","coordinates":[-72.608029,41.799541]}},{"properties":{"qty":1,"city":"MONROE","zipcode":"98272","country":"US","geo_score":0.614,"sales amount":4967.39,"year":{"end_time":"2011/01/01 00:00:00 -0500","original":"2010","granularity":"year","time":"2010/01/01 00:00:00 -0500"},"id":"aaug7u72z57l","address":"1166 VILLAGE WAY #A","geo_precision":"street","state":"WA"},"type":"Feature","geometry":{"type":"Point","coordinates":[-121.983551,47.849107]}},{"properties":{"qty":1,"city":"SAINT LOUIS","zipcode":"63125","country":"US","geo_score":1.0,"sales amount":4996.72,"year":{"end_time":"2011/01/01 00:00:00 -0500","original":"2010","granularity":"year","time":"2010/01/01 00:00:00 -0500"},"id":"aaug7uaedo7z","address":"4190 HOFFMEISTER AVE","geo_precision":"range","state":"MO"},"type":"Feature","geometry":{"type":"Point","coordinates":[-90.299505,38.542069]}},{"properties":{"qty":1,"city":"FARGO","zipcode":"58104","country":"US","geo_score":0.935,"sales amount":4998.0,"year":{"end_time":"2011/01/01 00:00:00 -0500","original":"2010","granularity":"year","time":"2010/01/01 00:00:00 -0500"},"id":"aaug7u9jf0zf","address":"4001 38TH ST S","geo_precision":"range","state":"ND"},"type":"Feature","geometry":{"type":"Point","coordinates":[-96.840392,46.818386]}},{"properties":{"qty":1,"city":"WILLISTON","zipcode":"58801","country":"US","geo_score":0.633,"sales amount":5000.0,"year":{"end_time":"2011/01/01 00:00:00 -0500","original":"2010","granularity":"year","time":"2010/01/01 00:00:00 -0500"},"id":"aaug7u1w1bz1","address":"3320 3RD AVE. E","geo_precision":"street","state":"ND"},"type":"Feature","geometry":{"type":"Point","coordinates":[-103.8397,48.072374]}},{"properties":{"qty":1,"city":"LENOX","zipcode":"48050","country":"US","geo_score":0.807,"sales amount":5058.66,"year":{"end_time":"2011/01/01 00:00:00 -0500","original":"2010","granularity":"year","time":"2010/01/01 00:00:00 -0500"},"id":"aaug7u5ma4ik","address":"65809 GRATIOT","geo_precision":"range","state":"MI"},"type":"Feature","geometry":{"type":"Point","coordinates":[-82.744501,42.78506]}},{"properties":{"qty":1,"city":"MONROE","zipcode":"98272","country":"US","geo_score":1.0,"sales amount":5115.02,"year":{"end_time":"2011/01/01 00:00:00 -0500","original":"2010","granularity":"year","time":"2010/01/01 00:00:00 -0500"},"id":"aaug7u6ajw7n","address":"1130 VILLAGE WAY","geo_precision":"range","state":"WA"},"type":"Feature","geometry":{"type":"Point","coordinates":[-121.985976,47.849945]}},{"properties":{"qty":1,"city":"TAMPA","zipcode":"33634","country":"US","geo_score":1.0,"sales amount":5301.0,"year":{"end_time":"2011/01/01 00:00:00 -0500","original":"2010","granularity":"year","time":"2010/01/01 00:00:00 -0500"},"id":"aaug7tzhqu42","address":"6014 W WATERS AVE","geo_precision":"range","state":"FL"},"type":"Feature","geometry":{"type":"Point","coordinates":[-82.546765,28.025479]}},{"properties":{"qty":1,"city":"ROSLINDALE","zipcode":"02131","country":"US","geo_score":1.0,"sales amount":5301.0,"year":{"end_time":"2011/01/01 00:00:00 -0500","original":"2010","granularity":"year","time":"2010/01/01 00:00:00 -0500"},"id":"aaug7udhxqje","address":"10 WHIPPLE AVE","geo_precision":"range","state":"MA"},"type":"Feature","geometry":{"type":"Point","coordinates":[-71.120996,42.291127]}},{"properties":{"qty":2,"city":"COLORADO SPRINGS","zipcode":"80907","country":"US","geo_score":1.0,"sales amount":5421.96,"year":{"end_time":"2011/01/01 00:00:00 -0500","original":"2010","granularity":"year","time":"2010/01/01 00:00:00 -0500"},"id":"aaug7u2agi4i","address":"2401 STEEL DRIVE","geo_precision":"range","state":"CO"},"type":"Feature","geometry":{"type":"Point","coordinates":[-104.832274,38.869194]}},{"properties":{"qty":1,"city":"COLORADO SPRINGS","zipcode":"80907","country":"US","geo_score":1.0,"sales amount":5421.96,"year":{"end_time":"2011/01/01 00:00:00 -0500","original":"2010","granularity":"year","time":"2010/01/01 00:00:00 -0500"},"id":"aaug7u55161m","address":"2401 STEEL DRIVE","geo_precision":"range","state":"CO"},"type":"Feature","geometry":{"type":"Point","coordinates":[-104.832274,38.869194]}},{"properties":{"qty":1,"city":"COLORADO SPRINGS","zipcode":"80907","country":"US","geo_score":1.0,"sales amount":5421.96,"year":{"end_time":"2011/01/01 00:00:00 -0500","original":"2010","granularity":"year","time":"2010/01/01 00:00:00 -0500"},"id":"aaug7u2ltcg2","address":"2401 STEEL DRIVE","geo_precision":"range","state":"CO"},"type":"Feature","geometry":{"type":"Point","coordinates":[-104.832274,38.869194]}},{"properties":{"qty":1,"city":"TIPTON","zipcode":"52772","country":"US","geo_score":0.614,"sales amount":5742.75,"year":{"end_time":"2011/01/01 00:00:00 -0500","original":"2010","granularity":"year","time":"2010/01/01 00:00:00 -0500"},"id":"aaug7u3c1m42","address":"212 W. SOUTH STREET","geo_precision":"street","state":"IA"},"type":"Feature","geometry":{"type":"Point","coordinates":[-91.346676,41.666136]}},{"properties":{"qty":1,"city":"PORT CHESTER","zipcode":"10573","country":"US","geo_score":1.0,"sales amount":5815.73,"year":{"end_time":"2011/01/01 00:00:00 -0500","original":"2010","granularity":"year","time":"2010/01/01 00:00:00 -0500"},"id":"aaug7u4arv5g","address":"52-54 BEECH STREET","geo_precision":"range","state":"NY"},"type":"Feature","geometry":{"type":"Point","coordinates":[-73.662719,40.99614]}},{"properties":{"qty":1,"city":"CINCINNATI","zipcode":"45227","country":"US","geo_score":1.0,"sales amount":5929.0,"year":{"end_time":"2011/01/01 00:00:00 -0500","original":"2010","granularity":"year","time":"2010/01/01 00:00:00 -0500"},"id":"aaug7u6o75kg","address":"5323 TOMPKINS AVE","geo_precision":"range","state":"OH"},"type":"Feature","geometry":{"type":"Point","coordinates":[-84.401454,39.156629]}},{"properties":{"qty":1,"city":"CINCINNATI","zipcode":"45227","country":"US","geo_score":1.0,"sales amount":5929.0,"year":{"end_time":"2011/01/01 00:00:00 -0500","original":"2010","granularity":"year","time":"2010/01/01 00:00:00 -0500"},"id":"aaug7u3nsteb","address":"5323 TOMPKINS AVE","geo_precision":"range","state":"OH"},"type":"Feature","geometry":{"type":"Point","coordinates":[-84.401454,39.156629]}},{"properties":{"qty":1,"city":"LAVERGNE","zipcode":"37086","country":"US","geo_score":0.927,"sales amount":5987.84,"year":{"end_time":"2011/01/01 00:00:00 -0500","original":"2010","granularity":"year","time":"2010/01/01 00:00:00 -0500"},"id":"aaug7u7gyiz6","address":"1290 BRIDGESTONE PKWY","geo_precision":"range","state":"TN"},"type":"Feature","geometry":{"type":"Point","coordinates":[-86.605866,36.007409]}},{"properties":{"qty":1,"city":"HOUSTON","zipcode":"77084","country":"US","geo_score":0.877,"sales amount":6000.0,"year":{"end_time":"2011/01/01 00:00:00 -0500","original":"2010","granularity":"year","time":"2010/01/01 00:00:00 -0500"},"id":"aaug7tz9tnk2","address":"16340 PARK TEN PLACE STE 300","geo_precision":"range","state":"TX"},"type":"Feature","geometry":{"type":"Point","coordinates":[-95.664049,29.786882]}},{"properties":{"qty":1,"city":"HOUSTON","zipcode":"77084","country":"US","geo_score":0.877,"sales amount":6000.0,"year":{"end_time":"2011/01/01 00:00:00 -0500","original":"2010","granularity":"year","time":"2010/01/01 00:00:00 -0500"},"id":"aaug7u9glf56","address":"16340 PARK TEN PLACE STE 300","geo_precision":"range","state":"TX"},"type":"Feature","geometry":{"type":"Point","coordinates":[-95.664049,29.786882]}},{"properties":{"qty":1,"city":"BRIDGEPORT","zipcode":"48722","country":"US","geo_score":0.585,"sales amount":6107.67,"year":{"end_time":"2011/01/01 00:00:00 -0500","original":"2010","granularity":"year","time":"2010/01/01 00:00:00 -0500"},"id":"aaug7ua1j7jr","address":"4600 AIS DRIVE","geo_precision":"zip","state":"MI"},"type":"Feature","geometry":{"type":"Point","coordinates":[-83.832323,43.343016]}},{"properties":{"qty":1,"city":"EBENSBURG","zipcode":"15931","country":"US","geo_score":1.0,"sales amount":6269.59,"year":{"end_time":"2011/01/01 00:00:00 -0500","original":"2010","granularity":"year","time":"2010/01/01 00:00:00 -0500"},"id":"aaug7u7g1tqg","address":"4355 ADMIRAL PEARY HWY","geo_precision":"range","state":"PA"},"type":"Feature","geometry":{"type":"Point","coordinates":[-78.753228,40.470216]}},{"properties":{"qty":1,"city":"LANSING","zipcode":"48906","country":"US","geo_score":0.966,"sales amount":6298.2,"year":{"end_time":"2011/01/01 00:00:00 -0500","original":"2010","granularity":"year","time":"2010/01/01 00:00:00 -0500"},"id":"aaug7u8n5f1k","address":"3600 NORTH GRAND RIVER AVE","geo_precision":"range","state":"MI"},"type":"Feature","geometry":{"type":"Point","coordinates":[-84.582486,42.764459]}},{"properties":{"qty":1,"city":"CHATTANOOGA","zipcode":"37407","country":"US","geo_score":1.0,"sales amount":6349.0,"year":{"end_time":"2011/01/01 00:00:00 -0500","original":"2010","granularity":"year","time":"2010/01/01 00:00:00 -0500"},"id":"aaug7ucbfxr0","address":"3217 ROSSVILLE BLVD","geo_precision":"range","state":"TN"},"type":"Feature","geometry":{"type":"Point","coordinates":[-85.293422,35.007405]}},{"properties":{"qty":1,"city":"TAHLEQUAH","zipcode":"74464","country":"US","geo_score":0.807,"sales amount":6464.47,"year":{"end_time":"2011/01/01 00:00:00 -0500","original":"2010","granularity":"year","time":"2010/01/01 00:00:00 -0500"},"id":"aaug7tyosry1","address":"4611 S MUSKOGEE AVENUE","geo_precision":"street","state":"OK"},"type":"Feature","geometry":{"type":"Point","coordinates":[-94.97621,35.869983]}},{"properties":{"qty":1,"city":"SOUTH HOLLAND","zipcode":"60473","country":"US","geo_score":1.0,"sales amount":6787.84,"year":{"end_time":"2011/01/01 00:00:00 -0500","original":"2010","granularity":"year","time":"2010/01/01 00:00:00 -0500"},"id":"aaug7ue5cdno","address":"310 WEST 162ND STREET","geo_precision":"range","state":"IL"},"type":"Feature","geometry":{"type":"Point","coordinates":[-87.624676,41.600983]}},{"properties":{"qty":1,"city":"MONROE","zipcode":"98272","country":"US","geo_score":0.614,"sales amount":6789.05,"year":{"end_time":"2011/01/01 00:00:00 -0500","original":"2010","granularity":"year","time":"2010/01/01 00:00:00 -0500"},"id":"aaug7u9oe0tl","address":"1166 VILLAGE WAY #A","geo_precision":"street","state":"WA"},"type":"Feature","geometry":{"type":"Point","coordinates":[-121.983551,47.849107]}},{"properties":{"qty":1,"city":"CHESTERFIELD","zipcode":"63006","country":"US","geo_score":0.805,"sales amount":6810.18,"year":{"end_time":"2011/01/01 00:00:00 -0500","original":"2010","granularity":"year","time":"2010/01/01 00:00:00 -0500"},"id":"aaug7uc0z64w","address":"17550 CHESTERFIELD AIRPORT RD","geo_precision":"range","state":"MO"},"type":"Feature","geometry":{"type":"Point","coordinates":[-90.602673,38.668312]}},{"properties":{"qty":1,"city":"PHOENIX","zipcode":"85009","country":"US","geo_score":0.941,"sales amount":6818.63,"year":{"end_time":"2011/01/01 00:00:00 -0500","original":"2010","granularity":"year","time":"2010/01/01 00:00:00 -0500"},"id":"aaug7udit4l9","address":"1111 NORTH 19TH AVE.","geo_precision":"range","state":"AZ"},"type":"Feature","geometry":{"type":"Point","coordinates":[-112.099944,33.460303]}},{"properties":{"qty":1,"city":"PHOENIX","zipcode":"85009","country":"US","geo_score":0.941,"sales amount":6818.63,"year":{"end_time":"2011/01/01 00:00:00 -0500","original":"2010","granularity":"year","time":"2010/01/01 00:00:00 -0500"},"id":"aaug7u4eefgm","address":"1111 NORTH 19TH AVE.","geo_precision":"range","state":"AZ"},"type":"Feature","geometry":{"type":"Point","coordinates":[-112.099944,33.460303]}},{"properties":{"qty":1,"city":"PHOENIX","zipcode":"85009","country":"US","geo_score":0.941,"sales amount":6818.63,"year":{"end_time":"2011/01/01 00:00:00 -0500","original":"2010","granularity":"year","time":"2010/01/01 00:00:00 -0500"},"id":"aaug7ue4aunh","address":"1111 NORTH 19TH AVE.","geo_precision":"range","state":"AZ"},"type":"Feature","geometry":{"type":"Point","coordinates":[-112.099944,33.460303]}},{"properties":{"qty":1,"city":"PHOENIX","zipcode":"85009","country":"US","geo_score":0.941,"sales amount":6818.63,"year":{"end_time":"2011/01/01 00:00:00 -0500","original":"2010","granularity":"year","time":"2010/01/01 00:00:00 -0500"},"id":"aaug7u7cnrjl","address":"1111 NORTH 19TH AVE.","geo_precision":"range","state":"AZ"},"type":"Feature","geometry":{"type":"Point","coordinates":[-112.099944,33.460303]}},{"properties":{"qty":1,"city":"BOSTON","zipcode":"02125","country":"US","geo_score":1.0,"sales amount":6847.85,"year":{"end_time":"2011/01/01 00:00:00 -0500","original":"2010","granularity":"year","time":"2010/01/01 00:00:00 -0500"},"id":"aaug7u9mfuzm","address":"33 LOCUST STREET","geo_precision":"range","state":"MA"},"type":"Feature","geometry":{"type":"Point","coordinates":[-71.055324,42.323315]}},{"properties":{"qty":1,"city":"BOSTON","zipcode":"02125","country":"US","geo_score":1.0,"sales amount":6847.85,"year":{"end_time":"2011/01/01 00:00:00 -0500","original":"2010","granularity":"year","time":"2010/01/01 00:00:00 -0500"},"id":"aaug7u6t3oty","address":"33 LOCUST STREET","geo_precision":"range","state":"MA"},"type":"Feature","geometry":{"type":"Point","coordinates":[-71.055324,42.323315]}},{"properties":{"qty":1,"city":"STRAWBERRY PLAINS","zipcode":"37871","country":"US","geo_score":0.481,"sales amount":6990.0,"year":{"end_time":"2011/01/01 00:00:00 -0500","original":"2010","granularity":"year","time":"2010/01/01 00:00:00 -0500"},"id":"aaug7u7n8in2","address":"PO BOX 160","geo_precision":"street","state":"TN"},"type":"Feature","geometry":{"type":"Point","coordinates":[-83.183259,36.132843]}},{"properties":{"qty":1,"city":"WEST SPRINGFIELD","zipcode":"01089","country":"US","geo_score":1.0,"sales amount":7080.78,"year":{"end_time":"2011/01/01 00:00:00 -0500","original":"2010","granularity":"year","time":"2010/01/01 00:00:00 -0500"},"id":"aaug7u9hjhi3","address":"154 WAYSIDE AVENUE","geo_precision":"range","state":"MA"},"type":"Feature","geometry":{"type":"Point","coordinates":[-72.62636,42.143602]}},{"properties":{"qty":1,"city":"HOUSTON","zipcode":"77033","country":"US","geo_score":1.0,"sales amount":7154.44,"year":{"end_time":"2011/01/01 00:00:00 -0500","original":"2010","granularity":"year","time":"2010/01/01 00:00:00 -0500"},"id":"aaug7ud68e62","address":"6833 KIRBYVILLE ST.","geo_precision":"range","state":"TX"},"type":"Feature","geometry":{"type":"Point","coordinates":[-95.32572,29.680788]}},{"properties":{"qty":1,"city":"SOUTH WINDSOR","zipcode":"06074","country":"US","geo_score":1.0,"sales amount":7245.0,"year":{"end_time":"2011/01/01 00:00:00 -0500","original":"2010","granularity":"year","time":"2010/01/01 00:00:00 -0500"},"id":"aaug7ubl9c2a","address":"410 BURNHAM STREET","geo_precision":"range","state":"CT"},"type":"Feature","geometry":{"type":"Point","coordinates":[-72.608029,41.799541]}},{"properties":{"qty":1,"city":"BOSTON","zipcode":"02125","country":"US","geo_score":1.0,"sales amount":7245.0,"year":{"end_time":"2011/01/01 00:00:00 -0500","original":"2010","granularity":"year","time":"2010/01/01 00:00:00 -0500"},"id":"aaug7u1ns8g3","address":"33 LOCUST STREET","geo_precision":"range","state":"MA"},"type":"Feature","geometry":{"type":"Point","coordinates":[-71.055324,42.323315]}},{"properties":{"qty":1,"city":"SAINT CHARLES","zipcode":"63303","country":"US","geo_score":0.585,"sales amount":7245.0,"year":{"end_time":"2011/01/01 00:00:00 -0500","original":"2010","granularity":"year","time":"2010/01/01 00:00:00 -0500"},"id":"aaug7u58qf70","address":"1743 SCHERER PKWY","geo_precision":"zip","state":"MO"},"type":"Feature","geometry":{"type":"Point","coordinates":[-90.580678,38.745885]}},{"properties":{"qty":1,"city":"SAINT CHARLES","zipcode":"63303","country":"US","geo_score":0.585,"sales amount":7245.0,"year":{"end_time":"2011/01/01 00:00:00 -0500","original":"2010","granularity":"year","time":"2010/01/01 00:00:00 -0500"},"id":"aaug7tygdvzw","address":"1743 SCHERER PARKWAY","geo_precision":"zip","state":"MO"},"type":"Feature","geometry":{"type":"Point","coordinates":[-90.580678,38.745885]}},{"properties":{"qty":1,"city":"SAUGERTIES","zipcode":"12477","country":"US","geo_score":0.894,"sales amount":7245.0,"year":{"end_time":"2011/01/01 00:00:00 -0500","original":"2010","granularity":"year","time":"2010/01/01 00:00:00 -0500"},"id":"aaug7u7xvr9a","address":"571 ROUTE 212","geo_precision":"range","state":"NY"},"type":"Feature","geometry":{"type":"Point","coordinates":[-74.072822,42.044763]}},{"properties":{"qty":2,"city":"LAWRENCEVILLE","zipcode":"30045","country":"US","geo_score":0.96,"sales amount":7853.08,"year":{"end_time":"2011/01/01 00:00:00 -0500","original":"2010","granularity":"year","time":"2010/01/01 00:00:00 -0500"},"id":"aaug7u4kob5q","address":"229 HURRICANE SHOALS RD","geo_precision":"range","state":"GA"},"type":"Feature","geometry":{"type":"Point","coordinates":[-83.998954,33.968548]}},{"properties":{"qty":2,"city":"MONROE","zipcode":"28110","country":"US","geo_score":0.837,"sales amount":7853.08,"year":{"end_time":"2011/01/01 00:00:00 -0500","original":"2010","granularity":"year","time":"2010/01/01 00:00:00 -0500"},"id":"aaug7u5ajksm","address":"4017 HIGHWAY 74 WEST","geo_precision":"range","state":"NC"},"type":"Feature","geometry":{"type":"Point","coordinates":[-80.598993,35.035811]}},{"properties":{"qty":2,"city":"LANCASTER","zipcode":"17601","country":"US","geo_score":1.0,"sales amount":7853.08,"year":{"end_time":"2011/01/01 00:00:00 -0500","original":"2010","granularity":"year","time":"2010/01/01 00:00:00 -0500"},"id":"aaug7u9yfgk6","address":"1209 MARSHALL AVENUE","geo_precision":"range","state":"PA"},"type":"Feature","geometry":{"type":"Point","coordinates":[-76.299291,40.056654]}},{"properties":{"qty":2,"city":"MANASSAS","zipcode":"20109","country":"US","geo_score":1.0,"sales amount":7853.08,"year":{"end_time":"2011/01/01 00:00:00 -0500","original":"2010","granularity":"year","time":"2010/01/01 00:00:00 -0500"},"id":"aaug7u8i9c9y","address":"12391 RANDOLPH RIDGE LN","geo_precision":"range","state":"VA"},"type":"Feature","geometry":{"type":"Point","coordinates":[-77.560453,38.790127]}},{"properties":{"qty":2,"city":"LENOX","zipcode":"48050","country":"US","geo_score":0.913,"sales amount":8239.0,"year":{"end_time":"2011/01/01 00:00:00 -0500","original":"2010","granularity":"year","time":"2010/01/01 00:00:00 -0500"},"id":"aaug7uaeb8zw","address":"65809 GRATIOT AVE","geo_precision":"range","state":"MI"},"type":"Feature","geometry":{"type":"Point","coordinates":[-82.744501,42.78506]}},{"properties":{"qty":1,"city":"LOUISVILLE","zipcode":"37777","country":"US","geo_score":0.427,"sales amount":8274.91,"year":{"end_time":"2011/01/01 00:00:00 -0500","original":"2010","granularity":"year","time":"2010/01/01 00:00:00 -0500"},"id":"aaug7uc3toud","address":"3310 WRIGHTS FERRY RD","geo_precision":"street","state":"TN"},"type":"Feature","geometry":{"type":"Point","coordinates":[-84.343218,35.734479]}},{"properties":{"qty":2,"city":"ROCKFORD","zipcode":"61104","country":"US","geo_score":1.0,"sales amount":8698.38,"year":{"end_time":"2011/01/01 00:00:00 -0500","original":"2010","granularity":"year","time":"2010/01/01 00:00:00 -0500"},"id":"aaug7tyeqvl4","address":"1901 HARRISON AVE","geo_precision":"range","state":"IL"},"type":"Feature","geometry":{"type":"Point","coordinates":[-89.066818,42.23795]}},{"properties":{"qty":1,"city":"OSAGE BEACH","zipcode":"65065","country":"US","geo_score":0.78,"sales amount":8902.79,"year":{"end_time":"2011/01/01 00:00:00 -0500","original":"2010","granularity":"year","time":"2010/01/01 00:00:00 -0500"},"id":"aaug7u3pcgpc","address":"5635 HIGHWAY 54","geo_precision":"range","state":"MO"},"type":"Feature","geometry":{"type":"Point","coordinates":[-92.666914,38.126675]}},{"properties":{"qty":1,"city":"EBENSBURG","zipcode":"15931","country":"US","geo_score":1.0,"sales amount":9106.51,"year":{"end_time":"2011/01/01 00:00:00 -0500","original":"2010","granularity":"year","time":"2010/01/01 00:00:00 -0500"},"id":"aaug7ud71pb3","address":"4355 ADMIRAL PEARY HWY","geo_precision":"range","state":"PA"},"type":"Feature","geometry":{"type":"Point","coordinates":[-78.753228,40.470216]}},{"properties":{"qty":1,"city":"MECHANICSBURG","zipcode":"17055","country":"US","geo_score":0.814,"sales amount":9137.07,"year":{"end_time":"2011/01/01 00:00:00 -0500","original":"2010","granularity":"year","time":"2010/01/01 00:00:00 -0500"},"id":"aaug7uckx2tr","address":"6779 CARLISLE PIKE","geo_precision":"street","state":"PA"},"type":"Feature","geometry":{"type":"Point","coordinates":[-77.072754,40.235852]}},{"properties":{"qty":1,"city":"CRANBERRY TOWNSHIP","zipcode":"16066","country":"US","geo_score":0.829,"sales amount":9162.97,"year":{"end_time":"2011/01/01 00:00:00 -0500","original":"2010","granularity":"year","time":"2010/01/01 00:00:00 -0500"},"id":"aaug7uc05k23","address":"100 SMITH DRIVE","geo_precision":"street","state":"PA"},"type":"Feature","geometry":{"type":"Point","coordinates":[-80.102007,40.697562]}},{"properties":{"qty":1,"city":"FORT MYERS","zipcode":"33916","country":"US","geo_score":0.805,"sales amount":9287.72,"year":{"end_time":"2011/01/01 00:00:00 -0500","original":"2010","granularity":"year","time":"2010/01/01 00:00:00 -0500"},"id":"aaug7ud2l865","address":"3051 HANSON ST","geo_precision":"range","state":"FL"},"type":"Feature","geometry":{"type":"Point","coordinates":[-81.850062,26.622909]}},{"properties":{"qty":1,"city":"EUNICE","zipcode":"88231","country":"US","geo_score":0.585,"sales amount":9287.73,"year":{"end_time":"2011/01/01 00:00:00 -0500","original":"2010","granularity":"year","time":"2010/01/01 00:00:00 -0500"},"id":"aaug7u4i07n4","address":"1804 EAST TEXAS AVENUE","geo_precision":"zip","state":"NM"},"type":"Feature","geometry":{"type":"Point","coordinates":[-103.18336,32.440629]}},{"properties":{"qty":2,"city":"SHOW LOW","zipcode":"85901","country":"US","geo_score":1.0,"sales amount":9471.47,"year":{"end_time":"2011/01/01 00:00:00 -0500","original":"2010","granularity":"year","time":"2010/01/01 00:00:00 -0500"},"id":"aaug7u00n075","address":"3461 EAST DEUCE OF CLUBS","geo_precision":"range","state":"AZ"},"type":"Feature","geometry":{"type":"Point","coordinates":[-110.004003,34.259543]}},{"properties":{"qty":2,"city":"SAN JOSE","zipcode":"95131","country":"US","geo_score":0.503,"sales amount":9471.47,"year":{"end_time":"2011/01/01 00:00:00 -0500","original":"2010","granularity":"year","time":"2010/01/01 00:00:00 -0500"},"id":"aaug7u3lxcgi","address":"2150 O'TOOLE AVE","geo_precision":"street","state":"CA"},"type":"Feature","geometry":{"type":"Point","coordinates":[-121.9733,37.302642]}},{"properties":{"qty":2,"city":"LEESBURG","zipcode":"34748","country":"US","geo_score":1.0,"sales amount":9471.47,"year":{"end_time":"2011/01/01 00:00:00 -0500","original":"2010","granularity":"year","time":"2010/01/01 00:00:00 -0500"},"id":"aaug7ud15e6u","address":"100 WEBER AVE","geo_precision":"range","state":"FL"},"type":"Feature","geometry":{"type":"Point","coordinates":[-81.919609,28.813789]}},{"properties":{"qty":2,"city":"THOMASVILLE","zipcode":"17364","country":"US","geo_score":1.0,"sales amount":9471.47,"year":{"end_time":"2011/01/01 00:00:00 -0500","original":"2010","granularity":"year","time":"2010/01/01 00:00:00 -0500"},"id":"aaug7u25n627","address":"6778 LINCOLN HIGHWAY WEST","geo_precision":"range","state":"PA"},"type":"Feature","geometry":{"type":"Point","coordinates":[-76.898666,39.920498]}},{"properties":{"qty":1,"city":"HOUSTON","zipcode":"77084","country":"US","geo_score":0.877,"sales amount":9500.0,"year":{"end_time":"2011/01/01 00:00:00 -0500","original":"2010","granularity":"year","time":"2010/01/01 00:00:00 -0500"},"id":"aaug7ubd8fb6","address":"16340 PARK TEN PLACE STE 300","geo_precision":"range","state":"TX"},"type":"Feature","geometry":{"type":"Point","coordinates":[-95.664049,29.786882]}},{"properties":{"qty":2,"city":"SAINT LOUIS","zipcode":"63125","country":"US","geo_score":1.0,"sales amount":9614.08,"year":{"end_time":"2011/01/01 00:00:00 -0500","original":"2010","granularity":"year","time":"2010/01/01 00:00:00 -0500"},"id":"aaug7ue0ugcj","address":"4190 HOFFMEISTER AVE","geo_precision":"range","state":"MO"},"type":"Feature","geometry":{"type":"Point","coordinates":[-90.299505,38.542069]}},{"properties":{"qty":1,"city":"MARLBORO","zipcode":"12542","country":"US","geo_score":0.61,"sales amount":9665.84,"year":{"end_time":"2011/01/01 00:00:00 -0500","original":"2010","granularity":"year","time":"2010/01/01 00:00:00 -0500"},"id":"aaug7u9d4a4o","address":"1440 RT 9W","geo_precision":"street","state":"NY"},"type":"Feature","geometry":{"type":"Point","coordinates":[-73.996027,41.567271]}},{"properties":{"qty":1,"city":"KNOXVILLE","zipcode":"37920","country":"US","geo_score":1.0,"sales amount":9732.67,"year":{"end_time":"2011/01/01 00:00:00 -0500","original":"2010","granularity":"year","time":"2010/01/01 00:00:00 -0500"},"id":"aaug7ucijx2j","address":"3300 ALCOA HIGHWAY","geo_precision":"range","state":"TN"},"type":"Feature","geometry":{"type":"Point","coordinates":[-83.953024,35.895638]}},{"properties":{"qty":1,"city":"ATLANTA","zipcode":"30336","country":"US","geo_score":1.0,"sales amount":9733.85,"year":{"end_time":"2011/01/01 00:00:00 -0500","original":"2010","granularity":"year","time":"2010/01/01 00:00:00 -0500"},"id":"aaug7u7sqgnn","address":"4500 WENDELL DRIVE SW","geo_precision":"range","state":"GA"},"type":"Feature","geometry":{"type":"Point","coordinates":[-84.52608,33.769225]}},{"properties":{"qty":1,"city":"CHICAGO","zipcode":"60608","country":"US","geo_score":0.92,"sales amount":9807.29,"year":{"end_time":"2011/01/01 00:00:00 -0500","original":"2010","granularity":"year","time":"2010/01/01 00:00:00 -0500"},"id":"aaug7u1qrfuy","address":"2600 South Throop","geo_precision":"range","state":"IL"},"type":"Feature","geometry":{"type":"Point","coordinates":[-87.654915,41.844412]}},{"properties":{"qty":1,"city":"SAN ANTONIO","zipcode":"78233","country":"US","geo_score":1.0,"sales amount":9810.94,"year":{"end_time":"2011/01/01 00:00:00 -0500","original":"2010","granularity":"year","time":"2010/01/01 00:00:00 -0500"},"id":"aaug7ucvs0rb","address":"6600 RANDOLPH BLVD","geo_precision":"range","state":"TX"},"type":"Feature","geometry":{"type":"Point","coordinates":[-98.358143,29.549778]}},{"properties":{"qty":1,"city":"MONROE","zipcode":"98272","country":"US","geo_score":1.0,"sales amount":9818.99,"year":{"end_time":"2011/01/01 00:00:00 -0500","original":"2010","granularity":"year","time":"2010/01/01 00:00:00 -0500"},"id":"aaug7ubazeea","address":"1130 VILLAGE WAY","geo_precision":"range","state":"WA"},"type":"Feature","geometry":{"type":"Point","coordinates":[-121.985976,47.849945]}},{"properties":{"qty":1,"city":"BOSTON","zipcode":"02125","country":"US","geo_score":1.0,"sales amount":9861.56,"year":{"end_time":"2011/01/01 00:00:00 -0500","original":"2010","granularity":"year","time":"2010/01/01 00:00:00 -0500"},"id":"aaug7u0qfeeu","address":"33 LOCUST STREET","geo_precision":"range","state":"MA"},"type":"Feature","geometry":{"type":"Point","coordinates":[-71.055324,42.323315]}},{"properties":{"qty":1,"city":"DENVER","zipcode":"80239","country":"US","geo_score":1.0,"sales amount":10176.0,"year":{"end_time":"2011/01/01 00:00:00 -0500","original":"2010","granularity":"year","time":"2010/01/01 00:00:00 -0500"},"id":"aaug7u36w87l","address":"5530 JOLIET STREET","geo_precision":"range","state":"CO"},"type":"Feature","geometry":{"type":"Point","coordinates":[-104.861259,39.797606]}},{"properties":{"qty":1,"city":"SPRINGFIELD","zipcode":"65803","country":"US","geo_score":0.607,"sales amount":10176.0,"year":{"end_time":"2011/01/01 00:00:00 -0500","original":"2010","granularity":"year","time":"2010/01/01 00:00:00 -0500"},"id":"aaug7tzadije","address":"2247 E. KEARNEY STREET","geo_precision":"street","state":"MO"},"type":"Feature","geometry":{"type":"Point","coordinates":[-93.286859,37.240649]}},{"properties":{"qty":1,"city":"SEDALIA","zipcode":"65301","country":"US","geo_score":0.935,"sales amount":10176.0,"year":{"end_time":"2011/01/01 00:00:00 -0500","original":"2010","granularity":"year","time":"2010/01/01 00:00:00 -0500"},"id":"aaug7u3qj9c6","address":"21474 WEST HWY 50","geo_precision":"range","state":"MO"},"type":"Feature","geometry":{"type":"Point","coordinates":[-93.294306,38.718634]}},{"properties":{"qty":1,"city":"MONROE","zipcode":"98272","country":"US","geo_score":1.0,"sales amount":10176.0,"year":{"end_time":"2011/01/01 00:00:00 -0500","original":"2010","granularity":"year","time":"2010/01/01 00:00:00 -0500"},"id":"aaug7udt676n","address":"1130 VILLAGE WAY","geo_precision":"range","state":"WA"},"type":"Feature","geometry":{"type":"Point","coordinates":[-121.985976,47.849945]}},{"properties":{"qty":1,"city":"LENOX","zipcode":"48050","country":"US","geo_score":0.807,"sales amount":10284.97,"year":{"end_time":"2011/01/01 00:00:00 -0500","original":"2010","granularity":"year","time":"2010/01/01 00:00:00 -0500"},"id":"aaug7tzoflbe","address":"65809 GRATIOT","geo_precision":"range","state":"MI"},"type":"Feature","geometry":{"type":"Point","coordinates":[-82.744501,42.78506]}},{"properties":{"qty":2,"city":"SCOTTSBLUFF","zipcode":"69361","country":"US","geo_score":0.585,"sales amount":10843.92,"year":{"end_time":"2011/01/01 00:00:00 -0500","original":"2010","granularity":"year","time":"2010/01/01 00:00:00 -0500"},"id":"aaug7u5zgsp1","address":"230394 HIGHLAND ROAD","geo_precision":"zip","state":"NE"},"type":"Feature","geometry":{"type":"Point","coordinates":[-103.77023,41.872005]}},{"properties":{"qty":1,"city":"NAPERVILLE","zipcode":"60563","country":"US","geo_score":1.0,"sales amount":11196.0,"year":{"end_time":"2011/01/01 00:00:00 -0500","original":"2010","granularity":"year","time":"2010/01/01 00:00:00 -0500"},"id":"aaug7ubwahx9","address":"1400 WEST OGDEN AVE","geo_precision":"range","state":"IL"},"type":"Feature","geometry":{"type":"Point","coordinates":[-88.183085,41.779983]}},{"properties":{"qty":1,"city":"BALTIMORE","zipcode":"21223","country":"US","geo_score":1.0,"sales amount":11200.0,"year":{"end_time":"2011/01/01 00:00:00 -0500","original":"2010","granularity":"year","time":"2010/01/01 00:00:00 -0500"},"id":"aaug7u406p1d","address":"2519 WILKENS AVE","geo_precision":"range","state":"MD"},"type":"Feature","geometry":{"type":"Point","coordinates":[-76.6543,39.2795]}},{"properties":{"qty":1,"city":"MECHANICSBURG","zipcode":"17055","country":"US","geo_score":0.814,"sales amount":11229.28,"year":{"end_time":"2011/01/01 00:00:00 -0500","original":"2010","granularity":"year","time":"2010/01/01 00:00:00 -0500"},"id":"aaug7u52g745","address":"6779 CARLISLE PIKE","geo_precision":"street","state":"PA"},"type":"Feature","geometry":{"type":"Point","coordinates":[-77.072754,40.235852]}},{"properties":{"qty":1,"city":"MARLBORO","zipcode":"12542","country":"US","geo_score":0.577,"sales amount":11966.34,"year":{"end_time":"2011/01/01 00:00:00 -0500","original":"2010","granularity":"year","time":"2010/01/01 00:00:00 -0500"},"id":"aaug7u4r2gwf","address":"1440 ROUTE 9 WEST","geo_precision":"street","state":"NY"},"type":"Feature","geometry":{"type":"Point","coordinates":[-73.996027,41.567271]}},{"properties":{"qty":1,"city":"CHARLOTTE","zipcode":"28206","country":"US","geo_score":0.61,"sales amount":12075.0,"year":{"end_time":"2011/01/01 00:00:00 -0500","original":"2010","granularity":"year","time":"2010/01/01 00:00:00 -0500"},"id":"aaug7udq9j7c","address":"3535 N. GRAHAM ST.","geo_precision":"street","state":"NC"},"type":"Feature","geometry":{"type":"Point","coordinates":[-80.83939,35.236033]}},{"properties":{"qty":1,"city":"ASTORIA","zipcode":"11105","country":"US","geo_score":0.819,"sales amount":12076.58,"year":{"end_time":"2011/01/01 00:00:00 -0500","original":"2010","granularity":"year","time":"2010/01/01 00:00:00 -0500"},"id":"aaug7u1qftsq","address":"18-16 45TH STREET","geo_precision":"range","state":"NY"},"type":"Feature","geometry":{"type":"Point","coordinates":[-73.899458,40.77411]}},{"properties":{"qty":1,"city":"COLUMBUS","zipcode":"43207","country":"US","geo_score":0.958,"sales amount":12428.71,"year":{"end_time":"2011/01/01 00:00:00 -0500","original":"2010","granularity":"year","time":"2010/01/01 00:00:00 -0500"},"id":"aaug7u6wrm3m","address":"50 E KINGSTON AVE","geo_precision":"range","state":"OH"},"type":"Feature","geometry":{"type":"Point","coordinates":[-82.994615,39.9185]}},{"properties":{"qty":1,"city":"NAPERVILLE","zipcode":"60563","country":"US","geo_score":1.0,"sales amount":13285.5,"year":{"end_time":"2011/01/01 00:00:00 -0500","original":"2010","granularity":"year","time":"2010/01/01 00:00:00 -0500"},"id":"aaug7uciu88i","address":"1400 WEST OGDEN AVE","geo_precision":"range","state":"IL"},"type":"Feature","geometry":{"type":"Point","coordinates":[-88.183085,41.779983]}},{"properties":{"qty":2,"city":"LAREDO","zipcode":"78045","country":"US","geo_score":1.0,"sales amount":13464.83,"year":{"end_time":"2011/01/01 00:00:00 -0500","original":"2010","granularity":"year","time":"2010/01/01 00:00:00 -0500"},"id":"aaug7ud59pvy","address":"416 GRAND CENTRAL BLVD","geo_precision":"range","state":"TX"},"type":"Feature","geometry":{"type":"Point","coordinates":[-99.483296,27.613607]}},{"properties":{"qty":3,"city":"GONZALES","zipcode":"70737","country":"US","geo_score":0.659,"sales amount":14207.21,"year":{"end_time":"2011/01/01 00:00:00 -0500","original":"2010","granularity":"year","time":"2010/01/01 00:00:00 -0500"},"id":"aaug7u6ktmb1","address":"38385 HIGHWAY 30","geo_precision":"range","state":"LA"},"type":"Feature","geometry":{"type":"Point","coordinates":[-90.961263,30.210532]}},{"properties":{"qty":1,"city":"SALEM","zipcode":"24153","country":"US","geo_score":1.0,"sales amount":17578.57,"year":{"end_time":"2011/01/01 00:00:00 -0500","original":"2010","granularity":"year","time":"2010/01/01 00:00:00 -0500"},"id":"aaug7tz7ysjo","address":"1201 ELECTRIC ROAD","geo_precision":"range","state":"VA"},"type":"Feature","geometry":{"type":"Point","coordinates":[-80.035057,37.279636]}},{"properties":{"qty":2,"city":"LEXINGTON","zipcode":"40510","country":"US","geo_score":1.0,"sales amount":17581.37,"year":{"end_time":"2011/01/01 00:00:00 -0500","original":"2010","granularity":"year","time":"2010/01/01 00:00:00 -0500"},"id":"aaug7ud0jzdx","address":"2180 OLD FRANKFORT PIKE","geo_precision":"range","state":"KY"},"type":"Feature","geometry":{"type":"Point","coordinates":[-84.551974,38.065476]}},{"properties":{"qty":1,"city":"CANTON","zipcode":"44706","country":"US","geo_score":0.986,"sales amount":17706.79,"year":{"end_time":"2011/01/01 00:00:00 -0500","original":"2010","granularity":"year","time":"2010/01/01 00:00:00 -0500"},"id":"aaug7udufmb9","address":"1601 SHEPLER CHURCH AV SW","geo_precision":"range","state":"OH"},"type":"Feature","geometry":{"type":"Point","coordinates":[-81.394075,40.772921]}},{"properties":{"qty":4,"city":"BOERNE","zipcode":"78006","country":"US","geo_score":0.861,"sales amount":18942.95,"year":{"end_time":"2011/01/01 00:00:00 -0500","original":"2010","granularity":"year","time":"2010/01/01 00:00:00 -0500"},"id":"aaug7u3y93wc","address":"29880 I-10 WEST","geo_precision":"street","state":"TX"},"type":"Feature","geometry":{"type":"Point","coordinates":[-98.68792,29.738588]}},{"properties":{"qty":1,"city":"CINCINNATI","zipcode":"45241","country":"US","geo_score":1.0,"sales amount":19970.34,"year":{"end_time":"2011/01/01 00:00:00 -0500","original":"2010","granularity":"year","time":"2010/01/01 00:00:00 -0500"},"id":"aaug7u9bqvqi","address":"11512 GONDOLA STREET","geo_precision":"range","state":"OH"},"type":"Feature","geometry":{"type":"Point","coordinates":[-84.440542,39.283265]}},{"properties":{"qty":1,"city":"BOSTON","zipcode":"02125","country":"US","geo_score":1.0,"sales amount":21517.65,"year":{"end_time":"2011/01/01 00:00:00 -0500","original":"2010","granularity":"year","time":"2010/01/01 00:00:00 -0500"},"id":"aaug7u1n5a2h","address":"33 LOCUST STREET","geo_precision":"range","state":"MA"},"type":"Feature","geometry":{"type":"Point","coordinates":[-71.055324,42.323315]}},{"properties":{"qty":1,"city":"EBENSBURG","zipcode":"15931","country":"US","geo_score":1.0,"sales amount":21517.65,"year":{"end_time":"2011/01/01 00:00:00 -0500","original":"2010","granularity":"year","time":"2010/01/01 00:00:00 -0500"},"id":"aaug7tz1xnou","address":"4355 ADMIRAL PEARY HWY","geo_precision":"range","state":"PA"},"type":"Feature","geometry":{"type":"Point","coordinates":[-78.753228,40.470216]}},{"properties":{"qty":1,"city":"BELLEFONTE","zipcode":"16823","country":"US","geo_score":1.0,"sales amount":21552.3,"year":{"end_time":"2011/01/01 00:00:00 -0500","original":"2010","granularity":"year","time":"2010/01/01 00:00:00 -0500"},"id":"aaug7u4fpypf","address":"210 ROLLING RIDGE DRIVE","geo_precision":"range","state":"PA"},"type":"Feature","geometry":{"type":"Point","coordinates":[-77.775378,40.886824]}},{"properties":{"qty":1,"city":"CRANBERRY TOWNSHIP","zipcode":"16066","country":"US","geo_score":0.829,"sales amount":21552.3,"year":{"end_time":"2011/01/01 00:00:00 -0500","original":"2010","granularity":"year","time":"2010/01/01 00:00:00 -0500"},"id":"aaug7ud8lbo1","address":"100 SMITH DRIVE","geo_precision":"street","state":"PA"},"type":"Feature","geometry":{"type":"Point","coordinates":[-80.102007,40.697562]}},{"properties":{"qty":1,"city":"EBENSBURG","zipcode":"15931","country":"US","geo_score":1.0,"sales amount":24461.36,"year":{"end_time":"2011/01/01 00:00:00 -0500","original":"2010","granularity":"year","time":"2010/01/01 00:00:00 -0500"},"id":"aaug7u3j7jxf","address":"4355 ADMIRAL PEARY HWY","geo_precision":"range","state":"PA"},"type":"Feature","geometry":{"type":"Point","coordinates":[-78.753228,40.470216]}},{"properties":{"qty":3,"city":"LEXINGTON","zipcode":"40510","country":"US","geo_score":1.0,"sales amount":26373.56,"year":{"end_time":"2011/01/01 00:00:00 -0500","original":"2010","granularity":"year","time":"2010/01/01 00:00:00 -0500"},"id":"aaug7tz5wxpw","address":"2180 OLD FRANKFORT PIKE","geo_precision":"range","state":"KY"},"type":"Feature","geometry":{"type":"Point","coordinates":[-84.551974,38.065476]}},{"properties":{"qty":1,"city":"RICHFIELD","zipcode":"44286","country":"US","geo_score":0.585,"sales amount":27526.44,"year":{"end_time":"2011/01/01 00:00:00 -0500","original":"2010","granularity":"year","time":"2010/01/01 00:00:00 -0500"},"id":"aaug7u2ftbfu","address":"3942 BRECKSVILLE RD","geo_precision":"zip","state":"OH"},"type":"Feature","geometry":{"type":"Point","coordinates":[-81.655124,41.239499]}},{"properties":{"qty":1,"city":"SAN DIEGO","zipcode":"92154","country":"US","geo_score":0.884,"sales amount":29000.0,"year":{"end_time":"2011/01/01 00:00:00 -0500","original":"2010","granularity":"year","time":"2010/01/01 00:00:00 -0500"},"id":"aaug7ty1aczz","address":"8580 AVENIDA DE LA FUENTE","geo_precision":"range","state":"CA"},"type":"Feature","geometry":{"type":"Point","coordinates":[-116.955051,32.556219]}},{"properties":{"qty":1,"city":"NEW ORLEANS","zipcode":"70128","country":"US","geo_score":0.684,"sales amount":29386.21,"year":{"end_time":"2011/01/01 00:00:00 -0500","original":"2010","granularity":"year","time":"2010/01/01 00:00:00 -0500"},"id":"aaug7tyebgg2","address":"11580 CHEF MENTEUR HWY","geo_precision":"street","state":"LA"},"type":"Feature","geometry":{"type":"Point","coordinates":[-89.955446,30.021795]}},{"properties":{"qty":1,"city":"SCOTT","zipcode":"70583","country":"US","geo_score":1.0,"sales amount":29886.45,"year":{"end_time":"2011/01/01 00:00:00 -0500","original":"2010","granularity":"year","time":"2010/01/01 00:00:00 -0500"},"id":"aaug7u3m58ed","address":"317 JOHN FELL LOOP","geo_precision":"range","state":"LA"},"type":"Feature","geometry":{"type":"Point","coordinates":[-92.158853,30.272747]}},{"properties":{"qty":1,"city":"CANTON","zipcode":"44706","country":"US","geo_score":0.986,"sales amount":30634.96,"year":{"end_time":"2011/01/01 00:00:00 -0500","original":"2010","granularity":"year","time":"2010/01/01 00:00:00 -0500"},"id":"aaug7u934txp","address":"1601 SHEPLER CHURCH AV SW","geo_precision":"range","state":"OH"},"type":"Feature","geometry":{"type":"Point","coordinates":[-81.394075,40.772921]}},{"properties":{"qty":1,"city":"STANVILLE","zipcode":"41659","country":"US","geo_score":0.804,"sales amount":30801.0,"year":{"end_time":"2011/01/01 00:00:00 -0500","original":"2010","granularity":"year","time":"2010/01/01 00:00:00 -0500"},"id":"aaug7u1ci25h","address":"ROUTE 23 AND MARE CREEK ROAD","geo_precision":"street","state":"KY"},"type":"Feature","geometry":{"type":"Point","coordinates":[-82.609769,37.566739]}},{"properties":{"qty":1,"city":"CLOVERDALE","zipcode":"24077","country":"US","geo_score":1.0,"sales amount":31779.0,"year":{"end_time":"2011/01/01 00:00:00 -0500","original":"2010","granularity":"year","time":"2010/01/01 00:00:00 -0500"},"id":"aaug7u4j0dgi","address":"39 GIBSON LANE","geo_precision":"range","state":"VA"},"type":"Feature","geometry":{"type":"Point","coordinates":[-79.906375,37.372706]}},{"properties":{"qty":1,"city":"PISCATAWAY","zipcode":"08855","country":"US","geo_score":0.805,"sales amount":34899.35,"year":{"end_time":"2011/01/01 00:00:00 -0500","original":"2010","granularity":"year","time":"2010/01/01 00:00:00 -0500"},"id":"aaug7ucivoaj","address":"300 SOUTH RANDOLPHVILLE ROAD","geo_precision":"range","state":"NJ"},"type":"Feature","geometry":{"type":"Point","coordinates":[-74.464476,40.559616]}},{"properties":{"qty":1,"city":"WEST COLUMBIA","zipcode":"29169","country":"US","geo_score":0.74,"sales amount":35025.0,"year":{"end_time":"2011/01/01 00:00:00 -0500","original":"2010","granularity":"year","time":"2010/01/01 00:00:00 -0500"},"id":"aaug7ucok8dk","address":"3109 OLD CHARLESTON HWY","geo_precision":"street","state":"SC"},"type":"Feature","geometry":{"type":"Point","coordinates":[-81.078542,33.947521]}},{"properties":{"qty":1,"city":"LAVAL, QUEBEC","zipcode":"H7L 4Z7","country":"CA","geo_score":0.0,"sales amount":36000.0,"year":{"end_time":"2011/01/01 00:00:00 -0500","original":"2010","granularity":"year","time":"2010/01/01 00:00:00 -0500"},"id":"aaug7ucel5d6","address":"1277 RUE BERGAR","geo_precision":"unmatched","state":"ON"},"type":"Feature","geometry":null},{"properties":{"qty":1,"city":"NEWPORT NEWS","zipcode":"23607","country":"US","geo_score":1.0,"sales amount":37807.26,"year":{"end_time":"2011/01/01 00:00:00 -0500","original":"2010","granularity":"year","time":"2010/01/01 00:00:00 -0500"},"id":"aaug7ubi17nc","address":"4100 CHESTNUT AVENUE","geo_precision":"range","state":"VA"},"type":"Feature","geometry":{"type":"Point","coordinates":[-76.413028,36.99819]}},{"properties":{"qty":1,"city":"JOHNSON CITY","zipcode":"37601","country":"US","geo_score":1.0,"sales amount":39868.43,"year":{"end_time":"2011/01/01 00:00:00 -0500","original":"2010","granularity":"year","time":"2010/01/01 00:00:00 -0500"},"id":"aaug7ue2oyjy","address":"2212 EDDIE WILLIAMS ROAD","geo_precision":"range","state":"TN"},"type":"Feature","geometry":{"type":"Point","coordinates":[-82.322927,36.349332]}},{"properties":{"qty":1,"city":"GREENSBORO","zipcode":"27409","country":"US","geo_score":1.0,"sales amount":41807.68,"year":{"end_time":"2011/01/01 00:00:00 -0500","original":"2010","granularity":"year","time":"2010/01/01 00:00:00 -0500"},"id":"aaug7u4xad28","address":"6438 BURNT POPLAR RD","geo_precision":"range","state":"NC"},"type":"Feature","geometry":{"type":"Point","coordinates":[-79.947554,36.077269]}},{"properties":{"qty":1,"city":"LEXINGTON","zipcode":"40510","country":"US","geo_score":1.0,"sales amount":49079.35,"year":{"end_time":"2011/01/01 00:00:00 -0500","original":"2010","granularity":"year","time":"2010/01/01 00:00:00 -0500"},"id":"aaug7u0z0i20","address":"2180 OLD FRANKFORT PIKE","geo_precision":"range","state":"KY"},"type":"Feature","geometry":{"type":"Point","coordinates":[-84.551974,38.065476]}},{"properties":{"qty":1,"city":"ARDEN","zipcode":"28704","country":"US","geo_score":0.732,"sales amount":52099.8,"year":{"end_time":"2011/01/01 00:00:00 -0500","original":"2010","granularity":"year","time":"2010/01/01 00:00:00 -0500"},"id":"aaug7u439el5","address":"1 BUSINESS PARK CIRCLE","geo_precision":"range","state":"NC"},"type":"Feature","geometry":{"type":"Point","coordinates":[-82.507648,35.449248]}},{"properties":{"qty":1,"city":"SAUGERTIES","zipcode":"12477","country":"US","geo_score":0.894,"sales amount":57727.49,"year":{"end_time":"2011/01/01 00:00:00 -0500","original":"2010","granularity":"year","time":"2010/01/01 00:00:00 -0500"},"id":"aaug7uahvy5r","address":"571 ROUTE 212","geo_precision":"range","state":"NY"},"type":"Feature","geometry":{"type":"Point","coordinates":[-74.072822,42.044763]}},{"properties":{"qty":1,"city":"BOSTON","zipcode":"02125","country":"US","geo_score":1.0,"sales amount":57950.26,"year":{"end_time":"2011/01/01 00:00:00 -0500","original":"2010","granularity":"year","time":"2010/01/01 00:00:00 -0500"},"id":"aaug7u74ig7s","address":"33 LOCUST STREET","geo_precision":"range","state":"MA"},"type":"Feature","geometry":{"type":"Point","coordinates":[-71.055324,42.323315]}},{"properties":{"qty":1,"city":"AUBURN","zipcode":"03032","country":"US","geo_score":1.0,"sales amount":64044.71,"year":{"end_time":"2011/01/01 00:00:00 -0500","original":"2010","granularity":"year","time":"2010/01/01 00:00:00 -0500"},"id":"aaug7u2cwkh7","address":"88 GOLD LEDGE AVENUE","geo_precision":"range","state":"NH"},"type":"Feature","geometry":{"type":"Point","coordinates":[-71.356835,42.956166]}},{"properties":{"qty":1,"city":"GARY","zipcode":"46402","country":"US","geo_score":0.571,"sales amount":64598.98,"year":{"end_time":"2011/01/01 00:00:00 -0500","original":"2010","granularity":"year","time":"2010/01/01 00:00:00 -0500"},"id":"aaug7uc3udzy","address":"1 N. BROADWAY, SHOP 670","geo_precision":"street","state":"IN"},"type":"Feature","geometry":{"type":"Point","coordinates":[-87.33728,41.608624]}},{"properties":{"qty":1,"city":"HOUSTON","zipcode":"77028","country":"US","geo_score":1.0,"sales amount":65030.68,"year":{"end_time":"2011/01/01 00:00:00 -0500","original":"2010","granularity":"year","time":"2010/01/01 00:00:00 -0500"},"id":"aaug7uaag3sy","address":"7075 BENNINGTON ST.","geo_precision":"range","state":"TX"},"type":"Feature","geometry":{"type":"Point","coordinates":[-95.303106,29.817219]}},{"properties":{"qty":1,"city":"THOMSON","zipcode":"30824","country":"US","geo_score":0.561,"sales amount":65493.23,"year":{"end_time":"2011/01/01 00:00:00 -0500","original":"2010","granularity":"year","time":"2010/01/01 00:00:00 -0500"},"id":"aaug7u2h25yg","address":"7856 HWY 80N","geo_precision":"street","state":"GA"},"type":"Feature","geometry":{"type":"Point","coordinates":[-82.646009,33.434448]}},{"properties":{"qty":1,"city":"TIFTON","zipcode":"31794","country":"US","geo_score":0.75,"sales amount":65493.23,"year":{"end_time":"2011/01/01 00:00:00 -0500","original":"2010","granularity":"year","time":"2010/01/01 00:00:00 -0500"},"id":"aaug7u79amqb","address":"DBA STAFFORD","geo_precision":"street","state":"GA"},"type":"Feature","geometry":{"type":"Point","coordinates":[-83.530965,31.453083]}},{"properties":{"qty":1,"city":"SALT LAKE CITY","zipcode":"84119","country":"US","geo_score":1.0,"sales amount":68655.53,"year":{"end_time":"2011/01/01 00:00:00 -0500","original":"2010","granularity":"year","time":"2010/01/01 00:00:00 -0500"},"id":"aaug7u8avh8w","address":"3333 WEST 2100 SOUTH","geo_precision":"range","state":"UT"},"type":"Feature","geometry":{"type":"Point","coordinates":[-111.968819,40.726749]}},{"properties":{"qty":1,"city":"AUBURN","zipcode":"01501","country":"US","geo_score":0.714,"sales amount":70337.8,"year":{"end_time":"2011/01/01 00:00:00 -0500","original":"2010","granularity":"year","time":"2010/01/01 00:00:00 -0500"},"id":"aaug7u2ebufw","address":"487 WASHINGTON ST (RT 20)","geo_precision":"street","state":"MA"},"type":"Feature","geometry":{"type":"Point","coordinates":[-71.800809,42.213001]}},{"properties":{"qty":1,"city":"POCATELLO","zipcode":"83201","country":"US","geo_score":1.0,"sales amount":70977.5,"year":{"end_time":"2011/01/01 00:00:00 -0500","original":"2010","granularity":"year","time":"2010/01/01 00:00:00 -0500"},"id":"aaug7tygk38e","address":"2666 GARRETT WAY","geo_precision":"range","state":"ID"},"type":"Feature","geometry":{"type":"Point","coordinates":[-112.46943,42.885333]}},{"properties":{"qty":1,"city":"MECHANICSBURG","zipcode":"17055","country":"US","geo_score":0.814,"sales amount":70989.98,"year":{"end_time":"2011/01/01 00:00:00 -0500","original":"2010","granularity":"year","time":"2010/01/01 00:00:00 -0500"},"id":"aaug7u844oax","address":"6779 CARLISLE PIKE","geo_precision":"street","state":"PA"},"type":"Feature","geometry":{"type":"Point","coordinates":[-77.072754,40.235852]}},{"properties":{"qty":1,"city":"WILKES-BARRE","zipcode":"18702","country":"US","geo_score":1.0,"sales amount":71136.0,"year":{"end_time":"2011/01/01 00:00:00 -0500","original":"2010","granularity":"year","time":"2010/01/01 00:00:00 -0500"},"id":"aaug7ua1rnvo","address":"1500 HIGHWAY 315","geo_precision":"range","state":"PA"},"type":"Feature","geometry":{"type":"Point","coordinates":[-75.799359,41.275056]}},{"properties":{"qty":1,"city":"WILKES-BARRE","zipcode":"18702","country":"US","geo_score":1.0,"sales amount":71136.0,"year":{"end_time":"2011/01/01 00:00:00 -0500","original":"2010","granularity":"year","time":"2010/01/01 00:00:00 -0500"},"id":"aaug7u0s985g","address":"1500 HIGHWAY 315","geo_precision":"range","state":"PA"},"type":"Feature","geometry":{"type":"Point","coordinates":[-75.799359,41.275056]}},{"properties":{"qty":1,"city":"SALT LAKE CITY","zipcode":"84119","country":"US","geo_score":1.0,"sales amount":78000.0,"year":{"end_time":"2011/01/01 00:00:00 -0500","original":"2010","granularity":"year","time":"2010/01/01 00:00:00 -0500"},"id":"aaug7u72b55f","address":"3333 WEST 2100 SOUTH","geo_precision":"range","state":"UT"},"type":"Feature","geometry":{"type":"Point","coordinates":[-111.968819,40.726749]}},{"properties":{"qty":1,"city":"LAS VEGAS","zipcode":"89124","country":"US","geo_score":0.585,"sales amount":79442.69,"year":{"end_time":"2011/01/01 00:00:00 -0500","original":"2010","granularity":"year","time":"2010/01/01 00:00:00 -0500"},"id":"aaug7u4mb3g9","address":"12101 HWY 91","geo_precision":"zip","state":"NV"},"type":"Feature","geometry":{"type":"Point","coordinates":[-115.217217,35.943586]}},{"properties":{"qty":3,"city":"LEXINGTON","zipcode":"40510","country":"US","geo_score":1.0,"sales amount":96434.91,"year":{"end_time":"2011/01/01 00:00:00 -0500","original":"2010","granularity":"year","time":"2010/01/01 00:00:00 -0500"},"id":"aaug7tzn99ia","address":"2180 OLD FRANKFORT PIKE","geo_precision":"range","state":"KY"},"type":"Feature","geometry":{"type":"Point","coordinates":[-84.551974,38.065476]}},{"properties":{"qty":1,"city":"MECHANICSBURG","zipcode":"17055","country":"US","geo_score":0.814,"sales amount":100339.42,"year":{"end_time":"2011/01/01 00:00:00 -0500","original":"2010","granularity":"year","time":"2010/01/01 00:00:00 -0500"},"id":"aaug7u4ybzh0","address":"6779 CARLISLE PIKE","geo_precision":"street","state":"PA"},"type":"Feature","geometry":{"type":"Point","coordinates":[-77.072754,40.235852]}},{"properties":{"qty":2,"city":"GARY","zipcode":"46402","country":"US","geo_score":0.571,"sales amount":134581.2,"year":{"end_time":"2011/01/01 00:00:00 -0500","original":"2010","granularity":"year","time":"2010/01/01 00:00:00 -0500"},"id":"aaug7u7pzv6d","address":"1 N. BROADWAY, SHOP 670","geo_precision":"street","state":"IN"},"type":"Feature","geometry":{"type":"Point","coordinates":[-87.33728,41.608624]}},{"properties":{"qty":2,"city":"GARY","zipcode":"46402","country":"US","geo_score":0.625,"sales amount":139562.8,"year":{"end_time":"2011/01/01 00:00:00 -0500","original":"2010","granularity":"year","time":"2010/01/01 00:00:00 -0500"},"id":"aaug7uc5lbpa","address":"1 NORTH BROADWAY, SHOP 670","geo_precision":"street","state":"IN"},"type":"Feature","geometry":{"type":"Point","coordinates":[-87.33728,41.608624]}}],"is_temporal":true,"author":{"url":"","metadata":"","contact_name":"","contact_address":"","source":"","contact_phone":""},"source":"","pagination":{"sort":null,"start":0,"total":187,"limit":1000000},"state":"complete","tags":"","published":"2014-08-16T21:04:37-04:00","id":306492}