{"type":"FeatureCollection","data_type":"Dataset","url_type":null,"permissions":[{"permissions":{"download":true,"view":true},"group_id":"everyone"}],"classification":null,"title":"Geo_-_Multi_Channel","count":52,"stream_id":306758,"contributor":{"url":"http://geocommons.com/users/58114","name":"ALLYM"},"data_attributes":null,"calculation_params":null,"icon_link":null,"link":"http://geocommons.com/overlays/306758.json","extent":[0.0,0.0,0.0,0.0],"geometry_types":null,"unique_name":null,"name":"Geo_-_Multi_Channel","feature_count":52,"description":"","next_feature":null,"is_raster":false,"short_classification":"Y","features":[{"properties":{"clicks":"58","orders":"4","id":"aavcxopr3656","state":"California"},"type":"Feature","geometry":null},{"properties":{"clicks":"5","orders":"2","id":"aavcxot9nuo5","state":"Colorado"},"type":"Feature","geometry":null},{"properties":{"clicks":"1","orders":"1","id":"aavcxoj1mfas","state":"South Carolina"},"type":"Feature","geometry":null},{"properties":{"clicks":"6","orders":"1","id":"aavcxogfrvkr","state":"Arizona"},"type":"Feature","geometry":null},{"properties":{"clicks":"28","orders":"1","id":"aavcxoj5be34","state":"New York"},"type":"Feature","geometry":null},{"properties":{"clicks":"13","orders":"1","id":"aavcxomllycz","state":"Ohio"},"type":"Feature","geometry":null},{"properties":{"clicks":"-","orders":"-","id":"aavcxoqs1sib","state":"Vermont"},"type":"Feature","geometry":null},{"properties":{"clicks":"7","orders":"-","id":"aavcxog0yt1a","state":"New Jersey"},"type":"Feature","geometry":null},{"properties":{"clicks":"-","orders":"-","id":"aavcxogf5kst","state":"Montana"},"type":"Feature","geometry":null},{"properties":{"clicks":"1","orders":"-","id":"aavcxoi052z8","state":"District of Columbia"},"type":"Feature","geometry":null},{"properties":{"clicks":"-","orders":"-","id":"aavcxoqiz3ah","state":"Delaware"},"type":"Feature","geometry":null},{"properties":{"clicks":"24","orders":"-","id":"aavcxoqbnc9a","state":"Florida"},"type":"Feature","geometry":null},{"properties":{"clicks":"1","orders":"-","id":"aavcxogqc1nd","state":"Wisconsin"},"type":"Feature","geometry":null},{"properties":{"clicks":"18","orders":"-","id":"aavcxol4zrtu","state":"Georgia"},"type":"Feature","geometry":null},{"properties":{"clicks":"1","orders":"-","id":"aavcxol5utbs","state":"Nevada"},"type":"Feature","geometry":null},{"properties":{"clicks":"-","orders":"-","id":"aavcxom81sws","state":"Hawaii"},"type":"Feature","geometry":null},{"properties":{"clicks":"5","orders":"-","id":"aavcxook9nse","state":"Connecticut"},"type":"Feature","geometry":null},{"properties":{"clicks":"1","orders":"-","id":"aavcxosq4d03","state":"Idaho"},"type":"Feature","geometry":null},{"properties":{"clicks":"20","orders":"-","id":"aavcxomxzew3","state":"Texas"},"type":"Feature","geometry":null},{"properties":{"clicks":"10","orders":"-","id":"aavcxoop5jgc","state":"Illinois"},"type":"Feature","geometry":null},{"properties":{"clicks":"10","orders":"-","id":"aavcxojb3avn","state":"Washington"},"type":"Feature","geometry":null},{"properties":{"clicks":"-","orders":"-","id":"aavcxos79ypv","state":"Indiana"},"type":"Feature","geometry":null},{"properties":{"clicks":"1","orders":"-","id":"aavcxomes55y","state":"Alabama"},"type":"Feature","geometry":null},{"properties":{"clicks":"2","orders":"-","id":"aavcxopced1x","state":"Iowa"},"type":"Feature","geometry":null},{"properties":{"clicks":"1","orders":"-","id":"aavcxosenoh3","state":"Nebraska"},"type":"Feature","geometry":null},{"properties":{"clicks":"2","orders":"-","id":"aavcxog5g9m1","state":"Kansas"},"type":"Feature","geometry":null},{"properties":{"clicks":"-","orders":"-","id":"aavcxon37w4j","state":"New Hampshire"},"type":"Feature","geometry":null},{"properties":{"clicks":"-","orders":"-","id":"aavcxordr9if","state":"North Dakota"},"type":"Feature","geometry":null},{"properties":{"clicks":"2","orders":"-","id":"aavcxojnkg0t","state":"New Mexico"},"type":"Feature","geometry":null},{"properties":{"clicks":"1","orders":"-","id":"aavcxoo8np09","state":"Oklahoma"},"type":"Feature","geometry":null},{"properties":{"clicks":"10","orders":"-","id":"aavcxorzldp9","state":"North Carolina"},"type":"Feature","geometry":null},{"properties":{"clicks":"8","orders":"-","id":"aavcxovcqgw8","state":"Pennsylvania"},"type":"Feature","geometry":null},{"properties":{"clicks":"-","orders":"-","id":"aavcxot2pvy1","state":"Arkansas"},"type":"Feature","geometry":null},{"properties":{"clicks":"1","orders":"-","id":"aavcxor34jag","state":"Kentucky"},"type":"Feature","geometry":null},{"properties":{"clicks":"1","orders":"-","id":"aavcxoof2ms8","state":"Oregon"},"type":"Feature","geometry":null},{"properties":{"clicks":"3","orders":"-","id":"aavcxop80llh","state":"Louisiana"},"type":"Feature","geometry":null},{"properties":{"clicks":"2","orders":"-","id":"aavcxomilmxi","state":"Rhode Island"},"type":"Feature","geometry":null},{"properties":{"clicks":"-","orders":"-","id":"aavcxop456sh","state":"Maine"},"type":"Feature","geometry":null},{"properties":{"clicks":"6","orders":"-","id":"aavcxom1ppof","state":"Tennessee"},"type":"Feature","geometry":null},{"properties":{"clicks":"2","orders":"-","id":"aavcxotfmy0v","state":"Maryland"},"type":"Feature","geometry":null},{"properties":{"clicks":"6","orders":"-","id":"aavcxon5m578","state":"Utah"},"type":"Feature","geometry":null},{"properties":{"clicks":"11","orders":"-","id":"aavcxolvx5sg","state":"Massachusetts"},"type":"Feature","geometry":null},{"properties":{"clicks":"8","orders":"-","id":"aavcxovi6gho","state":"Virginia"},"type":"Feature","geometry":null},{"properties":{"clicks":"14","orders":"-","id":"aavcxomu1ztf","state":"Michigan"},"type":"Feature","geometry":null},{"properties":{"clicks":"-","orders":"-","id":"aavcxomkz1s5","state":"West Virginia"},"type":"Feature","geometry":null},{"properties":{"clicks":"7","orders":"-","id":"aavcxot7yxti","state":"Minnesota"},"type":"Feature","geometry":null},{"properties":{"clicks":"-","orders":"-","id":"aavcxow2r52q","state":"Wyoming"},"type":"Feature","geometry":null},{"properties":{"clicks":"-","orders":"-","id":"aavcxot321yj","state":"Mississippi"},"type":"Feature","geometry":null},{"properties":{"clicks":"6","orders":"-","id":"aavcxotq6v25","state":"Missouri"},"type":"Feature","geometry":null},{"properties":{"clicks":"-","orders":"","id":"aavcxotoup26","state":"Mississippi"},"type":"Feature","geometry":null},{"properties":{"clicks":"-","orders":"","id":"aavcxopmim0l","state":"Missouri"},"type":"Feature","geometry":null},{"properties":{"clicks":"","orders":"","id":"aavcxoid2bsa","state":"Wyoming"},"type":"Feature","geometry":null}],"is_temporal":false,"author":{"url":"","metadata":null,"contact_name":null,"contact_address":null,"source":null,"contact_phone":null},"source":"","pagination":{"sort":null,"start":0,"total":52,"limit":1000000},"state":"parsed","tags":"","published":"2014-08-16T21:32:43-04:00","id":306758}