{"type":"FeatureCollection","data_type":"Dataset","url_type":null,"permissions":[{"permissions":{"download":true,"view":true},"group_id":"everyone"}],"classification":null,"title":"NCRC Cities","count":195,"stream_id":306956,"contributor":{"url":"http://geocommons.com/users/57760","name":"ArkansasHeritage"},"data_attributes":null,"calculation_params":null,"icon_link":null,"link":"http://geocommons.com/overlays/306956.json","extent":[-94.4843,33.0978,-89.9707,36.4956],"geometry_types":["point"],"unique_name":null,"name":"NCRC Cities","feature_count":195,"description":"","next_feature":null,"is_raster":false,"short_classification":"Y","stats":{"latitude":{"max":36.49564,"mean":34.9432177507692,"variance":0.985408985038001,"stdev":0.992677684365878,"median":35.005421,"min":33.09779},"number of projects":{"max":209,"mean":14.6769230769231,"variance":409.817763679619,"stdev":20.2439562259856,"median":9,"min":1},"longitude":{"max":-89.970734,"mean":-92.4449607846154,"variance":1.46133065072171,"stdev":1.20885509914204,"median":-92.440231,"min":-94.484283},"amount awarded":{"max":92190143.61,"mean":1509647.99030769,"variance":46916383772267.8,"stdev":6849553.54547052,"median":242904.65,"min":33.0}},"features":[{"properties":{"city":"Alicia","city, state":"Alicia, Arkansas","latitude":35.893921,"number of projects":2,"longitude":-91.083893,"id":"aavzqkvlt1pd","amount awarded":2450.0,"state":"Arkansas"},"type":"Feature","geometry":{"type":"Point","coordinates":[-91.083893,35.893921]}},{"properties":{"city":"Allison","city, state":"Allison, Arkansas","latitude":35.948269,"number of projects":12,"longitude":-92.112473,"id":"aavzqkxhfec4","amount awarded":397621.64,"state":"Arkansas"},"type":"Feature","geometry":{"type":"Point","coordinates":[-92.112473,35.948269]}},{"properties":{"city":"Arkadelphia","city, state":"Arkadelphia, Arkansas","latitude":34.120979,"number of projects":26,"longitude":-93.054131,"id":"aavzql6zo7eg","amount awarded":1737691.86,"state":"Arkansas"},"type":"Feature","geometry":{"type":"Point","coordinates":[-93.054131,34.120979]}},{"properties":{"city":"Arkansas City","city, state":"Arkansas City, Arkansas","latitude":33.6086,"number of projects":10,"longitude":-91.2067,"id":"aavzqkya3rvr","amount awarded":459499.85,"state":"Arkansas"},"type":"Feature","geometry":{"type":"Point","coordinates":[-91.2067,33.6086]}},{"properties":{"city":"Ashdown","city, state":"Ashdown, Arkansas","latitude":33.672131,"number of projects":45,"longitude":-94.131988,"id":"aavzql2bt1e4","amount awarded":3351402.09,"state":"Arkansas"},"type":"Feature","geometry":{"type":"Point","coordinates":[-94.131988,33.672131]}},{"properties":{"city":"Atkins","city, state":"Atkins, Arkansas","latitude":35.24205,"number of projects":14,"longitude":-92.935288,"id":"aavzql0ptq0a","amount awarded":7185.46,"state":"Arkansas"},"type":"Feature","geometry":{"type":"Point","coordinates":[-92.935288,35.24205]}},{"properties":{"city":"Augusta","city, state":"Augusta, Arkansas","latitude":35.28299,"number of projects":19,"longitude":-91.36544,"id":"aavzql0uponr","amount awarded":784050.56,"state":"Arkansas"},"type":"Feature","geometry":{"type":"Point","coordinates":[-91.36544,35.28299]}},{"properties":{"city":"Aurora","city, state":"Aurora, Arkansas","latitude":35.995781,"number of projects":12,"longitude":-93.702553,"id":"aavzqkxybhdp","amount awarded":351143.95,"state":"Arkansas"},"type":"Feature","geometry":{"type":"Point","coordinates":[-93.702553,35.995781]}},{"properties":{"city":"Batesville","city, state":"Batesville, Arkansas","latitude":35.76976,"number of projects":13,"longitude":-91.650002,"id":"aavzqkyxxcs3","amount awarded":687100.64,"state":"Arkansas"},"type":"Feature","geometry":{"type":"Point","coordinates":[-91.650002,35.76976]}},{"properties":{"city":"Benton","city, state":"Benton, Arkansas","latitude":34.56398,"number of projects":9,"longitude":-92.586853,"id":"aavzql7bl45o","amount awarded":132556.0,"state":"Arkansas"},"type":"Feature","geometry":{"type":"Point","coordinates":[-92.586853,34.56398]}},{"properties":{"city":"Bentonville","city, state":"Bentonville, Arkansas","latitude":36.372318,"number of projects":6,"longitude":-94.209618,"id":"aavzqkxl15g4","amount awarded":102290.0,"state":"Arkansas"},"type":"Feature","geometry":{"type":"Point","coordinates":[-94.209618,36.372318]}},{"properties":{"city":"Berryville","city, state":"Berryville, Arkansas","latitude":36.363869,"number of projects":7,"longitude":-93.566948,"id":"aavzql2y6bb5","amount awarded":190922.1,"state":"Arkansas"},"type":"Feature","geometry":{"type":"Point","coordinates":[-93.566948,36.363869]}},{"properties":{"city":"Big Fork","city, state":"Big Fork, Arkansas","latitude":34.487339,"number of projects":11,"longitude":-93.969238,"id":"aavzql6diw8m","amount awarded":24443.81,"state":"Arkansas"},"type":"Feature","geometry":{"type":"Point","coordinates":[-93.969238,34.487339]}},{"properties":{"city":"Bismarck","city, state":"Bismarck, Arkansas","latitude":34.31601,"number of projects":68,"longitude":-93.172073,"id":"aavzqksjtqyv","amount awarded":5025001.1,"state":"Arkansas"},"type":"Feature","geometry":{"type":"Point","coordinates":[-93.172073,34.31601]}},{"properties":{"city":"Blackburn","city, state":"Blackburn, Arkansas","latitude":35.815701,"number of projects":1,"longitude":-94.219818,"id":"aavzql1xkgri","amount awarded":10000.0,"state":"Arkansas"},"type":"Feature","geometry":{"type":"Point","coordinates":[-94.219818,35.815701]}},{"properties":{"city":"Blackton","city, state":"Blackton, Arkansas","latitude":34.67527,"number of projects":19,"longitude":-91.104301,"id":"aavzqkt3ja3w","amount awarded":10213.5,"state":"Arkansas"},"type":"Feature","geometry":{"type":"Point","coordinates":[-91.104301,34.67527]}},{"properties":{"city":"Bluff City","city, state":"Bluff City, Arkansas","latitude":33.718929,"number of projects":54,"longitude":-93.130592,"id":"aavzqksf4pee","amount awarded":1805604.15,"state":"Arkansas"},"type":"Feature","geometry":{"type":"Point","coordinates":[-93.130592,33.718929]}},{"properties":{"city":"Boxley","city, state":"Boxley, Arkansas","latitude":35.98233,"number of projects":2,"longitude":-93.415657,"id":"aavzql0km5uc","amount awarded":2150.0,"state":"Arkansas"},"type":"Feature","geometry":{"type":"Point","coordinates":[-93.415657,35.98233]}},{"properties":{"city":"Bradley","city, state":"Bradley, Arkansas","latitude":33.09779,"number of projects":1,"longitude":-93.655342,"id":"aavzqkyxbcec","amount awarded":20000.0,"state":"Arkansas"},"type":"Feature","geometry":{"type":"Point","coordinates":[-93.655342,33.09779]}},{"properties":{"city":"Brightstar","city, state":"Brightstar, Arkansas","latitude":33.115009,"number of projects":1,"longitude":-93.98925,"id":"aavzql4ck409","amount awarded":114.0,"state":"Arkansas"},"type":"Feature","geometry":{"type":"Point","coordinates":[-93.98925,33.115009]}},{"properties":{"city":"Brinkley","city, state":"Brinkley, Arkansas","latitude":34.867378,"number of projects":13,"longitude":-91.188477,"id":"aavzqkxalhup","amount awarded":619262.19,"state":"Arkansas"},"type":"Feature","geometry":{"type":"Point","coordinates":[-91.188477,34.867378]}},{"properties":{"city":"Brownstown","city, state":"Brownstown, Arkansas","latitude":33.81765,"number of projects":2,"longitude":-94.06604,"id":"aavzqkw7xw4h","amount awarded":4731.0,"state":"Arkansas"},"type":"Feature","geometry":{"type":"Point","coordinates":[-94.06604,33.81765]}},{"properties":{"city":"Bryant","city, state":"Bryant, Arkansas","latitude":34.59203,"number of projects":10,"longitude":-92.489594,"id":"aavzql7rn2jl","amount awarded":24054.17,"state":"Arkansas"},"type":"Feature","geometry":{"type":"Point","coordinates":[-92.489594,34.59203]}},{"properties":{"city":"Buckner","city, state":"Buckner, Arkansas","latitude":33.358501,"number of projects":15,"longitude":-93.435501,"id":"aavzql3zyxze","amount awarded":1273486.17,"state":"Arkansas"},"type":"Feature","geometry":{"type":"Point","coordinates":[-93.435501,33.358501]}},{"properties":{"city":"Bull Shoals","city, state":"Bull Shoals, Arkansas","latitude":36.383911,"number of projects":1,"longitude":-92.584137,"id":"aavzqktipd7o","amount awarded":1305.0,"state":"Arkansas"},"type":"Feature","geometry":{"type":"Point","coordinates":[-92.584137,36.383911]}},{"properties":{"city":"Cabot","city, state":"Cabot, Arkansas","latitude":34.973709,"number of projects":2,"longitude":-92.017517,"id":"aavzqkwuh6ho","amount awarded":497.09,"state":"Arkansas"},"type":"Feature","geometry":{"type":"Point","coordinates":[-92.017517,34.973709]}},{"properties":{"city":"Caddo Gap","city, state":"Caddo Gap, Arkansas","latitude":34.39949,"number of projects":9,"longitude":-93.619324,"id":"aavzql80lzns","amount awarded":7028.33,"state":"Arkansas"},"type":"Feature","geometry":{"type":"Point","coordinates":[-93.619324,34.39949]}},{"properties":{"city":"Camden","city, state":"Camden, Arkansas","latitude":33.586979,"number of projects":19,"longitude":-92.829567,"id":"aavzql41dd4i","amount awarded":534703.98,"state":"Arkansas"},"type":"Feature","geometry":{"type":"Point","coordinates":[-92.829567,33.586979]}},{"properties":{"city":"Carlisle","city, state":"Carlisle, Arkansas","latitude":34.78083,"number of projects":7,"longitude":-91.746742,"id":"aavzql5gqnmy","amount awarded":1170.75,"state":"Arkansas"},"type":"Feature","geometry":{"type":"Point","coordinates":[-91.746742,34.78083]}},{"properties":{"city":"Cave Springs","city, state":"Cave Springs, Arkansas","latitude":36.262749,"number of projects":2,"longitude":-94.231956,"id":"aavzql6jiuiz","amount awarded":18862.04,"state":"Arkansas"},"type":"Feature","geometry":{"type":"Point","coordinates":[-94.231956,36.262749]}},{"properties":{"city":"Centerpoint","city, state":"Centerpoint, Arkansas","latitude":34.780788,"number of projects":13,"longitude":-91.575699,"id":"aavzqkyxy3d8","amount awarded":54444.7,"state":"Arkansas"},"type":"Feature","geometry":{"type":"Point","coordinates":[-91.575699,34.780788]}},{"properties":{"city":"Charleston","city, state":"Charleston, Arkansas","latitude":35.2971,"number of projects":41,"longitude":-94.038483,"id":"aavzqkxccc2q","amount awarded":770326.13,"state":"Arkansas"},"type":"Feature","geometry":{"type":"Point","coordinates":[-94.038483,35.2971]}},{"properties":{"city":"Chidester","city, state":"Chidester, Arkansas","latitude":33.702129,"number of projects":1,"longitude":-93.019958,"id":"aavzqkxare16","amount awarded":217.0,"state":"Arkansas"},"type":"Feature","geometry":{"type":"Point","coordinates":[-93.019958,33.702129]}},{"properties":{"city":"Clarendon","city, state":"Clarendon, Arkansas","latitude":34.692612,"number of projects":13,"longitude":-91.308609,"id":"aavzqkspz9a9","amount awarded":294434.7,"state":"Arkansas"},"type":"Feature","geometry":{"type":"Point","coordinates":[-91.308609,34.692612]}},{"properties":{"city":"Clarksville","city, state":"Clarksville, Arkansas","latitude":35.471699,"number of projects":2,"longitude":-93.46637,"id":"aavzqkv3ep2x","amount awarded":143002.0,"state":"Arkansas"},"type":"Feature","geometry":{"type":"Point","coordinates":[-93.46637,35.471699]}},{"properties":{"city":"Clinton","city, state":"Clinton, Arkansas","latitude":35.59235,"number of projects":15,"longitude":-92.459061,"id":"aavzqkyy1owi","amount awarded":252363.08,"state":"Arkansas"},"type":"Feature","geometry":{"type":"Point","coordinates":[-92.459061,35.59235]}},{"properties":{"city":"Collins","city, state":"Collins, Arkansas","latitude":33.52467,"number of projects":18,"longitude":-91.568298,"id":"aavzql31xjuf","amount awarded":1010001.78,"state":"Arkansas"},"type":"Feature","geometry":{"type":"Point","coordinates":[-91.568298,33.52467]}},{"properties":{"city":"Columbus","city, state":"Columbus, Arkansas","latitude":33.776932,"number of projects":1,"longitude":-93.819649,"id":"aavzql6vsrc3","amount awarded":4620.0,"state":"Arkansas"},"type":"Feature","geometry":{"type":"Point","coordinates":[-93.819649,33.776932]}},{"properties":{"city":"Conway","city, state":"Conway, Arkansas","latitude":35.090809,"number of projects":4,"longitude":-92.440231,"id":"aavzql1a6jp0","amount awarded":224971.0,"state":"Arkansas"},"type":"Feature","geometry":{"type":"Point","coordinates":[-92.440231,35.090809]}},{"properties":{"city":"Corning","city, state":"Corning, Arkansas","latitude":36.408211,"number of projects":12,"longitude":-90.580498,"id":"aavzql2ppll0","amount awarded":56902.07,"state":"Arkansas"},"type":"Feature","geometry":{"type":"Point","coordinates":[-90.580498,36.408211]}},{"properties":{"city":"Cotton Plant","city, state":"Cotton Plant, Arkansas","latitude":35.004582,"number of projects":1,"longitude":-91.250191,"id":"aavzql1lk0k5","amount awarded":79170.1,"state":"Arkansas"},"type":"Feature","geometry":{"type":"Point","coordinates":[-91.250191,35.004582]}},{"properties":{"city":"Crossett","city, state":"Crossett, Arkansas","latitude":33.13179,"number of projects":10,"longitude":-91.961479,"id":"aavzql4grmky","amount awarded":17450.73,"state":"Arkansas"},"type":"Feature","geometry":{"type":"Point","coordinates":[-91.961479,33.13179]}},{"properties":{"city":"Crowley's Ridge","city, state":"Crowley's Ridge, Arkansas","latitude":35.74538,"number of projects":1,"longitude":-90.689346,"id":"aavzql32r9p1","amount awarded":74630.0,"state":"Arkansas"},"type":"Feature","geometry":{"type":"Point","coordinates":[-90.689346,35.74538]}},{"properties":{"city":"Dardanelle","city, state":"Dardanelle, Arkansas","latitude":35.22369,"number of projects":55,"longitude":-93.155808,"id":"aavzqkruuhcc","amount awarded":2359465.41,"state":"Arkansas"},"type":"Feature","geometry":{"type":"Point","coordinates":[-93.155808,35.22369]}},{"properties":{"city":"DeQueen","city, state":"DeQueen, Arkansas","latitude":34.036739,"number of projects":2,"longitude":-94.339417,"id":"aavzql5mylqg","amount awarded":1135783.0,"state":"Arkansas"},"type":"Feature","geometry":{"type":"Point","coordinates":[-94.339417,34.036739]}},{"properties":{"city":"DeValls Bluff","city, state":"DeValls Bluff, Arkansas","latitude":34.784729,"number of projects":17,"longitude":-91.45858,"id":"aavzql83yc4a","amount awarded":133836.67,"state":"Arkansas"},"type":"Feature","geometry":{"type":"Point","coordinates":[-91.45858,34.784729]}},{"properties":{"city":"DeWitt","city, state":"DeWitt, Arkansas","latitude":34.29319,"number of projects":5,"longitude":-91.335732,"id":"aavzql7ycd2i","amount awarded":188548.0,"state":"Arkansas"},"type":"Feature","geometry":{"type":"Point","coordinates":[-91.335732,34.29319]}},{"properties":{"city":"Des Arc","city, state":"Des Arc, Arkansas","latitude":34.976929,"number of projects":32,"longitude":-91.495796,"id":"aavzql2li4se","amount awarded":247408.01,"state":"Arkansas"},"type":"Feature","geometry":{"type":"Point","coordinates":[-91.495796,34.976929]}},{"properties":{"city":"Dixie","city, state":"Dixie, Arkansas","latitude":35.0292,"number of projects":1,"longitude":-92.597198,"id":"aavzqksanljb","amount awarded":141500.0,"state":"Arkansas"},"type":"Feature","geometry":{"type":"Point","coordinates":[-92.597198,35.0292]}},{"properties":{"city":"Donaldson","city, state":"Donaldson, Arkansas","latitude":34.23772,"number of projects":1,"longitude":-92.925491,"id":"aavzqkyqdwaa","amount awarded":4742.0,"state":"Arkansas"},"type":"Feature","geometry":{"type":"Point","coordinates":[-92.925491,34.23772]}},{"properties":{"city":"Dumas","city, state":"Dumas, Arkansas","latitude":33.887539,"number of projects":1,"longitude":-91.489937,"id":"aavzqkxkp1qq","amount awarded":201960.0,"state":"Arkansas"},"type":"Feature","geometry":{"type":"Point","coordinates":[-91.489937,33.887539]}},{"properties":{"city":"Dyess","city, state":"Dyess, Arkansas","latitude":35.590912,"number of projects":3,"longitude":-90.213921,"id":"aavzqktir4zv","amount awarded":949888.0,"state":"Arkansas"},"type":"Feature","geometry":{"type":"Point","coordinates":[-90.213921,35.590912]}},{"properties":{"city":"East Camden","city, state":"East Camden, Arkansas","latitude":33.61166,"number of projects":1,"longitude":-92.740952,"id":"aavzqkutqcwd","amount awarded":4000.0,"state":"Arkansas"},"type":"Feature","geometry":{"type":"Point","coordinates":[-92.740952,33.61166]}},{"properties":{"city":"El Dorado","city, state":"El Dorado, Arkansas","latitude":33.21151,"number of projects":17,"longitude":-92.665459,"id":"aavzqkt7lg4u","amount awarded":2046932.0,"state":"Arkansas"},"type":"Feature","geometry":{"type":"Point","coordinates":[-92.665459,33.21151]}},{"properties":{"city":"Eureka Springs","city, state":"Eureka Springs, Arkansas","latitude":36.401039,"number of projects":7,"longitude":-93.738564,"id":"aavzqkt0seay","amount awarded":218415.77,"state":"Arkansas"},"type":"Feature","geometry":{"type":"Point","coordinates":[-93.738564,36.401039]}},{"properties":{"city":"Fairmont","city, state":"Fairmont, Arkansas","latitude":34.7519,"number of projects":3,"longitude":-92.13055,"id":"aavzql6yf9ps","amount awarded":2718.0,"state":"Arkansas"},"type":"Feature","geometry":{"type":"Point","coordinates":[-92.13055,34.7519]}},{"properties":{"city":"Falcon","city, state":"Falcon, Arkansas","latitude":33.46373,"number of projects":9,"longitude":-93.404747,"id":"aavzqkvjuweq","amount awarded":272853.02,"state":"Arkansas"},"type":"Feature","geometry":{"type":"Point","coordinates":[-93.404747,33.46373]}},{"properties":{"city":"Fayetteville","city, state":"Fayetteville, Arkansas","latitude":36.063202,"number of projects":28,"longitude":-94.157913,"id":"aavzqktwnn6k","amount awarded":10090040.0,"state":"Arkansas"},"type":"Feature","geometry":{"type":"Point","coordinates":[-94.157913,36.063202]}},{"properties":{"city":"Florence","city, state":"Florence, Arkansas","latitude":33.76379,"number of projects":1,"longitude":-91.644493,"id":"aavzql1w7zm8","amount awarded":131600.0,"state":"Arkansas"},"type":"Feature","geometry":{"type":"Point","coordinates":[-91.644493,33.76379]}},{"properties":{"city":"Fordcye","city, state":"Fordcye, Arkansas","latitude":36.186138,"number of projects":11,"longitude":-90.291931,"id":"aavzqky5g6ta","amount awarded":396892.8,"state":"Arkansas"},"type":"Feature","geometry":{"type":"Point","coordinates":[-90.291931,36.186138]}},{"properties":{"city":"Fordyce","city, state":"Fordyce, Arkansas","latitude":33.810261,"number of projects":5,"longitude":-92.410553,"id":"aavzqkwte8u1","amount awarded":123036.0,"state":"Arkansas"},"type":"Feature","geometry":{"type":"Point","coordinates":[-92.410553,33.810261]}},{"properties":{"city":"Forrest City","city, state":"Forrest City, Arkansas","latitude":35.011421,"number of projects":1,"longitude":-90.786202,"id":"aavzqks0j83g","amount awarded":199982.0,"state":"Arkansas"},"type":"Feature","geometry":{"type":"Point","coordinates":[-90.786202,35.011421]}},{"properties":{"city":"Fort Smith","city, state":"Fort Smith, Arkansas","latitude":35.384602,"number of projects":3,"longitude":-94.421303,"id":"aavzqky6uw1b","amount awarded":63311.0,"state":"Arkansas"},"type":"Feature","geometry":{"type":"Point","coordinates":[-94.421303,35.384602]}},{"properties":{"city":"Forum","city, state":"Forum, Arkansas","latitude":36.181499,"number of projects":8,"longitude":-93.714882,"id":"aavzqkrzinyd","amount awarded":47466.77,"state":"Arkansas"},"type":"Feature","geometry":{"type":"Point","coordinates":[-93.714882,36.181499]}},{"properties":{"city":"Fountain Hill","city, state":"Fountain Hill, Arkansas","latitude":33.356548,"number of projects":3,"longitude":-91.851181,"id":"aavzql5cei2q","amount awarded":931732.61,"state":"Arkansas"},"type":"Feature","geometry":{"type":"Point","coordinates":[-91.851181,33.356548]}},{"properties":{"city":"Fox","city, state":"Fox, Arkansas","latitude":35.79034,"number of projects":1,"longitude":-92.295761,"id":"aavzql1g0pcv","amount awarded":50000.0,"state":"Arkansas"},"type":"Feature","geometry":{"type":"Point","coordinates":[-92.295761,35.79034]}},{"properties":{"city":"Garfield","city, state":"Garfield, Arkansas","latitude":36.448212,"number of projects":2,"longitude":-93.97329,"id":"aavzql1duh4z","amount awarded":9500.0,"state":"Arkansas"},"type":"Feature","geometry":{"type":"Point","coordinates":[-93.97329,36.448212]}},{"properties":{"city":"Gentry","city, state":"Gentry, Arkansas","latitude":36.267551,"number of projects":10,"longitude":-94.484283,"id":"aavzqkupegn9","amount awarded":85041.58,"state":"Arkansas"},"type":"Feature","geometry":{"type":"Point","coordinates":[-94.484283,36.267551]}},{"properties":{"city":"Gillett","city, state":"Gillett, Arkansas","latitude":34.11694,"number of projects":6,"longitude":-91.376106,"id":"aavzql2xczgl","amount awarded":368957.68,"state":"Arkansas"},"type":"Feature","geometry":{"type":"Point","coordinates":[-91.376106,34.11694]}},{"properties":{"city":"Glenwood","city, state":"Glenwood, Arkansas","latitude":34.32571,"number of projects":1,"longitude":-93.551743,"id":"aavzqktcc9g7","amount awarded":256.0,"state":"Arkansas"},"type":"Feature","geometry":{"type":"Point","coordinates":[-93.551743,34.32571]}},{"properties":{"city":"Green Forest","city, state":"Green Forest, Arkansas","latitude":36.335461,"number of projects":1,"longitude":-93.43721,"id":"aavzqkuyii0d","amount awarded":1000.0,"state":"Arkansas"},"type":"Feature","geometry":{"type":"Point","coordinates":[-93.43721,36.335461]}},{"properties":{"city":"Greenbrier","city, state":"Greenbrier, Arkansas","latitude":35.234928,"number of projects":9,"longitude":-92.387871,"id":"aavzql1z56d4","amount awarded":1344522.5,"state":"Arkansas"},"type":"Feature","geometry":{"type":"Point","coordinates":[-92.387871,35.234928]}},{"properties":{"city":"Greenwood","city, state":"Greenwood, Arkansas","latitude":35.212219,"number of projects":1,"longitude":-94.255287,"id":"aavzql1ykk57","amount awarded":6297.0,"state":"Arkansas"},"type":"Feature","geometry":{"type":"Point","coordinates":[-94.255287,35.212219]}},{"properties":{"city":"Gregory","city, state":"Gregory, Arkansas","latitude":35.155949,"number of projects":4,"longitude":-91.343178,"id":"aavzql1tqucm","amount awarded":11121.76,"state":"Arkansas"},"type":"Feature","geometry":{"type":"Point","coordinates":[-91.343178,35.155949]}},{"properties":{"city":"Hampton","city, state":"Hampton, Arkansas","latitude":33.538021,"number of projects":17,"longitude":-92.470818,"id":"aavzqkwtf094","amount awarded":1197856.55,"state":"Arkansas"},"type":"Feature","geometry":{"type":"Point","coordinates":[-92.470818,33.538021]}},{"properties":{"city":"Hardy","city, state":"Hardy, Arkansas","latitude":36.316299,"number of projects":9,"longitude":-91.486954,"id":"aavzqkszhg0y","amount awarded":39231.22,"state":"Arkansas"},"type":"Feature","geometry":{"type":"Point","coordinates":[-91.486954,36.316299]}},{"properties":{"city":"Harrisburg","city, state":"Harrisburg, Arkansas","latitude":35.56411,"number of projects":28,"longitude":-90.71682,"id":"aavzql57j2gx","amount awarded":1119601.8,"state":"Arkansas"},"type":"Feature","geometry":{"type":"Point","coordinates":[-90.71682,35.56411]}},{"properties":{"city":"Harrison","city, state":"Harrison, Arkansas","latitude":36.228619,"number of projects":44,"longitude":-93.110519,"id":"aavzqkrusq32","amount awarded":934047.4,"state":"Arkansas"},"type":"Feature","geometry":{"type":"Point","coordinates":[-93.110519,36.228619]}},{"properties":{"city":"Hazen","city, state":"Hazen, Arkansas","latitude":34.780788,"number of projects":5,"longitude":-91.575699,"id":"aavzql3wegn6","amount awarded":1647.03,"state":"Arkansas"},"type":"Feature","geometry":{"type":"Point","coordinates":[-91.575699,34.780788]}},{"properties":{"city":"Heber Springs","city, state":"Heber Springs, Arkansas","latitude":35.491901,"number of projects":22,"longitude":-92.036858,"id":"aavzqkz3xjlu","amount awarded":764406.55,"state":"Arkansas"},"type":"Feature","geometry":{"type":"Point","coordinates":[-92.036858,35.491901]}},{"properties":{"city":"Helena","city, state":"Helena, Arkansas","latitude":34.52866,"number of projects":36,"longitude":-90.59124,"id":"aavzql4rcw1c","amount awarded":10075813.16,"state":"Arkansas"},"type":"Feature","geometry":{"type":"Point","coordinates":[-90.59124,34.52866]}},{"properties":{"city":"Holland","city, state":"Holland, Arkansas","latitude":35.171478,"number of projects":2,"longitude":-92.274017,"id":"aavzql73tn3n","amount awarded":520.76,"state":"Arkansas"},"type":"Feature","geometry":{"type":"Point","coordinates":[-92.274017,35.171478]}},{"properties":{"city":"Holly Springs","city, state":"Holly Springs, Arkansas","latitude":33.814899,"number of projects":1,"longitude":-92.70916,"id":"aavzqkynccoc","amount awarded":65616.19,"state":"Arkansas"},"type":"Feature","geometry":{"type":"Point","coordinates":[-92.70916,33.814899]}},{"properties":{"city":"Hot Springs","city, state":"Hot Springs, Arkansas","latitude":34.509441,"number of projects":56,"longitude":-93.052223,"id":"aavzqksh7cef","amount awarded":9130665.28,"state":"Arkansas"},"type":"Feature","geometry":{"type":"Point","coordinates":[-93.052223,34.509441]}},{"properties":{"city":"Howell","city, state":"Howell, Arkansas","latitude":35.115211,"number of projects":1,"longitude":-91.244987,"id":"aavzqkwxcpys","amount awarded":78.0,"state":"Arkansas"},"type":"Feature","geometry":{"type":"Point","coordinates":[-91.244987,35.115211]}},{"properties":{"city":"Huntsville","city, state":"Huntsville, Arkansas","latitude":36.087421,"number of projects":22,"longitude":-93.73674,"id":"aavzql4podml","amount awarded":1263950.2,"state":"Arkansas"},"type":"Feature","geometry":{"type":"Point","coordinates":[-93.73674,36.087421]}},{"properties":{"city":"Jacksonport","city, state":"Jacksonport, Arkansas","latitude":35.640881,"number of projects":5,"longitude":-91.306618,"id":"aavzqkx9y8ek","amount awarded":2080578.61,"state":"Arkansas"},"type":"Feature","geometry":{"type":"Point","coordinates":[-91.306618,35.640881]}},{"properties":{"city":"Jasper","city, state":"Jasper, Arkansas","latitude":36.007969,"number of projects":6,"longitude":-93.18721,"id":"aavzqkxcghn8","amount awarded":247676.82,"state":"Arkansas"},"type":"Feature","geometry":{"type":"Point","coordinates":[-93.18721,36.007969]}},{"properties":{"city":"Jersey","city, state":"Jersey, Arkansas","latitude":33.4235,"number of projects":8,"longitude":-92.319069,"id":"aavzql27kn4s","amount awarded":89709.02,"state":"Arkansas"},"type":"Feature","geometry":{"type":"Point","coordinates":[-92.319069,33.4235]}},{"properties":{"city":"Johnson","city, state":"Johnson, Arkansas","latitude":36.133579,"number of projects":5,"longitude":-94.165077,"id":"aavzql4k91bb","amount awarded":5000.0,"state":"Arkansas"},"type":"Feature","geometry":{"type":"Point","coordinates":[-94.165077,36.133579]}},{"properties":{"city":"Jonesboro","city, state":"Jonesboro, Arkansas","latitude":35.835251,"number of projects":3,"longitude":-90.70507,"id":"aavzqkssozy3","amount awarded":264643.29,"state":"Arkansas"},"type":"Feature","geometry":{"type":"Point","coordinates":[-90.70507,35.835251]}},{"properties":{"city":"Kingsland","city, state":"Kingsland, Arkansas","latitude":33.858822,"number of projects":9,"longitude":-92.296272,"id":"aavzql64jstu","amount awarded":289112.33,"state":"Arkansas"},"type":"Feature","geometry":{"type":"Point","coordinates":[-92.296272,33.858822]}},{"properties":{"city":"Kingston","city, state":"Kingston, Arkansas","latitude":36.050468,"number of projects":12,"longitude":-93.518463,"id":"aavzqkvoibdo","amount awarded":133251.6,"state":"Arkansas"},"type":"Feature","geometry":{"type":"Point","coordinates":[-93.518463,36.050468]}},{"properties":{"city":"Kirby","city, state":"Kirby, Arkansas","latitude":34.250641,"number of projects":15,"longitude":-93.643127,"id":"aavzqkxtx0ed","amount awarded":761784.9,"state":"Arkansas"},"type":"Feature","geometry":{"type":"Point","coordinates":[-93.643127,34.250641]}},{"properties":{"city":"Lake Catherine","city, state":"Lake Catherine, Arkansas","latitude":34.463928,"number of projects":2,"longitude":-92.969681,"id":"aavzql2j7gh4","amount awarded":50060.0,"state":"Arkansas"},"type":"Feature","geometry":{"type":"Point","coordinates":[-92.969681,34.463928]}},{"properties":{"city":"Lake Charles","city, state":"Lake Charles, Arkansas","latitude":36.0667374,"number of projects":7,"longitude":-91.141793,"id":"aavzqkw18r1f","amount awarded":216264.0,"state":"Arkansas"},"type":"Feature","geometry":{"type":"Point","coordinates":[-91.141793,36.0667374]}},{"properties":{"city":"Lake City","city, state":"Lake City, Arkansas","latitude":35.82082,"number of projects":3,"longitude":-90.432808,"id":"aavzqkzb2xa3","amount awarded":3703.0,"state":"Arkansas"},"type":"Feature","geometry":{"type":"Point","coordinates":[-90.432808,35.82082]}},{"properties":{"city":"Lake View","city, state":"Lake View, Arkansas","latitude":35.890781,"number of projects":2,"longitude":-90.452133,"id":"aavzql1u0244","amount awarded":195428.75,"state":"Arkansas"},"type":"Feature","geometry":{"type":"Point","coordinates":[-90.452133,35.890781]}},{"properties":{"city":"Lake Village","city, state":"Lake Village, Arkansas","latitude":33.33065,"number of projects":38,"longitude":-91.281769,"id":"aavzql6m17hh","amount awarded":8736552.15,"state":"Arkansas"},"type":"Feature","geometry":{"type":"Point","coordinates":[-91.281769,33.33065]}},{"properties":{"city":"Lakeview","city, state":"Lakeview, Arkansas","latitude":36.366909,"number of projects":31,"longitude":-92.54998,"id":"aavzql5wu2f9","amount awarded":4508777.55,"state":"Arkansas"},"type":"Feature","geometry":{"type":"Point","coordinates":[-92.54998,36.366909]}},{"properties":{"city":"Lakeway","city, state":"Lakeway, Arkansas","latitude":36.335178,"number of projects":11,"longitude":-92.771797,"id":"aavzql08ob0h","amount awarded":677675.07,"state":"Arkansas"},"type":"Feature","geometry":{"type":"Point","coordinates":[-92.771797,36.335178]}},{"properties":{"city":"Lewisville","city, state":"Lewisville, Arkansas","latitude":33.356972,"number of projects":6,"longitude":-93.576439,"id":"aavzqkswje8z","amount awarded":173037.7,"state":"Arkansas"},"type":"Feature","geometry":{"type":"Point","coordinates":[-93.576439,33.356972]}},{"properties":{"city":"Little Rock","city, state":"Little Rock, Arkansas","latitude":34.74865,"number of projects":209,"longitude":-92.27449,"id":"aavzqku1dwpl","amount awarded":92190143.61,"state":"Arkansas"},"type":"Feature","geometry":{"type":"Point","coordinates":[-92.27449,34.74865]}},{"properties":{"city":"Locust Grove","city, state":"Locust Grove, Arkansas","latitude":35.72094,"number of projects":3,"longitude":-91.738449,"id":"aavzqkwl5oe1","amount awarded":1006617.72,"state":"Arkansas"},"type":"Feature","geometry":{"type":"Point","coordinates":[-91.738449,35.72094]}},{"properties":{"city":"Lonoke","city, state":"Lonoke, Arkansas","latitude":34.783909,"number of projects":11,"longitude":-91.90062,"id":"aavzqkzmzx32","amount awarded":149813.32,"state":"Arkansas"},"type":"Feature","geometry":{"type":"Point","coordinates":[-91.90062,34.783909]}},{"properties":{"city":"Magnolia","city, state":"Magnolia, Arkansas","latitude":33.267479,"number of projects":10,"longitude":-93.240883,"id":"aavzql7kvzix","amount awarded":505447.81,"state":"Arkansas"},"type":"Feature","geometry":{"type":"Point","coordinates":[-93.240883,33.267479]}},{"properties":{"city":"Malvern","city, state":"Malvern, Arkansas","latitude":34.362782,"number of projects":1,"longitude":-92.812729,"id":"aavzql0cgy84","amount awarded":81750.0,"state":"Arkansas"},"type":"Feature","geometry":{"type":"Point","coordinates":[-92.812729,34.362782]}},{"properties":{"city":"Mammoth Springs","city, state":"Mammoth Springs, Arkansas","latitude":36.49564,"number of projects":19,"longitude":-91.541031,"id":"aavzql39nyzw","amount awarded":1425395.68,"state":"Arkansas"},"type":"Feature","geometry":{"type":"Point","coordinates":[-91.541031,36.49564]}},{"properties":{"city":"Marianna","city, state":"Marianna, Arkansas","latitude":34.77396,"number of projects":11,"longitude":-90.766701,"id":"aavzql2azfgg","amount awarded":855020.51,"state":"Arkansas"},"type":"Feature","geometry":{"type":"Point","coordinates":[-90.766701,34.77396]}},{"properties":{"city":"Marion","city, state":"Marion, Arkansas","latitude":35.21846,"number of projects":2,"longitude":-90.199547,"id":"aavzql84dukc","amount awarded":12300.0,"state":"Arkansas"},"type":"Feature","geometry":{"type":"Point","coordinates":[-90.199547,35.21846]}},{"properties":{"city":"Marked Tree","city, state":"Marked Tree, Arkansas","latitude":35.533089,"number of projects":10,"longitude":-90.422577,"id":"aavzql5i0z9v","amount awarded":12554.19,"state":"Arkansas"},"type":"Feature","geometry":{"type":"Point","coordinates":[-90.422577,35.533089]}},{"properties":{"city":"Marshall","city, state":"Marshall, Arkansas","latitude":35.906891,"number of projects":7,"longitude":-92.63131,"id":"aavzqkvh9xdv","amount awarded":360796.68,"state":"Arkansas"},"type":"Feature","geometry":{"type":"Point","coordinates":[-92.63131,35.906891]}},{"properties":{"city":"Martinville","city, state":"Martinville, Arkansas","latitude":35.325481,"number of projects":1,"longitude":-92.476936,"id":"aavzql2fkmul","amount awarded":52.0,"state":"Arkansas"},"type":"Feature","geometry":{"type":"Point","coordinates":[-92.476936,35.325481]}},{"properties":{"city":"McNab","city, state":"McNab, Arkansas","latitude":33.66127,"number of projects":15,"longitude":-93.832542,"id":"aavzqkx7gf4l","amount awarded":1986704.76,"state":"Arkansas"},"type":"Feature","geometry":{"type":"Point","coordinates":[-93.832542,33.66127]}},{"properties":{"city":"McNeil","city, state":"McNeil, Arkansas","latitude":33.348339,"number of projects":20,"longitude":-93.210037,"id":"aavzql5kneyw","amount awarded":1535837.33,"state":"Arkansas"},"type":"Feature","geometry":{"type":"Point","coordinates":[-93.210037,33.348339]}},{"properties":{"city":"Melbourne","city, state":"Melbourne, Arkansas","latitude":36.059078,"number of projects":9,"longitude":-91.905647,"id":"aavzqks5mr3b","amount awarded":605761.3,"state":"Arkansas"},"type":"Feature","geometry":{"type":"Point","coordinates":[-91.905647,36.059078]}},{"properties":{"city":"Mena","city, state":"Mena, Arkansas","latitude":34.587109,"number of projects":53,"longitude":-94.238632,"id":"aavzqkxcvqem","amount awarded":14222286.02,"state":"Arkansas"},"type":"Feature","geometry":{"type":"Point","coordinates":[-94.238632,34.587109]}},{"properties":{"city":"Montclair","city, state":"Montclair, Arkansas","latitude":34.7519,"number of projects":1,"longitude":-92.13055,"id":"aavzql394a38","amount awarded":91116.0,"state":"Arkansas"},"type":"Feature","geometry":{"type":"Point","coordinates":[-92.13055,34.7519]}},{"properties":{"city":"Monticello","city, state":"Monticello, Arkansas","latitude":33.628109,"number of projects":27,"longitude":-91.79097,"id":"aavzql3jvdeg","amount awarded":4009978.9,"state":"Arkansas"},"type":"Feature","geometry":{"type":"Point","coordinates":[-91.79097,33.628109]}},{"properties":{"city":"Moro Bay","city, state":"Moro Bay, Arkansas","latitude":33.306709,"number of projects":2,"longitude":-92.349937,"id":"aavzqkxy6xzd","amount awarded":142538.0,"state":"Arkansas"},"type":"Feature","geometry":{"type":"Point","coordinates":[-92.349937,33.306709]}},{"properties":{"city":"Morrilton","city, state":"Morrilton, Arkansas","latitude":35.153339,"number of projects":78,"longitude":-92.744972,"id":"aavzql4357ye","amount awarded":10697726.54,"state":"Arkansas"},"type":"Feature","geometry":{"type":"Point","coordinates":[-92.744972,35.153339]}},{"properties":{"city":"Mossville","city, state":"Mossville, Arkansas","latitude":35.895168,"number of projects":4,"longitude":-93.388672,"id":"aavzql6rfw1h","amount awarded":12003.71,"state":"Arkansas"},"type":"Feature","geometry":{"type":"Point","coordinates":[-93.388672,35.895168]}},{"properties":{"city":"Mount Ida","city, state":"Mount Ida, Arkansas","latitude":34.55843,"number of projects":3,"longitude":-93.632896,"id":"aavzqkxgmitp","amount awarded":30108.0,"state":"Arkansas"},"type":"Feature","geometry":{"type":"Point","coordinates":[-93.632896,34.55843]}},{"properties":{"city":"Mount Vernon","city, state":"Mount Vernon, Arkansas","latitude":35.226719,"number of projects":1,"longitude":-92.11602,"id":"aavzql27ezjd","amount awarded":1500.0,"state":"Arkansas"},"type":"Feature","geometry":{"type":"Point","coordinates":[-92.11602,35.226719]}},{"properties":{"city":"Mountain Home","city, state":"Mountain Home, Arkansas","latitude":36.335098,"number of projects":13,"longitude":-92.385292,"id":"aavzql3xwjsj","amount awarded":1819535.82,"state":"Arkansas"},"type":"Feature","geometry":{"type":"Point","coordinates":[-92.385292,36.335098]}},{"properties":{"city":"Mountain Pine","city, state":"Mountain Pine, Arkansas","latitude":34.571522,"number of projects":32,"longitude":-93.174942,"id":"aavzqku5uut7","amount awarded":3335733.53,"state":"Arkansas"},"type":"Feature","geometry":{"type":"Point","coordinates":[-93.174942,34.571522]}},{"properties":{"city":"Mountain View","city, state":"Mountain View, Arkansas","latitude":35.868408,"number of projects":41,"longitude":-92.12072,"id":"aavzql76hed7","amount awarded":2425792.18,"state":"Arkansas"},"type":"Feature","geometry":{"type":"Point","coordinates":[-92.12072,35.868408]}},{"properties":{"city":"Mountainburg","city, state":"Mountainburg, Arkansas","latitude":35.63557,"number of projects":18,"longitude":-94.167992,"id":"aavzql64o3tr","amount awarded":582785.61,"state":"Arkansas"},"type":"Feature","geometry":{"type":"Point","coordinates":[-94.167992,35.63557]}},{"properties":{"city":"Murfreesboro","city, state":"Murfreesboro, Arkansas","latitude":34.061981,"number of projects":20,"longitude":-93.689728,"id":"aavzqkvn4fwn","amount awarded":4082780.77,"state":"Arkansas"},"type":"Feature","geometry":{"type":"Point","coordinates":[-93.689728,34.061981]}},{"properties":{"city":"Nashville","city, state":"Nashville, Arkansas","latitude":33.947929,"number of projects":10,"longitude":-93.847038,"id":"aavzql4w86xx","amount awarded":197030.58,"state":"Arkansas"},"type":"Feature","geometry":{"type":"Point","coordinates":[-93.847038,33.947929]}},{"properties":{"city":"New Edinburg","city, state":"New Edinburg, Arkansas","latitude":33.773048,"number of projects":6,"longitude":-92.250687,"id":"aavzqkyff2zd","amount awarded":689840.77,"state":"Arkansas"},"type":"Feature","geometry":{"type":"Point","coordinates":[-92.250687,33.773048]}},{"properties":{"city":"Newport","city, state":"Newport, Arkansas","latitude":35.604328,"number of projects":32,"longitude":-91.282516,"id":"aavzqkwaidjl","amount awarded":2665906.34,"state":"Arkansas"},"type":"Feature","geometry":{"type":"Point","coordinates":[-91.282516,35.604328]}},{"properties":{"city":"Norfork","city, state":"Norfork, Arkansas","latitude":36.206711,"number of projects":3,"longitude":-92.286102,"id":"aavzql05jldn","amount awarded":18628.68,"state":"Arkansas"},"type":"Feature","geometry":{"type":"Point","coordinates":[-92.286102,36.206711]}},{"properties":{"city":"North Little Rock","city, state":"North Little Rock, Arkansas","latitude":34.75605,"number of projects":32,"longitude":-92.26712,"id":"aavzql5er911","amount awarded":699545.0,"state":"Arkansas"},"type":"Feature","geometry":{"type":"Point","coordinates":[-92.26712,34.75605]}},{"properties":{"city":"Oakland","city, state":"Oakland, Arkansas","latitude":36.460159,"number of projects":1,"longitude":-92.569122,"id":"aavzql7654w7","amount awarded":18000.0,"state":"Arkansas"},"type":"Feature","geometry":{"type":"Point","coordinates":[-92.569122,36.460159]}},{"properties":{"city":"Odell","city, state":"Odell, Arkansas","latitude":35.776539,"number of projects":7,"longitude":-94.417778,"id":"aavzqkxinbc0","amount awarded":403346.09,"state":"Arkansas"},"type":"Feature","geometry":{"type":"Point","coordinates":[-94.417778,35.776539]}},{"properties":{"city":"Oden","city, state":"Oden, Arkansas","latitude":34.618931,"number of projects":2,"longitude":-93.777946,"id":"aavzqkykyn1h","amount awarded":6000.05,"state":"Arkansas"},"type":"Feature","geometry":{"type":"Point","coordinates":[-93.777946,34.618931]}},{"properties":{"city":"Okolona","city, state":"Okolona, Arkansas","latitude":34.001179,"number of projects":1,"longitude":-93.33783,"id":"aavzqktwwmd9","amount awarded":33.0,"state":"Arkansas"},"type":"Feature","geometry":{"type":"Point","coordinates":[-93.33783,34.001179]}},{"properties":{"city":"Old Washington","city, state":"Old Washington, Arkansas","latitude":33.77467,"number of projects":41,"longitude":-93.68335,"id":"aavzqkyiji05","amount awarded":3312109.4,"state":"Arkansas"},"type":"Feature","geometry":{"type":"Point","coordinates":[-93.68335,33.77467]}},{"properties":{"city":"Osceola","city, state":"Osceola, Arkansas","latitude":35.70496,"number of projects":10,"longitude":-89.970734,"id":"aavzqksm6hqc","amount awarded":486823.64,"state":"Arkansas"},"type":"Feature","geometry":{"type":"Point","coordinates":[-89.970734,35.70496]}},{"properties":{"city":"Owensville","city, state":"Owensville, Arkansas","latitude":34.6162,"number of projects":9,"longitude":-92.82811,"id":"aavzql6li3vk","amount awarded":242904.65,"state":"Arkansas"},"type":"Feature","geometry":{"type":"Point","coordinates":[-92.82811,34.6162]}},{"properties":{"city":"Ozark","city, state":"Ozark, Arkansas","latitude":35.487389,"number of projects":21,"longitude":-93.831291,"id":"aavzqkz9u79e","amount awarded":306307.45,"state":"Arkansas"},"type":"Feature","geometry":{"type":"Point","coordinates":[-93.831291,35.487389]}},{"properties":{"city":"Paragould","city, state":"Paragould, Arkansas","latitude":36.056721,"number of projects":46,"longitude":-90.487381,"id":"aavzql4n7l72","amount awarded":1191715.59,"state":"Arkansas"},"type":"Feature","geometry":{"type":"Point","coordinates":[-90.487381,36.056721]}},{"properties":{"city":"Paris","city, state":"Paris, Arkansas","latitude":35.292461,"number of projects":16,"longitude":-93.729912,"id":"aavzql7fexd0","amount awarded":2098781.55,"state":"Arkansas"},"type":"Feature","geometry":{"type":"Point","coordinates":[-93.729912,35.292461]}},{"properties":{"city":"Parkin","city, state":"Parkin, Arkansas","latitude":35.267239,"number of projects":23,"longitude":-90.558449,"id":"aavzqktfm1ye","amount awarded":905435.09,"state":"Arkansas"},"type":"Feature","geometry":{"type":"Point","coordinates":[-90.558449,35.267239]}},{"properties":{"city":"Pea Ridge","city, state":"Pea Ridge, Arkansas","latitude":36.453838,"number of projects":2,"longitude":-94.114326,"id":"aavzql2y868s","amount awarded":15284.0,"state":"Arkansas"},"type":"Feature","geometry":{"type":"Point","coordinates":[-94.114326,36.453838]}},{"properties":{"city":"Perryville","city, state":"Perryville, Arkansas","latitude":35.005421,"number of projects":8,"longitude":-92.801407,"id":"aavzql6h70zk","amount awarded":229956.0,"state":"Arkansas"},"type":"Feature","geometry":{"type":"Point","coordinates":[-92.801407,35.005421]}},{"properties":{"city":"Pettigrew","city, state":"Pettigrew, Arkansas","latitude":35.81831,"number of projects":1,"longitude":-93.647346,"id":"aavzqkvrr8iu","amount awarded":84885.0,"state":"Arkansas"},"type":"Feature","geometry":{"type":"Point","coordinates":[-93.647346,35.81831]}},{"properties":{"city":"Piggott","city, state":"Piggott, Arkansas","latitude":36.381519,"number of projects":8,"longitude":-90.191612,"id":"aavzqkwoxow0","amount awarded":970140.0,"state":"Arkansas"},"type":"Feature","geometry":{"type":"Point","coordinates":[-90.191612,36.381519]}},{"properties":{"city":"Pine Bluff","city, state":"Pine Bluff, Arkansas","latitude":34.22353,"number of projects":32,"longitude":-92.003403,"id":"aavzql6z6zmj","amount awarded":657192.78,"state":"Arkansas"},"type":"Feature","geometry":{"type":"Point","coordinates":[-92.003403,34.22353]}},{"properties":{"city":"Pine City","city, state":"Pine City, Arkansas","latitude":34.583752,"number of projects":16,"longitude":-91.114799,"id":"aavzqkwlj5ir","amount awarded":666084.75,"state":"Arkansas"},"type":"Feature","geometry":{"type":"Point","coordinates":[-91.114799,34.583752]}},{"properties":{"city":"Pocahontas","city, state":"Pocahontas, Arkansas","latitude":36.283298,"number of projects":38,"longitude":-90.943962,"id":"aavzql01gd4p","amount awarded":4711479.94,"state":"Arkansas"},"type":"Feature","geometry":{"type":"Point","coordinates":[-90.943962,36.283298]}},{"properties":{"city":"Powhatan","city, state":"Powhatan, Arkansas","latitude":36.083118,"number of projects":37,"longitude":-91.120918,"id":"aavzqkx7wzn4","amount awarded":5144769.36,"state":"Arkansas"},"type":"Feature","geometry":{"type":"Point","coordinates":[-91.120918,36.083118]}},{"properties":{"city":"Prairie Grove","city, state":"Prairie Grove, Arkansas","latitude":35.975651,"number of projects":30,"longitude":-94.316353,"id":"aavzqkt5vyx8","amount awarded":3643531.14,"state":"Arkansas"},"type":"Feature","geometry":{"type":"Point","coordinates":[-94.316353,35.975651]}},{"properties":{"city":"Reydell","city, state":"Reydell, Arkansas","latitude":34.161861,"number of projects":1,"longitude":-91.572952,"id":"aavzql2sthgi","amount awarded":359.0,"state":"Arkansas"},"type":"Feature","geometry":{"type":"Point","coordinates":[-91.572952,34.161861]}},{"properties":{"city":"Rison","city, state":"Rison, Arkansas","latitude":33.95805,"number of projects":17,"longitude":-92.189903,"id":"aavzqlfi6s3d","amount awarded":272016.56,"state":"Arkansas"},"type":"Feature","geometry":{"type":"Point","coordinates":[-92.189903,33.95805]}},{"properties":{"city":"Rogers","city, state":"Rogers, Arkansas","latitude":36.333481,"number of projects":50,"longitude":-94.12471,"id":"aavzqll6rqhw","amount awarded":2791776.87,"state":"Arkansas"},"type":"Feature","geometry":{"type":"Point","coordinates":[-94.12471,36.333481]}},{"properties":{"city":"Roland","city, state":"Roland, Arkansas","latitude":34.9007,"number of projects":17,"longitude":-92.499107,"id":"aavzqlcw3fd3","amount awarded":1102902.85,"state":"Arkansas"},"type":"Feature","geometry":{"type":"Point","coordinates":[-92.499107,34.9007]}},{"properties":{"city":"Russellville","city, state":"Russellville, Arkansas","latitude":35.27829,"number of projects":49,"longitude":-93.134811,"id":"aavzqlby4l1k","amount awarded":4593465.52,"state":"Arkansas"},"type":"Feature","geometry":{"type":"Point","coordinates":[-93.134811,35.27829]}},{"properties":{"city":"Saint Charles","city, state":"Saint Charles, Arkansas","latitude":34.375259,"number of projects":12,"longitude":-91.127708,"id":"aavzqlipmfdd","amount awarded":41359.72,"state":"Arkansas"},"type":"Feature","geometry":{"type":"Point","coordinates":[-91.127708,34.375259]}},{"properties":{"city":"Saint Francis","city, state":"Saint Francis, Arkansas","latitude":36.454491,"number of projects":10,"longitude":-90.142563,"id":"aavzqll3rk1l","amount awarded":12243.96,"state":"Arkansas"},"type":"Feature","geometry":{"type":"Point","coordinates":[-90.142563,36.454491]}},{"properties":{"city":"Salem","city, state":"Salem, Arkansas","latitude":36.371231,"number of projects":2,"longitude":-91.822662,"id":"aavzql8tkn00","amount awarded":150000.0,"state":"Arkansas"},"type":"Feature","geometry":{"type":"Point","coordinates":[-91.822662,36.371231]}},{"properties":{"city":"Sarasota","city, state":"Sarasota, Arkansas","latitude":33.753189,"number of projects":3,"longitude":-93.903671,"id":"aavzqlabfl6t","amount awarded":1336.89,"state":"Arkansas"},"type":"Feature","geometry":{"type":"Point","coordinates":[-93.903671,33.753189]}},{"properties":{"city":"Saratoga","city, state":"Saratoga, Arkansas","latitude":33.753189,"number of projects":5,"longitude":-93.903671,"id":"aavzqle9q7n8","amount awarded":29872.87,"state":"Arkansas"},"type":"Feature","geometry":{"type":"Point","coordinates":[-93.903671,33.753189]}},{"properties":{"city":"Scott","city, state":"Scott, Arkansas","latitude":34.693909,"number of projects":26,"longitude":-92.094582,"id":"aavzqla7tjy2","amount awarded":2567176.5,"state":"Arkansas"},"type":"Feature","geometry":{"type":"Point","coordinates":[-92.094582,34.693909]}},{"properties":{"city":"Searcy","city, state":"Searcy, Arkansas","latitude":35.250809,"number of projects":31,"longitude":-91.740158,"id":"aavzqllvg2sg","amount awarded":279110.0,"state":"Arkansas"},"type":"Feature","geometry":{"type":"Point","coordinates":[-91.740158,35.250809]}},{"properties":{"city":"Sedgwick","city, state":"Sedgwick, Arkansas","latitude":35.978561,"number of projects":1,"longitude":-90.862793,"id":"aavzqlo4nxcw","amount awarded":12096.0,"state":"Arkansas"},"type":"Feature","geometry":{"type":"Point","coordinates":[-90.862793,35.978561]}},{"properties":{"city":"Slovak","city, state":"Slovak, Arkansas","latitude":34.648521,"number of projects":13,"longitude":-91.580048,"id":"aavzqlj50azr","amount awarded":83580.9,"state":"Arkansas"},"type":"Feature","geometry":{"type":"Point","coordinates":[-91.580048,34.648521]}},{"properties":{"city":"Smackover","city, state":"Smackover, Arkansas","latitude":33.365021,"number of projects":9,"longitude":-92.725639,"id":"aavzqlf6p0ff","amount awarded":896895.34,"state":"Arkansas"},"type":"Feature","geometry":{"type":"Point","coordinates":[-92.725639,33.365021]}},{"properties":{"city":"Star City","city, state":"Star City, Arkansas","latitude":33.940922,"number of projects":28,"longitude":-91.846138,"id":"aavzql8j9z1o","amount awarded":1015209.71,"state":"Arkansas"},"type":"Feature","geometry":{"type":"Point","coordinates":[-91.846138,33.940922]}},{"properties":{"city":"Strong","city, state":"Strong, Arkansas","latitude":33.11076,"number of projects":1,"longitude":-92.357559,"id":"aavzqll7yl2l","amount awarded":1800.0,"state":"Arkansas"},"type":"Feature","geometry":{"type":"Point","coordinates":[-92.357559,33.11076]}},{"properties":{"city":"Stuttgart","city, state":"Stuttgart, Arkansas","latitude":34.498322,"number of projects":21,"longitude":-91.55262,"id":"aavzqld328km","amount awarded":1254399.21,"state":"Arkansas"},"type":"Feature","geometry":{"type":"Point","coordinates":[-91.55262,34.498322]}},{"properties":{"city":"Swifton","city, state":"Swifton, Arkansas","latitude":35.824261,"number of projects":6,"longitude":-91.13015,"id":"aavzqll50m7c","amount awarded":15527.16,"state":"Arkansas"},"type":"Feature","geometry":{"type":"Point","coordinates":[-91.13015,35.824261]}},{"properties":{"city":"Texarkana","city, state":"Texarkana, Arkansas","latitude":33.430962,"number of projects":18,"longitude":-94.03579,"id":"aavzqlhgyq96","amount awarded":479699.31,"state":"Arkansas"},"type":"Feature","geometry":{"type":"Point","coordinates":[-94.03579,33.430962]}},{"properties":{"city":"Tide Water","city, state":"Tide Water, Arkansas","latitude":33.21471,"number of projects":1,"longitude":-93.134773,"id":"aavzqll82m4e","amount awarded":20000.0,"state":"Arkansas"},"type":"Feature","geometry":{"type":"Point","coordinates":[-93.134773,33.21471]}},{"properties":{"city":"Trumann","city, state":"Trumann, Arkansas","latitude":35.664471,"number of projects":4,"longitude":-90.508743,"id":"aavzqla08u98","amount awarded":7009.95,"state":"Arkansas"},"type":"Feature","geometry":{"type":"Point","coordinates":[-90.508743,35.664471]}},{"properties":{"city":"Twin Groves","city, state":"Twin Groves, Arkansas","latitude":35.331211,"number of projects":6,"longitude":-92.411262,"id":"aavzqlhjr60n","amount awarded":36058.94,"state":"Arkansas"},"type":"Feature","geometry":{"type":"Point","coordinates":[-92.411262,35.331211]}},{"properties":{"city":"Tyronza","city, state":"Tyronza, Arkansas","latitude":35.491829,"number of projects":2,"longitude":-90.358543,"id":"aavzqli8fy3u","amount awarded":615000.0,"state":"Arkansas"},"type":"Feature","geometry":{"type":"Point","coordinates":[-90.358543,35.491829]}},{"properties":{"city":"Umpire","city, state":"Umpire, Arkansas","latitude":34.278782,"number of projects":8,"longitude":-94.049957,"id":"aavzqlk75lc8","amount awarded":60379.58,"state":"Arkansas"},"type":"Feature","geometry":{"type":"Point","coordinates":[-94.049957,34.278782]}},{"properties":{"city":"Van Buren","city, state":"Van Buren, Arkansas","latitude":35.436771,"number of projects":36,"longitude":-94.34877,"id":"aavzqll7famg","amount awarded":6437098.94,"state":"Arkansas"},"type":"Feature","geometry":{"type":"Point","coordinates":[-94.34877,35.436771]}},{"properties":{"city":"Walcott","city, state":"Walcott, Arkansas","latitude":36.043098,"number of projects":8,"longitude":-90.669563,"id":"aavzqld12k53","amount awarded":215162.4,"state":"Arkansas"},"type":"Feature","geometry":{"type":"Point","coordinates":[-90.669563,36.043098]}},{"properties":{"city":"Waldo","city, state":"Waldo, Arkansas","latitude":33.353222,"number of projects":21,"longitude":-93.295929,"id":"aavzqliddjg6","amount awarded":1135433.86,"state":"Arkansas"},"type":"Feature","geometry":{"type":"Point","coordinates":[-93.295929,33.353222]}},{"properties":{"city":"Waldron","city, state":"Waldron, Arkansas","latitude":34.89703,"number of projects":9,"longitude":-94.09108,"id":"aavzql9rwlnj","amount awarded":322208.52,"state":"Arkansas"},"type":"Feature","geometry":{"type":"Point","coordinates":[-94.09108,34.89703]}},{"properties":{"city":"Warren","city, state":"Warren, Arkansas","latitude":33.614159,"number of projects":26,"longitude":-92.06427,"id":"aavzqlgvlv4w","amount awarded":1260381.65,"state":"Arkansas"},"type":"Feature","geometry":{"type":"Point","coordinates":[-92.06427,33.614159]}},{"properties":{"city":"Washington","city, state":"Washington, Arkansas","latitude":33.77467,"number of projects":30,"longitude":-93.68335,"id":"aavzqlnth5f1","amount awarded":3240804.81,"state":"Arkansas"},"type":"Feature","geometry":{"type":"Point","coordinates":[-93.68335,33.77467]}},{"properties":{"city":"Watson","city, state":"Watson, Arkansas","latitude":33.896221,"number of projects":5,"longitude":-91.256752,"id":"aavzqli20pg5","amount awarded":439743.53,"state":"Arkansas"},"type":"Feature","geometry":{"type":"Point","coordinates":[-91.256752,33.896221]}},{"properties":{"city":"West Fork","city, state":"West Fork, Arkansas","latitude":35.924198,"number of projects":25,"longitude":-94.189323,"id":"aavzqlfg3e0j","amount awarded":3972492.9,"state":"Arkansas"},"type":"Feature","geometry":{"type":"Point","coordinates":[-94.189323,35.924198]}},{"properties":{"city":"Wickes","city, state":"Wickes, Arkansas","latitude":34.30151,"number of projects":39,"longitude":-94.338158,"id":"aavzqlmtjwe0","amount awarded":1908445.13,"state":"Arkansas"},"type":"Feature","geometry":{"type":"Point","coordinates":[-94.338158,34.30151]}},{"properties":{"city":"Wilburn","city, state":"Wilburn, Arkansas","latitude":35.508331,"number of projects":16,"longitude":-91.886307,"id":"aavzqlhem5ou","amount awarded":183633.43,"state":"Arkansas"},"type":"Feature","geometry":{"type":"Point","coordinates":[-91.886307,35.508331]}},{"properties":{"city":"Wilson","city, state":"Wilson, Arkansas","latitude":35.570351,"number of projects":5,"longitude":-90.039413,"id":"aavzqljrmci4","amount awarded":377776.0,"state":"Arkansas"},"type":"Feature","geometry":{"type":"Point","coordinates":[-90.039413,35.570351]}},{"properties":{"city":"Winchester","city, state":"Winchester, Arkansas","latitude":33.7743,"number of projects":1,"longitude":-91.476311,"id":"aavzqlder0ej","amount awarded":100000.0,"state":"Arkansas"},"type":"Feature","geometry":{"type":"Point","coordinates":[-91.476311,33.7743]}},{"properties":{"city":"Wittsburg","city, state":"Wittsburg, Arkansas","latitude":35.22131,"number of projects":3,"longitude":-90.702026,"id":"aavzqlfooczt","amount awarded":2156.57,"state":"Arkansas"},"type":"Feature","geometry":{"type":"Point","coordinates":[-90.702026,35.22131]}},{"properties":{"city":"Woolly Hollow","city, state":"Woolly Hollow, Arkansas","latitude":34.7519,"number of projects":1,"longitude":-92.13055,"id":"aavzqlbn0fb1","amount awarded":1026.0,"state":"Arkansas"},"type":"Feature","geometry":{"type":"Point","coordinates":[-92.13055,34.7519]}},{"properties":{"city":"Wynne","city, state":"Wynne, Arkansas","latitude":35.222038,"number of projects":38,"longitude":-90.787376,"id":"aavzql9j2lgr","amount awarded":1270647.46,"state":"Arkansas"},"type":"Feature","geometry":{"type":"Point","coordinates":[-90.787376,35.222038]}},{"properties":{"city":"Yellville","city, state":"Yellville, Arkansas","latitude":36.226082,"number of projects":6,"longitude":-92.685783,"id":"aavzqlmji6u6","amount awarded":262688.0,"state":"Arkansas"},"type":"Feature","geometry":{"type":"Point","coordinates":[-92.685783,36.226082]}}],"is_temporal":false,"author":{"url":"","metadata":"","contact_name":"","contact_address":"","source":"","contact_phone":""},"source":"","pagination":{"sort":null,"start":0,"total":195,"limit":1000000},"state":"complete","tags":"","published":"2014-08-16T22:00:29-04:00","id":306956}