{"type":"FeatureCollection","data_type":"Dataset","url_type":null,"permissions":[{"permissions":{"download":true,"view":true},"group_id":"everyone"}],"classification":null,"title":"CAAAELII 2012","count":31,"stream_id":308046,"contributor":{"url":"http://geocommons.com/users/58426","name":"mroman@caaaaelii.org"},"data_attributes":null,"calculation_params":null,"icon_link":null,"link":"http://geocommons.com/overlays/308046.json","extent":[-88.3127,41.7197,-87.539,42.0409],"geometry_types":["point"],"unique_name":null,"name":"CAAAELII 2012","feature_count":31,"description":"","next_feature":null,"is_raster":false,"short_classification":"Y","stats":{},"features":[{"properties":{"city":"Chicago","geo_score":0.89,"zip code":"60659","organization":"Alliance of Filipinos for Immigrant Rights and Empowerment (AFIRE)","id":"ab2srijd30wv","geo_precision":"range","mailing address":"7315 N Western Ave","state":"IL"},"type":"Feature","geometry":{"type":"Point","coordinates":[-87.690146,42.014885]}},{"properties":{"city":"Chicago","geo_score":0.731,"zip code":"60629","organization":"Arab American Action Network","id":"ab2srii8vt2b","geo_precision":"range","mailing address":"3148 W 63rd St 2nd","state":"IL"},"type":"Feature","geometry":{"type":"Point","coordinates":[-87.702835,41.779052]}},{"properties":{"city":"Chicago","geo_score":0.488,"zip code":"60623","organization":"Asociacion de Vendedores Ambulantes - Street Vendors Association","id":"ab2srikk9bht","geo_precision":"city","mailing address":"2857 S  Christiana St","state":"IL"},"type":"Feature","geometry":{"type":"Point","coordinates":[-87.68732,41.811929]}},{"properties":{"city":"Chicago","geo_score":0.89,"zip code":"60647","organization":"Bayanihan Foundation Worldwide","id":"ab2srifv6eco","geo_precision":"range","mailing address":"2020 N California Ave","state":"IL"},"type":"Feature","geometry":{"type":"Point","coordinates":[-87.697303,41.918474]}},{"properties":{"city":"Chicago","geo_score":0.89,"zip code":"60625","organization":"Cambodian Association of Illinois","id":"ab2srii8lbg2","geo_precision":"range","mailing address":"2831 W Lawrence Ave","state":"IL"},"type":"Feature","geometry":{"type":"Point","coordinates":[-87.701062,41.96844]}},{"properties":{"city":"Chicago","geo_score":0.805,"zip code":"60617","organization":"Centro Informtivo Quetzalcoalt","id":"ab2srinoc7r2","geo_precision":"range","mailing address":"9608 S Avenue N","state":"IL"},"type":"Feature","geometry":{"type":"Point","coordinates":[-87.538986,41.719716]}},{"properties":{"city":"Chicago","geo_score":0.89,"zip code":"60660","organization":"Centro Romero","id":"ab2srig6uh0a","geo_precision":"range","mailing address":"6216 N Clark St","state":"IL"},"type":"Feature","geometry":{"type":"Point","coordinates":[-87.670183,41.995415]}},{"properties":{"city":"Chicago","geo_score":0.825,"zip code":"60608","organization":"Centro Sin Fronteras","id":"ab2srieptbrq","geo_precision":"range","mailing address":"2009 W 22nd Pl","state":"IL"},"type":"Feature","geometry":{"type":"Point","coordinates":[-87.678269,41.85123]}},{"properties":{"city":"Chicago","geo_score":0.89,"zip code":"60623","organization":"Chicago Community and Workers Rights","id":"ab2srii0vsq0","geo_precision":"range","mailing address":"3200 S Kedzie Avenue","state":"IL"},"type":"Feature","geometry":{"type":"Point","coordinates":[-87.704798,41.833801]}},{"properties":{"city":"Chicago","geo_score":0.89,"zip code":"60616","organization":"Chinese American Service League","id":"ab2srihcxsak","geo_precision":"range","mailing address":"2141 S Tan Court","state":"IL"},"type":"Feature","geometry":{"type":"Point","coordinates":[-87.633469,41.855609]}},{"properties":{"city":"Chicago","geo_score":0.805,"zip code":"60640","organization":"Chinese Mutual Aid Association","id":"ab2srikqdvmk","geo_precision":"range","mailing address":"1016 W Argyle St","state":"IL"},"type":"Feature","geometry":{"type":"Point","coordinates":[-87.654928,41.973313]}},{"properties":{"city":"Aurora","geo_score":0.889,"zip code":"60505","organization":"Commnunity Defense Foundation","id":"ab2sridhxfr9","geo_precision":"range","mailing address":"36 N Broadway","state":"IL"},"type":"Feature","geometry":{"type":"Point","coordinates":[-88.312649,41.757394]}},{"properties":{"city":"Chicago","geo_score":0.89,"zip code":"60622","organization":"Erie Neighborhood House","id":"ab2sriolj30b","geo_precision":"range","mailing address":"1347 W Erie Street","state":"IL"},"type":"Feature","geometry":{"type":"Point","coordinates":[-87.661549,41.893355]}},{"properties":{"city":"Chicago","geo_score":0.812,"zip code":"60626","organization":"Ethiopian Community Association of Chicago","id":"ab2srimirm27","geo_precision":"range","mailing address":"1730 W Greenleaf","state":"IL"},"type":"Feature","geometry":{"type":"Point","coordinates":[-87.674235,42.010199]}},{"properties":{"city":"Chicago","geo_score":0.825,"zip code":"60618","organization":"Guatemalan Cultural Community Organization (GCCO)","id":"ab2sriq1ahwn","geo_precision":"range","mailing address":"2109 W Belle Plaine","state":"IL"},"type":"Feature","geometry":{"type":"Point","coordinates":[-87.683518,41.955841]}},{"properties":{"city":"Chicago","geo_score":0.89,"zip code":"60625","organization":"Hanul Family Alliance","id":"ab2srio428l3","geo_precision":"range","mailing address":"5008 N Kedzie Ave","state":"IL"},"type":"Feature","geometry":{"type":"Point","coordinates":[-87.708701,41.973766]}},{"properties":{"city":"Chicago","geo_score":0.89,"zip code":"60659","organization":"Indo-American Center","id":"ab2sriouf1ij","geo_precision":"range","mailing address":"6328 N California Avenue","state":"IL"},"type":"Feature","geometry":{"type":"Point","coordinates":[-87.699675,41.996322]}},{"properties":{"city":"Chicago","geo_score":0.89,"zip code":"60608","organization":"Instituto del Progreso Latino","id":"ab2sriiv373q","geo_precision":"range","mailing address":"2570 S Blue Island Avenue","state":"IL"},"type":"Feature","geometry":{"type":"Point","coordinates":[-87.683253,41.845748]}},{"properties":{"city":"Chicago","geo_score":0.89,"zip code":"60618","organization":"Korean American Community Services","id":"ab2sridzgiow","geo_precision":"range","mailing address":"4300 N California Avenue","state":"IL"},"type":"Feature","geometry":{"type":"Point","coordinates":[-87.698483,41.961248]}},{"properties":{"city":"Chicago","geo_score":0.45,"zip code":"60659","organization":"Korean American Resource &amp; Cultural Center","id":"ab2sril9tv06","geo_precision":"street","mailing address":"6146 N. Lincoln Avenue","state":"IL"},"type":"Feature","geometry":{"type":"Point","coordinates":[-87.72165,41.999161]}},{"properties":{"city":"Chicago","geo_score":0.444,"zip code":"60640","organization":"Lao American Community Services","id":"ab2srip6vx40","geo_precision":"street","mailing address":"4750 N. Sheridan Rd","state":"IL"},"type":"Feature","geometry":{"type":"Point","coordinates":[-87.645012,41.952906]}},{"properties":{"city":"Chicago","geo_score":0.825,"zip code":"60629","organization":"Latino Organization of the Southwest","id":"ab2srimg57er","geo_precision":"range","mailing address":"4051 W 63rd St","state":"IL"},"type":"Feature","geometry":{"type":"Point","coordinates":[-87.724872,41.778557]}},{"properties":{"city":"Chicago","geo_score":0.89,"zip code":"60623","organization":"Latinos Progresando","id":"ab2sriejtusa","geo_precision":"range","mailing address":"3047 W Cermak Road","state":"IL"},"type":"Feature","geometry":{"type":"Point","coordinates":[-87.702531,41.851727]}},{"properties":{"city":"Chicago","geo_score":0.866,"zip code":"60659","organization":"Midwest Asian American Center","id":"ab2srig7kmv7","geo_precision":"range","mailing address":"2534 W  Devon Ave","state":"IL"},"type":"Feature","geometry":{"type":"Point","coordinates":[-87.694713,41.997721]}},{"properties":{"city":"Chicago","geo_score":0.89,"zip code":"60659","organization":"Muslim Women Resource Center","id":"ab2srio8c4vc","geo_precision":"range","mailing address":"6349 N Western Ave","state":"IL"},"type":"Feature","geometry":{"type":"Point","coordinates":[-87.689772,41.996398]}},{"properties":{"city":"Chicago","geo_score":0.89,"zip code":"60613","organization":"Nepalese American Society","id":"ab2sridyfd2j","geo_precision":"range","mailing address":"4300 N Hermitage Avenue","state":"IL"},"type":"Feature","geometry":{"type":"Point","coordinates":[-87.672418,41.961548]}},{"properties":{"city":"Evanston","geo_score":0.77,"zip code":"60202","organization":"Tibetan Alliance of Chicago","id":"ab2sriiazm9q","geo_precision":"range","mailing address":"2422 Dempster  St","state":"IL"},"type":"Feature","geometry":{"type":"Point","coordinates":[-87.707421,42.040904]}},{"properties":{"city":"Chicago","geo_score":0.89,"zip code":"60616","organization":"United African Organization","id":"ab2srim98o5y","geo_precision":"range","mailing address":"3424 S State Street","state":"IL"},"type":"Feature","geometry":{"type":"Point","coordinates":[-87.626715,41.831339]}},{"properties":{"city":"Chicago","geo_score":0.793,"zip code":"60659","organization":"URHAI Community Service Center","id":"ab2srifcl7as","geo_precision":"range","mailing address":"2945 W Peterson Ave","state":"IL"},"type":"Feature","geometry":{"type":"Point","coordinates":[-87.704089,41.99034]}},{"properties":{"city":"Chicago","geo_score":0.89,"zip code":"60659","organization":"Uruk Human Services Inc","id":"ab2srifon5gd","geo_precision":"range","mailing address":"2910 W Peterson Ave","state":"IL"},"type":"Feature","geometry":{"type":"Point","coordinates":[-87.702677,41.990498]}},{"properties":{"city":"Chicago","geo_score":0.828,"zip code":"60640","organization":"Vietnamese Association of Illinois","id":"ab2srighyzhz","geo_precision":"range","mailing address":"5110 N Broadway Avenue","state":"IL"},"type":"Feature","geometry":{"type":"Point","coordinates":[-87.659906,41.97498]}}],"is_temporal":false,"author":{"url":"","metadata":"","contact_name":"","contact_address":"","source":"","contact_phone":""},"source":"","pagination":{"sort":null,"start":0,"total":31,"limit":1000000},"state":"complete","tags":"","published":"2014-08-16T23:31:21-04:00","id":308046}