{"type":"FeatureCollection","data_type":"Dataset","url_type":null,"permissions":[{"permissions":{"download":true,"view":true},"group_id":"everyone"}],"classification":null,"title":"Destroyed_Major","count":122,"stream_id":308126,"contributor":{"url":"http://geocommons.com/users/37170","name":"lfuentes"},"data_attributes":null,"calculation_params":null,"icon_link":null,"link":"http://geocommons.com/overlays/308126.json","extent":[-88.4075,30.6353,-86.2657,31.7206],"geometry_types":["point"],"unique_name":null,"name":"Destroyed_Major","feature_count":122,"description":"","next_feature":null,"is_raster":false,"short_classification":"Y","stats":{},"features":[{"properties":{"city":"Wilmer","name":null,"county":"Mobile","unit":null,"geo_score":0.457,"dwelling":"SFD","notes":"Majority of roof missing, windows broken","street":"Albert Evens Rd. S.","da":"Major","id":"ab3x44l85cq0","address":"510","geo_precision":"street","state":"AL"},"type":"Feature","geometry":{"type":"Point","coordinates":[-88.399105,30.79477]}},{"properties":{"city":"Prichard","name":"Flora Prince - 251-402-4354","county":"Mobile","unit":null,"geo_score":0.857,"dwelling":"SFD","notes":"Major hole in front roof; ceiling caved in","street":"Borer Ave.","da":"Major","id":"ab3x44t9p1jx","address":"1900","geo_precision":"street","state":"AL"},"type":"Feature","geometry":{"type":"Point","coordinates":[-88.067661,30.728983]}},{"properties":{"city":"Prichard","name":null,"county":"Mobile","unit":null,"geo_score":0.857,"dwelling":"SFD","notes":"Roof off front of house; Old damage? House abandoned.","street":"Borer Ave.","da":"Major","id":"ab3x44jurfzr","address":"1903","geo_precision":"street","state":"AL"},"type":"Feature","geometry":{"type":"Point","coordinates":[-88.067661,30.728983]}},{"properties":{"city":"Mobile","name":null,"county":"Mobile","unit":null,"geo_score":0.857,"dwelling":"SFD","notes":"Vacant","street":"Cherokee St.","da":"Major","id":"ab3x44kxeerd","address":"669","geo_precision":"street","state":"AL"},"type":"Feature","geometry":{"type":"Point","coordinates":[-88.085262,30.676453]}},{"properties":{"city":"Prichard","name":"Rebecca Morrissitte 251-379-7392","county":"Mobile","unit":null,"geo_score":0.804,"dwelling":"SFD","notes":null,"street":"Chinn St.","da":"Destroyed","id":"ab3x44hvnlby","address":"713","geo_precision":"street","state":"AL"},"type":"Feature","geometry":{"type":"Point","coordinates":[-88.053438,30.731011]}},{"properties":{"city":"Prichard","name":"Alfred Lee Randolph Sr.","county":"Mobile","unit":null,"geo_score":0.804,"dwelling":"SFD","notes":"Roof on left side has back 1/4th off","street":"Chinn St.","da":"Major","id":"ab3x44m3zyy4","address":"715","geo_precision":"street","state":"AL"},"type":"Feature","geometry":{"type":"Point","coordinates":[-88.053438,30.731011]}},{"properties":{"city":"Prichard","name":null,"county":"Mobile","unit":null,"geo_score":0.804,"dwelling":"SFD","notes":"Back roof off, front piece removed","street":"Chinn St.","da":"Major","id":"ab3x44qbke5g","address":"721","geo_precision":"street","state":"AL"},"type":"Feature","geometry":{"type":"Point","coordinates":[-88.053438,30.731011]}},{"properties":{"city":"Prichard","name":"Patricia Barren 251-422-3415","county":"Mobile","unit":null,"geo_score":0.804,"dwelling":"SFD","notes":"Roof damage covered by tarp; hole in roof; front porch posts gone","street":"Chinn St.","da":"Major","id":"ab3x44j940zn","address":"724","geo_precision":"street","state":"AL"},"type":"Feature","geometry":{"type":"Point","coordinates":[-88.053438,30.731011]}},{"properties":{"city":"Prichard","name":null,"county":"Mobile","unit":null,"geo_score":0.804,"dwelling":"SFD","notes":"Destroyed, abandoned house - corner of Chinn and Borer by fire hydrant","street":"Chinn St.","da":"Destroyed","id":"ab3x44r1h2rj","address":"726","geo_precision":"street","state":"AL"},"type":"Feature","geometry":{"type":"Point","coordinates":[-88.053438,30.731011]}},{"properties":{"city":"Mobile","name":null,"county":"Mobile","unit":null,"geo_score":0.857,"dwelling":"SFD","notes":null,"street":"Clearmont St.","da":"Major","id":"ab3x44jejxj0","address":"1921","geo_precision":"street","state":"AL"},"type":"Feature","geometry":{"type":"Point","coordinates":[-88.081555,30.68057]}},{"properties":{"city":"Mobile","name":null,"county":"Mobile","unit":null,"geo_score":0.857,"dwelling":"SFD","notes":null,"street":"Dauphin Island Pkwy","da":"Major","id":"ab3x44lk697b","address":"450","geo_precision":"street","state":"AL"},"type":"Feature","geometry":{"type":"Point","coordinates":[-88.087076,30.674766]}},{"properties":{"city":"Mobile","name":null,"county":"Mobile","unit":null,"geo_score":0.857,"dwelling":"SFD","notes":null,"street":"Dauphin Island Pkwy","da":"Major","id":"ab3x44syyoir","address":"517","geo_precision":"street","state":"AL"},"type":"Feature","geometry":{"type":"Point","coordinates":[-88.087076,30.674766]}},{"properties":{"city":"Mobile","name":null,"county":"Mobile","unit":null,"geo_score":0.857,"dwelling":"SFD","notes":null,"street":"Dauphin St.","da":"Major","id":"ab3x44tnohsc","address":"1831","geo_precision":"street","state":"AL"},"type":"Feature","geometry":{"type":"Point","coordinates":[-88.044789,30.690883]}},{"properties":{"city":"Mobile","name":null,"county":"Mobile","unit":null,"geo_score":0.857,"dwelling":"SFD","notes":null,"street":"Dauphin St.","da":"Major","id":"ab3x44wps4tq","address":"1832","geo_precision":"street","state":"AL"},"type":"Feature","geometry":{"type":"Point","coordinates":[-88.044789,30.690883]}},{"properties":{"city":"Mobile","name":null,"county":"Mobile","unit":null,"geo_score":0.857,"dwelling":"SFD","notes":null,"street":"Dauphin St.","da":"Major","id":"ab3x44y9mzvq","address":"1835","geo_precision":"street","state":"AL"},"type":"Feature","geometry":{"type":"Point","coordinates":[-88.044789,30.690883]}},{"properties":{"city":"Mobile","name":null,"county":"Mobile","unit":null,"geo_score":0.857,"dwelling":"SFD","notes":null,"street":"Dauphin St.","da":"Destroyed","id":"ab3x44oyhfc4","address":"1854","geo_precision":"street","state":"AL"},"type":"Feature","geometry":{"type":"Point","coordinates":[-88.044789,30.690883]}},{"properties":{"city":"Mobile","name":null,"county":"Mobile","unit":null,"geo_score":0.857,"dwelling":"SFD","notes":null,"street":"Dauphin St.","da":"Destroyed","id":"ab3x44jszrc3","address":"1856","geo_precision":"street","state":"AL"},"type":"Feature","geometry":{"type":"Point","coordinates":[-88.044789,30.690883]}},{"properties":{"city":"Mobile","name":null,"county":"Mobile","unit":null,"geo_score":0.857,"dwelling":"SFD","notes":null,"street":"Dauphin St.","da":"Major","id":"ab3x44ky6y3d","address":"1858","geo_precision":"street","state":"AL"},"type":"Feature","geometry":{"type":"Point","coordinates":[-88.044789,30.690883]}},{"properties":{"city":"Mobile","name":null,"county":"Mobile","unit":null,"geo_score":0.857,"dwelling":"SFD","notes":null,"street":"Dauphin St.","da":"Major","id":"ab3x44wfarka","address":"1860","geo_precision":"street","state":"AL"},"type":"Feature","geometry":{"type":"Point","coordinates":[-88.044789,30.690883]}},{"properties":{"city":"Mobile","name":null,"county":"Mobile","unit":null,"geo_score":0.857,"dwelling":"APT","notes":"multiple windows broken; board thru roof; chimney blown over; lenai destroyed; no insurance","street":"Granger St.","da":"Major","id":"ab3x44igrnu9","address":"208","geo_precision":"street","state":"AL"},"type":"Feature","geometry":{"type":"Point","coordinates":[-88.087066,30.673869]}},{"properties":{"city":"Mobile","name":null,"county":"Mobile","unit":"A","geo_score":0.857,"dwelling":"APT","notes":"Roof damage","street":"Holcombe Ave.","da":"Major","id":"ab3x44rulczm","address":"653","geo_precision":"street","state":"AL"},"type":"Feature","geometry":{"type":"Point","coordinates":[-88.087601,30.675684]}},{"properties":{"city":"Mobile","name":null,"county":"Mobile","unit":"B","geo_score":0.857,"dwelling":"APT","notes":"Roof damage","street":"Holcombe Ave.","da":"Major","id":"ab3x44s7ko5a","address":"653","geo_precision":"street","state":"AL"},"type":"Feature","geometry":{"type":"Point","coordinates":[-88.087601,30.675684]}},{"properties":{"city":"Mobile","name":null,"county":"Mobile","unit":null,"geo_score":0.729,"dwelling":"SFD","notes":null,"street":"Hunter St.","da":"Major","id":"ab3x44ugx33v","address":"1901","geo_precision":"street","state":"AL"},"type":"Feature","geometry":{"type":"Point","coordinates":[-88.077252,30.680289]}},{"properties":{"city":"Mobile","name":null,"county":"Mobile","unit":null,"geo_score":0.729,"dwelling":"SFD","notes":null,"street":"Hunter St.","da":"Major","id":"ab3x44tyzulv","address":"1903","geo_precision":"street","state":"AL"},"type":"Feature","geometry":{"type":"Point","coordinates":[-88.077252,30.680289]}},{"properties":{"city":"Mobile","name":null,"county":"Mobile","unit":null,"geo_score":0.729,"dwelling":"SFD","notes":"Tenant left","street":"Hunter St.","da":"Major","id":"ab3x44oredbd","address":"1910","geo_precision":"street","state":"AL"},"type":"Feature","geometry":{"type":"Point","coordinates":[-88.077252,30.680289]}},{"properties":{"city":"Mobile","name":null,"county":"Mobile","unit":null,"geo_score":0.729,"dwelling":"SFD","notes":null,"street":"Hunter St.","da":"Major","id":"ab3x44x85521","address":"1914","geo_precision":"street","state":"AL"},"type":"Feature","geometry":{"type":"Point","coordinates":[-88.077252,30.680289]}},{"properties":{"city":"Mobile","name":null,"county":"Mobile","unit":null,"geo_score":0.729,"dwelling":"SFD","notes":null,"street":"Hunter St.","da":"Major","id":"ab3x44shm6fx","address":"1916","geo_precision":"street","state":"AL"},"type":"Feature","geometry":{"type":"Point","coordinates":[-88.077252,30.680289]}},{"properties":{"city":"Mobile","name":null,"county":"Mobile","unit":null,"geo_score":0.729,"dwelling":"SFD","notes":null,"street":"Hunter St.","da":"Major","id":"ab3x44mb5rr4","address":"1916","geo_precision":"street","state":"AL"},"type":"Feature","geometry":{"type":"Point","coordinates":[-88.077252,30.680289]}},{"properties":{"city":"Mobile","name":null,"county":"Mobile","unit":null,"geo_score":0.729,"dwelling":"SFD","notes":null,"street":"Hunter St.","da":"Major","id":"ab3x44hvw6hw","address":"1918","geo_precision":"street","state":"AL"},"type":"Feature","geometry":{"type":"Point","coordinates":[-88.077252,30.680289]}},{"properties":{"city":"Marengo","name":null,"county":"Demopolis","unit":"1","geo_score":0.0,"dwelling":"MH","notes":"Norris Hill Trailer Park - unknown home numbers","street":"Hwy 80 E","da":"Destroyed","id":"ab3x44xvt8cc","address":"3988 Lot 20","geo_precision":"unmatched","state":"AL"},"type":"Feature","geometry":null},{"properties":{"city":"Luverne","name":null,"county":"Crenshaw","unit":null,"geo_score":0.821,"dwelling":"SFD","notes":null,"street":"Jeff Coat St.","da":"Major","id":"ab3x44slskr6","address":"364","geo_precision":"street","state":"AL"},"type":"Feature","geometry":{"type":"Point","coordinates":[-86.265711,31.718521]}},{"properties":{"city":"Mobile","name":null,"county":"Mobile","unit":null,"geo_score":0.857,"dwelling":"SFD","notes":null,"street":"Margaret St","da":"Major","id":"ab3x44xrhjer","address":"106","geo_precision":"street","state":"AL"},"type":"Feature","geometry":{"type":"Point","coordinates":[-88.085757,30.691637]}},{"properties":{"city":"Mobile","name":null,"county":"Mobile","unit":null,"geo_score":0.857,"dwelling":"SFD","notes":null,"street":"Margaret St","da":"Major","id":"ab3x44mh9eyd","address":"108","geo_precision":"street","state":"AL"},"type":"Feature","geometry":{"type":"Point","coordinates":[-88.085757,30.691637]}},{"properties":{"city":"Mobile","name":null,"county":"Mobile","unit":null,"geo_score":0.857,"dwelling":"SFD","notes":null,"street":"Margaret St","da":"Major","id":"ab3x44nvd97f","address":"110","geo_precision":"street","state":"AL"},"type":"Feature","geometry":{"type":"Point","coordinates":[-88.085757,30.691637]}},{"properties":{"city":"Mobile","name":null,"county":"Mobile","unit":null,"geo_score":0.857,"dwelling":"SFD","notes":null,"street":"Margaret St","da":"Major","id":"ab3x44lcvu0o","address":"112","geo_precision":"street","state":"AL"},"type":"Feature","geometry":{"type":"Point","coordinates":[-88.085757,30.691637]}},{"properties":{"city":"Mobile","name":null,"county":"Mobile","unit":"A","geo_score":0.476,"dwelling":"APT","notes":"roof leaks","street":"N. Carlen St.","da":"Major","id":"ab3x44q48344","address":"2","geo_precision":"street","state":"AL"},"type":"Feature","geometry":{"type":"Point","coordinates":[-88.157294,30.63534]}},{"properties":{"city":"Mobile","name":null,"county":"Mobile","unit":"B","geo_score":0.476,"dwelling":"APT","notes":"roof leaks","street":"N. Carlen St.","da":"Major","id":"ab3x44jiqnyt","address":"2","geo_precision":"street","state":"AL"},"type":"Feature","geometry":{"type":"Point","coordinates":[-88.157294,30.63534]}},{"properties":{"city":"Mobile","name":null,"county":"Mobile","unit":null,"geo_score":0.476,"dwelling":"SFD","notes":null,"street":"N. Carlen St.","da":"Major","id":"ab3x44p7do4w","address":"117","geo_precision":"street","state":"AL"},"type":"Feature","geometry":{"type":"Point","coordinates":[-88.157294,30.63534]}},{"properties":{"city":"Mobile","name":null,"county":"Mobile","unit":null,"geo_score":0.476,"dwelling":"SFD","notes":null,"street":"N. Carlen St.","da":"Major","id":"ab3x44mtddcz","address":"119","geo_precision":"street","state":"AL"},"type":"Feature","geometry":{"type":"Point","coordinates":[-88.157294,30.63534]}},{"properties":{"city":"Mobile","name":null,"county":"Mobile","unit":null,"geo_score":0.476,"dwelling":"SFD","notes":"nearing destroyed tree thru front porch and into roof of front","street":"N. Carlen St.","da":"Major","id":"ab3x44u1r85s","address":"121","geo_precision":"street","state":"AL"},"type":"Feature","geometry":{"type":"Point","coordinates":[-88.157294,30.63534]}},{"properties":{"city":"Mobile","name":null,"county":"Mobile","unit":null,"geo_score":0.476,"dwelling":"SFD","notes":"wall from another house blown into the back this house needs tarps","street":"N. Carlen St.","da":"Major","id":"ab3x44rbtcsy","address":"127","geo_precision":"street","state":"AL"},"type":"Feature","geometry":{"type":"Point","coordinates":[-88.157294,30.63534]}},{"properties":{"city":"Luverne","name":null,"county":"Crenshaw","unit":null,"geo_score":0.468,"dwelling":"SFD","notes":null,"street":"N. Franklin","da":"Destroyed","id":"ab3x44jszrpe","address":"370","geo_precision":"street","state":"AL"},"type":"Feature","geometry":{"type":"Point","coordinates":[-86.270653,31.720623]}},{"properties":{"city":"Wilmer","name":null,"county":"Mobile","unit":null,"geo_score":0.857,"dwelling":"MH","notes":"split in front, roof damage","street":"Natchez Hwy","da":"Major","id":"ab3x44r9kmx2","address":"4970","geo_precision":"street","state":"AL"},"type":"Feature","geometry":{"type":"Point","coordinates":[-88.407513,30.797154]}},{"properties":{"city":"Mobile","name":null,"county":"Mobile","unit":null,"geo_score":0.857,"dwelling":"SFD","notes":null,"street":"North Carlen St.","da":"Major","id":"ab3x44ibkxzj","address":"107","geo_precision":"street","state":"AL"},"type":"Feature","geometry":{"type":"Point","coordinates":[-88.08437,30.687209]}},{"properties":{"city":"Mobile","name":null,"county":"Mobile","unit":null,"geo_score":0.857,"dwelling":"SFD","notes":null,"street":"North Carlen St.","da":"Major","id":"ab3x44legcii","address":"108","geo_precision":"street","state":"AL"},"type":"Feature","geometry":{"type":"Point","coordinates":[-88.08437,30.687209]}},{"properties":{"city":"Mobile","name":null,"county":"Mobile","unit":null,"geo_score":0.857,"dwelling":"SFD","notes":null,"street":"North Carlen St.","da":"Major","id":"ab3x44k6vtvi","address":"110","geo_precision":"street","state":"AL"},"type":"Feature","geometry":{"type":"Point","coordinates":[-88.08437,30.687209]}},{"properties":{"city":"Mobile","name":null,"county":"Mobile","unit":null,"geo_score":0.857,"dwelling":"SFD","notes":null,"street":"North Carlen St.","da":"Major","id":"ab3x44jgxmsm","address":"111","geo_precision":"street","state":"AL"},"type":"Feature","geometry":{"type":"Point","coordinates":[-88.08437,30.687209]}},{"properties":{"city":"Mobile","name":null,"county":"Mobile","unit":null,"geo_score":0.857,"dwelling":"SFD","notes":null,"street":"North Carlen St.","da":"Major","id":"ab3x44ky5rww","address":"112","geo_precision":"street","state":"AL"},"type":"Feature","geometry":{"type":"Point","coordinates":[-88.08437,30.687209]}},{"properties":{"city":"Mobile","name":null,"county":"Mobile","unit":null,"geo_score":0.857,"dwelling":"SFD","notes":null,"street":"North Carlen St.","da":"Major","id":"ab3x44sr4jw6","address":"113","geo_precision":"street","state":"AL"},"type":"Feature","geometry":{"type":"Point","coordinates":[-88.08437,30.687209]}},{"properties":{"city":"Mobile","name":null,"county":"Mobile","unit":null,"geo_score":0.857,"dwelling":"SFD","notes":null,"street":"North Carlen St.","da":"Major","id":"ab3x44v4rm1x","address":"114","geo_precision":"street","state":"AL"},"type":"Feature","geometry":{"type":"Point","coordinates":[-88.08437,30.687209]}},{"properties":{"city":"Mobile","name":null,"county":"Mobile","unit":null,"geo_score":0.857,"dwelling":"SFD","notes":null,"street":"North Carlen St.","da":"Major","id":"ab3x44sc1kd8","address":"116","geo_precision":"street","state":"AL"},"type":"Feature","geometry":{"type":"Point","coordinates":[-88.08437,30.687209]}},{"properties":{"city":"Mobile","name":null,"county":"Mobile","unit":null,"geo_score":0.857,"dwelling":"SFD","notes":null,"street":"North Carlen St.","da":"Major","id":"ab3x44psxysb","address":"118","geo_precision":"street","state":"AL"},"type":"Feature","geometry":{"type":"Point","coordinates":[-88.08437,30.687209]}},{"properties":{"city":"Mobile","name":null,"county":"Mobile","unit":null,"geo_score":0.857,"dwelling":"SFD","notes":null,"street":"North Carlen St.","da":"Major","id":"ab3x44rftfx3","address":"120","geo_precision":"street","state":"AL"},"type":"Feature","geometry":{"type":"Point","coordinates":[-88.08437,30.687209]}},{"properties":{"city":"Mobile","name":null,"county":"Mobile","unit":null,"geo_score":0.857,"dwelling":"SFD","notes":null,"street":"North Carlen St.","da":"Major","id":"ab3x44ya22a6","address":"124","geo_precision":"street","state":"AL"},"type":"Feature","geometry":{"type":"Point","coordinates":[-88.08437,30.687209]}},{"properties":{"city":"Mobile","name":null,"county":"Mobile","unit":null,"geo_score":0.74,"dwelling":"SFD","notes":null,"street":"North Carlen","da":"Major","id":"ab3x44m425vx","address":"126","geo_precision":"street","state":"AL"},"type":"Feature","geometry":{"type":"Point","coordinates":[-88.08437,30.687209]}},{"properties":{"city":"Mobile","name":null,"county":"Mobile","unit":null,"geo_score":0.74,"dwelling":"SFD","notes":null,"street":"North Carlen","da":"Destroyed","id":"ab3x44ws5rnw","address":"132","geo_precision":"street","state":"AL"},"type":"Feature","geometry":{"type":"Point","coordinates":[-88.08437,30.687209]}},{"properties":{"city":"Mobile","name":null,"county":"Mobile","unit":null,"geo_score":0.857,"dwelling":"SFD","notes":null,"street":"Old Government St","da":"Major","id":"ab3x44iy9fb7","address":"1908","geo_precision":"street","state":"AL"},"type":"Feature","geometry":{"type":"Point","coordinates":[-88.081516,30.677903]}},{"properties":{"city":"Mobile","name":null,"county":"Mobile","unit":null,"geo_score":0.857,"dwelling":"SFD","notes":null,"street":"Old Government St","da":"Major","id":"ab3x44ndw49v","address":"1910","geo_precision":"street","state":"AL"},"type":"Feature","geometry":{"type":"Point","coordinates":[-88.081516,30.677903]}},{"properties":{"city":"Mobile","name":null,"county":"Mobile","unit":null,"geo_score":0.857,"dwelling":"SFD","notes":"roof damage","street":"Old Government St","da":"Major","id":"ab3x44owjgnn","address":"1913","geo_precision":"street","state":"AL"},"type":"Feature","geometry":{"type":"Point","coordinates":[-88.081516,30.677903]}},{"properties":{"city":"Mobile","name":null,"county":"Mobile","unit":null,"geo_score":0.857,"dwelling":"SFD","notes":null,"street":"Old Shell Road","da":"Destroyed","id":"ab3x44xcsbue","address":"1840","geo_precision":"street","state":"AL"},"type":"Feature","geometry":{"type":"Point","coordinates":[-88.058031,30.689217]}},{"properties":{"city":"Mobile","name":null,"county":"Mobile","unit":null,"geo_score":0.857,"dwelling":"SFD","notes":null,"street":"Old Shell Road","da":"Major","id":"ab3x44xxdia8","address":"1842","geo_precision":"street","state":"AL"},"type":"Feature","geometry":{"type":"Point","coordinates":[-88.058031,30.689217]}},{"properties":{"city":"Mobile","name":null,"county":"Mobile","unit":null,"geo_score":0.857,"dwelling":"SFD","notes":null,"street":"Old Shell Road","da":"Destroyed","id":"ab3x44sbpwhm","address":"1844","geo_precision":"street","state":"AL"},"type":"Feature","geometry":{"type":"Point","coordinates":[-88.058031,30.689217]}},{"properties":{"city":"Mobile","name":null,"county":"Mobile","unit":null,"geo_score":0.857,"dwelling":"SFD","notes":null,"street":"Old Shell Road","da":"Destroyed","id":"ab3x44orbgng","address":"1850","geo_precision":"street","state":"AL"},"type":"Feature","geometry":{"type":"Point","coordinates":[-88.058031,30.689217]}},{"properties":{"city":"Mobile","name":null,"county":"Mobile","unit":null,"geo_score":0.857,"dwelling":"SFD","notes":null,"street":"Old Shell Road","da":"Major","id":"ab3x44mur7pv","address":"1851","geo_precision":"street","state":"AL"},"type":"Feature","geometry":{"type":"Point","coordinates":[-88.058031,30.689217]}},{"properties":{"city":"Mobile","name":null,"county":"Mobile","unit":null,"geo_score":0.857,"dwelling":"MH","notes":null,"street":"Old Shell Road","da":"Major","id":"ab3x44qaddam","address":"1852 1/2","geo_precision":"street","state":"AL"},"type":"Feature","geometry":{"type":"Point","coordinates":[-88.058031,30.689217]}},{"properties":{"city":"Mobile","name":null,"county":"Mobile","unit":null,"geo_score":0.857,"dwelling":"SFD","notes":null,"street":"Old Shell Road","da":"Major","id":"ab3x44opz3vx","address":"1854","geo_precision":"street","state":"AL"},"type":"Feature","geometry":{"type":"Point","coordinates":[-88.058031,30.689217]}},{"properties":{"city":"Mobile","name":null,"county":"Mobile","unit":null,"geo_score":0.857,"dwelling":"SFD","notes":"tree thru side of house &amp; back","street":"Old Shell Road","da":"Major","id":"ab3x44wmzn0k","address":"1857","geo_precision":"street","state":"AL"},"type":"Feature","geometry":{"type":"Point","coordinates":[-88.058031,30.689217]}},{"properties":{"city":"Mobile","name":null,"county":"Mobile","unit":null,"geo_score":0.857,"dwelling":"SFD","notes":null,"street":"Old Shell Road","da":"Destroyed","id":"ab3x44khsvgp","address":"1858","geo_precision":"street","state":"AL"},"type":"Feature","geometry":{"type":"Point","coordinates":[-88.058031,30.689217]}},{"properties":{"city":"Mobile","name":null,"county":"Mobile","unit":null,"geo_score":0.857,"dwelling":"SFD","notes":null,"street":"Old Shell Road","da":"Major","id":"ab3x44npqj0y","address":"1861","geo_precision":"street","state":"AL"},"type":"Feature","geometry":{"type":"Point","coordinates":[-88.058031,30.689217]}},{"properties":{"city":"Choctaw","name":"Terry Lee Hearn","county":"Butler","unit":null,"geo_score":0.0,"dwelling":"MH","notes":null,"street":"Pineview Rd.","da":"Destroyed","id":"ab3x44i2yist","address":"976","geo_precision":"unmatched","state":"AL"},"type":"Feature","geometry":null},{"properties":{"city":"Choctaw","name":"Amanda and Dewayne Hearn","county":"Butler","unit":null,"geo_score":0.0,"dwelling":"MH","notes":null,"street":"Pineview Rd.","da":"Destroyed","id":"ab3x44metg83","address":"1067","geo_precision":"unmatched","state":"AL"},"type":"Feature","geometry":null},{"properties":{"city":"Choctaw","name":"Danny and Sharon Hearn","county":"Butler","unit":null,"geo_score":0.0,"dwelling":"MH","notes":null,"street":"Pineview Rd.","da":"Destroyed","id":"ab3x44o4ht02","address":"1069","geo_precision":"unmatched","state":"AL"},"type":"Feature","geometry":null},{"properties":{"city":"Choctaw","name":"Stephen and Monica Donovan","county":"Butler","unit":null,"geo_score":0.0,"dwelling":"MH","notes":null,"street":"Pineview Rd.","da":"Destroyed","id":"ab3x44xpbve9","address":"1071","geo_precision":"unmatched","state":"AL"},"type":"Feature","geometry":null},{"properties":{"city":"Marengo","name":null,"county":"Demopolis","unit":null,"geo_score":0.0,"dwelling":"SFD","notes":"Per DA J. Phillips 1 major/4 minor on Reed Dr.","street":"Reed Dr.","da":"Major","id":"ab3x44lpybjb","address":"2002","geo_precision":"unmatched","state":"AL"},"type":"Feature","geometry":null},{"properties":{"city":"Mobile","name":null,"county":"Mobile","unit":null,"geo_score":0.714,"dwelling":"SFD","notes":null,"street":"Rickarby St","da":"Major","id":"ab3x44m31f8x","address":"7","geo_precision":"city","state":"AL"},"type":"Feature","geometry":{"type":"Point","coordinates":[-88.103184,30.701142]}},{"properties":{"city":"Mobile","name":null,"county":"Mobile","unit":null,"geo_score":0.714,"dwelling":"SFD","notes":null,"street":"Rickarby St","da":"Major","id":"ab3x44ikbmxl","address":"9","geo_precision":"city","state":"AL"},"type":"Feature","geometry":{"type":"Point","coordinates":[-88.103184,30.701142]}},{"properties":{"city":"Mobile","name":null,"county":"Mobile","unit":null,"geo_score":0.714,"dwelling":"SFD","notes":null,"street":"Rickarby St","da":"Major","id":"ab3x44x20p1k","address":"11","geo_precision":"city","state":"AL"},"type":"Feature","geometry":{"type":"Point","coordinates":[-88.103184,30.701142]}},{"properties":{"city":"Mobile","name":null,"county":"Mobile","unit":null,"geo_score":0.714,"dwelling":"SFD","notes":null,"street":"Rickarby St","da":"Major","id":"ab3x44iebsuw","address":"13","geo_precision":"city","state":"AL"},"type":"Feature","geometry":{"type":"Point","coordinates":[-88.103184,30.701142]}},{"properties":{"city":"Mobile","name":null,"county":"Mobile","unit":null,"geo_score":0.714,"dwelling":"SFD","notes":null,"street":"Rickarby St","da":"Major","id":"ab3x44t4m4vd","address":"15","geo_precision":"city","state":"AL"},"type":"Feature","geometry":{"type":"Point","coordinates":[-88.103184,30.701142]}},{"properties":{"city":"Mobile","name":null,"county":"Mobile","unit":null,"geo_score":0.714,"dwelling":"SFD","notes":null,"street":"Rickarby St","da":"Major","id":"ab3x44rvvdj7","address":"17","geo_precision":"city","state":"AL"},"type":"Feature","geometry":{"type":"Point","coordinates":[-88.103184,30.701142]}},{"properties":{"city":"Mobile","name":null,"county":"Mobile","unit":null,"geo_score":0.714,"dwelling":"SFD","notes":null,"street":"Rickarby St","da":"Major","id":"ab3x44i6vjk5","address":"21","geo_precision":"city","state":"AL"},"type":"Feature","geometry":{"type":"Point","coordinates":[-88.103184,30.701142]}},{"properties":{"city":"Mobile","name":null,"county":"Mobile","unit":null,"geo_score":0.714,"dwelling":"SFD","notes":"roof damage","street":"Rickarby St","da":"Major","id":"ab3x44kkqo81","address":"22","geo_precision":"city","state":"AL"},"type":"Feature","geometry":{"type":"Point","coordinates":[-88.103184,30.701142]}},{"properties":{"city":"Prichard","name":null,"county":"Mobile","unit":null,"geo_score":0.857,"dwelling":"SFD","notes":"Shingles off left side of roof.  Back of roof damaged. Front soffett damaged. Right back corner of roof damaged.","street":"Semler St.","da":"Major","id":"ab3x44hvhnyc","address":"806","geo_precision":"street","state":"AL"},"type":"Feature","geometry":{"type":"Point","coordinates":[-88.062795,30.730313]}},{"properties":{"city":"Prichard","name":"Vanessa Clarake (334-892-5364)","county":"Mobile","unit":null,"geo_score":0.857,"dwelling":"SFD","notes":"shingles off portion of rood.  3 windows broken on rt side of house.  Kitchen window left side broken out. Screens off porch,","street":"Semler St.","da":"Major","id":"ab3x44prh6sr","address":"817","geo_precision":"street","state":"AL"},"type":"Feature","geometry":{"type":"Point","coordinates":[-88.062795,30.730313]}},{"properties":{"city":"Prichard","name":null,"county":"Mobile","unit":null,"geo_score":0.857,"dwelling":"SFD","notes":"abandoned?","street":"Semler St.","da":"Major","id":"ab3x44xilgu2","address":"823","geo_precision":"street","state":"AL"},"type":"Feature","geometry":{"type":"Point","coordinates":[-88.062795,30.730313]}},{"properties":{"city":"Prichard","name":"Mary Robinson (490-5661 or 222-3001)","county":"Mobile","unit":null,"geo_score":0.857,"dwelling":"SFD","notes":"right rear wall is torn off.  Back wall is caving in.  4x6 hole in left rear roof (open to elements). Window busted out o left front. Some shingle off roof. Roof has a dip on left side. Storm caused?  Information from Tiffany Smith (daughter who also lives here:","street":"Semler St.","da":"Major","id":"ab3x44q7g37j","address":"824","geo_precision":"street","state":"AL"},"type":"Feature","geometry":{"type":"Point","coordinates":[-88.062795,30.730313]}},{"properties":{"city":"Prichard","name":"Deborah Smith (342-0573)","county":"Mobile","unit":null,"geo_score":0.857,"dwelling":"SFD","notes":"site destroyed. House shifted from foundation. Floor not level. Water pipe loose.","street":"Semler St.","da":"Major","id":"ab3x44oqcno5","address":"826","geo_precision":"street","state":"AL"},"type":"Feature","geometry":{"type":"Point","coordinates":[-88.062795,30.730313]}},{"properties":{"city":"Mobile","name":null,"county":"Mobile","unit":null,"geo_score":0.857,"dwelling":"MH","notes":null,"street":"Silverwood St.","da":"Major","id":"ab3x44qj1im8","address":"63","geo_precision":"street","state":"AL"},"type":"Feature","geometry":{"type":"Point","coordinates":[-88.083384,30.687752]}},{"properties":{"city":"Mobile","name":null,"county":"Mobile","unit":null,"geo_score":0.857,"dwelling":"MH","notes":null,"street":"Silverwood St.","da":"Major","id":"ab3x44jfv51q","address":"65","geo_precision":"street","state":"AL"},"type":"Feature","geometry":{"type":"Point","coordinates":[-88.083384,30.687752]}},{"properties":{"city":"Mobile","name":null,"county":"Mobile","unit":null,"geo_score":0.857,"dwelling":"SFD","notes":null,"street":"Silverwood St.","da":"Destroyed","id":"ab3x44u5tzdt","address":"67","geo_precision":"street","state":"AL"},"type":"Feature","geometry":{"type":"Point","coordinates":[-88.083384,30.687752]}},{"properties":{"city":"Mobile","name":null,"county":"Mobile","unit":null,"geo_score":0.857,"dwelling":"SFD","notes":null,"street":"Silverwood St.","da":"Major","id":"ab3x44kaos62","address":"123","geo_precision":"street","state":"AL"},"type":"Feature","geometry":{"type":"Point","coordinates":[-88.083384,30.687752]}},{"properties":{"city":"Mobile","name":null,"county":"Mobile","unit":null,"geo_score":0.857,"dwelling":"SFD","notes":null,"street":"Silverwood St.","da":"Major","id":"ab3x44i2ni6n","address":"125","geo_precision":"street","state":"AL"},"type":"Feature","geometry":{"type":"Point","coordinates":[-88.083384,30.687752]}},{"properties":{"city":"Mobile","name":null,"county":"Mobile","unit":null,"geo_score":0.857,"dwelling":"SFD","notes":null,"street":"Silverwood St.","da":"Major","id":"ab3x44tks392","address":"127","geo_precision":"street","state":"AL"},"type":"Feature","geometry":{"type":"Point","coordinates":[-88.083384,30.687752]}},{"properties":{"city":"Mobile","name":null,"county":"Mobile","unit":null,"geo_score":0.857,"dwelling":"SFD","notes":"Vacant house","street":"Silverwood St.","da":"Destroyed","id":"ab3x44q31sc8","address":"129","geo_precision":"street","state":"AL"},"type":"Feature","geometry":{"type":"Point","coordinates":[-88.083384,30.687752]}},{"properties":{"city":"Mobile","name":null,"county":"Mobile","unit":null,"geo_score":0.857,"dwelling":"SFD","notes":null,"street":"Silverwood St.","da":"Destroyed","id":"ab3x44v503xl","address":"131","geo_precision":"street","state":"AL"},"type":"Feature","geometry":{"type":"Point","coordinates":[-88.083384,30.687752]}},{"properties":{"city":"Mobile","name":null,"county":"Mobile","unit":null,"geo_score":0.857,"dwelling":"SFD","notes":null,"street":"Silverwood St.","da":"Major","id":"ab3x44s376cn","address":"135","geo_precision":"street","state":"AL"},"type":"Feature","geometry":{"type":"Point","coordinates":[-88.083384,30.687752]}},{"properties":{"city":"Mobile","name":null,"county":"Mobile","unit":null,"geo_score":0.857,"dwelling":"SFD","notes":null,"street":"Silverwood St.","da":"Major","id":"ab3x44owoi2d","address":"139","geo_precision":"street","state":"AL"},"type":"Feature","geometry":{"type":"Point","coordinates":[-88.083384,30.687752]}},{"properties":{"city":"Mobile","name":null,"county":"Mobile","unit":null,"geo_score":0.857,"dwelling":"SFD","notes":"large tree thru roof of 1/3 house","street":"Silverwood St.","da":"Major","id":"ab3x44p3ylf2","address":"140","geo_precision":"street","state":"AL"},"type":"Feature","geometry":{"type":"Point","coordinates":[-88.083384,30.687752]}},{"properties":{"city":"Mobile","name":null,"county":"Mobile","unit":null,"geo_score":0.0,"dwelling":"SFD","notes":null,"street":"South Carlen St.","da":"Destroyed","id":"ab3x44kz2y0t","address":"8","geo_precision":"unmatched","state":"Al"},"type":"Feature","geometry":null},{"properties":{"city":"Mobile","name":null,"county":"Mobile","unit":null,"geo_score":0.0,"dwelling":"SFD","notes":null,"street":"South Carlen St.","da":"Destroyed","id":"ab3x44ix2hpr","address":"10","geo_precision":"unmatched","state":"Al"},"type":"Feature","geometry":null},{"properties":{"city":"Mobile","name":null,"county":"Mobile","unit":null,"geo_score":0.0,"dwelling":"SFD","notes":null,"street":"South Carlen St.","da":"Destroyed","id":"ab3x44tmqlyc","address":"12","geo_precision":"unmatched","state":"Al"},"type":"Feature","geometry":null},{"properties":{"city":"Mobile","name":null,"county":"Mobile","unit":null,"geo_score":0.0,"dwelling":"SFD","notes":null,"street":"South Carlen St.","da":"Destroyed","id":"ab3x44s85ahy","address":"14","geo_precision":"unmatched","state":"Al"},"type":"Feature","geometry":null},{"properties":{"city":"Mobile","name":null,"county":"Mobile","unit":"A","geo_score":0.0,"dwelling":"Apt","notes":"Roof Damage","street":"South Carlen St.","da":"Major","id":"ab3x44nsse79","address":"15","geo_precision":"unmatched","state":"Al"},"type":"Feature","geometry":null},{"properties":{"city":"Mobile","name":null,"county":"Mobile","unit":"B","geo_score":0.0,"dwelling":"Apt","notes":"Roof Damage","street":"South Carlen St.","da":"Major","id":"ab3x44wgzjhv","address":"15","geo_precision":"unmatched","state":"Al"},"type":"Feature","geometry":null},{"properties":{"city":"Mobile","name":null,"county":"Mobile","unit":null,"geo_score":0.0,"dwelling":"SFD","notes":null,"street":"South Carlen St.","da":"Destroyed","id":"ab3x44ra3ad4","address":"16","geo_precision":"unmatched","state":"Al"},"type":"Feature","geometry":null},{"properties":{"city":"Mobile","name":null,"county":"Mobile","unit":null,"geo_score":0.0,"dwelling":"SFD","notes":"Roof Collapsed","street":"South Carlen St.","da":"Destroyed","id":"ab3x44o9sy8f","address":"17","geo_precision":"unmatched","state":"Al"},"type":"Feature","geometry":null},{"properties":{"city":"Mobile","name":null,"county":"Mobile","unit":null,"geo_score":0.0,"dwelling":"SFD","notes":null,"street":"South Carlen St.","da":"Destroyed","id":"ab3x44qdmtzc","address":"18","geo_precision":"unmatched","state":"Al"},"type":"Feature","geometry":null},{"properties":{"city":"Mobile","name":null,"county":"Mobile","unit":null,"geo_score":0.0,"dwelling":"SFD","notes":"Roof Damage","street":"South Carlen St.","da":"Major","id":"ab3x44kpxs1m","address":"19","geo_precision":"unmatched","state":"Al"},"type":"Feature","geometry":null},{"properties":{"city":"Mobile","name":null,"county":"Mobile","unit":null,"geo_score":0.0,"dwelling":"SFD","notes":null,"street":"South Carlen St.","da":"Destroyed","id":"ab3x44uzeo8k","address":"20","geo_precision":"unmatched","state":"Al"},"type":"Feature","geometry":null},{"properties":{"city":"Mobile","name":null,"county":"Mobile","unit":null,"geo_score":0.0,"dwelling":"SFD","notes":"Major Roof Damage","street":"South Carlen St.","da":"Major","id":"ab3x44pt491x","address":"21","geo_precision":"unmatched","state":"Al"},"type":"Feature","geometry":null},{"properties":{"city":"Mobile","name":null,"county":"Mobile","unit":null,"geo_score":0.0,"dwelling":"SFD","notes":"Think 2 Stories Top Gone","street":"South Carlen St.","da":"Destroyed","id":"ab3x44n6gxt1","address":"22","geo_precision":"unmatched","state":"Al"},"type":"Feature","geometry":null},{"properties":{"city":"Wilmer","name":"Neeley","county":"Mobile","unit":null,"geo_score":0.0,"dwelling":"Mobile H","notes":"Flattened Mobile Home  Needsmedications","street":"Spotted Fawn","da":"Destroyed","id":"ab3x44hvwtoa","address":"4980","geo_precision":"unmatched","state":"Al"},"type":"Feature","geometry":null},{"properties":{"city":"Mobile","name":null,"county":"Mobile","unit":null,"geo_score":0.0,"dwelling":"SFD","notes":null,"street":"Springhill Ave","da":"Major","id":"ab3x44sbc2ma","address":"1809","geo_precision":"unmatched","state":"Al"},"type":"Feature","geometry":null},{"properties":{"city":"Mobile","name":null,"county":"Mobile","unit":null,"geo_score":0.0,"dwelling":"SFD","notes":null,"street":"Springhill Ave","da":"Major","id":"ab3x44paq145","address":"1811","geo_precision":"unmatched","state":"Al"},"type":"Feature","geometry":null},{"properties":{"city":"Marengo","name":null,"county":"Demopolis","unit":null,"geo_score":0.0,"dwelling":"MH","notes":"Sunset area - unknown address","street":"Sunset Rd.","da":"Destroyed","id":"ab3x44rf1sbf","address":"?","geo_precision":"unmatched","state":"AL"},"type":"Feature","geometry":null},{"properties":{"city":"Marengo","name":null,"county":"Demopolis","unit":null,"geo_score":0.0,"dwelling":"MH","notes":"Sunset area - unknown address","street":"Sunset Rd.","da":"Destroyed","id":"ab3x44k4u0v7","address":"?","geo_precision":"unmatched","state":"AL"},"type":"Feature","geometry":null},{"properties":{"city":"Marengo","name":null,"county":"Demopolis","unit":null,"geo_score":0.0,"dwelling":"MH","notes":"Sunset area - unknown address","street":"Sunset Rd.","da":"Major","id":"ab3x44ojrdrk","address":"?","geo_precision":"unmatched","state":"AL"},"type":"Feature","geometry":null},{"properties":{"city":"Marengo","name":null,"county":"Demopolis","unit":null,"geo_score":0.0,"dwelling":"MH","notes":"Sunset area - unknown address","street":"Sunset Rd.","da":"Major","id":"ab3x44rau2s3","address":"?","geo_precision":"unmatched","state":"AL"},"type":"Feature","geometry":null},{"properties":{"city":"Prichard","name":null,"county":"Mobile","unit":null,"geo_score":0.0,"dwelling":"SFD","notes":"Right exterior leanng. Danger of collapse-Roof collased on Rt sideFrnt poarch damagedWall and roof seperatedon left side","street":"Traffic St","da":"Major","id":"ab3x44utxqv6","address":"833","geo_precision":"unmatched","state":"Al"},"type":"Feature","geometry":null},{"properties":{"city":"Prichard","name":null,"county":"Mobile","unit":null,"geo_score":0.0,"dwelling":"SFD","notes":"Major damage to roof and supports","street":"Traffic St","da":"Major","id":"ab3x44qpimgr","address":"905","geo_precision":"unmatched","state":"Al"},"type":"Feature","geometry":null},{"properties":{"city":"Mobile","name":null,"county":"Mobile","unit":null,"geo_score":0.0,"dwelling":"SFD","notes":"2 story","street":"Wilcox St","da":"Destroyed","id":"ab3x44pv9iki","address":"51","geo_precision":"unmatched","state":"Al"},"type":"Feature","geometry":null},{"properties":{"city":"Mobile","name":null,"county":"Mobile","unit":null,"geo_score":0.0,"dwelling":"SFD","notes":"Roof damage","street":"Williams St","da":"Major","id":"ab3x44kp58pc","address":"450","geo_precision":"unmatched","state":"Al"},"type":"Feature","geometry":null}],"is_temporal":false,"author":{"url":"","metadata":null,"contact_name":null,"contact_address":null,"source":null,"contact_phone":null},"source":"","pagination":{"sort":null,"start":0,"total":122,"limit":1000000},"state":"complete","tags":"","published":"2014-08-16T23:39:51-04:00","id":308126}