{"type":"FeatureCollection","data_type":"Dataset","url_type":null,"permissions":[{"permissions":{"download":true,"view":true},"group_id":"everyone"}],"classification":null,"title":"downeaster stations","count":12,"stream_id":308148,"contributor":{"url":"http://geocommons.com/users/58541","name":"phewitt11"},"data_attributes":null,"calculation_params":null,"icon_link":null,"link":"http://geocommons.com/overlays/308148.json","extent":[-71.2808,42.3658,-70.1017,43.856],"geometry_types":["point"],"unique_name":null,"name":"downeaster stations","feature_count":12,"description":"","next_feature":null,"is_raster":false,"short_classification":"Y","stats":{},"features":[{"properties":{"name":"TD Garden","city":"Boston","zip":"02114","geo_score":0.894,"street address":"135 Causeway Street","id":"ab4n40mq5mnj","geo_precision":"range","state":"Massachusetts"},"type":"Feature","geometry":{"type":"Point","coordinates":[-71.060713,42.365837]}},{"properties":{"name":"Woburn","city":"Woburn","zip":"01801","geo_score":0.902,"street address":"100 Atlantic Avenue","id":"ab4n40inot57","geo_precision":"street","state":"Massachusetts"},"type":"Feature","geometry":{"type":"Point","coordinates":[-71.136234,42.515162]}},{"properties":{"name":"Haverhill","city":"Haverhill","zip":"01832","geo_score":0.825,"street address":"Washington Street at Railroad Square","id":"ab4n40fcun49","geo_precision":"street","state":"Massachusetts"},"type":"Feature","geometry":{"type":"Point","coordinates":[-71.08281,42.773643]}},{"properties":{"name":"Exeter","city":"Exeter","zip":"03833","geo_score":0.902,"street address":"60 Lincoln Street","id":"ab4n40qjm0j9","geo_precision":"range","state":"New Hampshire"},"type":"Feature","geometry":{"type":"Point","coordinates":[-70.957741,42.98133]}},{"properties":{"name":"Durham","city":"Durham","zip":"03824","geo_score":0.902,"street address":"3 Depot Road","id":"ab4n40r2me3n","geo_precision":"range","state":"New Hampshire"},"type":"Feature","geometry":{"type":"Point","coordinates":[-70.897788,43.04466]}},{"properties":{"name":"Dover","city":"Dover","zip":"03820","geo_score":0.902,"street address":"33 Chestnut Street","id":"ab4n40osev8c","geo_precision":"range","state":"New Hampshire"},"type":"Feature","geometry":{"type":"Point","coordinates":[-70.876814,43.199226]}},{"properties":{"name":"Wells","city":"Wells","zip":"04090","geo_score":0.78,"street address":"696 Sanford Road","id":"ab4n40ihriqb","geo_precision":"range","state":"Maine"},"type":"Feature","geometry":{"type":"Point","coordinates":[-70.61234,43.324081]}},{"properties":{"name":"Saco","city":"Saco","zip":"04072","geo_score":1.0,"street address":"138 Main Street","id":"ab4n40tf1rg2","geo_precision":"range","state":"Maine"},"type":"Feature","geometry":{"type":"Point","coordinates":[-70.441497,43.502394]}},{"properties":{"name":"Old Orchard","city":"Old Orchard Beach","zip":"04064","geo_score":0.805,"street address":"11 First Street","id":"ab4n40h4wwdz","geo_precision":"range","state":"Maine"},"type":"Feature","geometry":{"type":"Point","coordinates":[-70.377167,43.513019]}},{"properties":{"name":"Portland","city":"Portland","zip":"04102","geo_score":0.695,"street address":"100 Thompson's Point Road","id":"ab4n40r3x4q9","geo_precision":"range","state":"Maine"},"type":"Feature","geometry":{"type":"Point","coordinates":[-70.231393,43.639158]}},{"properties":{"name":"Freeport","city":"Freeport","zip":"04032","geo_score":1.0,"street address":"19 Depot Street","id":"ab4n40m0ie19","geo_precision":"range","state":"Maine"},"type":"Feature","geometry":{"type":"Point","coordinates":[-70.101695,43.855971]}},{"properties":{"name":"Brunswick","city":"Brunswick","zip":"01801","geo_score":0.725,"street address":"16 Station Avenue","id":"ab4n40ofbgcw","geo_precision":"range","state":"Maine"},"type":"Feature","geometry":{"type":"Point","coordinates":[-71.280845,42.59308]}}],"is_temporal":false,"author":{"url":"","metadata":"","contact_name":"","contact_address":"","source":"","contact_phone":""},"source":"","pagination":{"sort":null,"start":0,"total":12,"limit":1000000},"state":"complete","tags":"","published":"2014-08-16T23:40:41-04:00","id":308148}