{"type":"FeatureCollection","data_type":"Dataset","url_type":null,"permissions":[{"permissions":{"download":true,"view":true},"group_id":"everyone"}],"classification":null,"title":"Student_Info_Listing1_2011","count":85,"stream_id":308923,"contributor":{"url":"http://geocommons.com/users/58623","name":"cashford"},"data_attributes":null,"calculation_params":null,"icon_link":null,"link":"http://geocommons.com/overlays/308923.json","extent":[-134.499,29.6664,-69.1164,58.3583],"geometry_types":["point"],"unique_name":null,"name":"Student_Info_Listing1_2011","feature_count":85,"description":"","next_feature":null,"is_raster":false,"short_classification":"Y","stats":{},"features":[{"properties":{"city":"Pueblo","country":"United States","geo_score":0.857,"zip code":"81005","id":"ab8514ykhvn9","geo_precision":"zip","state":"CO"},"type":"Feature","geometry":{"type":"Point","coordinates":[-104.669976,38.261114]}},{"properties":{"city":"Minneapolis","country":"United States","geo_score":0.857,"zip code":"55419","id":"ab8514tegmzv","geo_precision":"zip","state":"MN"},"type":"Feature","geometry":{"type":"Point","coordinates":[-93.282724,44.890914]}},{"properties":{"city":"Bethesda","country":"United States","geo_score":0.857,"zip code":"20817","id":"ab8514qkf2ij","geo_precision":"zip","state":"MD"},"type":"Feature","geometry":{"type":"Point","coordinates":[-77.12859,38.985388]}},{"properties":{"city":"Richmond","country":"United States","geo_score":0.857,"zip code":"23229","id":"ab8514zy5sqc","geo_precision":"zip","state":"VA"},"type":"Feature","geometry":{"type":"Point","coordinates":[-77.567765,37.616813]}},{"properties":{"city":"Columbia","country":"United States","geo_score":0.857,"zip code":"65201","id":"ab8514wmiet4","geo_precision":"zip","state":"MO"},"type":"Feature","geometry":{"type":"Point","coordinates":[-92.472408,38.911702]}},{"properties":{"city":"Florence","country":"United States","geo_score":0.857,"zip code":"01062","id":"ab8514ohhe5o","geo_precision":"zip","state":"MA"},"type":"Feature","geometry":{"type":"Point","coordinates":[-72.845227,42.328838]}},{"properties":{"city":"Mounds View","country":"United States","geo_score":0.857,"zip code":"55112","id":"ab8514v7lidu","geo_precision":"zip","state":"MN"},"type":"Feature","geometry":{"type":"Point","coordinates":[-93.156611,45.050244]}},{"properties":{"city":"The Woodlands","country":"United States","geo_score":0.857,"zip code":"77382","id":"ab85154cz4q1","geo_precision":"zip","state":"TX"},"type":"Feature","geometry":{"type":"Point","coordinates":[-95.434241,29.83399]}},{"properties":{"city":"Derwood","country":"United States","geo_score":0.857,"zip code":"20855","id":"ab8514xuzkx5","geo_precision":"zip","state":"MD"},"type":"Feature","geometry":{"type":"Point","coordinates":[-77.138145,39.142857]}},{"properties":{"city":"Mill Valley","country":"United States","geo_score":0.857,"zip code":"94941","id":"ab8514syo3oz","geo_precision":"zip","state":"CA"},"type":"Feature","geometry":{"type":"Point","coordinates":[-122.562937,37.886325]}},{"properties":{"city":"Woodstock","country":"United States","geo_score":0.857,"zip code":"12498","id":"ab85150pv4dp","geo_precision":"zip","state":"NY"},"type":"Feature","geometry":{"type":"Point","coordinates":[-74.076252,42.016759]}},{"properties":{"city":"East Lansing","country":"United States","geo_score":0.857,"zip code":"48823","id":"ab8514pagl4f","geo_precision":"zip","state":"MI"},"type":"Feature","geometry":{"type":"Point","coordinates":[-84.503527,42.737334]}},{"properties":{"city":"Rockland","country":"United States","geo_score":0.857,"zip code":"04841","id":"ab8514oqo226","geo_precision":"zip","state":"ME"},"type":"Feature","geometry":{"type":"Point","coordinates":[-69.116429,44.154802]}},{"properties":{"city":"Shelby","country":"United States","geo_score":0.857,"zip code":"28150","id":"ab8514q01g4r","geo_precision":"zip","state":"NC"},"type":"Feature","geometry":{"type":"Point","coordinates":[-81.629261,35.330961]}},{"properties":{"city":"Hickory","country":"United States","geo_score":0.857,"zip code":"28601","id":"ab85150qky56","geo_precision":"zip","state":"NC"},"type":"Feature","geometry":{"type":"Point","coordinates":[-81.323697,35.778188]}},{"properties":{"city":"Bethel","country":"United States","geo_score":0.857,"zip code":"06801","id":"ab8514xfhpcc","geo_precision":"zip","state":"CT"},"type":"Feature","geometry":{"type":"Point","coordinates":[-73.39908,41.381244]}},{"properties":{"city":"Wareham","country":"United States","geo_score":0.857,"zip code":"02571","id":"ab8514ts3wrb","geo_precision":"zip","state":"MA"},"type":"Feature","geometry":{"type":"Point","coordinates":[-70.749481,41.772326]}},{"properties":{"city":"San Diego","country":"United States","geo_score":0.857,"zip code":"92130","id":"ab8514upobr4","geo_precision":"zip","state":"CA"},"type":"Feature","geometry":{"type":"Point","coordinates":[-117.161871,32.952467]}},{"properties":{"city":"San Diego","country":"United States","geo_score":0.857,"zip code":"92130","id":"ab85152m3uua","geo_precision":"zip","state":"CA"},"type":"Feature","geometry":{"type":"Point","coordinates":[-117.161871,32.952467]}},{"properties":{"city":"Charlottesville","country":"United States","geo_score":0.857,"zip code":"22901","id":"ab8514rb68un","geo_precision":"zip","state":"VA"},"type":"Feature","geometry":{"type":"Point","coordinates":[-78.444177,37.991529]}},{"properties":{"city":"Norwood","country":"United States","geo_score":0.857,"zip code":"02062","id":"ab8514tydq02","geo_precision":"zip","state":"MA"},"type":"Feature","geometry":{"type":"Point","coordinates":[-71.196277,42.182798]}},{"properties":{"city":"Andover","country":"United States","geo_score":0.857,"zip code":"01810","id":"ab8514unc8de","geo_precision":"zip","state":"MA"},"type":"Feature","geometry":{"type":"Point","coordinates":[-71.165685,42.647991]}},{"properties":{"city":"Amherst","country":"United States","geo_score":0.857,"zip code":"01002","id":"ab85150ldk08","geo_precision":"zip","state":"MA"},"type":"Feature","geometry":{"type":"Point","coordinates":[-72.470364,42.377868]}},{"properties":{"city":"East Lyme","country":"United States","geo_score":0.857,"zip code":"06333","id":"ab8514rslrjd","geo_precision":"zip","state":"CT"},"type":"Feature","geometry":{"type":"Point","coordinates":[-72.236794,41.378842]}},{"properties":{"city":"Roanoke","country":"United States","geo_score":0.857,"zip code":"24014","id":"ab8514xv6nso","geo_precision":"zip","state":"VA"},"type":"Feature","geometry":{"type":"Point","coordinates":[-79.92837,37.231805]}},{"properties":{"city":"Plainview","country":"United States","geo_score":0.857,"zip code":"11803","id":"ab8514w76z2y","geo_precision":"zip","state":"NY"},"type":"Feature","geometry":{"type":"Point","coordinates":[-73.601772,40.754757]}},{"properties":{"city":"Las Vegas","country":"United States","geo_score":0.857,"zip code":"89117","id":"ab85150wke45","geo_precision":"zip","state":"NV"},"type":"Feature","geometry":{"type":"Point","coordinates":[-115.217932,36.130992]}},{"properties":{"city":"Lexington","country":"United States","geo_score":0.857,"zip code":"40513","id":"ab8514u8ldxa","geo_precision":"zip","state":"KY"},"type":"Feature","geometry":{"type":"Point","coordinates":[-84.605827,38.01513]}},{"properties":{"city":"Centennial","country":"United States","geo_score":0.857,"zip code":"80122","id":"ab8514v723h1","geo_precision":"zip","state":"CO"},"type":"Feature","geometry":{"type":"Point","coordinates":[-104.952759,39.58721]}},{"properties":{"city":"North Ridgeville","country":"United States","geo_score":0.857,"zip code":"44039","id":"ab8514q6ong7","geo_precision":"zip","state":"OH"},"type":"Feature","geometry":{"type":"Point","coordinates":[-82.019365,41.377776]}},{"properties":{"city":"LeRoy","country":"United States","geo_score":0.857,"zip code":"14482","id":"ab8514x8phrw","geo_precision":"zip","state":"NY"},"type":"Feature","geometry":{"type":"Point","coordinates":[-77.918898,42.978673]}},{"properties":{"city":"Lakewood","country":"United States","geo_score":0.857,"zip code":"80226","id":"ab8514q8bnet","geo_precision":"zip","state":"CO"},"type":"Feature","geometry":{"type":"Point","coordinates":[-105.091502,39.710884]}},{"properties":{"city":"Austin","country":"United States","geo_score":0.857,"zip code":"78739","id":"ab851545dlzs","geo_precision":"zip","state":"TX"},"type":"Feature","geometry":{"type":"Point","coordinates":[-97.886794,30.172937]}},{"properties":{"city":"Shoreline","country":"United States","geo_score":0.857,"zip code":"98177","id":"ab85152l1bie","geo_precision":"zip","state":"WA"},"type":"Feature","geometry":{"type":"Point","coordinates":[-121.803388,47.432251]}},{"properties":{"city":"Lakewood","country":"United States","geo_score":0.857,"zip code":"80226","id":"ab8514uakp83","geo_precision":"zip","state":"CO"},"type":"Feature","geometry":{"type":"Point","coordinates":[-105.091502,39.710884]}},{"properties":{"city":"Glendora","country":"United States","geo_score":0.857,"zip code":"91741","id":"ab8514u31vyy","geo_precision":"zip","state":"CA"},"type":"Feature","geometry":{"type":"Point","coordinates":[-118.298662,33.786594]}},{"properties":{"city":"Glastonbury","country":"United States","geo_score":0.857,"zip code":"06033","id":"ab8514wat75b","geo_precision":"zip","state":"CT"},"type":"Feature","geometry":{"type":"Point","coordinates":[-72.539332,41.703451]}},{"properties":{"city":"Youngwood","country":"United States","geo_score":0.857,"zip code":"15697","id":"ab8514ptmqxj","geo_precision":"zip","state":"PA"},"type":"Feature","geometry":{"type":"Point","coordinates":[-79.566984,40.239792]}},{"properties":{"city":"Smyrna","country":"United States","geo_score":0.857,"zip code":"19977","id":"ab85151ex5e7","geo_precision":"zip","state":"DE"},"type":"Feature","geometry":{"type":"Point","coordinates":[-75.565131,39.194026]}},{"properties":{"city":"Owensboro","country":"United States","geo_score":0.857,"zip code":"42303","id":"ab8514zezafo","geo_precision":"zip","state":"KY"},"type":"Feature","geometry":{"type":"Point","coordinates":[-87.042939,37.779387]}},{"properties":{"city":"Stamford","country":"United States","geo_score":0.857,"zip code":"06903","id":"ab8514rmk8ti","geo_precision":"zip","state":"CT"},"type":"Feature","geometry":{"type":"Point","coordinates":[-73.565919,41.136773]}},{"properties":{"city":"Juneau","country":"United States","geo_score":0.857,"zip code":"99801","id":"ab851525vcg3","geo_precision":"zip","state":"AK"},"type":"Feature","geometry":{"type":"Point","coordinates":[-134.498611,58.358333]}},{"properties":{"city":"Menlo Park","country":"United States","geo_score":0.857,"zip code":"94025","id":"ab8514ze4keb","geo_precision":"zip","state":"CA"},"type":"Feature","geometry":{"type":"Point","coordinates":[-122.159409,37.476327]}},{"properties":{"city":"Harrisonburg","country":"United States","geo_score":0.857,"zip code":"22801","id":"ab8514zxw9a4","geo_precision":"zip","state":"VA"},"type":"Feature","geometry":{"type":"Point","coordinates":[-78.959752,38.486235]}},{"properties":{"city":"Bay Village","country":"United States","geo_score":0.857,"zip code":"44140","id":"ab85150wp4fu","geo_precision":"zip","state":"OH"},"type":"Feature","geometry":{"type":"Point","coordinates":[-81.921513,41.490967]}},{"properties":{"city":"Mobile","country":"United States","geo_score":0.857,"zip code":"36609","id":"ab8514ytumgb","geo_precision":"zip","state":"AL"},"type":"Feature","geometry":{"type":"Point","coordinates":[-88.185603,30.551887]}},{"properties":{"city":"Apple Valley","country":"United States","geo_score":0.857,"zip code":"55124","id":"ab85150798ug","geo_precision":"zip","state":"MN"},"type":"Feature","geometry":{"type":"Point","coordinates":[-93.21772,44.731909]}},{"properties":{"city":"Peterborough","country":"United States","geo_score":0.857,"zip code":"03458","id":"ab8514vvxgjp","geo_precision":"zip","state":"NH"},"type":"Feature","geometry":{"type":"Point","coordinates":[-72.024525,42.901749]}},{"properties":{"city":"Pennington","country":"United States","geo_score":0.857,"zip code":"08534","id":"ab8514rvy4jl","geo_precision":"zip","state":"NJ"},"type":"Feature","geometry":{"type":"Point","coordinates":[-74.813557,40.32863]}},{"properties":{"city":"Wayland","country":"United States","geo_score":0.857,"zip code":"01778","id":"ab85153ekp7a","geo_precision":"zip","state":"MA"},"type":"Feature","geometry":{"type":"Point","coordinates":[-71.459405,42.446396]}},{"properties":{"city":"Hibbing","country":"United States","geo_score":0.857,"zip code":"55746","id":"ab8514s1ei72","geo_precision":"zip","state":"MN"},"type":"Feature","geometry":{"type":"Point","coordinates":[-93.020753,47.264659]}},{"properties":{"city":"Downers Grove","country":"United States","geo_score":0.857,"zip code":"60515","id":"ab8514uc7gf9","geo_precision":"zip","state":"IL"},"type":"Feature","geometry":{"type":"Point","coordinates":[-88.012267,41.796279]}},{"properties":{"city":"Bellingham","country":"United States","geo_score":0.857,"zip code":"98229","id":"ab8514q57blm","geo_precision":"zip","state":"WA"},"type":"Feature","geometry":{"type":"Point","coordinates":[-122.410041,48.693122]}},{"properties":{"city":"Bainbridge Island","country":"United States","geo_score":0.857,"zip code":"98110","id":"ab8514s4t3ge","geo_precision":"zip","state":"WA"},"type":"Feature","geometry":{"type":"Point","coordinates":[-122.579862,47.66704]}},{"properties":{"city":"Havre de Grace","country":"United States","geo_score":0.857,"zip code":"21078","id":"ab8514w8aeg6","geo_precision":"zip","state":"MD"},"type":"Feature","geometry":{"type":"Point","coordinates":[-76.15517,39.560095]}},{"properties":{"city":"Madison","country":"United States","geo_score":0.857,"zip code":"53715","id":"ab851541ki4l","geo_precision":"zip","state":"WI"},"type":"Feature","geometry":{"type":"Point","coordinates":[-89.394619,43.061839]}},{"properties":{"city":"Okemos","country":"United States","geo_score":0.857,"zip code":"48864","id":"ab8514sv89g6","geo_precision":"zip","state":"MI"},"type":"Feature","geometry":{"type":"Point","coordinates":[-84.425136,42.719534]}},{"properties":{"city":"Norwalk","country":"United States","geo_score":0.857,"zip code":"06855","id":"ab8514wohb8v","geo_precision":"zip","state":"CT"},"type":"Feature","geometry":{"type":"Point","coordinates":[-73.398362,41.099196]}},{"properties":{"city":"Grand Rapids","country":"United States","geo_score":0.857,"zip code":"49504","id":"ab8514r3m7vm","geo_precision":"zip","state":"MI"},"type":"Feature","geometry":{"type":"Point","coordinates":[-85.768092,43.001413]}},{"properties":{"city":"Center Valley","country":"United States","geo_score":0.857,"zip code":"18034","id":"ab85152458ws","geo_precision":"zip","state":"PA"},"type":"Feature","geometry":{"type":"Point","coordinates":[-75.432682,40.551765]}},{"properties":{"city":"New City","country":"United States","geo_score":0.857,"zip code":"10956","id":"ab8514wdmjtf","geo_precision":"zip","state":"NY"},"type":"Feature","geometry":{"type":"Point","coordinates":[-73.994585,41.186206]}},{"properties":{"city":"Hartford","country":"United States","geo_score":0.857,"zip code":"06120","id":"ab8514oxuucz","geo_precision":"zip","state":"CT"},"type":"Feature","geometry":{"type":"Point","coordinates":[-72.669936,41.785449]}},{"properties":{"city":"North little rock","country":"United States","geo_score":0.857,"zip code":"72116","id":"ab8514xg6thb","geo_precision":"zip","state":"AR"},"type":"Feature","geometry":{"type":"Point","coordinates":[-92.23126,34.836479]}},{"properties":{"city":"Mount Gilead","country":"United States","geo_score":0.857,"zip code":"43338","id":"ab8514vrs0ot","geo_precision":"zip","state":"OH"},"type":"Feature","geometry":{"type":"Point","coordinates":[-82.729898,40.579504]}},{"properties":{"city":"Gainesville","country":"United States","geo_score":0.857,"zip code":"32601","id":"ab8514zswqb0","geo_precision":"zip","state":"FL"},"type":"Feature","geometry":{"type":"Point","coordinates":[-82.407885,29.666356]}},{"properties":{"city":"Cranford","country":"United States","geo_score":0.857,"zip code":"07016","id":"ab8514pa0fzb","geo_precision":"zip","state":"NJ"},"type":"Feature","geometry":{"type":"Point","coordinates":[-74.287092,40.658991]}},{"properties":{"city":"Lynchburg","country":"United States","geo_score":0.857,"zip code":"24503","id":"ab8514qcki7m","geo_precision":"zip","state":"VA"},"type":"Feature","geometry":{"type":"Point","coordinates":[-79.27864,37.504584]}},{"properties":{"city":"Metairie","country":"United States","geo_score":0.857,"zip code":"70006","id":"ab8514z8ksqh","geo_precision":"zip","state":"LA"},"type":"Feature","geometry":{"type":"Point","coordinates":[-90.195842,30.013413]}},{"properties":{"city":"Mobile","country":"United States","geo_score":0.857,"zip code":"36695","id":"ab8514vjwy84","geo_precision":"zip","state":"AL"},"type":"Feature","geometry":{"type":"Point","coordinates":[-88.226989,30.666959]}},{"properties":{"city":"Madison","country":"United States","geo_score":0.857,"zip code":"53704","id":"ab8514oc7m1z","geo_precision":"zip","state":"WI"},"type":"Feature","geometry":{"type":"Point","coordinates":[-89.379563,43.118328]}},{"properties":{"city":"Ulster Park","country":"United States","geo_score":0.857,"zip code":"12487","id":"ab85152eojha","geo_precision":"zip","state":"NY"},"type":"Feature","geometry":{"type":"Point","coordinates":[-74.017907,41.857076]}},{"properties":{"city":"Winchester","country":"United States","geo_score":0.857,"zip code":"01890","id":"ab8514v9qxpx","geo_precision":"zip","state":"MA"},"type":"Feature","geometry":{"type":"Point","coordinates":[-71.148779,42.454545]}},{"properties":{"city":"Austin","country":"United States","geo_score":0.857,"zip code":"78731","id":"ab8514tnbf8y","geo_precision":"zip","state":"TX"},"type":"Feature","geometry":{"type":"Point","coordinates":[-97.769769,30.345554]}},{"properties":{"city":"Wynnewood","country":"United States","geo_score":0.857,"zip code":"19096","id":"ab85152dfww5","geo_precision":"zip","state":"PA"},"type":"Feature","geometry":{"type":"Point","coordinates":[-75.275462,39.986223]}},{"properties":{"city":"Eden Prairie","country":"United States","geo_score":0.857,"zip code":"55347","id":"ab8514vmfrxz","geo_precision":"zip","state":"MN"},"type":"Feature","geometry":{"type":"Point","coordinates":[-93.459829,44.841713]}},{"properties":{"city":"Millville","country":"United States","geo_score":0.857,"zip code":"01529","id":"ab851512fsi7","geo_precision":"zip","state":"MA"},"type":"Feature","geometry":{"type":"Point","coordinates":[-71.846943,42.124662]}},{"properties":{"city":"Newtown","country":"United States","geo_score":0.857,"zip code":"06470","id":"ab85150824jf","geo_precision":"zip","state":"CT"},"type":"Feature","geometry":{"type":"Point","coordinates":[-73.35623,41.379262]}},{"properties":{"city":"Somers","country":"United States","geo_score":0.857,"zip code":"10589","id":"ab8514rvtncz","geo_precision":"zip","state":"NY"},"type":"Feature","geometry":{"type":"Point","coordinates":[-73.693685,41.326544]}},{"properties":{"city":"Boston","country":"United States","geo_score":0.857,"zip code":"02116","id":"ab85150sqx0g","geo_precision":"zip","state":"MA"},"type":"Feature","geometry":{"type":"Point","coordinates":[-71.086095,42.347207]}},{"properties":{"city":"Gilford","country":"United States","geo_score":0.857,"zip code":"03249","id":"ab85151iynd8","geo_precision":"zip","state":"NH"},"type":"Feature","geometry":{"type":"Point","coordinates":[-71.478141,43.572782]}},{"properties":{"city":"Toms River","country":"United States","geo_score":0.857,"zip code":"08753","id":"ab8514sv3iz1","geo_precision":"zip","state":"NJ"},"type":"Feature","geometry":{"type":"Point","coordinates":[-74.204308,39.942063]}},{"properties":{"city":"Ellicott City","country":"United States","geo_score":0.857,"zip code":"21042","id":"ab8514ycu44s","geo_precision":"zip","state":"MD"},"type":"Feature","geometry":{"type":"Point","coordinates":[-76.897247,39.261897]}},{"properties":{"city":"Auburn","country":"United States","geo_score":0.857,"zip code":"98001","id":"ab8514vxdc0e","geo_precision":"zip","state":"WA"},"type":"Feature","geometry":{"type":"Point","coordinates":[-121.821908,47.465495]}},{"properties":{"city":"Arlington","country":"United States","geo_score":0.857,"zip code":"22207","id":"ab8514sgwlka","geo_precision":"zip","state":"VA"},"type":"Feature","geometry":{"type":"Point","coordinates":[-77.122344,38.907416]}},{"properties":{"city":"Scotts Valley","country":"United States","geo_score":0.857,"zip code":"95066","id":"ab8514qv9jzk","geo_precision":"zip","state":"CA"},"type":"Feature","geometry":{"type":"Point","coordinates":[-122.006276,37.071387]}}],"is_temporal":false,"author":{"url":"","metadata":null,"contact_name":null,"contact_address":null,"source":null,"contact_phone":null},"source":"","pagination":{"sort":null,"start":0,"total":85,"limit":1000000},"state":"complete","tags":"","published":"2014-08-17T00:36:27-04:00","id":308923}