{"type":"FeatureCollection","data_type":"Dataset","url_type":null,"permissions":[{"permissions":{"download":true,"view":true},"group_id":"everyone"}],"classification":null,"title":"Student_Info_Listing_2011","count":193,"stream_id":308918,"contributor":{"url":"http://geocommons.com/users/58623","name":"cashford"},"data_attributes":null,"calculation_params":null,"icon_link":null,"link":"http://geocommons.com/overlays/308918.json","extent":[-157.716,18.002,-66.6074,58.3583],"geometry_types":["point"],"unique_name":null,"name":"Student_Info_Listing_2011","feature_count":193,"description":"","next_feature":null,"is_raster":false,"short_classification":"Y","stats":{},"features":[{"properties":{"city":"Kingwood","country":"United States","geo_score":0.857,"zip code":"77345","id":"ab84mm64lt49","geo_precision":"zip","state":"TX"},"type":"Feature","geometry":{"type":"Point","coordinates":[-95.434241,29.83399]}},{"properties":{"city":"Bronx","country":"United States","geo_score":0.857,"zip code":"10453","id":"ab84mm2zdvtw","geo_precision":"zip","state":"NY"},"type":"Feature","geometry":{"type":"Point","coordinates":[-73.919859,40.849822]}},{"properties":{"city":"Camp Hill","country":"United States","geo_score":0.857,"zip code":"17011","id":"ab84mm7wm42f","geo_precision":"zip","state":"PA"},"type":"Feature","geometry":{"type":"Point","coordinates":[-76.901363,40.231757]}},{"properties":{"city":"West Chester","country":"United States","geo_score":0.857,"zip code":"19382","id":"ab84mm3td3j2","geo_precision":"zip","state":"PA"},"type":"Feature","geometry":{"type":"Point","coordinates":[-75.630235,39.912284]}},{"properties":{"city":"Dubuque","country":"United States","geo_score":0.857,"zip code":"52002","id":"ab84mm4k8roe","geo_precision":"zip","state":"IA"},"type":"Feature","geometry":{"type":"Point","coordinates":[-90.7718,42.532019]}},{"properties":{"city":"Roxbury","country":"United States","geo_score":0.857,"zip code":"06783","id":"ab84mm7rymtr","geo_precision":"zip","state":"CT"},"type":"Feature","geometry":{"type":"Point","coordinates":[-73.310673,41.508429]}},{"properties":{"city":"Wenham","country":"United States","geo_score":0.857,"zip code":"01984","id":"ab84mm39ynpx","geo_precision":"zip","state":"MA"},"type":"Feature","geometry":{"type":"Point","coordinates":[-70.8732,42.597691]}},{"properties":{"city":"Lake Oswego","country":"United States","geo_score":0.857,"zip code":"97034","id":"ab84mm6hrxgd","geo_precision":"zip","state":"OR"},"type":"Feature","geometry":{"type":"Point","coordinates":[-122.660372,45.424286]}},{"properties":{"city":"Shorewood","country":"United States","geo_score":0.857,"zip code":"53211","id":"ab84mm15hqrb","geo_precision":"zip","state":"WI"},"type":"Feature","geometry":{"type":"Point","coordinates":[-87.889534,43.082018]}},{"properties":{"city":"Allston","country":"United States","geo_score":0.857,"zip code":"02134","id":"ab84mmbphve0","geo_precision":"zip","state":"MA"},"type":"Feature","geometry":{"type":"Point","coordinates":[-71.112646,42.357169]}},{"properties":{"city":"Crofton","country":"United States","geo_score":0.857,"zip code":"21114","id":"ab84mlydi866","geo_precision":"zip","state":"MD"},"type":"Feature","geometry":{"type":"Point","coordinates":[-76.622577,39.06436]}},{"properties":{"city":"Beverly Hills","country":"United States","geo_score":0.857,"zip code":"90212","id":"ab84mm9iem33","geo_precision":"zip","state":"CA"},"type":"Feature","geometry":{"type":"Point","coordinates":[-118.298662,33.786594]}},{"properties":{"city":"Milwaukee","country":"United States","geo_score":0.857,"zip code":"53212","id":"ab84mm9nid21","geo_precision":"zip","state":"WI"},"type":"Feature","geometry":{"type":"Point","coordinates":[-87.907178,43.074862]}},{"properties":{"city":"Los Gatos","country":"United States","geo_score":0.857,"zip code":"95032","id":"ab84mly1sd2z","geo_precision":"zip","state":"CA"},"type":"Feature","geometry":{"type":"Point","coordinates":[-121.66186,37.070923]}},{"properties":{"city":"Evanston","country":"United States","geo_score":0.857,"zip code":"60202","id":"ab84mma595d1","geo_precision":"zip","state":"IL"},"type":"Feature","geometry":{"type":"Point","coordinates":[-87.687969,42.044529]}},{"properties":{"city":"New Lenox","country":"United States","geo_score":0.857,"zip code":"60451","id":"ab84mmajezaf","geo_precision":"zip","state":"IL"},"type":"Feature","geometry":{"type":"Point","coordinates":[-87.912553,41.511421]}},{"properties":{"city":"Ann Arbor","country":"United States","geo_score":0.857,"zip code":"48103","id":"ab84mm9i4hub","geo_precision":"zip","state":"MI"},"type":"Feature","geometry":{"type":"Point","coordinates":[-83.849042,42.266638]}},{"properties":{"city":"Snohomish","country":"United States","geo_score":0.857,"zip code":"98296","id":"ab84mm54656m","geo_precision":"zip","state":"WA"},"type":"Feature","geometry":{"type":"Point","coordinates":[-122.092025,47.857915]}},{"properties":{"city":"Holtsville","country":"United States","geo_score":0.857,"zip code":"11742","id":"ab84mm5b2qpo","geo_precision":"zip","state":"NY"},"type":"Feature","geometry":{"type":"Point","coordinates":[-73.048985,40.798994]}},{"properties":{"city":"Lubbock","country":"United States","geo_score":0.857,"zip code":"79410","id":"ab84mly4plqr","geo_precision":"zip","state":"TX"},"type":"Feature","geometry":{"type":"Point","coordinates":[-101.896394,33.572085]}},{"properties":{"city":"San Lorenzo","country":"United States","geo_score":0.857,"zip code":"94580","id":"ab84mm024u2x","geo_precision":"zip","state":"CA"},"type":"Feature","geometry":{"type":"Point","coordinates":[-122.133825,37.68123]}},{"properties":{"city":"Burr Ridge","country":"United States","geo_score":0.857,"zip code":"60527","id":"ab84mmc23y3i","geo_precision":"zip","state":"IL"},"type":"Feature","geometry":{"type":"Point","coordinates":[-88.088716,41.839679]}},{"properties":{"city":"Richmond","country":"United States","geo_score":0.857,"zip code":"23227","id":"ab84mly19afr","geo_precision":"zip","state":"VA"},"type":"Feature","geometry":{"type":"Point","coordinates":[-77.437483,37.633201]}},{"properties":{"city":"Phoenix","country":"United States","geo_score":0.857,"zip code":"85050","id":"ab84mm17s45p","geo_precision":"zip","state":"AZ"},"type":"Feature","geometry":{"type":"Point","coordinates":[-112.18717,33.276539]}},{"properties":{"city":"Memphis","country":"United States","geo_score":0.857,"zip code":"38120","id":"ab84mm0mf1y5","geo_precision":"zip","state":"TN"},"type":"Feature","geometry":{"type":"Point","coordinates":[-89.842541,35.123644]}},{"properties":{"city":"Glencoe","country":"United States","geo_score":0.857,"zip code":"60022","id":"ab84mm0e9or4","geo_precision":"zip","state":"IL"},"type":"Feature","geometry":{"type":"Point","coordinates":[-87.815914,42.102927]}},{"properties":{"city":"Austin","country":"United States","geo_score":0.857,"zip code":"78757","id":"ab84mm28ry7i","geo_precision":"zip","state":"TX"},"type":"Feature","geometry":{"type":"Point","coordinates":[-97.601444,30.348567]}},{"properties":{"city":"Highland Park","country":"United States","geo_score":0.857,"zip code":"60035","id":"ab84mm19k94j","geo_precision":"zip","state":"IL"},"type":"Feature","geometry":{"type":"Point","coordinates":[-87.787009,42.163637]}},{"properties":{"city":"Cypress","country":"United States","geo_score":0.857,"zip code":"77429","id":"ab84mm7d1aab","geo_precision":"zip","state":"TX"},"type":"Feature","geometry":{"type":"Point","coordinates":[-95.434241,29.83399]}},{"properties":{"city":"Brunswick","country":"United States","geo_score":0.857,"zip code":"21716","id":"ab84mm4fjyxh","geo_precision":"zip","state":"MD"},"type":"Feature","geometry":{"type":"Point","coordinates":[-77.624701,39.317945]}},{"properties":{"city":"Erie","country":"United States","geo_score":0.857,"zip code":"16506","id":"ab84mlxpa2s4","geo_precision":"zip","state":"PA"},"type":"Feature","geometry":{"type":"Point","coordinates":[-80.140894,42.08089]}},{"properties":{"city":"Nanuet","country":"United States","geo_score":0.857,"zip code":"10954","id":"ab84mmbeej9r","geo_precision":"zip","state":"NY"},"type":"Feature","geometry":{"type":"Point","coordinates":[-74.010934,41.097716]}},{"properties":{"city":"Pune, Maharashtra","country":"India","geo_score":0.571,"zip code":"411040","id":"ab84mm63uguy","geo_precision":"city","state":null},"type":"Feature","geometry":{"type":"Point","coordinates":[-156.685833,20.882222]}},{"properties":{"city":"Evanston","country":"United States","geo_score":0.857,"zip code":"60201","id":"ab84mm0kymwd","geo_precision":"zip","state":"IL"},"type":"Feature","geometry":{"type":"Point","coordinates":[-87.702155,42.049148]}},{"properties":{"city":"Stafford","country":"United States","geo_score":0.857,"zip code":"22554","id":"ab84mm4yyuvn","geo_precision":"zip","state":"VA"},"type":"Feature","geometry":{"type":"Point","coordinates":[-77.469428,38.42207]}},{"properties":{"city":"Reisterstown","country":"United States","geo_score":0.857,"zip code":"21136","id":"ab84mm0cqlbu","geo_precision":"zip","state":"MD"},"type":"Feature","geometry":{"type":"Point","coordinates":[-76.798032,39.543993]}},{"properties":{"city":"New York","country":"United States","geo_score":0.857,"zip code":"10033","id":"ab84mm4i7zfh","geo_precision":"zip","state":"NY"},"type":"Feature","geometry":{"type":"Point","coordinates":[-73.934764,40.851293]}},{"properties":{"city":"Philadelphia","country":"United States","geo_score":0.857,"zip code":"19143","id":"ab84mmaquu9c","geo_precision":"zip","state":"PA"},"type":"Feature","geometry":{"type":"Point","coordinates":[-75.187023,39.957312]}},{"properties":{"city":"Easthampton","country":"United States","geo_score":0.857,"zip code":"01027","id":"ab84mlzz9og7","geo_precision":"zip","state":"MA"},"type":"Feature","geometry":{"type":"Point","coordinates":[-72.737593,42.287589]}},{"properties":{"city":"Durham","country":"United States","geo_score":0.857,"zip code":"06422","id":"ab84mlw19dvq","geo_precision":"zip","state":"CT"},"type":"Feature","geometry":{"type":"Point","coordinates":[-72.682297,41.462468]}},{"properties":{"city":"Cicero","country":"United States","geo_score":0.857,"zip code":"13039","id":"ab84mm0yfvs0","geo_precision":"zip","state":"NY"},"type":"Feature","geometry":{"type":"Point","coordinates":[-76.154128,43.125491]}},{"properties":{"city":"Scarborough","country":"United States","geo_score":0.857,"zip code":"04074","id":"ab84mm0p8h0y","geo_precision":"zip","state":"ME"},"type":"Feature","geometry":{"type":"Point","coordinates":[-70.397829,43.642026]}},{"properties":{"city":"Pittsburgh","country":"United States","geo_score":0.857,"zip code":"15238","id":"ab84mm121397","geo_precision":"zip","state":"PA"},"type":"Feature","geometry":{"type":"Point","coordinates":[-79.888663,40.577012]}},{"properties":{"city":"Houston","country":"United States","geo_score":0.857,"zip code":"77019","id":"ab84mm4fpbrh","geo_precision":"zip","state":"TX"},"type":"Feature","geometry":{"type":"Point","coordinates":[-95.434241,29.83399]}},{"properties":{"city":"Mamaroneck","country":"United States","geo_score":0.857,"zip code":"10543","id":"ab84mm5x2t0f","geo_precision":"zip","state":"NY"},"type":"Feature","geometry":{"type":"Point","coordinates":[-73.738779,40.949199]}},{"properties":{"city":"Newton","country":"United States","geo_score":0.857,"zip code":"02459","id":"ab84mm22alxm","geo_precision":"zip","state":"MA"},"type":"Feature","geometry":{"type":"Point","coordinates":[-71.183298,42.334146]}},{"properties":{"city":"North Canton","country":"United States","geo_score":0.857,"zip code":"44720","id":"ab84mm527o3v","geo_precision":"zip","state":"OH"},"type":"Feature","geometry":{"type":"Point","coordinates":[-81.433036,40.895607]}},{"properties":{"city":"Orchard Park","country":"United States","geo_score":0.857,"zip code":"14127","id":"ab84mm0zz5ik","geo_precision":"zip","state":"NY"},"type":"Feature","geometry":{"type":"Point","coordinates":[-78.704437,42.742541]}},{"properties":{"city":"Davidson","country":"United States","geo_score":0.714,"zip code":"28035","id":"ab84mm0bpv4b","geo_precision":"city","state":"NC"},"type":"Feature","geometry":{"type":"Point","coordinates":[-80.844594,35.283427]}},{"properties":{"city":"Denver","country":"United States","geo_score":0.857,"zip code":"80209","id":"ab84mm53agb2","geo_precision":"zip","state":"CO"},"type":"Feature","geometry":{"type":"Point","coordinates":[-104.964236,39.707332]}},{"properties":{"city":"Kailua","country":"United States","geo_score":0.857,"zip code":"96734","id":"ab84mmafit7n","geo_precision":"zip","state":"HI"},"type":"Feature","geometry":{"type":"Point","coordinates":[-157.715833,21.391944]}},{"properties":{"city":"Aliso Viejo","country":"United States","geo_score":0.857,"zip code":"92656","id":"ab84mm20ujvr","geo_precision":"zip","state":"CA"},"type":"Feature","geometry":{"type":"Point","coordinates":[-117.751341,33.603459]}},{"properties":{"city":"Woodridge","country":"United States","geo_score":0.857,"zip code":"60517","id":"ab84mm9dqfge","geo_precision":"zip","state":"IL"},"type":"Feature","geometry":{"type":"Point","coordinates":[-88.041731,41.736788]}},{"properties":{"city":"Cambria","country":"United States","geo_score":0.857,"zip code":"93428","id":"ab84mm45lr4r","geo_precision":"zip","state":"CA"},"type":"Feature","geometry":{"type":"Point","coordinates":[-120.954454,35.587748]}},{"properties":{"city":"Camarillo","country":"United States","geo_score":0.857,"zip code":"93010","id":"ab84mlya08jo","geo_precision":"zip","state":"CA"},"type":"Feature","geometry":{"type":"Point","coordinates":[-119.084253,34.307783]}},{"properties":{"city":"Gaithersburg","country":"United States","geo_score":0.857,"zip code":"20878","id":"ab84mmb837ts","geo_precision":"zip","state":"MD"},"type":"Feature","geometry":{"type":"Point","coordinates":[-77.252483,39.117886]}},{"properties":{"city":"Albuquerque","country":"United States","geo_score":0.857,"zip code":"87107","id":"ab84mm1fv2wc","geo_precision":"zip","state":"NM"},"type":"Feature","geometry":{"type":"Point","coordinates":[-106.638281,35.140444]}},{"properties":{"city":"Elmhurst","country":"United States","geo_score":0.857,"zip code":"60126","id":"ab84mm1me3st","geo_precision":"zip","state":"IL"},"type":"Feature","geometry":{"type":"Point","coordinates":[-87.953954,41.93503]}},{"properties":{"city":"Franklin","country":"United States","geo_score":0.857,"zip code":"16323","id":"ab84mlxp9o5g","geo_precision":"zip","state":"PA"},"type":"Feature","geometry":{"type":"Point","coordinates":[-79.896723,41.450334]}},{"properties":{"city":"Brisbane","country":"United States","geo_score":0.857,"zip code":"94005","id":"ab84mlw0uksq","geo_precision":"zip","state":"CA"},"type":"Feature","geometry":{"type":"Point","coordinates":[-122.404332,37.689182]}},{"properties":{"city":"Collingswood","country":"United States","geo_score":0.857,"zip code":"08108","id":"ab84mlzh9bwo","geo_precision":"zip","state":"NJ"},"type":"Feature","geometry":{"type":"Point","coordinates":[-74.991268,39.834003]}},{"properties":{"city":"Lee's Summit","country":"United States","geo_score":0.857,"zip code":"64086","id":"ab84mmaul7ho","geo_precision":"zip","state":"MO"},"type":"Feature","geometry":{"type":"Point","coordinates":[-94.288086,38.944006]}},{"properties":{"city":"Skokie","country":"United States","geo_score":0.857,"zip code":"60076","id":"ab84mm0totpl","geo_precision":"zip","state":"IL"},"type":"Feature","geometry":{"type":"Point","coordinates":[-87.883566,42.057878]}},{"properties":{"city":"Pittsburgh","country":"United States","geo_score":0.857,"zip code":"15221","id":"ab84mlzirkv4","geo_precision":"zip","state":"PA"},"type":"Feature","geometry":{"type":"Point","coordinates":[-79.865049,40.417291]}},{"properties":{"city":"Hershey","country":"United States","geo_score":0.857,"zip code":"17033","id":"ab84mm8ruwmm","geo_precision":"zip","state":"PA"},"type":"Feature","geometry":{"type":"Point","coordinates":[-76.681914,40.290368]}},{"properties":{"city":"Saint Paul","country":"United States","geo_score":0.857,"zip code":"55105","id":"ab84mm5ojg94","geo_precision":"zip","state":"MN"},"type":"Feature","geometry":{"type":"Point","coordinates":[-93.16097,44.934515]}},{"properties":{"city":"Mount Kisco","country":"United States","geo_score":0.857,"zip code":"10549","id":"ab84mlybbutd","geo_precision":"zip","state":"NY"},"type":"Feature","geometry":{"type":"Point","coordinates":[-73.72286,41.197329]}},{"properties":{"city":"Albuquerque","country":"United States","geo_score":0.857,"zip code":"87122","id":"ab84mmampqyb","geo_precision":"zip","state":"NM"},"type":"Feature","geometry":{"type":"Point","coordinates":[-106.5293,35.18531]}},{"properties":{"city":"Alexandria","country":"United States","geo_score":0.857,"zip code":"22307","id":"ab84mm7ehvva","geo_precision":"zip","state":"VA"},"type":"Feature","geometry":{"type":"Point","coordinates":[-77.063033,38.785392]}},{"properties":{"city":"Nellysford","country":"United States","geo_score":0.857,"zip code":"22958","id":"ab84mma469zn","geo_precision":"zip","state":"VA"},"type":"Feature","geometry":{"type":"Point","coordinates":[-78.899467,37.884862]}},{"properties":{"city":"Oakland","country":"United States","geo_score":0.857,"zip code":"94618","id":"ab84mm5m2qt6","geo_precision":"zip","state":"CA"},"type":"Feature","geometry":{"type":"Point","coordinates":[-122.240179,37.843126]}},{"properties":{"city":"Phoenix","country":"United States","geo_score":0.857,"zip code":"21131","id":"ab84mm0z7uo5","geo_precision":"zip","state":"MD"},"type":"Feature","geometry":{"type":"Point","coordinates":[-76.546078,39.489551]}},{"properties":{"city":"Holland","country":"United States","geo_score":0.857,"zip code":"49424","id":"ab84mmahnefv","geo_precision":"zip","state":"MI"},"type":"Feature","geometry":{"type":"Point","coordinates":[-86.121901,42.924578]}},{"properties":{"city":"Montclair","country":"United States","geo_score":0.857,"zip code":"07042","id":"ab84mm5bulag","geo_precision":"zip","state":"NJ"},"type":"Feature","geometry":{"type":"Point","coordinates":[-74.216389,40.811908]}},{"properties":{"city":"Ames","country":"United States","geo_score":0.857,"zip code":"50010","id":"ab84mly4jg0d","geo_precision":"zip","state":"IA"},"type":"Feature","geometry":{"type":"Point","coordinates":[-93.600254,42.037879]}},{"properties":{"city":"McLean","country":"United States","geo_score":0.857,"zip code":"22101","id":"ab84mlx7tup8","geo_precision":"zip","state":"VA"},"type":"Feature","geometry":{"type":"Point","coordinates":[-77.18672,38.935202]}},{"properties":{"city":"Hasbrouck Heights","country":"United States","geo_score":0.857,"zip code":"07604","id":"ab84mm65duex","geo_precision":"zip","state":"NJ"},"type":"Feature","geometry":{"type":"Point","coordinates":[-74.075585,40.862349]}},{"properties":{"city":"Riverdale","country":"United States","geo_score":0.857,"zip code":"10471","id":"ab84mm8p2pfa","geo_precision":"zip","state":"NY"},"type":"Feature","geometry":{"type":"Point","coordinates":[-73.898677,40.899178]}},{"properties":{"city":"Downingtown","country":"United States","geo_score":0.857,"zip code":"19335","id":"ab84mm3clop1","geo_precision":"zip","state":"PA"},"type":"Feature","geometry":{"type":"Point","coordinates":[-75.749663,40.037049]}},{"properties":{"city":"Seattle","country":"United States","geo_score":0.857,"zip code":"98102","id":"ab84mmbdagmj","geo_precision":"zip","state":"WA"},"type":"Feature","geometry":{"type":"Point","coordinates":[-121.803388,47.432251]}},{"properties":{"city":"Mansfield","country":"United States","geo_score":0.857,"zip code":"02048","id":"ab84mlxknodm","geo_precision":"zip","state":"MA"},"type":"Feature","geometry":{"type":"Point","coordinates":[-71.24533,41.998155]}},{"properties":{"city":"Acton","country":"United States","geo_score":0.857,"zip code":"01720","id":"ab84mm7noxb5","geo_precision":"zip","state":"MA"},"type":"Feature","geometry":{"type":"Point","coordinates":[-71.409506,42.475093]}},{"properties":{"city":"Portland","country":"United States","geo_score":0.857,"zip code":"97214","id":"ab84mmby6eb6","geo_precision":"zip","state":"OR"},"type":"Feature","geometry":{"type":"Point","coordinates":[-122.660373,45.515396]}},{"properties":{"city":"St Louis","country":"United States","geo_score":0.857,"zip code":"63124","id":"ab84mm0cfzzw","geo_precision":"zip","state":"MO"},"type":"Feature","geometry":{"type":"Point","coordinates":[-90.377566,38.637201]}},{"properties":{"city":"Burlington","country":"United States","geo_score":0.857,"zip code":"05401","id":"ab84mmap1u9r","geo_precision":"zip","state":"VT"},"type":"Feature","geometry":{"type":"Point","coordinates":[-73.151384,44.507404]}},{"properties":{"city":"Saint Paul","country":"United States","geo_score":0.857,"zip code":"55105","id":"ab84mlvveax5","geo_precision":"zip","state":"MN"},"type":"Feature","geometry":{"type":"Point","coordinates":[-93.16097,44.934515]}},{"properties":{"city":"Sterling","country":"United States","geo_score":0.857,"zip code":"20165","id":"ab84mm7mb791","geo_precision":"zip","state":"VA"},"type":"Feature","geometry":{"type":"Point","coordinates":[-77.386647,39.047157]}},{"properties":{"city":"Canandaigua","country":"United States","geo_score":0.857,"zip code":"14424","id":"ab84mm7luodi","geo_precision":"zip","state":"NY"},"type":"Feature","geometry":{"type":"Point","coordinates":[-77.221924,42.94312]}},{"properties":{"city":"Bayside","country":"United States","geo_score":0.857,"zip code":"95524","id":"ab84mm7iqoxo","geo_precision":"zip","state":"CA"},"type":"Feature","geometry":{"type":"Point","coordinates":[-124.041746,40.823396]}},{"properties":{"city":"Oak Ridge","country":"United States","geo_score":0.857,"zip code":"37830","id":"ab84mm2ap0tw","geo_precision":"zip","state":"TN"},"type":"Feature","geometry":{"type":"Point","coordinates":[-84.202976,36.052579]}},{"properties":{"city":"Pune","country":"India","geo_score":0.571,"zip code":"411048","id":"ab84mm41o51v","geo_precision":"city","state":null},"type":"Feature","geometry":{"type":"Point","coordinates":[-156.685833,20.882222]}},{"properties":{"city":"Fox Point","country":"United States","geo_score":0.857,"zip code":"53217","id":"ab84mm8jyavo","geo_precision":"zip","state":"WI"},"type":"Feature","geometry":{"type":"Point","coordinates":[-87.933386,43.13446]}},{"properties":{"city":"Hyattsville","country":"United States","geo_score":0.857,"zip code":"20785","id":"ab84mm208sdv","geo_precision":"zip","state":"MD"},"type":"Feature","geometry":{"type":"Point","coordinates":[-76.879973,38.923723]}},{"properties":{"city":"Andover","country":"United States","geo_score":0.857,"zip code":"06232","id":"ab84mmat8kf3","geo_precision":"zip","state":"CT"},"type":"Feature","geometry":{"type":"Point","coordinates":[-72.374634,41.731847]}},{"properties":{"city":"Norwalk","country":"United States","geo_score":0.857,"zip code":"06853","id":"ab84mm1je3im","geo_precision":"zip","state":"CT"},"type":"Feature","geometry":{"type":"Point","coordinates":[-73.436508,41.063986]}},{"properties":{"city":"Wausau","country":"United States","geo_score":0.857,"zip code":"54401","id":"ab84mmbj93i9","geo_precision":"zip","state":"WI"},"type":"Feature","geometry":{"type":"Point","coordinates":[-89.726791,44.951635]}},{"properties":{"city":"Stratford","country":"United States","geo_score":0.857,"zip code":"06614","id":"ab84mlz0rv5p","geo_precision":"zip","state":"CT"},"type":"Feature","geometry":{"type":"Point","coordinates":[-73.130353,41.216006]}},{"properties":{"city":"Lincoln","country":"United States","geo_score":0.857,"zip code":"68516","id":"ab84mm2yw3o7","geo_precision":"zip","state":"NE"},"type":"Feature","geometry":{"type":"Point","coordinates":[-96.661769,40.777556]}},{"properties":{"city":"Cheltenham","country":"United States","geo_score":0.857,"zip code":"19012","id":"ab84mm8jx54f","geo_precision":"zip","state":"PA"},"type":"Feature","geometry":{"type":"Point","coordinates":[-75.131842,40.061778]}},{"properties":{"city":"APO","country":"United States","geo_score":0.0,"zip code":"09839","id":"ab84mlz39fl0","geo_precision":"unmatched","state":"AE"},"type":"Feature","geometry":null},{"properties":{"city":"Holtsville","country":"United States","geo_score":0.857,"zip code":"11742","id":"ab84mm0r6q0c","geo_precision":"zip","state":"NY"},"type":"Feature","geometry":{"type":"Point","coordinates":[-73.048985,40.798994]}},{"properties":{"city":"Saint Peters","country":"United States","geo_score":0.857,"zip code":"63376","id":"ab84mm91p0is","geo_precision":"zip","state":"MO"},"type":"Feature","geometry":{"type":"Point","coordinates":[-90.661514,38.760608]}},{"properties":{"city":"Stamford","country":"United States","geo_score":0.857,"zip code":"06905","id":"ab84mm9vq9le","geo_precision":"zip","state":"CT"},"type":"Feature","geometry":{"type":"Point","coordinates":[-73.555679,41.066764]}},{"properties":{"city":"Damascus","country":"United States","geo_score":0.857,"zip code":"20872","id":"ab84mm666idb","geo_precision":"zip","state":"MD"},"type":"Feature","geometry":{"type":"Point","coordinates":[-77.19776,39.317327]}},{"properties":{"city":"Kensington","country":"United States","geo_score":0.857,"zip code":"20895","id":"ab84mlyeg865","geo_precision":"zip","state":"MD"},"type":"Feature","geometry":{"type":"Point","coordinates":[-77.062756,39.025387]}},{"properties":{"city":"Pueblo","country":"United States","geo_score":0.857,"zip code":"81005","id":"ab84mmc02zim","geo_precision":"zip","state":"CO"},"type":"Feature","geometry":{"type":"Point","coordinates":[-104.669976,38.261114]}},{"properties":{"city":"Minneapolis","country":"United States","geo_score":0.857,"zip code":"55419","id":"ab84mm3svuh4","geo_precision":"zip","state":"MN"},"type":"Feature","geometry":{"type":"Point","coordinates":[-93.282724,44.890914]}},{"properties":{"city":"Bethesda","country":"United States","geo_score":0.857,"zip code":"20817","id":"ab84mm0lg29i","geo_precision":"zip","state":"MD"},"type":"Feature","geometry":{"type":"Point","coordinates":[-77.12859,38.985388]}},{"properties":{"city":"Richmond","country":"United States","geo_score":0.857,"zip code":"23229","id":"ab84mmag42c1","geo_precision":"zip","state":"VA"},"type":"Feature","geometry":{"type":"Point","coordinates":[-77.567765,37.616813]}},{"properties":{"city":"Columbia","country":"United States","geo_score":0.857,"zip code":"65201","id":"ab84mlxe6wus","geo_precision":"zip","state":"MO"},"type":"Feature","geometry":{"type":"Point","coordinates":[-92.472408,38.911702]}},{"properties":{"city":"Florence","country":"United States","geo_score":0.857,"zip code":"01062","id":"ab84mm7u3mvz","geo_precision":"zip","state":"MA"},"type":"Feature","geometry":{"type":"Point","coordinates":[-72.845227,42.328838]}},{"properties":{"city":"Mounds View","country":"United States","geo_score":0.857,"zip code":"55112","id":"ab84mlxs6wer","geo_precision":"zip","state":"MN"},"type":"Feature","geometry":{"type":"Point","coordinates":[-93.156611,45.050244]}},{"properties":{"city":"The Woodlands","country":"United States","geo_score":0.857,"zip code":"77382","id":"ab84mm9z9ul4","geo_precision":"zip","state":"TX"},"type":"Feature","geometry":{"type":"Point","coordinates":[-95.434241,29.83399]}},{"properties":{"city":"Derwood","country":"United States","geo_score":0.857,"zip code":"20855","id":"ab84mm1195py","geo_precision":"zip","state":"MD"},"type":"Feature","geometry":{"type":"Point","coordinates":[-77.138145,39.142857]}},{"properties":{"city":"Mill Valley","country":"United States","geo_score":0.857,"zip code":"94941","id":"ab84mlwx2gvk","geo_precision":"zip","state":"CA"},"type":"Feature","geometry":{"type":"Point","coordinates":[-122.562937,37.886325]}},{"properties":{"city":"Woodstock","country":"United States","geo_score":0.857,"zip code":"12498","id":"ab84mm1na4xc","geo_precision":"zip","state":"NY"},"type":"Feature","geometry":{"type":"Point","coordinates":[-74.076252,42.016759]}},{"properties":{"city":"Erfurt","country":"Germany","geo_score":0.0,"zip code":"99094","id":"ab84mlwfy16j","geo_precision":"unmatched","state":null},"type":"Feature","geometry":null},{"properties":{"city":"East Lansing","country":"United States","geo_score":0.857,"zip code":"48823","id":"ab84mm87edjs","geo_precision":"zip","state":"MI"},"type":"Feature","geometry":{"type":"Point","coordinates":[-84.503527,42.737334]}},{"properties":{"city":"Rockland","country":"United States","geo_score":0.857,"zip code":"04841","id":"ab84mm7ctsaw","geo_precision":"zip","state":"ME"},"type":"Feature","geometry":{"type":"Point","coordinates":[-69.116429,44.154802]}},{"properties":{"city":"Shelby","country":"United States","geo_score":0.857,"zip code":"28150","id":"ab84mlz5rwm0","geo_precision":"zip","state":"NC"},"type":"Feature","geometry":{"type":"Point","coordinates":[-81.629261,35.330961]}},{"properties":{"city":"Hickory","country":"United States","geo_score":0.857,"zip code":"28601","id":"ab84mmao7x64","geo_precision":"zip","state":"NC"},"type":"Feature","geometry":{"type":"Point","coordinates":[-81.323697,35.778188]}},{"properties":{"city":"Bethel","country":"United States","geo_score":0.857,"zip code":"06801","id":"ab84mm18292w","geo_precision":"zip","state":"CT"},"type":"Feature","geometry":{"type":"Point","coordinates":[-73.39908,41.381244]}},{"properties":{"city":"Wareham","country":"United States","geo_score":0.857,"zip code":"02571","id":"ab84mmal9rcr","geo_precision":"zip","state":"MA"},"type":"Feature","geometry":{"type":"Point","coordinates":[-70.749481,41.772326]}},{"properties":{"city":"San Diego","country":"United States","geo_score":0.857,"zip code":"92130","id":"ab84mm7vvw7t","geo_precision":"zip","state":"CA"},"type":"Feature","geometry":{"type":"Point","coordinates":[-117.161871,32.952467]}},{"properties":{"city":"San Diego","country":"United States","geo_score":0.857,"zip code":"92130","id":"ab84mm1edni1","geo_precision":"zip","state":"CA"},"type":"Feature","geometry":{"type":"Point","coordinates":[-117.161871,32.952467]}},{"properties":{"city":"Charlottesville","country":"United States","geo_score":0.857,"zip code":"22901","id":"ab84mm7qvy86","geo_precision":"zip","state":"VA"},"type":"Feature","geometry":{"type":"Point","coordinates":[-78.444177,37.991529]}},{"properties":{"city":"Norwood","country":"United States","geo_score":0.857,"zip code":"02062","id":"ab84mlwygrqt","geo_precision":"zip","state":"MA"},"type":"Feature","geometry":{"type":"Point","coordinates":[-71.196277,42.182798]}},{"properties":{"city":"Andover","country":"United States","geo_score":0.857,"zip code":"01810","id":"ab84mlypapuy","geo_precision":"zip","state":"MA"},"type":"Feature","geometry":{"type":"Point","coordinates":[-71.165685,42.647991]}},{"properties":{"city":"Amherst","country":"United States","geo_score":0.857,"zip code":"01002","id":"ab84mm7rxmlg","geo_precision":"zip","state":"MA"},"type":"Feature","geometry":{"type":"Point","coordinates":[-72.470364,42.377868]}},{"properties":{"city":"East Lyme","country":"United States","geo_score":0.857,"zip code":"06333","id":"ab84mman1lmh","geo_precision":"zip","state":"CT"},"type":"Feature","geometry":{"type":"Point","coordinates":[-72.236794,41.378842]}},{"properties":{"city":"Roanoke","country":"United States","geo_score":0.857,"zip code":"24014","id":"ab84mm1yym1a","geo_precision":"zip","state":"VA"},"type":"Feature","geometry":{"type":"Point","coordinates":[-79.92837,37.231805]}},{"properties":{"city":"Plainview","country":"United States","geo_score":0.857,"zip code":"11803","id":"ab84mm0efq5p","geo_precision":"zip","state":"NY"},"type":"Feature","geometry":{"type":"Point","coordinates":[-73.601772,40.754757]}},{"properties":{"city":"Las Vegas","country":"United States","geo_score":0.857,"zip code":"89117","id":"ab84mm47vnid","geo_precision":"zip","state":"NV"},"type":"Feature","geometry":{"type":"Point","coordinates":[-115.217932,36.130992]}},{"properties":{"city":"Lexington","country":"United States","geo_score":0.857,"zip code":"40513","id":"ab84mm4gsn3v","geo_precision":"zip","state":"KY"},"type":"Feature","geometry":{"type":"Point","coordinates":[-84.605827,38.01513]}},{"properties":{"city":"Centennial","country":"United States","geo_score":0.857,"zip code":"80122","id":"ab84mm3ppetj","geo_precision":"zip","state":"CO"},"type":"Feature","geometry":{"type":"Point","coordinates":[-104.952759,39.58721]}},{"properties":{"city":"North Ridgeville","country":"United States","geo_score":0.857,"zip code":"44039","id":"ab84mm9ate9z","geo_precision":"zip","state":"OH"},"type":"Feature","geometry":{"type":"Point","coordinates":[-82.019365,41.377776]}},{"properties":{"city":"LeRoy","country":"United States","geo_score":0.857,"zip code":"14482","id":"ab84mm9cb3nt","geo_precision":"zip","state":"NY"},"type":"Feature","geometry":{"type":"Point","coordinates":[-77.918898,42.978673]}},{"properties":{"city":"Lakewood","country":"United States","geo_score":0.857,"zip code":"80226","id":"ab84mmbc8p9z","geo_precision":"zip","state":"CO"},"type":"Feature","geometry":{"type":"Point","coordinates":[-105.091502,39.710884]}},{"properties":{"city":"Austin","country":"United States","geo_score":0.857,"zip code":"78739","id":"ab84mm78a2vz","geo_precision":"zip","state":"TX"},"type":"Feature","geometry":{"type":"Point","coordinates":[-97.886794,30.172937]}},{"properties":{"city":"Shoreline","country":"United States","geo_score":0.857,"zip code":"98177","id":"ab84mm0acy21","geo_precision":"zip","state":"WA"},"type":"Feature","geometry":{"type":"Point","coordinates":[-121.803388,47.432251]}},{"properties":{"city":"Lakewood","country":"United States","geo_score":0.857,"zip code":"80226","id":"ab84mlyrx350","geo_precision":"zip","state":"CO"},"type":"Feature","geometry":{"type":"Point","coordinates":[-105.091502,39.710884]}},{"properties":{"city":"Glendora","country":"United States","geo_score":0.857,"zip code":"91741","id":"ab84mlyx6gey","geo_precision":"zip","state":"CA"},"type":"Feature","geometry":{"type":"Point","coordinates":[-118.298662,33.786594]}},{"properties":{"city":"Glastonbury","country":"United States","geo_score":0.857,"zip code":"06033","id":"ab84mm4rdveh","geo_precision":"zip","state":"CT"},"type":"Feature","geometry":{"type":"Point","coordinates":[-72.539332,41.703451]}},{"properties":{"city":"Youngwood","country":"United States","geo_score":0.857,"zip code":"15697","id":"ab84mm1m3msu","geo_precision":"zip","state":"PA"},"type":"Feature","geometry":{"type":"Point","coordinates":[-79.566984,40.239792]}},{"properties":{"city":"Smyrna","country":"United States","geo_score":0.857,"zip code":"19977","id":"ab84mm39ez9a","geo_precision":"zip","state":"DE"},"type":"Feature","geometry":{"type":"Point","coordinates":[-75.565131,39.194026]}},{"properties":{"city":"Owensboro","country":"United States","geo_score":0.857,"zip code":"42303","id":"ab84mlz5th3z","geo_precision":"zip","state":"KY"},"type":"Feature","geometry":{"type":"Point","coordinates":[-87.042939,37.779387]}},{"properties":{"city":"Islamabad","country":"pk","geo_score":0.0,"zip code":"44000","id":"ab84mm4wosuq","geo_precision":"unmatched","state":null},"type":"Feature","geometry":null},{"properties":{"city":"Stamford","country":"United States","geo_score":0.857,"zip code":"06903","id":"ab84mlx4tiwm","geo_precision":"zip","state":"CT"},"type":"Feature","geometry":{"type":"Point","coordinates":[-73.565919,41.136773]}},{"properties":{"city":"Juneau","country":"United States","geo_score":0.857,"zip code":"99801","id":"ab84mm9hvsmo","geo_precision":"zip","state":"AK"},"type":"Feature","geometry":{"type":"Point","coordinates":[-134.498611,58.358333]}},{"properties":{"city":"Menlo Park","country":"United States","geo_score":0.857,"zip code":"94025","id":"ab84mm7ho0in","geo_precision":"zip","state":"CA"},"type":"Feature","geometry":{"type":"Point","coordinates":[-122.159409,37.476327]}},{"properties":{"city":"Harrisonburg","country":"United States","geo_score":0.857,"zip code":"22801","id":"ab84mmb0mrpo","geo_precision":"zip","state":"VA"},"type":"Feature","geometry":{"type":"Point","coordinates":[-78.959752,38.486235]}},{"properties":{"city":"Bay Village","country":"United States","geo_score":0.857,"zip code":"44140","id":"ab84mm2j08vq","geo_precision":"zip","state":"OH"},"type":"Feature","geometry":{"type":"Point","coordinates":[-81.921513,41.490967]}},{"properties":{"city":"Mobile","country":"United States","geo_score":0.857,"zip code":"36609","id":"ab84mm8s65ai","geo_precision":"zip","state":"AL"},"type":"Feature","geometry":{"type":"Point","coordinates":[-88.185603,30.551887]}},{"properties":{"city":"Apple Valley","country":"United States","geo_score":0.857,"zip code":"55124","id":"ab84mm4jvtbf","geo_precision":"zip","state":"MN"},"type":"Feature","geometry":{"type":"Point","coordinates":[-93.21772,44.731909]}},{"properties":{"city":"Peterborough","country":"United States","geo_score":0.857,"zip code":"03458","id":"ab84mlwe7wwd","geo_precision":"zip","state":"NH"},"type":"Feature","geometry":{"type":"Point","coordinates":[-72.024525,42.901749]}},{"properties":{"city":"Pennington","country":"United States","geo_score":0.857,"zip code":"08534","id":"ab84mm8ii721","geo_precision":"zip","state":"NJ"},"type":"Feature","geometry":{"type":"Point","coordinates":[-74.813557,40.32863]}},{"properties":{"city":"Wayland","country":"United States","geo_score":0.857,"zip code":"01778","id":"ab84mm1p0ilk","geo_precision":"zip","state":"MA"},"type":"Feature","geometry":{"type":"Point","coordinates":[-71.459405,42.446396]}},{"properties":{"city":"Hibbing","country":"United States","geo_score":0.857,"zip code":"55746","id":"ab84mm1zua1x","geo_precision":"zip","state":"MN"},"type":"Feature","geometry":{"type":"Point","coordinates":[-93.020753,47.264659]}},{"properties":{"city":"Downers Grove","country":"United States","geo_score":0.857,"zip code":"60515","id":"ab84mm8w8quj","geo_precision":"zip","state":"IL"},"type":"Feature","geometry":{"type":"Point","coordinates":[-88.012267,41.796279]}},{"properties":{"city":"Bellingham","country":"United States","geo_score":0.857,"zip code":"98229","id":"ab84mm06eozd","geo_precision":"zip","state":"WA"},"type":"Feature","geometry":{"type":"Point","coordinates":[-122.410041,48.693122]}},{"properties":{"city":"Bainbridge Island","country":"United States","geo_score":0.857,"zip code":"98110","id":"ab84mlwj99h8","geo_precision":"zip","state":"WA"},"type":"Feature","geometry":{"type":"Point","coordinates":[-122.579862,47.66704]}},{"properties":{"city":"Havre de Grace","country":"United States","geo_score":0.857,"zip code":"21078","id":"ab84mm66lsf1","geo_precision":"zip","state":"MD"},"type":"Feature","geometry":{"type":"Point","coordinates":[-76.15517,39.560095]}},{"properties":{"city":"Madison","country":"United States","geo_score":0.857,"zip code":"53715","id":"ab84mm9h4yat","geo_precision":"zip","state":"WI"},"type":"Feature","geometry":{"type":"Point","coordinates":[-89.394619,43.061839]}},{"properties":{"city":"Okemos","country":"United States","geo_score":0.857,"zip code":"48864","id":"ab84mmaghwz0","geo_precision":"zip","state":"MI"},"type":"Feature","geometry":{"type":"Point","coordinates":[-84.425136,42.719534]}},{"properties":{"city":"Norwalk","country":"United States","geo_score":0.857,"zip code":"06855","id":"ab84mm51ew88","geo_precision":"zip","state":"CT"},"type":"Feature","geometry":{"type":"Point","coordinates":[-73.398362,41.099196]}},{"properties":{"city":"Grand Rapids","country":"United States","geo_score":0.857,"zip code":"49504","id":"ab84mlwfxek8","geo_precision":"zip","state":"MI"},"type":"Feature","geometry":{"type":"Point","coordinates":[-85.768092,43.001413]}},{"properties":{"city":"Center Valley","country":"United States","geo_score":0.857,"zip code":"18034","id":"ab84mm0lryq2","geo_precision":"zip","state":"PA"},"type":"Feature","geometry":{"type":"Point","coordinates":[-75.432682,40.551765]}},{"properties":{"city":"New City","country":"United States","geo_score":0.857,"zip code":"10956","id":"ab84mmbnoi76","geo_precision":"zip","state":"NY"},"type":"Feature","geometry":{"type":"Point","coordinates":[-73.994585,41.186206]}},{"properties":{"city":"Hartford","country":"United States","geo_score":0.857,"zip code":"06120","id":"ab84mm9zsdln","geo_precision":"zip","state":"CT"},"type":"Feature","geometry":{"type":"Point","coordinates":[-72.669936,41.785449]}},{"properties":{"city":"North little rock","country":"United States","geo_score":0.857,"zip code":"72116","id":"ab84mlzusb8f","geo_precision":"zip","state":"AR"},"type":"Feature","geometry":{"type":"Point","coordinates":[-92.23126,34.836479]}},{"properties":{"city":"Mount Gilead","country":"United States","geo_score":0.857,"zip code":"43338","id":"ab84mm9f4qmw","geo_precision":"zip","state":"OH"},"type":"Feature","geometry":{"type":"Point","coordinates":[-82.729898,40.579504]}},{"properties":{"city":"Gainesville","country":"United States","geo_score":0.857,"zip code":"32601","id":"ab84mm1k9qsr","geo_precision":"zip","state":"FL"},"type":"Feature","geometry":{"type":"Point","coordinates":[-82.407885,29.666356]}},{"properties":{"city":"Gyungju","country":"kr","geo_score":0.714,"zip code":"780","id":"ab84mmbak11f","geo_precision":"zip","state":null},"type":"Feature","geometry":{"type":"Point","coordinates":[-66.607429,18.001995]}},{"properties":{"city":"Cranford","country":"United States","geo_score":0.857,"zip code":"07016","id":"ab84mlx5im27","geo_precision":"zip","state":"NJ"},"type":"Feature","geometry":{"type":"Point","coordinates":[-74.287092,40.658991]}},{"properties":{"city":"Lynchburg","country":"United States","geo_score":0.857,"zip code":"24503","id":"ab84mm41co6c","geo_precision":"zip","state":"VA"},"type":"Feature","geometry":{"type":"Point","coordinates":[-79.27864,37.504584]}},{"properties":{"city":"Metairie","country":"United States","geo_score":0.857,"zip code":"70006","id":"ab84mm0gzg15","geo_precision":"zip","state":"LA"},"type":"Feature","geometry":{"type":"Point","coordinates":[-90.195842,30.013413]}},{"properties":{"city":"Mobile","country":"United States","geo_score":0.857,"zip code":"36695","id":"ab84mlyn89yf","geo_precision":"zip","state":"AL"},"type":"Feature","geometry":{"type":"Point","coordinates":[-88.226989,30.666959]}},{"properties":{"city":"Madison","country":"United States","geo_score":0.857,"zip code":"53704","id":"ab84mlykzj30","geo_precision":"zip","state":"WI"},"type":"Feature","geometry":{"type":"Point","coordinates":[-89.379563,43.118328]}},{"properties":{"city":"Ulster Park","country":"United States","geo_score":0.857,"zip code":"12487","id":"ab84mm589qp8","geo_precision":"zip","state":"NY"},"type":"Feature","geometry":{"type":"Point","coordinates":[-74.017907,41.857076]}},{"properties":{"city":"Winchester","country":"United States","geo_score":0.857,"zip code":"01890","id":"ab84mlzm3z4u","geo_precision":"zip","state":"MA"},"type":"Feature","geometry":{"type":"Point","coordinates":[-71.148779,42.454545]}},{"properties":{"city":"Austin","country":"United States","geo_score":0.857,"zip code":"78731","id":"ab84mm8g98pn","geo_precision":"zip","state":"TX"},"type":"Feature","geometry":{"type":"Point","coordinates":[-97.769769,30.345554]}},{"properties":{"city":"Wynnewood","country":"United States","geo_score":0.857,"zip code":"19096","id":"ab84mm8y1l93","geo_precision":"zip","state":"PA"},"type":"Feature","geometry":{"type":"Point","coordinates":[-75.275462,39.986223]}},{"properties":{"city":"Eden Prairie","country":"United States","geo_score":0.857,"zip code":"55347","id":"ab84mlyt19i7","geo_precision":"zip","state":"MN"},"type":"Feature","geometry":{"type":"Point","coordinates":[-93.459829,44.841713]}},{"properties":{"city":"Millville","country":"United States","geo_score":0.857,"zip code":"01529","id":"ab84mm3mgyvp","geo_precision":"zip","state":"MA"},"type":"Feature","geometry":{"type":"Point","coordinates":[-71.846943,42.124662]}},{"properties":{"city":"Newtown","country":"United States","geo_score":0.857,"zip code":"06470","id":"ab84mm6p9634","geo_precision":"zip","state":"CT"},"type":"Feature","geometry":{"type":"Point","coordinates":[-73.35623,41.379262]}},{"properties":{"city":"Somers","country":"United States","geo_score":0.857,"zip code":"10589","id":"ab84mlz4qwtn","geo_precision":"zip","state":"NY"},"type":"Feature","geometry":{"type":"Point","coordinates":[-73.693685,41.326544]}},{"properties":{"city":"Boston","country":"United States","geo_score":0.857,"zip code":"02116","id":"ab84mmbyhwlz","geo_precision":"zip","state":"MA"},"type":"Feature","geometry":{"type":"Point","coordinates":[-71.086095,42.347207]}},{"properties":{"city":"Gilford","country":"United States","geo_score":0.857,"zip code":"03249","id":"ab84mm9pnp3w","geo_precision":"zip","state":"NH"},"type":"Feature","geometry":{"type":"Point","coordinates":[-71.478141,43.572782]}},{"properties":{"city":"Toms River","country":"United States","geo_score":0.857,"zip code":"08753","id":"ab84mm3mry1s","geo_precision":"zip","state":"NJ"},"type":"Feature","geometry":{"type":"Point","coordinates":[-74.204308,39.942063]}},{"properties":{"city":"Ellicott City","country":"United States","geo_score":0.857,"zip code":"21042","id":"ab84mmagh3fm","geo_precision":"zip","state":"MD"},"type":"Feature","geometry":{"type":"Point","coordinates":[-76.897247,39.261897]}},{"properties":{"city":"Auburn","country":"United States","geo_score":0.857,"zip code":"98001","id":"ab84mm98bxuy","geo_precision":"zip","state":"WA"},"type":"Feature","geometry":{"type":"Point","coordinates":[-121.821908,47.465495]}},{"properties":{"city":"Arlington","country":"United States","geo_score":0.857,"zip code":"22207","id":"ab84mm2b10ju","geo_precision":"zip","state":"VA"},"type":"Feature","geometry":{"type":"Point","coordinates":[-77.122344,38.907416]}},{"properties":{"city":"Scotts Valley","country":"United States","geo_score":0.857,"zip code":"95066","id":"ab84mm9ymgfo","geo_precision":"zip","state":"CA"},"type":"Feature","geometry":{"type":"Point","coordinates":[-122.006276,37.071387]}}],"is_temporal":false,"author":{"url":"","metadata":null,"contact_name":null,"contact_address":null,"source":null,"contact_phone":null},"source":"","pagination":{"sort":null,"start":0,"total":193,"limit":1000000},"state":"complete","tags":"","published":"2014-08-17T00:36:24-04:00","id":308918}