{"type":"FeatureCollection","data_type":"Dataset","url_type":null,"permissions":[{"permissions":{"download":true,"view":true},"group_id":"everyone"}],"classification":null,"title":"Student Info Listing1 2010","count":69,"stream_id":308922,"contributor":{"url":"http://geocommons.com/users/58623","name":"cashford"},"data_attributes":null,"calculation_params":null,"icon_link":null,"link":"http://geocommons.com/overlays/308922.json","extent":[-157.716,21.3919,-70.3978,47.4323],"geometry_types":["point"],"unique_name":null,"name":"Student Info Listing1 2010","feature_count":69,"description":"","next_feature":null,"is_raster":false,"short_classification":"Y","stats":{},"features":[{"properties":{"city":"Reisterstown","geo_score":0.857,"zip code":"21136","id":"ab84t9vxu3dm","geo_precision":"zip","state":"MD"},"type":"Feature","geometry":{"type":"Point","coordinates":[-76.798032,39.543993]}},{"properties":{"city":"New York","geo_score":0.857,"zip code":"10033","id":"ab84t9vjxz7f","geo_precision":"zip","state":"NY"},"type":"Feature","geometry":{"type":"Point","coordinates":[-73.934764,40.851293]}},{"properties":{"city":"Philadelphia","geo_score":0.857,"zip code":"19143","id":"ab84t9ydfc3o","geo_precision":"zip","state":"PA"},"type":"Feature","geometry":{"type":"Point","coordinates":[-75.187023,39.957312]}},{"properties":{"city":"Easthampton","geo_score":0.857,"zip code":"01027","id":"ab84ta4dwj63","geo_precision":"zip","state":"MA"},"type":"Feature","geometry":{"type":"Point","coordinates":[-72.737593,42.287589]}},{"properties":{"city":"Durham","geo_score":0.857,"zip code":"06422","id":"ab84t9vrrz3x","geo_precision":"zip","state":"CT"},"type":"Feature","geometry":{"type":"Point","coordinates":[-72.682297,41.462468]}},{"properties":{"city":"Cicero","geo_score":0.857,"zip code":"13039","id":"ab84ta407u9w","geo_precision":"zip","state":"NY"},"type":"Feature","geometry":{"type":"Point","coordinates":[-76.154128,43.125491]}},{"properties":{"city":"Scarborough","geo_score":0.857,"zip code":"04074","id":"ab84t9xcpgjo","geo_precision":"zip","state":"ME"},"type":"Feature","geometry":{"type":"Point","coordinates":[-70.397829,43.642026]}},{"properties":{"city":"Pittsburgh","geo_score":0.857,"zip code":"15238","id":"ab84ta52tuns","geo_precision":"zip","state":"PA"},"type":"Feature","geometry":{"type":"Point","coordinates":[-79.888663,40.577012]}},{"properties":{"city":"Houston","geo_score":0.857,"zip code":"77019","id":"ab84t9q0tulc","geo_precision":"zip","state":"TX"},"type":"Feature","geometry":{"type":"Point","coordinates":[-95.434241,29.83399]}},{"properties":{"city":"Mamaroneck","geo_score":0.857,"zip code":"10543","id":"ab84t9we62d3","geo_precision":"zip","state":"NY"},"type":"Feature","geometry":{"type":"Point","coordinates":[-73.738779,40.949199]}},{"properties":{"city":"Newton","geo_score":0.857,"zip code":"02459","id":"ab84ta1iejbs","geo_precision":"zip","state":"MA"},"type":"Feature","geometry":{"type":"Point","coordinates":[-71.183298,42.334146]}},{"properties":{"city":"North Canton","geo_score":0.857,"zip code":"44720","id":"ab84t9scir4i","geo_precision":"zip","state":"OH"},"type":"Feature","geometry":{"type":"Point","coordinates":[-81.433036,40.895607]}},{"properties":{"city":"Orchard Park","geo_score":0.857,"zip code":"14127","id":"ab84t9ty941w","geo_precision":"zip","state":"NY"},"type":"Feature","geometry":{"type":"Point","coordinates":[-78.704437,42.742541]}},{"properties":{"city":"Davidson","geo_score":0.714,"zip code":"28035","id":"ab84ta21wht6","geo_precision":"city","state":"NC"},"type":"Feature","geometry":{"type":"Point","coordinates":[-80.844594,35.283427]}},{"properties":{"city":"Denver","geo_score":0.857,"zip code":"80209","id":"ab84ta1qnfrj","geo_precision":"zip","state":"CO"},"type":"Feature","geometry":{"type":"Point","coordinates":[-104.964236,39.707332]}},{"properties":{"city":"Kailua","geo_score":0.857,"zip code":"96734","id":"ab84t9twn24j","geo_precision":"zip","state":"HI"},"type":"Feature","geometry":{"type":"Point","coordinates":[-157.715833,21.391944]}},{"properties":{"city":"Aliso Viejo","geo_score":0.857,"zip code":"92656","id":"ab84t9vc27ab","geo_precision":"zip","state":"CA"},"type":"Feature","geometry":{"type":"Point","coordinates":[-117.751341,33.603459]}},{"properties":{"city":"Woodridge","geo_score":0.857,"zip code":"60517","id":"ab84t9wsc6ds","geo_precision":"zip","state":"IL"},"type":"Feature","geometry":{"type":"Point","coordinates":[-88.041731,41.736788]}},{"properties":{"city":"Cambria","geo_score":0.857,"zip code":"93428","id":"ab84t9q8hbx6","geo_precision":"zip","state":"CA"},"type":"Feature","geometry":{"type":"Point","coordinates":[-120.954454,35.587748]}},{"properties":{"city":"Camarillo","geo_score":0.857,"zip code":"93010","id":"ab84t9x2j37a","geo_precision":"zip","state":"CA"},"type":"Feature","geometry":{"type":"Point","coordinates":[-119.084253,34.307783]}},{"properties":{"city":"Gaithersburg","geo_score":0.857,"zip code":"20878","id":"ab84t9yh9zmc","geo_precision":"zip","state":"MD"},"type":"Feature","geometry":{"type":"Point","coordinates":[-77.252483,39.117886]}},{"properties":{"city":"Albuquerque","geo_score":0.857,"zip code":"87107","id":"ab84t9yh1myv","geo_precision":"zip","state":"NM"},"type":"Feature","geometry":{"type":"Point","coordinates":[-106.638281,35.140444]}},{"properties":{"city":"Elmhurst","geo_score":0.857,"zip code":"60126","id":"ab84t9qmh8v0","geo_precision":"zip","state":"IL"},"type":"Feature","geometry":{"type":"Point","coordinates":[-87.953954,41.93503]}},{"properties":{"city":"Franklin","geo_score":0.857,"zip code":"16323","id":"ab84t9oqpkla","geo_precision":"zip","state":"PA"},"type":"Feature","geometry":{"type":"Point","coordinates":[-79.896723,41.450334]}},{"properties":{"city":"Brisbane","geo_score":0.857,"zip code":"94005","id":"ab84ta3ke67u","geo_precision":"zip","state":"CA"},"type":"Feature","geometry":{"type":"Point","coordinates":[-122.404332,37.689182]}},{"properties":{"city":"Collingswood","geo_score":0.857,"zip code":"08108","id":"ab84ta0j75p0","geo_precision":"zip","state":"NJ"},"type":"Feature","geometry":{"type":"Point","coordinates":[-74.991268,39.834003]}},{"properties":{"city":"Lee's Summit","geo_score":0.857,"zip code":"64086","id":"ab84ta19of1m","geo_precision":"zip","state":"MO"},"type":"Feature","geometry":{"type":"Point","coordinates":[-94.288086,38.944006]}},{"properties":{"city":"Skokie","geo_score":0.857,"zip code":"60076","id":"ab84ta0o6fop","geo_precision":"zip","state":"IL"},"type":"Feature","geometry":{"type":"Point","coordinates":[-87.883566,42.057878]}},{"properties":{"city":"Pittsburgh","geo_score":0.857,"zip code":"15221","id":"ab84t9q7ejri","geo_precision":"zip","state":"PA"},"type":"Feature","geometry":{"type":"Point","coordinates":[-79.865049,40.417291]}},{"properties":{"city":"Hershey","geo_score":0.857,"zip code":"17033","id":"ab84ta0tni3p","geo_precision":"zip","state":"PA"},"type":"Feature","geometry":{"type":"Point","coordinates":[-76.681914,40.290368]}},{"properties":{"city":"Saint Paul","geo_score":0.857,"zip code":"55105","id":"ab84t9vbbdtp","geo_precision":"zip","state":"MN"},"type":"Feature","geometry":{"type":"Point","coordinates":[-93.16097,44.934515]}},{"properties":{"city":"Mount Kisco","geo_score":0.857,"zip code":"10549","id":"ab84ta2w4096","geo_precision":"zip","state":"NY"},"type":"Feature","geometry":{"type":"Point","coordinates":[-73.72286,41.197329]}},{"properties":{"city":"Albuquerque","geo_score":0.857,"zip code":"87122","id":"ab84ta2njs27","geo_precision":"zip","state":"NM"},"type":"Feature","geometry":{"type":"Point","coordinates":[-106.5293,35.18531]}},{"properties":{"city":"Alexandria","geo_score":0.857,"zip code":"22307","id":"ab84t9xmn92c","geo_precision":"zip","state":"VA"},"type":"Feature","geometry":{"type":"Point","coordinates":[-77.063033,38.785392]}},{"properties":{"city":"Nellysford","geo_score":0.857,"zip code":"22958","id":"ab84t9oyx8em","geo_precision":"zip","state":"VA"},"type":"Feature","geometry":{"type":"Point","coordinates":[-78.899467,37.884862]}},{"properties":{"city":"Oakland","geo_score":0.857,"zip code":"94618","id":"ab84ta0o8w1o","geo_precision":"zip","state":"CA"},"type":"Feature","geometry":{"type":"Point","coordinates":[-122.240179,37.843126]}},{"properties":{"city":"Phoenix","geo_score":0.857,"zip code":"21131","id":"ab84t9rddwe1","geo_precision":"zip","state":"MD"},"type":"Feature","geometry":{"type":"Point","coordinates":[-76.546078,39.489551]}},{"properties":{"city":"Holland","geo_score":0.857,"zip code":"49424","id":"ab84t9v8p9rd","geo_precision":"zip","state":"MI"},"type":"Feature","geometry":{"type":"Point","coordinates":[-86.121901,42.924578]}},{"properties":{"city":"Montclair","geo_score":0.857,"zip code":"07042","id":"ab84t9ve1v8p","geo_precision":"zip","state":"NJ"},"type":"Feature","geometry":{"type":"Point","coordinates":[-74.216389,40.811908]}},{"properties":{"city":"Ames","geo_score":0.857,"zip code":"50010","id":"ab84ta16roqu","geo_precision":"zip","state":"IA"},"type":"Feature","geometry":{"type":"Point","coordinates":[-93.600254,42.037879]}},{"properties":{"city":"McLean","geo_score":0.857,"zip code":"22101","id":"ab84ta44ot8x","geo_precision":"zip","state":"VA"},"type":"Feature","geometry":{"type":"Point","coordinates":[-77.18672,38.935202]}},{"properties":{"city":"Hasbrouck Heights","geo_score":0.857,"zip code":"07604","id":"ab84ta3kub2q","geo_precision":"zip","state":"NJ"},"type":"Feature","geometry":{"type":"Point","coordinates":[-74.075585,40.862349]}},{"properties":{"city":"Riverdale","geo_score":0.857,"zip code":"10471","id":"ab84t9rxeo9e","geo_precision":"zip","state":"NY"},"type":"Feature","geometry":{"type":"Point","coordinates":[-73.898677,40.899178]}},{"properties":{"city":"Downingtown","geo_score":0.857,"zip code":"19335","id":"ab84ta3qar74","geo_precision":"zip","state":"PA"},"type":"Feature","geometry":{"type":"Point","coordinates":[-75.749663,40.037049]}},{"properties":{"city":"Seattle","geo_score":0.857,"zip code":"98102","id":"ab84t9xsaaxg","geo_precision":"zip","state":"WA"},"type":"Feature","geometry":{"type":"Point","coordinates":[-121.803388,47.432251]}},{"properties":{"city":"Mansfield","geo_score":0.857,"zip code":"02048","id":"ab84ta4zpydp","geo_precision":"zip","state":"MA"},"type":"Feature","geometry":{"type":"Point","coordinates":[-71.24533,41.998155]}},{"properties":{"city":"Acton","geo_score":0.857,"zip code":"01720","id":"ab84t9y4r09w","geo_precision":"zip","state":"MA"},"type":"Feature","geometry":{"type":"Point","coordinates":[-71.409506,42.475093]}},{"properties":{"city":"Portland","geo_score":0.857,"zip code":"97214","id":"ab84t9r24es2","geo_precision":"zip","state":"OR"},"type":"Feature","geometry":{"type":"Point","coordinates":[-122.660373,45.515396]}},{"properties":{"city":"St Louis","geo_score":0.857,"zip code":"63124","id":"ab84t9vtyw15","geo_precision":"zip","state":"MO"},"type":"Feature","geometry":{"type":"Point","coordinates":[-90.377566,38.637201]}},{"properties":{"city":"Burlington","geo_score":0.857,"zip code":"05401","id":"ab84t9ty5jz2","geo_precision":"zip","state":"VT"},"type":"Feature","geometry":{"type":"Point","coordinates":[-73.151384,44.507404]}},{"properties":{"city":"Saint Paul","geo_score":0.857,"zip code":"55105","id":"ab84t9p3z7cx","geo_precision":"zip","state":"MN"},"type":"Feature","geometry":{"type":"Point","coordinates":[-93.16097,44.934515]}},{"properties":{"city":"Sterling","geo_score":0.857,"zip code":"20165","id":"ab84t9xg9sxz","geo_precision":"zip","state":"VA"},"type":"Feature","geometry":{"type":"Point","coordinates":[-77.386647,39.047157]}},{"properties":{"city":"Canandaigua","geo_score":0.857,"zip code":"14424","id":"ab84t9uu6jmi","geo_precision":"zip","state":"NY"},"type":"Feature","geometry":{"type":"Point","coordinates":[-77.221924,42.94312]}},{"properties":{"city":"Bayside","geo_score":0.857,"zip code":"95524","id":"ab84t9tteacj","geo_precision":"zip","state":"CA"},"type":"Feature","geometry":{"type":"Point","coordinates":[-124.041746,40.823396]}},{"properties":{"city":"Oak Ridge","geo_score":0.857,"zip code":"37830","id":"ab84t9v7bggz","geo_precision":"zip","state":"TN"},"type":"Feature","geometry":{"type":"Point","coordinates":[-84.202976,36.052579]}},{"properties":{"city":"Fox Point","geo_score":0.857,"zip code":"53217","id":"ab84t9r9wjnu","geo_precision":"zip","state":"WI"},"type":"Feature","geometry":{"type":"Point","coordinates":[-87.933386,43.13446]}},{"properties":{"city":"Hyattsville","geo_score":0.857,"zip code":"20785","id":"ab84ta4v9fhd","geo_precision":"zip","state":"MD"},"type":"Feature","geometry":{"type":"Point","coordinates":[-76.879973,38.923723]}},{"properties":{"city":"Andover","geo_score":0.857,"zip code":"06232","id":"ab84ta2ir9vi","geo_precision":"zip","state":"CT"},"type":"Feature","geometry":{"type":"Point","coordinates":[-72.374634,41.731847]}},{"properties":{"city":"Norwalk","geo_score":0.857,"zip code":"06853","id":"ab84ta1v37rd","geo_precision":"zip","state":"CT"},"type":"Feature","geometry":{"type":"Point","coordinates":[-73.436508,41.063986]}},{"properties":{"city":"Wausau","geo_score":0.857,"zip code":"54401","id":"ab84t9wcr9e3","geo_precision":"zip","state":"WI"},"type":"Feature","geometry":{"type":"Point","coordinates":[-89.726791,44.951635]}},{"properties":{"city":"Stratford","geo_score":0.857,"zip code":"06614","id":"ab84ta0i0a08","geo_precision":"zip","state":"CT"},"type":"Feature","geometry":{"type":"Point","coordinates":[-73.130353,41.216006]}},{"properties":{"city":"Lincoln","geo_score":0.857,"zip code":"68516","id":"ab84t9p8g3g0","geo_precision":"zip","state":"NE"},"type":"Feature","geometry":{"type":"Point","coordinates":[-96.661769,40.777556]}},{"properties":{"city":"Cheltenham","geo_score":0.857,"zip code":"19012","id":"ab84t9vujby6","geo_precision":"zip","state":"PA"},"type":"Feature","geometry":{"type":"Point","coordinates":[-75.131842,40.061778]}},{"properties":{"city":"APO","geo_score":0.0,"zip code":"09839","id":"ab84ta0pxoin","geo_precision":"unmatched","state":"AE"},"type":"Feature","geometry":null},{"properties":{"city":"Holtsville","geo_score":0.857,"zip code":"11742","id":"ab84t9y0o3eu","geo_precision":"zip","state":"NY"},"type":"Feature","geometry":{"type":"Point","coordinates":[-73.048985,40.798994]}},{"properties":{"city":"Saint Peters","geo_score":0.857,"zip code":"63376","id":"ab84t9qbpcpg","geo_precision":"zip","state":"MO"},"type":"Feature","geometry":{"type":"Point","coordinates":[-90.661514,38.760608]}},{"properties":{"city":"Stamford","geo_score":0.857,"zip code":"06905","id":"ab84ta4o6rfs","geo_precision":"zip","state":"CT"},"type":"Feature","geometry":{"type":"Point","coordinates":[-73.555679,41.066764]}},{"properties":{"city":"Damascus","geo_score":0.857,"zip code":"20872","id":"ab84t9whmorz","geo_precision":"zip","state":"MD"},"type":"Feature","geometry":{"type":"Point","coordinates":[-77.19776,39.317327]}},{"properties":{"city":"Kensington","geo_score":0.857,"zip code":"20895","id":"ab84ta11prle","geo_precision":"zip","state":"MD"},"type":"Feature","geometry":{"type":"Point","coordinates":[-77.062756,39.025387]}}],"is_temporal":false,"author":{"url":"","metadata":"","contact_name":"","contact_address":"","source":"","contact_phone":""},"source":"","pagination":{"sort":null,"start":0,"total":69,"limit":1000000},"state":"complete","tags":"","published":"2014-08-17T00:36:27-04:00","id":308922}