{"type":"FeatureCollection","data_type":"Dataset","url_type":null,"permissions":[{"permissions":{"download":true,"view":true},"group_id":"everyone"}],"classification":null,"title":"Student_Info_Listing_2009","count":35,"stream_id":308920,"contributor":{"url":"http://geocommons.com/users/58623","name":"cashford"},"data_attributes":null,"calculation_params":null,"icon_link":null,"link":"http://geocommons.com/overlays/308920.json","extent":[-156.686,20.8822,-70.8732,47.8579],"geometry_types":["point"],"unique_name":null,"name":"Student_Info_Listing_2009","feature_count":35,"description":"","next_feature":null,"is_raster":false,"short_classification":"Y","stats":{},"features":[{"properties":{"city":"Kingwood","country":"United States","geo_score":0.857,"zip code":"77345","id":"ab84prrhx194","geo_precision":"zip","state":"TX"},"type":"Feature","geometry":{"type":"Point","coordinates":[-95.434241,29.83399]}},{"properties":{"city":"Bronx","country":"United States","geo_score":0.857,"zip code":"10453","id":"ab84prstket2","geo_precision":"zip","state":"NY"},"type":"Feature","geometry":{"type":"Point","coordinates":[-73.919859,40.849822]}},{"properties":{"city":"Camp Hill","country":"United States","geo_score":0.857,"zip code":"17011","id":"ab84prdn028w","geo_precision":"zip","state":"PA"},"type":"Feature","geometry":{"type":"Point","coordinates":[-76.901363,40.231757]}},{"properties":{"city":"West Chester","country":"United States","geo_score":0.857,"zip code":"19382","id":"ab84prphuxuq","geo_precision":"zip","state":"PA"},"type":"Feature","geometry":{"type":"Point","coordinates":[-75.630235,39.912284]}},{"properties":{"city":"Dubuque","country":"United States","geo_score":0.857,"zip code":"52002","id":"ab84prdy4eiw","geo_precision":"zip","state":"IA"},"type":"Feature","geometry":{"type":"Point","coordinates":[-90.7718,42.532019]}},{"properties":{"city":"Roxbury","country":"United States","geo_score":0.857,"zip code":"06783","id":"ab84prlu60iv","geo_precision":"zip","state":"CT"},"type":"Feature","geometry":{"type":"Point","coordinates":[-73.310673,41.508429]}},{"properties":{"city":"Wenham","country":"United States","geo_score":0.857,"zip code":"01984","id":"ab84prjb1cb4","geo_precision":"zip","state":"MA"},"type":"Feature","geometry":{"type":"Point","coordinates":[-70.8732,42.597691]}},{"properties":{"city":"Lake Oswego","country":"United States","geo_score":0.857,"zip code":"97034","id":"ab84prgn8les","geo_precision":"zip","state":"OR"},"type":"Feature","geometry":{"type":"Point","coordinates":[-122.660372,45.424286]}},{"properties":{"city":"Shorewood","country":"United States","geo_score":0.857,"zip code":"53211","id":"ab84prgkqk49","geo_precision":"zip","state":"WI"},"type":"Feature","geometry":{"type":"Point","coordinates":[-87.889534,43.082018]}},{"properties":{"city":"Allston","country":"United States","geo_score":0.857,"zip code":"02134","id":"ab84prgcefk7","geo_precision":"zip","state":"MA"},"type":"Feature","geometry":{"type":"Point","coordinates":[-71.112646,42.357169]}},{"properties":{"city":"Crofton","country":"United States","geo_score":0.857,"zip code":"21114","id":"ab84prculggm","geo_precision":"zip","state":"MD"},"type":"Feature","geometry":{"type":"Point","coordinates":[-76.622577,39.06436]}},{"properties":{"city":"Beverly Hills","country":"United States","geo_score":0.857,"zip code":"90212","id":"ab84pre8iot6","geo_precision":"zip","state":"CA"},"type":"Feature","geometry":{"type":"Point","coordinates":[-118.298662,33.786594]}},{"properties":{"city":"Milwaukee","country":"United States","geo_score":0.857,"zip code":"53212","id":"ab84prsnkmw8","geo_precision":"zip","state":"WI"},"type":"Feature","geometry":{"type":"Point","coordinates":[-87.907178,43.074862]}},{"properties":{"city":"Los Gatos","country":"United States","geo_score":0.857,"zip code":"95032","id":"ab84prgtyyru","geo_precision":"zip","state":"CA"},"type":"Feature","geometry":{"type":"Point","coordinates":[-121.66186,37.070923]}},{"properties":{"city":"Evanston","country":"United States","geo_score":0.857,"zip code":"60202","id":"ab84prcxg1tj","geo_precision":"zip","state":"IL"},"type":"Feature","geometry":{"type":"Point","coordinates":[-87.687969,42.044529]}},{"properties":{"city":"New Lenox","country":"United States","geo_score":0.857,"zip code":"60451","id":"ab84proh6y5k","geo_precision":"zip","state":"IL"},"type":"Feature","geometry":{"type":"Point","coordinates":[-87.912553,41.511421]}},{"properties":{"city":"Ann Arbor","country":"United States","geo_score":0.857,"zip code":"48103","id":"ab84prgl3mri","geo_precision":"zip","state":"MI"},"type":"Feature","geometry":{"type":"Point","coordinates":[-83.849042,42.266638]}},{"properties":{"city":"Snohomish","country":"United States","geo_score":0.857,"zip code":"98296","id":"ab84prfewr42","geo_precision":"zip","state":"WA"},"type":"Feature","geometry":{"type":"Point","coordinates":[-122.092025,47.857915]}},{"properties":{"city":"Holtsville","country":"United States","geo_score":0.857,"zip code":"11742","id":"ab84prlcstqq","geo_precision":"zip","state":"NY"},"type":"Feature","geometry":{"type":"Point","coordinates":[-73.048985,40.798994]}},{"properties":{"city":"Lubbock","country":"United States","geo_score":0.857,"zip code":"79410","id":"ab84priku8md","geo_precision":"zip","state":"TX"},"type":"Feature","geometry":{"type":"Point","coordinates":[-101.896394,33.572085]}},{"properties":{"city":"San Lorenzo","country":"United States","geo_score":0.857,"zip code":"94580","id":"ab84prgy5pmk","geo_precision":"zip","state":"CA"},"type":"Feature","geometry":{"type":"Point","coordinates":[-122.133825,37.68123]}},{"properties":{"city":"Burr Ridge","country":"United States","geo_score":0.857,"zip code":"60527","id":"ab84prt5rx6n","geo_precision":"zip","state":"IL"},"type":"Feature","geometry":{"type":"Point","coordinates":[-88.088716,41.839679]}},{"properties":{"city":"Richmond","country":"United States","geo_score":0.857,"zip code":"23227","id":"ab84prgikke3","geo_precision":"zip","state":"VA"},"type":"Feature","geometry":{"type":"Point","coordinates":[-77.437483,37.633201]}},{"properties":{"city":"Phoenix","country":"United States","geo_score":0.857,"zip code":"85050","id":"ab84prghi46j","geo_precision":"zip","state":"AZ"},"type":"Feature","geometry":{"type":"Point","coordinates":[-112.18717,33.276539]}},{"properties":{"city":"Memphis","country":"United States","geo_score":0.857,"zip code":"38120","id":"ab84prry3sd5","geo_precision":"zip","state":"TN"},"type":"Feature","geometry":{"type":"Point","coordinates":[-89.842541,35.123644]}},{"properties":{"city":"Glencoe","country":"United States","geo_score":0.857,"zip code":"60022","id":"ab84prkz0r97","geo_precision":"zip","state":"IL"},"type":"Feature","geometry":{"type":"Point","coordinates":[-87.815914,42.102927]}},{"properties":{"city":"Austin","country":"United States","geo_score":0.857,"zip code":"78757","id":"ab84prhlfvwp","geo_precision":"zip","state":"TX"},"type":"Feature","geometry":{"type":"Point","coordinates":[-97.601444,30.348567]}},{"properties":{"city":"Highland Park","country":"United States","geo_score":0.857,"zip code":"60035","id":"ab84prsemhiq","geo_precision":"zip","state":"IL"},"type":"Feature","geometry":{"type":"Point","coordinates":[-87.787009,42.163637]}},{"properties":{"city":"Cypress","country":"United States","geo_score":0.857,"zip code":"77429","id":"ab84prp90esy","geo_precision":"zip","state":"TX"},"type":"Feature","geometry":{"type":"Point","coordinates":[-95.434241,29.83399]}},{"properties":{"city":"Brunswick","country":"United States","geo_score":0.857,"zip code":"21716","id":"ab84prs96h6e","geo_precision":"zip","state":"MD"},"type":"Feature","geometry":{"type":"Point","coordinates":[-77.624701,39.317945]}},{"properties":{"city":"Erie","country":"United States","geo_score":0.857,"zip code":"16506","id":"ab84prrmz1e4","geo_precision":"zip","state":"PA"},"type":"Feature","geometry":{"type":"Point","coordinates":[-80.140894,42.08089]}},{"properties":{"city":"Nanuet","country":"United States","geo_score":0.857,"zip code":"10954","id":"ab84prjshi6v","geo_precision":"zip","state":"NY"},"type":"Feature","geometry":{"type":"Point","coordinates":[-74.010934,41.097716]}},{"properties":{"city":"Pune","country":"India","geo_score":0.571,"zip code":"411040","id":"ab84prkpf2fe","geo_precision":"city","state":"Maharashtra"},"type":"Feature","geometry":{"type":"Point","coordinates":[-156.685833,20.882222]}},{"properties":{"city":"Evanston","country":"United States","geo_score":0.857,"zip code":"60201","id":"ab84prfg2gxh","geo_precision":"zip","state":"IL"},"type":"Feature","geometry":{"type":"Point","coordinates":[-87.702155,42.049148]}},{"properties":{"city":"Stafford","country":"United States","geo_score":0.857,"zip code":"22554","id":"ab84prjw2qpg","geo_precision":"zip","state":"VA"},"type":"Feature","geometry":{"type":"Point","coordinates":[-77.469428,38.42207]}}],"is_temporal":false,"author":{"url":"","metadata":null,"contact_name":null,"contact_address":null,"source":null,"contact_phone":null},"source":"","pagination":{"sort":null,"start":0,"total":35,"limit":1000000},"state":"complete","tags":"","published":"2014-08-17T00:36:26-04:00","id":308920}