{"type":"FeatureCollection","data_type":"Dataset","url_type":null,"permissions":[{"permissions":{"download":true,"view":true},"group_id":"everyone"}],"classification":null,"title":"STARBUCKS, Store closures in the lower 48 states, USA, 2008","count":590,"stream_id":3090,"contributor":{"url":"http://geocommons.com/users/4","name":"aark"},"data_attributes":null,"calculation_params":null,"icon_link":null,"link":"http://geocommons.com/overlays/3090.json","extent":[-123.84,25.7743,-68.7516,48.4657],"geometry_types":["point"],"unique_name":null,"name":"STARBUCKS, Store closures in the lower 48 states, USA, 2008","feature_count":590,"description":"The list published by STARBUCKS was scraped from the pdf file and geocoded for the lower 48 states. Out of 616 stores, the map shows 590. \n","next_feature":null,"is_raster":false,"short_classification":"Y","stats":{"NO":{"max":14364.0,"mean":10150.8169491525,"variance":11110913.7389313,"stdev":3333.30372737488,"min":338.0,"median":10947.0},"X":{"max":-68.751575348547,"mean":-93.9638389752354,"variance":238.92070174324,"stdev":15.4570599320582,"min":-123.839972,"median":-90.266898650436},"Y":{"max":48.465736334525,"mean":37.1955846391044,"variance":28.8187432889905,"stdev":5.36830916481069,"min":25.774252,"median":37.943948450284},"Score":{"max":100,"mean":82.5847457627119,"variance":149.981770308767,"stdev":12.2467044672747,"min":56,"median":82}},"features":[{"properties":{"Match_addr":"2825 UNIVERSITY AVE, MADISON, WI, 53705","CITY":"MADISON","NO":2308.0,"ST":"WI","X":-89.437595,"Y":43.074155,"Score":79,"Street":"2825 UNIVERSITY AVE","id":"a6210qzqaqoh","Loc_name":"Address_Points"},"type":"Feature","geometry":{"type":"Point","coordinates":[-89.4375949999999,43.0741550000001]}},{"properties":{"Match_addr":"5445 CORUNNA RD, FLINT, MI, 48532","CITY":"FLINT","NO":11918.0,"ST":"MI","X":-83.789424,"Y":43.001399,"Score":64,"Street":"4455 CORUNNA RD","id":"a6210qx58fyv","Loc_name":"Address_Points"},"type":"Feature","geometry":{"type":"Point","coordinates":[-83.7894239999999,43.001399]}},{"properties":{"Match_addr":"3333 E JEFFERSON AVE, DETROIT, MI, 48207","CITY":"DETROIT","NO":2502.0,"ST":"MI","X":-83.014277,"Y":42.342284,"Score":64,"Street":"333 E JEFFERSON AVE","id":"a6210qq2wb58","Loc_name":"Address_Points"},"type":"Feature","geometry":{"type":"Point","coordinates":[-83.0142769999999,42.3422840000001]}},{"properties":{"Match_addr":"7201 E JEFFERSON AVE, DETROIT, MI, 48207","CITY":"DETROIT","NO":2546.0,"ST":"MI","X":-83.00174,"Y":42.347626,"Score":63,"Street":"7201 E JEFFERSON","id":"a6210quq38xc","Loc_name":"Address_Points"},"type":"Feature","geometry":{"type":"Point","coordinates":[-83.0017399999999,42.347626]}},{"properties":{"Match_addr":"535 GRISWOLD ST, DETROIT, MI, 48226","CITY":"DETROIT","NO":2319.0,"ST":"MI","X":-83.046976,"Y":42.329414,"Score":79,"Street":"535 GRISWOLD ST","id":"a6210qyj2ctp","Loc_name":"Address_Points"},"type":"Feature","geometry":{"type":"Point","coordinates":[-83.0469759999999,42.329414]}},{"properties":{"Match_addr":"18900 MICHIGAN AVE, DEARBORN, MI, 48126","CITY":"DEARBORN","NO":2467.0,"ST":"MI","X":-83.22302,"Y":42.316771,"Score":79,"Street":"18900 MICHIGAN AVE","id":"a6210qrmluqq","Loc_name":"Address_Points"},"type":"Feature","geometry":{"type":"Point","coordinates":[-83.2230199999999,42.3167710000001]}},{"properties":{"Match_addr":"27500 NOVI RD, NOVI, MI, 48377","CITY":"NOVI","NO":14140.0,"ST":"MI","X":-83.470823,"Y":42.492287,"Score":79,"Street":"27500 NOVI RD","id":"a6210qulkhuw","Loc_name":"Address_Points"},"type":"Feature","geometry":{"type":"Point","coordinates":[-83.4708229999999,42.492287]}},{"properties":{"Match_addr":"6700 162ND, VANCOUVER, WA, 98682","CITY":"VANCOUVER","NO":3348.0,"ST":"WA","X":-122.507282,"Y":45.67112,"Score":65,"Street":"6700 NE 162ND","id":"a6210qt3p0dx","Loc_name":"Address_Points"},"type":"Feature","geometry":{"type":"Point","coordinates":[-122.507282,45.6711200000001]}},{"properties":{"Match_addr":"11115 MALL CIR, WALDORF, MD, 20603","CITY":"WALDORF","NO":9795.0,"ST":"MD","X":-76.928528,"Y":38.620636,"Score":67,"Street":"1111 MALL CIRCLE","id":"a6210qwctwl1","Loc_name":"Address_Points"},"type":"Feature","geometry":{"type":"Point","coordinates":[-76.9285279999999,38.620636]}},{"properties":{"Match_addr":"439 S MAIN ST, ROCHESTER, MI, 48307","CITY":"ROCHESTER","NO":2251.0,"ST":"MI","X":-83.134282,"Y":42.681861,"Score":65,"Street":"439 MAIN ST","id":"a6210qs8mppz","Loc_name":"Address_Points"},"type":"Feature","geometry":{"type":"Point","coordinates":[-83.1342819999999,42.6818610000001]}},{"properties":{"Match_addr":"18606 MATENY RD, GERMANTOWN, MD, 20874","CITY":"GERMANTOWN","NO":11963.0,"ST":"MD","X":-77.269081,"Y":39.161343,"Score":67,"Street":"18066 MATENY RD","id":"a6210qvexogq","Loc_name":"Address_Points"},"type":"Feature","geometry":{"type":"Point","coordinates":[-77.2690809999999,39.161343]}},{"properties":{"Match_addr":"10240 BALTIMORE AVE, COLLEGE PARK, MD, 20740","CITY":"COLLEGE PARK","NO":11727.0,"ST":"MD","X":-76.925587,"Y":39.023448,"Score":79,"Street":"10240 BALTIMORE AVE","id":"a6210qobywue","Loc_name":"Address_Points"},"type":"Feature","geometry":{"type":"Point","coordinates":[-76.925587,39.0234480000001]}},{"properties":{"Match_addr":"301 LIGHT ST, BALTIMORE, MD, 21202","CITY":"BALTIMORE","NO":7588.0,"ST":"MD","X":-76.612493,"Y":39.285075,"Score":65,"Street":"301 S LIGHT ST","id":"a6210qqv63ib","Loc_name":"Address_Points"},"type":"Feature","geometry":{"type":"Point","coordinates":[-76.6124929999999,39.2850750000001]}},{"properties":{"Match_addr":"5911 YORK RD, BALTIMORE, MD, 21212","CITY":"BALTIMORE","NO":10600.0,"ST":"MD","X":-76.608416,"Y":39.363833,"Score":79,"Street":"5911 YORK RD","id":"a6210qygutpk","Loc_name":"Address_Points"},"type":"Feature","geometry":{"type":"Point","coordinates":[-76.6084159999999,39.3638330000001]}},{"properties":{"Match_addr":"225 SHREWSBURY ST, WORCESTER, MA, 01604","CITY":"WORCESTER","NO":11915.0,"ST":"MA","X":-71.783239,"Y":42.266243,"Score":79,"Street":"225 SHREWSBURY ST","id":"a6210qp84e4e","Loc_name":"Address_Points"},"type":"Feature","geometry":{"type":"Point","coordinates":[-71.7832389999999,42.2662430000001]}},{"properties":{"Match_addr":"50 E TRAVELERS TRL, BURNSVILLE, MN, 55337","CITY":"BURNSVILLE","NO":9653.0,"ST":"MN","X":-93.277132,"Y":44.77586,"Score":59,"Street":"250 E TRAVELER'S TRAIL","id":"a6210qqsl8uw","Loc_name":"Address_Points"},"type":"Feature","geometry":{"type":"Point","coordinates":[-93.2771319999999,44.7758600000001]}},{"properties":{"Match_addr":"2555 ULYSSES ST NE, MINNEAPOLIS, MN, 55418","CITY":"MINNAPOLIS","NO":2859.0,"ST":"MN","X":-93.235505,"Y":45.014847,"Score":65,"Street":"12555 ULYSSES ST NE","id":"a6210qv6otxz","Loc_name":"Address_Points"},"type":"Feature","geometry":{"type":"Point","coordinates":[-93.2355049999999,45.0148470000001]}},{"properties":{"Match_addr":"47 MIDDLESEX TPKE, BURLINGTON, MA, 01803","CITY":"BURLINGTON","NO":7774.0,"ST":"MA","X":-71.211476,"Y":42.472182,"Score":79,"Street":"47 MIDDLESEX TURNPIKE","id":"a6210r1t29od","Loc_name":"Address_Points"},"type":"Feature","geometry":{"type":"Point","coordinates":[-71.2114759999999,42.4721820000001]}},{"properties":{"Match_addr":"1593 17TH AVE E, SHAKOPEE, MN, 55379","CITY":"SHAKOPEE","NO":11803.0,"ST":"MN","X":-93.503336,"Y":44.77427,"Score":64,"Street":"1539 17TH AVE E","id":"a6210qsz9nen","Loc_name":"Address_Points"},"type":"Feature","geometry":{"type":"Point","coordinates":[-93.5033359999999,44.7742700000001]}},{"properties":{"Match_addr":"12441 COURSEY BLVD, BATON ROUGE, LA, 70816","CITY":"BATON ROUGE","NO":11264.0,"ST":"LA","X":-91.040298,"Y":30.41196,"Score":67,"Street":"14241 COURSEY BLVD BATON","id":"a6210qzb19qv","Loc_name":"Address_Points"},"type":"Feature","geometry":{"type":"Point","coordinates":[-91.040298,30.4119600000001]}},{"properties":{"Match_addr":"18970 HIGHLAND RD, BATON ROUGE, LA, 70809","CITY":"BATON ROUGE","NO":6414.0,"ST":"LA","X":-91.0168,"Y":30.351407,"Score":56,"Street":"19970 HIGHLAND RD BATON","id":"a6210qvcp8dx","Loc_name":"Address_Points"},"type":"Feature","geometry":{"type":"Point","coordinates":[-91.0167999999999,30.3514070000001]}},{"properties":{"Match_addr":"1 E VALLEY BLVD, ALHAMBRA, CA, 91801","CITY":"ALHAMBRA","NO":6925.0,"ST":"CA","X":-118.122459,"Y":34.079132,"Score":63,"Street":"1 E VALLEY RD","id":"a6210r253u5t","Loc_name":"Address_Points"},"type":"Feature","geometry":{"type":"Point","coordinates":[-118.122459,34.0791320000001]}},{"properties":{"Match_addr":"14329 SAN PEDRO AVE, SAN ANTONIO, TX, 78232","CITY":"SAN ANTONIO","NO":6221.0,"ST":"TX","X":-98.48044,"Y":29.573174,"Score":67,"Street":"13429 SAN PEDRO AVE","id":"a6210qlz4r4c","Loc_name":"Address_Points"},"type":"Feature","geometry":{"type":"Point","coordinates":[-98.4804399999999,29.5731740000001]}},{"properties":{"Match_addr":"1261 GRAHAM RD, FLORISSANT, MO, 63031","CITY":"FLORISSANT","NO":13511.0,"ST":"MO","X":-90.335551,"Y":38.777456,"Score":79,"Street":"1261 GRAHAM RD","id":"a6210qusya80","Loc_name":"Address_Points"},"type":"Feature","geometry":{"type":"Point","coordinates":[-90.3355509999999,38.7774560000001]}},{"properties":{"Match_addr":"16601 BELLFLOWER BLVD, BELLFLOWER, CA, 90706","CITY":"BELLFLOWER","NO":10257.0,"ST":"CA","X":-118.12557,"Y":33.883646,"Score":79,"Street":"16601 BELLFLOWER BLVD","id":"a6210qzegm98","Loc_name":"Address_Points"},"type":"Feature","geometry":{"type":"Point","coordinates":[-118.12557,33.8836460000001]}},{"properties":{"Match_addr":"832 1ST ST, BENICIA, CA, 94510","CITY":"BENICIA","NO":10996.0,"ST":"CA","X":-122.157245,"Y":38.051022,"Score":59,"Street":"328 FIRST ST","id":"a6210qrw6wui","Loc_name":"Address_Points"},"type":"Feature","geometry":{"type":"Point","coordinates":[-122.157245,38.051022]}},{"properties":{"Match_addr":"5565 ESSEN LN, BATON ROUGE, LA, 70809","CITY":"BATON ROUGE","NO":11628.0,"ST":"LA","X":-91.10744,"Y":30.397657,"Score":79,"Street":"5565 ESSEN LANE BATON","id":"a6210qq927s6","Loc_name":"Address_Points"},"type":"Feature","geometry":{"type":"Point","coordinates":[-91.1074399999999,30.397657]}},{"properties":{"Match_addr":"2435 E IMPERIAL HWY, BREA, CA, 92821","CITY":"BREA","NO":14002.0,"ST":"CA","X":-117.866817,"Y":33.911801,"Score":79,"Street":"2435 E IMPERIAL HWY","id":"a6210r1075bj","Loc_name":"Address_Points"},"type":"Feature","geometry":{"type":"Point","coordinates":[-117.866817,33.9118010000001]}},{"properties":{"Match_addr":"8971 W CENTRAL ST, WICHITA, KS, 67212","CITY":"WICHITA","NO":13853.0,"ST":"KS","X":-97.446552,"Y":37.693642,"Score":63,"Street":"8971 W CENTRAL","id":"a6210quhuu1o","Loc_name":"Address_Points"},"type":"Feature","geometry":{"type":"Point","coordinates":[-97.4465519999999,37.6936420000001]}},{"properties":{"Match_addr":"8600 PRESTON RD, PLANO, TX, 75024","CITY":"PLANO","NO":6288.0,"ST":"TX","X":-96.801641,"Y":33.09627,"Score":63,"Street":"8600 PRESTON","id":"a6210qx2dfeu","Loc_name":"Address_Points"},"type":"Feature","geometry":{"type":"Point","coordinates":[-96.8016409999999,33.0962700000001]}},{"properties":{"Match_addr":"31810 CASTAIC RD, CASTAIC, CA, 91384","CITY":"CASTAIC","NO":6450.0,"ST":"CA","X":-118.622362,"Y":34.497102,"Score":56,"Street":"31818 CASTAIC RD","id":"a6210r0khp2d","Loc_name":"Address_Points"},"type":"Feature","geometry":{"type":"Point","coordinates":[-118.622362,34.497102]}},{"properties":{"Match_addr":"811 N CENTRAL EXPY, PLANO, TX, 75075","CITY":"PLANO","NO":10576.0,"ST":"TX","X":-96.713538,"Y":33.016344,"Score":79,"Street":"811 N CENTRAL EXWY","id":"a6210qnfnrhv","Loc_name":"Address_Points"},"type":"Feature","geometry":{"type":"Point","coordinates":[-96.7135379999999,33.0163440000001]}},{"properties":{"Match_addr":"337 H ST, CHULA VISTA, CA, 91910","CITY":"CHULA VISTA","NO":6556.0,"ST":"CA","X":-117.079017,"Y":32.634316,"Score":64,"Street":"3037 H ST","id":"a6210r0iyaxe","Loc_name":"Address_Points"},"type":"Feature","geometry":{"type":"Point","coordinates":[-117.079017,32.6343160000001]}},{"properties":{"Match_addr":"11580 W 95TH ST, OVERLAND PARK, KS, 66214","CITY":"OVERLAND PARK","NO":11913.0,"ST":"KS","X":-94.719807,"Y":38.959051,"Score":56,"Street":"11780 W 95TH ST","id":"a6210qwbrld9","Loc_name":"Address_Points"},"type":"Feature","geometry":{"type":"Point","coordinates":[-94.7198069999999,38.959051]}},{"properties":{"Match_addr":"2250 MONUMENT BLVD, CONCORD, CA, 94518","CITY":"CONCORD","NO":9826.0,"ST":"CA","X":-122.035935,"Y":37.957882,"Score":79,"Street":"2250 MONUMENT BLVD","id":"a6210qouqqxy","Loc_name":"Address_Points"},"type":"Feature","geometry":{"type":"Point","coordinates":[-122.035935,37.957882]}},{"properties":{"Match_addr":"3404 COIT RD, PLANO, TX, 75023","CITY":"PLANO","NO":6666.0,"ST":"TX","X":-96.769594,"Y":33.043468,"Score":64,"Street":"340 COIT RD","id":"a6210qwka9jj","Loc_name":"Address_Points"},"type":"Feature","geometry":{"type":"Point","coordinates":[-96.7695939999999,33.0434680000001]}},{"properties":{"Match_addr":"2320 WILKINSON BLVD, CHARLOTTE, NC, 28208","CITY":"CHARLOTTE","NO":10420.0,"ST":"NC","X":-80.87906,"Y":35.22401,"Score":64,"Street":"3220 WILKINSON BLVD","id":"a6210qs4fe23","Loc_name":"Address_Points"},"type":"Feature","geometry":{"type":"Point","coordinates":[-80.8790599999999,35.2240100000001]}},{"properties":{"Match_addr":"3012 W 16TH ST, INDIANAPOLIS, IN, 46222","CITY":"INDIANAPOLIS","NO":11846.0,"ST":"IN","X":-86.208766,"Y":39.788233,"Score":64,"Street":"3021 W 16TH ST","id":"a6210qw7bms0","Loc_name":"Address_Points"},"type":"Feature","geometry":{"type":"Point","coordinates":[-86.2087659999999,39.788233]}},{"properties":{"Match_addr":"5060 W 38TH ST, INDIANAPOLIS, IN, 46254","CITY":"INDIANAPOLIS","NO":10508.0,"ST":"IN","X":-86.245861,"Y":39.824417,"Score":79,"Street":"5060 W 38TH ST","id":"a6210qwfilrw","Loc_name":"Address_Points"},"type":"Feature","geometry":{"type":"Point","coordinates":[-86.2458609999999,39.824417]}},{"properties":{"Match_addr":"2910 N COLLEGE AVE, INDIANAPOLIS, IN, 46205","CITY":"INDIANAPOLIS","NO":9433.0,"ST":"IN","X":-86.145282,"Y":39.809015,"Score":79,"Street":"2910 N COLLEGE AVE","id":"a6210qwd32qp","Loc_name":"Address_Points"},"type":"Feature","geometry":{"type":"Point","coordinates":[-86.145282,39.809015]}},{"properties":{"Match_addr":"3855 E 96TH ST, INDIANAPOLIS, IN, 46240","CITY":"INDIANAPOLIS","NO":2591.0,"ST":"IN","X":-86.100406,"Y":39.925654,"Score":79,"Street":"3855 E 96TH ST","id":"a6210qsew5wy","Loc_name":"Address_Points"},"type":"Feature","geometry":{"type":"Point","coordinates":[-86.1004059999999,39.9256540000001]}},{"properties":{"Match_addr":"3778 N MERIDIAN ST, INDIANAPOLIS, IN, 46208","CITY":"INDIANAPOLIS","NO":2489.0,"ST":"IN","X":-86.157232,"Y":39.824563,"Score":79,"Street":"3778 N MERIDIAN ST","id":"a6210qni9cky","Loc_name":"Address_Points"},"type":"Feature","geometry":{"type":"Point","coordinates":[-86.1572319999999,39.8245630000001]}},{"properties":{"Match_addr":"4912 COUNTRY CLUB RD, WINSTON SALEM, NC, 27104","CITY":"WINSTON SALEM","NO":8716.0,"ST":"NC","X":-80.345597,"Y":36.083785,"Score":79,"Street":"4912 COUNTRY CLUB RD","id":"a6210qp83l39","Loc_name":"Address_Points"},"type":"Feature","geometry":{"type":"Point","coordinates":[-80.3455969999999,36.083785]}},{"properties":{"Match_addr":"3089 E SHIELDS AVE, FRESNO, CA, 93726","CITY":"FRESNO","NO":6939.0,"ST":"CA","X":-119.772889,"Y":36.780366,"Score":63,"Street":"3089 E SHIELDS","id":"a6210qt5tfvl","Loc_name":"Address_Points"},"type":"Feature","geometry":{"type":"Point","coordinates":[-119.772889,36.7803660000001]}},{"properties":{"Match_addr":"80 S WHITE HORSE PARK, HAMMONTON, NJ, 08037","CITY":"HAMMONTON","NO":13581.0,"ST":"NJ","X":-74.787848,"Y":39.645388,"Score":63,"Street":"80 S WHITE HORSE PIKE","id":"a6210qp3f04t","Loc_name":"Address_Points"},"type":"Feature","geometry":{"type":"Point","coordinates":[-74.7878479999999,39.6453880000001]}},{"properties":{"Match_addr":"1018 PRESTON ST, HOUSTON, TX, 77002","CITY":"HOUSTON","NO":10650.0,"ST":"TX","X":-95.360754,"Y":29.760954,"Score":63,"Street":"1018 PRESTON","id":"a6210qql9w53","Loc_name":"Address_Points"},"type":"Feature","geometry":{"type":"Point","coordinates":[-95.3607539999999,29.7609540000001]}},{"properties":{"Match_addr":"5000 W LLOYD EXPY, EVANSVILLE, IN, 47712","CITY":"EVANSVILLE","NO":9760.0,"ST":"IN","X":-87.635989,"Y":37.976081,"Score":79,"Street":"5000 W LLOYD EXPRESSWAY","id":"a6210qobw2hs","Loc_name":"Address_Points"},"type":"Feature","geometry":{"type":"Point","coordinates":[-87.6359889999999,37.9760810000001]}},{"properties":{"Match_addr":"801 W FLORIDA AVE, HEMET, CA, 92543","CITY":"HEMET","NO":10710.0,"ST":"CA","X":-116.963881,"Y":33.747171,"Score":64,"Street":"2801 W FLORIDA AVE","id":"a6210r1lbeoy","Loc_name":"Address_Points"},"type":"Feature","geometry":{"type":"Point","coordinates":[-116.963881,33.747171]}},{"properties":{"Match_addr":"10 WILSEY SQ, RIDGEWOOD, NJ, 07450","CITY":"RIDGEWOOD","NO":13499.0,"ST":"NJ","X":-74.121886,"Y":40.979808,"Score":79,"Street":"10 WILSEY SQUARE","id":"a6210qmw651f","Loc_name":"Address_Points"},"type":"Feature","geometry":{"type":"Point","coordinates":[-74.1218859999999,40.979808]}},{"properties":{"Match_addr":"914 W DALLAS ST, HOUSTON, TX, 77019","CITY":"HOUSTON","NO":10056.0,"ST":"TX","X":-95.377568,"Y":29.757951,"Score":65,"Street":"914 DALLAS ST","id":"a6210qt41x5w","Loc_name":"Address_Points"},"type":"Feature","geometry":{"type":"Point","coordinates":[-95.3775679999999,29.757951]}},{"properties":{"Match_addr":"4180 W DESERT INN RD, LAS VEGAS, NV, 89102","CITY":"LAS VEGAS","NO":6633.0,"ST":"NV","X":-115.196041,"Y":36.130657,"Score":64,"Street":"4810 W DESERT INN RD 3","id":"a6210qum9t8b","Loc_name":"Address_Points"},"type":"Feature","geometry":{"type":"Point","coordinates":[-115.196041,36.130657]}},{"properties":{"Match_addr":"2510 E TROPICANA AVE, LAS VEGAS, NV, 89121","CITY":"LAS VEGAS","NO":10393.0,"ST":"NV","X":-115.116323,"Y":36.100367,"Score":79,"Street":"2510 E TROPICANA AVE","id":"a6210qvx2z5n","Loc_name":"Address_Points"},"type":"Feature","geometry":{"type":"Point","coordinates":[-115.116323,36.1003670000001]}},{"properties":{"Match_addr":"16610 VALLEY VIEW AVE, LA MIRADA, CA, 90638","CITY":"LA MIRADA","NO":9866.0,"ST":"CA","X":-118.028406,"Y":33.881909,"Score":79,"Street":"16610 VALLEY VIEW AVE","id":"a6210r0nxla8","Loc_name":"Address_Points"},"type":"Feature","geometry":{"type":"Point","coordinates":[-118.028406,33.8819090000001]}},{"properties":{"Match_addr":"1340 E FLAMINGO RD, LAS VEGAS, NV, 89119","CITY":"LAS VEGAS","NO":653.0,"ST":"NV","X":-115.135324,"Y":36.114894,"Score":79,"Street":"1340 E FLAMINGO RD","id":"a6210quq179x","Loc_name":"Address_Points"},"type":"Feature","geometry":{"type":"Point","coordinates":[-115.135324,36.114894]}},{"properties":{"Match_addr":"291 N YORK ST, ELMHURST, IL, 60126","CITY":"ELMHURST","NO":13469.0,"ST":"IL","X":-87.939485,"Y":41.906767,"Score":79,"Street":"291 N YORK ST","id":"a6210r0bzu0w","Loc_name":"Address_Points"},"type":"Feature","geometry":{"type":"Point","coordinates":[-87.9394849999999,41.9067670000001]}},{"properties":{"Match_addr":"4626 S MARYLAND PKWY, LAS VEGAS, NV, 89119","CITY":"LAS VEGAS","NO":5443.0,"ST":"NV","X":-115.136842,"Y":36.105589,"Score":79,"Street":"4626 S MARYLAND PKWY","id":"a6210qn485wu","Loc_name":"Address_Points"},"type":"Feature","geometry":{"type":"Point","coordinates":[-115.136842,36.1055890000001]}},{"properties":{"Match_addr":"2347 W 95TH ST, CHICAGO, IL, 60643","CITY":"CHICAGO","NO":8985.0,"ST":"IL","X":-87.681437,"Y":41.720591,"Score":79,"Street":"2347 W 95TH ST","id":"a6210qourgrb","Loc_name":"Address_Points"},"type":"Feature","geometry":{"type":"Point","coordinates":[-87.6814369999999,41.7205910000001]}},{"properties":{"Match_addr":"500 N SIERRA ST, RENO, NV, 89503","CITY":"RENO","NO":9885.0,"ST":"NV","X":-119.815784,"Y":39.531543,"Score":59,"Street":"50 N SIERRA ST","id":"a6210qobgmns","Loc_name":"Address_Points"},"type":"Feature","geometry":{"type":"Point","coordinates":[-119.815784,39.5315430000001]}},{"properties":{"Match_addr":"1500 W MARTIN LUTHER KING JR BLVD, LOS ANGELES, CA, 90062","CITY":"LOS ANGELES","NO":11321.0,"ST":"CA","X":-118.303652,"Y":34.010538,"Score":58,"Street":"1005 W MLK BLVD","id":"a6210qzbkima","Loc_name":"Address_Points"},"type":"Feature","geometry":{"type":"Point","coordinates":[-118.303652,34.0105380000001]}},{"properties":{"Match_addr":"4317 CRENSHAW BLVD, LOS ANGELES, CA, 90008","CITY":"LOS ANGELES","NO":11097.0,"ST":"CA","X":-118.333578,"Y":34.004714,"Score":64,"Street":"4371 CRENSHAW BLVD","id":"a6210qrhqb98","Loc_name":"Address_Points"},"type":"Feature","geometry":{"type":"Point","coordinates":[-118.333578,34.004714]}},{"properties":{"Match_addr":"160 MAIN ST, EAST AURORA, NY, 14052","CITY":"EAST AURORA","NO":7932.0,"ST":"NY","X":-78.627365,"Y":42.768486,"Score":79,"Street":"160 MAIN ST","id":"a6210qm48vvo","Loc_name":"Address_Points"},"type":"Feature","geometry":{"type":"Point","coordinates":[-78.6273649999999,42.7684860000001]}},{"properties":{"Match_addr":"1750 VETERANS HWY, ISLANDIA, NY, 11749","CITY":"ISLANDIA","NO":7236.0,"ST":"NY","X":-73.179399,"Y":40.802524,"Score":79,"Street":"1750 VETERANS HWY","id":"a6210qyjx0p2","Loc_name":"Address_Points"},"type":"Feature","geometry":{"type":"Point","coordinates":[-73.1793989999999,40.8025240000001]}},{"properties":{"Match_addr":"106 OLD COUNTRY RD, MINEOLA, NY, 11501","CITY":"MINEOLA","NO":7396.0,"ST":"NY","X":-73.634231,"Y":40.740141,"Score":79,"Street":"106 OLD COUNTRY RD","id":"a6210qsrr5jm","Loc_name":"Address_Points"},"type":"Feature","geometry":{"type":"Point","coordinates":[-73.6342309999999,40.7401410000001]}},{"properties":{"Match_addr":"28171 MARGUERITE PKWY, MISSION VIEJO, CA, 92691","CITY":"MISSION VIEJO","NO":6791.0,"ST":"CA","X":-117.671275,"Y":33.553601,"Score":79,"Street":"28171 MARGUERITE PKWY","id":"a6210qsi91al","Loc_name":"Address_Points"},"type":"Feature","geometry":{"type":"Point","coordinates":[-117.671275,33.5536010000001]}},{"properties":{"Match_addr":"3430 TULLY RD, MODESTO, CA, 95350","CITY":"MODESTO","NO":10853.0,"ST":"CA","X":-121.011155,"Y":37.688366,"Score":79,"Street":"3430 TULLY RD","id":"a6210qtla9tn","Loc_name":"Address_Points"},"type":"Feature","geometry":{"type":"Point","coordinates":[-121.011155,37.6883660000001]}},{"properties":{"Match_addr":"400 MADISON AVE, NEW YORK, NY, 10017","CITY":"NEW YORK","NO":7515.0,"ST":"NY","X":-73.976952,"Y":40.756363,"Score":79,"Street":"400 MADISON AVE","id":"a6210qo7z1na","Loc_name":"Address_Points"},"type":"Feature","geometry":{"type":"Point","coordinates":[-73.9769519999999,40.7563630000001]}},{"properties":{"Match_addr":"3661 EISENHOWER PKWY, MACON, GA, 31206","CITY":"MACON","NO":11587.0,"ST":"GA","X":-83.690368,"Y":32.81638,"Score":79,"Street":"3661 EISENHOWER PKWY","id":"a6210qrdl2fm","Loc_name":"Address_Points"},"type":"Feature","geometry":{"type":"Point","coordinates":[-83.6903679999999,32.81638]}},{"properties":{"Match_addr":"27810 EUCALYPTUS AVE, MORENO VALLEY, CA, 92555","CITY":"MORENO VALLEY","NO":11897.0,"ST":"CA","X":-117.176624,"Y":33.938469,"Score":56,"Street":"27110 EUCALYPTUS AVE","id":"a6210quuxszg","Loc_name":"Address_Points"},"type":"Feature","geometry":{"type":"Point","coordinates":[-117.176624,33.9384690000001]}},{"properties":{"Match_addr":"11 W 34TH ST, NEW YORK, NY, 10001","CITY":"NEW YORK","NO":14091.0,"ST":"NY","X":-73.985515,"Y":40.749126,"Score":59,"Street":"151 W 34TH ST","id":"a6210qwl3j58","Loc_name":"Address_Points"},"type":"Feature","geometry":{"type":"Point","coordinates":[-73.9855149999999,40.749126]}},{"properties":{"Match_addr":"2621 MC CART AVE, FORT WORTH, TX, 76110","CITY":"FORT WORTH","NO":14145.0,"ST":"TX","X":-97.352966,"Y":32.713614,"Score":58,"Street":"6221 MCCART AVE","id":"a6210qq30cwk","Loc_name":"Address_Points"},"type":"Feature","geometry":{"type":"Point","coordinates":[-97.3529659999999,32.7136140000001]}},{"properties":{"Match_addr":"4800 S HULEN ST, FORT WORTH, TX, 76132","CITY":"FORT WORTH","NO":10086.0,"ST":"TX","X":-97.399685,"Y":32.679303,"Score":79,"Street":"4800 S HULEN ST","id":"a6210qm2xgmx","Loc_name":"Address_Points"},"type":"Feature","geometry":{"type":"Point","coordinates":[-97.3996849999999,32.6793030000001]}},{"properties":{"Match_addr":"1630 PLEASANT HILL RD, DULUTH, GA, 30096","CITY":"DULUTH","NO":8385.0,"ST":"GA","X":-84.123383,"Y":33.946203,"Score":63,"Street":"1630 PLEASANT HILL RD NW","id":"a6210qp6oxjk","Loc_name":"Address_Points"},"type":"Feature","geometry":{"type":"Point","coordinates":[-84.1233829999999,33.9462030000001]}},{"properties":{"Match_addr":"9615 MONTANA AVE, EL PASO, TX, 79925","CITY":"EL PASO","NO":13356.0,"ST":"TX","X":-106.357087,"Y":31.795381,"Score":63,"Street":"9615 MONTANA RD","id":"a6210qxr9pbz","Loc_name":"Address_Points"},"type":"Feature","geometry":{"type":"Point","coordinates":[-106.357087,31.7953810000001]}},{"properties":{"Match_addr":"71730 HWY 111, RANCHO MIRAGE, CA, 92270","CITY":"RANCHO MIRAGE","NO":10630.0,"ST":"CA","X":-116.411968,"Y":33.742399,"Score":56,"Street":"71743 HWY 111","id":"a6210qvhqi1g","Loc_name":"Address_Points"},"type":"Feature","geometry":{"type":"Point","coordinates":[-116.411968,33.742399]}},{"properties":{"Match_addr":"107 S CEDAR RIDGE DR, DUNCANVILLE, TX, 75116","CITY":"DUNCANVILLE","NO":8135.0,"ST":"TX","X":-96.926148,"Y":32.651017,"Score":79,"Street":"107 S CEDAR RIDGE DR","id":"a6210qvo82iv","Loc_name":"Address_Points"},"type":"Feature","geometry":{"type":"Point","coordinates":[-96.9261479999999,32.6510170000001]}},{"properties":{"Match_addr":"1900 N HAMPTON RD, DESOTO, TX, 75115","CITY":"DESOTO","NO":6963.0,"ST":"TX","X":-96.856156,"Y":32.628168,"Score":64,"Street":"900 N HAMPTON RD","id":"a6210qtkczuu","Loc_name":"Address_Points"},"type":"Feature","geometry":{"type":"Point","coordinates":[-96.8561559999999,32.6281680000001]}},{"properties":{"Match_addr":"1299 UNIVERSITY AVE, RIVERSIDE, CA, 92507","CITY":"RIVERSIDE","NO":5991.0,"ST":"CA","X":-117.339256,"Y":33.976556,"Score":79,"Street":"1299 UNIVERSITY AVE","id":"a6210qtwguv8","Loc_name":"Address_Points"},"type":"Feature","geometry":{"type":"Point","coordinates":[-117.339256,33.9765560000001]}},{"properties":{"Match_addr":"340 MADISON AVE, NEW YORK, NY, 10017","CITY":"NEW YORK","NO":11737.0,"ST":"NY","X":-73.978852,"Y":40.753881,"Score":79,"Street":"340 MADISON AVE","id":"a6210qrhelox","Loc_name":"Address_Points"},"type":"Feature","geometry":{"type":"Point","coordinates":[-73.9788519999999,40.753881]}},{"properties":{"Match_addr":"9090 SKILLMAN ST, DALLAS, TX, 75243","CITY":"DALLAS","NO":6387.0,"ST":"TX","X":-96.719536,"Y":32.896924,"Score":79,"Street":"9090 SKILLMAN ST","id":"a6210qwcf2n8","Loc_name":"Address_Points"},"type":"Feature","geometry":{"type":"Point","coordinates":[-96.7195359999999,32.8969240000001]}},{"properties":{"Match_addr":"5040 AUBURN BLVD, SACRAMENTO, CA, 95841","CITY":"SACRAMENTO","NO":11834.0,"ST":"CA","X":-121.347086,"Y":38.660149,"Score":79,"Street":"5040 AUBURN BLVD","id":"a6210qzczu9l","Loc_name":"Address_Points"},"type":"Feature","geometry":{"type":"Point","coordinates":[-121.347086,38.660149]}},{"properties":{"Match_addr":"55 5TH AVE, NEW YORK, NY, 10011","CITY":"NEW YORK","NO":11692.0,"ST":"NY","X":-73.994078,"Y":40.734722,"Score":59,"Street":"565 FIFTH AVE","id":"a6210qupwgyx","Loc_name":"Address_Points"},"type":"Feature","geometry":{"type":"Point","coordinates":[-73.9940779999999,40.734722]}},{"properties":{"Match_addr":"1722 EUCLID AVE, SAN DIEGO, CA, 92102","CITY":"SAN DIEGO","NO":6726.0,"ST":"CA","X":-117.085296,"Y":32.723398,"Score":79,"Street":"1722 EUCLID AVE","id":"a6210qvih4yu","Loc_name":"Address_Points"},"type":"Feature","geometry":{"type":"Point","coordinates":[-117.085296,32.7233980000001]}},{"properties":{"Match_addr":"5131 COLLEGE AVE, SAN DIEGO, CA, 92115","CITY":"SAN DIEGO","NO":6592.0,"ST":"CA","X":-117.069601,"Y":32.771409,"Score":79,"Street":"5131 COLLEGE AVE","id":"a6210qmjl0h3","Loc_name":"Address_Points"},"type":"Feature","geometry":{"type":"Point","coordinates":[-117.069601,32.7714090000001]}},{"properties":{"Match_addr":"3431 W CAMP WISDOM RD, DALLAS, TX, 75237","CITY":"DALLAS","NO":6372.0,"ST":"TX","X":-96.876909,"Y":32.662972,"Score":65,"Street":"3431 CAMP WISDOM RD","id":"a6210r1kloxl","Loc_name":"Address_Points"},"type":"Feature","geometry":{"type":"Point","coordinates":[-96.8769089999999,32.6629720000001]}},{"properties":{"Match_addr":"5841 ROSWELL RD NE, ATLANTA, GA, 30328","CITY":"ATLANTA","NO":8452.0,"ST":"GA","X":-84.378774,"Y":33.914744,"Score":79,"Street":"5841 ROSWELL RD NE","id":"a6210qv5h4of","Loc_name":"Address_Points"},"type":"Feature","geometry":{"type":"Point","coordinates":[-84.3787739999999,33.914744]}},{"properties":{"Match_addr":"9450 MIRA MESA BLVD, SAN DIEGO, CA, 92126","CITY":"SAN DIEGO","NO":551.0,"ST":"CA","X":-117.121306,"Y":32.918984,"Score":79,"Street":"9450 MIRA MESA BLVD","id":"a6210qlth670","Loc_name":"Address_Points"},"type":"Feature","geometry":{"type":"Point","coordinates":[-117.121306,32.9189840000001]}},{"properties":{"Match_addr":"14891 PRESTON RD, DALLAS, TX, 75254","CITY":"DALLAS","NO":6280.0,"ST":"TX","X":-96.804144,"Y":32.950651,"Score":79,"Street":"14891 PRESTON RD","id":"a6210qn4txry","Loc_name":"Address_Points"},"type":"Feature","geometry":{"type":"Point","coordinates":[-96.8041439999999,32.9506510000001]}},{"properties":{"Match_addr":"3715 GREENVILLE AVE, DALLAS, TX, 75206","CITY":"DALLAS","NO":6262.0,"ST":"TX","X":-96.770407,"Y":32.832345,"Score":79,"Street":"3715 GREENVILLE AVE","id":"a6210qyddgph","Loc_name":"Address_Points"},"type":"Feature","geometry":{"type":"Point","coordinates":[-96.7704069999999,32.8323450000001]}},{"properties":{"Match_addr":"3830 PARK BLVD, SAN DIEGO, CA, 92103","CITY":"SAN DIEGO","NO":10631.0,"ST":"CA","X":-117.146709,"Y":32.74816,"Score":79,"Street":"3830 PARK BLVD","id":"a6210qsq8o1x","Loc_name":"Address_Points"},"type":"Feature","geometry":{"type":"Point","coordinates":[-117.146709,32.74816]}},{"properties":{"Match_addr":"2941 PACES FERRY RD SE, ATLANTA, GA, 30339","CITY":"ATLANTA","NO":983.0,"ST":"GA","X":-84.467023,"Y":33.866445,"Score":63,"Street":"2941 PACES FERRY RD","id":"a6210r22u9sa","Loc_name":"Address_Points"},"type":"Feature","geometry":{"type":"Point","coordinates":[-84.4670229999999,33.8664450000001]}},{"properties":{"Match_addr":"3403 E ILLINOIS AVE, DALLAS, TX, 75216","CITY":"DALLAS","NO":10877.0,"ST":"TX","X":-96.76677,"Y":32.715987,"Score":65,"Street":"3403 W ILLINOIS AVE","id":"a6210qn9fh93","Loc_name":"Address_Points"},"type":"Feature","geometry":{"type":"Point","coordinates":[-96.7667699999999,32.715987]}},{"properties":{"Match_addr":"1375 PEACHTREE ST NE, ATLANTA, GA, 30309","CITY":"ATLANTA","NO":8479.0,"ST":"GA","X":-84.385652,"Y":33.792602,"Score":79,"Street":"1375 PEACHTREE ST NE","id":"a6210qr6kn8p","Loc_name":"Address_Points"},"type":"Feature","geometry":{"type":"Point","coordinates":[-84.3856519999999,33.792602]}},{"properties":{"Match_addr":"901 MARKET ST, SAN FRANCISCO, CA, 94103","CITY":"SAN FRANCISCO","NO":9205.0,"ST":"CA","X":-122.408041,"Y":37.78347,"Score":79,"Street":"901 MARKET ST","id":"a6210r0imeal","Loc_name":"Address_Points"},"type":"Feature","geometry":{"type":"Point","coordinates":[-122.408041,37.7834700000001]}},{"properties":{"Match_addr":"1167 LINCOLN AVE, SAN JOSE, CA, 95125","CITY":"SAN JOSE","NO":10667.0,"ST":"CA","X":-121.901544,"Y":37.306794,"Score":79,"Street":"1167 LINCOLN AVE","id":"a6210qnpw5xt","Loc_name":"Address_Points"},"type":"Feature","geometry":{"type":"Point","coordinates":[-121.901544,37.3067940000001]}},{"properties":{"Match_addr":"840 N ORLANDO AVE, WINTER PARK, FL, 32789","CITY":"WINTER PARK","NO":11707.0,"ST":"FL","X":-81.364618,"Y":28.604612,"Score":59,"Street":"480 N ORLANDO AVE","id":"a6210r1ks36s","Loc_name":"Address_Points"},"type":"Feature","geometry":{"type":"Point","coordinates":[-81.364618,28.6046120000001]}},{"properties":{"Match_addr":"2441 WATT ST, SCHENECTADY, NY, 12304","CITY":"SCHENECTADY","NO":10397.0,"ST":"NY","X":-73.913618,"Y":42.783641,"Score":67,"Street":"24471 WATT ST","id":"a6210qn1xfj2","Loc_name":"Address_Points"},"type":"Feature","geometry":{"type":"Point","coordinates":[-73.9136179999999,42.783641]}},{"properties":{"Match_addr":"53245 RT 25, SOUTHOLD, NY, 11971","CITY":"SOUTHOLD","NO":11976.0,"ST":"NY","X":-72.430641,"Y":41.063767,"Score":56,"Street":"53345 ROUTE 25","id":"a6210qmd78n6","Loc_name":"Address_Points"},"type":"Feature","geometry":{"type":"Point","coordinates":[-72.4306409999999,41.063767]}},{"properties":{"Match_addr":"1620 MENDOCINO AVE, SANTA ROSA, CA, 95401","CITY":"SANTA ROSA","NO":5367.0,"ST":"CA","X":-122.716839,"Y":38.455664,"Score":79,"Street":"1620 MENDOCINO AVE","id":"a6210qyjtcsd","Loc_name":"Address_Points"},"type":"Feature","geometry":{"type":"Point","coordinates":[-122.716839,38.4556640000001]}},{"properties":{"Match_addr":"1368 MADERA RD, SIMI VALLEY, CA, 93065","CITY":"SIMI VALLEY","NO":5591.0,"ST":"CA","X":-118.795734,"Y":34.264019,"Score":79,"Street":"1368 MADERA RD","id":"a6210qr6hzn7","Loc_name":"Address_Points"},"type":"Feature","geometry":{"type":"Point","coordinates":[-118.795734,34.2640190000001]}},{"properties":{"Match_addr":"1007 S CONGRESS AVE, AUSTIN, TX, 78704","CITY":"AUSTIN","NO":6403.0,"ST":"TX","X":-97.747534,"Y":30.254448,"Score":63,"Street":"1007 S CONGRESS","id":"a6210qsgrlft","Loc_name":"Address_Points"},"type":"Feature","geometry":{"type":"Point","coordinates":[-97.7475339999999,30.2544480000001]}},{"properties":{"Match_addr":"4645 MATLOCK RD, ARLINGTON, TX, 76018","CITY":"ARLINGTON","NO":9540.0,"ST":"TX","X":-97.114401,"Y":32.670757,"Score":63,"Street":"4645 MATLOCK","id":"a6210r1uv1du","Loc_name":"Address_Points"},"type":"Feature","geometry":{"type":"Point","coordinates":[-97.1144009999999,32.670757]}},{"properties":{"Match_addr":"13400 NEWPORT AVE, TUSTIN, CA, 92780","CITY":"TUSTIN","NO":9632.0,"ST":"CA","X":-117.814816,"Y":33.744508,"Score":56,"Street":"14001 NEWPORT AVE","id":"a6210qr8345z","Loc_name":"Address_Points"},"type":"Feature","geometry":{"type":"Point","coordinates":[-117.814816,33.7445080000001]}},{"properties":{"Match_addr":"13681 NEWPORT AVE, TUSTIN, CA, 92780","CITY":"TUSTIN","NO":14025.0,"ST":"CA","X":-117.820229,"Y":33.741168,"Score":79,"Street":"13681 NEWPORT AVE","id":"a6210qw3eglu","Loc_name":"Address_Points"},"type":"Feature","geometry":{"type":"Point","coordinates":[-117.820229,33.7411680000001]}},{"properties":{"Match_addr":"2733 N COLLINS ST, ARLINGTON, TX, 76006","CITY":"ARLINGTON","NO":6301.0,"ST":"TX","X":-97.09402,"Y":32.783236,"Score":63,"Street":"2733 N COLLINS","id":"a6210r07supg","Loc_name":"Address_Points"},"type":"Feature","geometry":{"type":"Point","coordinates":[-97.0940199999999,32.783236]}},{"properties":{"Match_addr":"1504 OLD COUNTRY RD, WESTBURY, NY, 11590","CITY":"WESTBURY","NO":11589.0,"ST":"NY","X":-73.594613,"Y":40.74523,"Score":79,"Street":"1504 OLD COUNTRY RD","id":"a6210r0u6wlw","Loc_name":"Address_Points"},"type":"Feature","geometry":{"type":"Point","coordinates":[-73.5946129999999,40.74523]}},{"properties":{"Match_addr":"467 OLD COUNTRY RD, WESTBURY, NY, 11590","CITY":"WESTBURY","NO":7275.0,"ST":"NY","X":-73.596868,"Y":40.746838,"Score":79,"Street":"467 OLD COUNTRY RD","id":"a6210qqj4xai","Loc_name":"Address_Points"},"type":"Feature","geometry":{"type":"Point","coordinates":[-73.5968679999999,40.7468380000001]}},{"properties":{"Match_addr":"1505 W 5TH AVE, COLUMBUS, OH, 43212","CITY":"COLUMBUS","NO":2525.0,"ST":"OH","X":-83.046643,"Y":39.988776,"Score":79,"Street":"1505 W FIFTH AVE","id":"a6210r0r7vn2","Loc_name":"Address_Points"},"type":"Feature","geometry":{"type":"Point","coordinates":[-83.0466429999999,39.9887760000001]}},{"properties":{"Match_addr":"2100 N MAIN ST, WALNUT CREEK, CA, 94596","CITY":"WALNUT CREEK","NO":6563.0,"ST":"CA","X":-122.064259,"Y":37.908681,"Score":64,"Street":"2001 N MAIN ST","id":"a6210qvv8s6h","Loc_name":"Address_Points"},"type":"Feature","geometry":{"type":"Point","coordinates":[-122.064259,37.9086810000001]}},{"properties":{"Match_addr":"601 N HIGH ST, COLUMBUS, OH, 43215","CITY":"COLUMBUS","NO":11856.0,"ST":"OH","X":-83.003251,"Y":39.974786,"Score":79,"Street":"601 N HIGH ST","id":"a6210qmrvn55","Loc_name":"Address_Points"},"type":"Feature","geometry":{"type":"Point","coordinates":[-83.0032509999999,39.9747860000001]}},{"properties":{"Match_addr":"320 S COLORADO BLVD, DENVER, CO, 80246","CITY":"DENVER","NO":10860.0,"ST":"CO","X":-104.94029,"Y":39.711025,"Score":79,"Street":"320 S COLORADO BLVD","id":"a6210qnjizam","Loc_name":"Address_Points"},"type":"Feature","geometry":{"type":"Point","coordinates":[-104.94029,39.7110250000001]}},{"properties":{"Match_addr":"7101 W COLFAX AVE, DENVER, CO, 80214","CITY":"DENVER","NO":10947.0,"ST":"CO","X":-105.076099,"Y":39.740615,"Score":64,"Street":"101 W COLFAX AVE","id":"a6210r1t5olj","Loc_name":"Address_Points"},"type":"Feature","geometry":{"type":"Point","coordinates":[-105.076099,39.740615]}},{"properties":{"Match_addr":"1644 E MAIN ST, COLUMBUS, OH, 43205","CITY":"COLUMBUS","NO":14056.0,"ST":"OH","X":-82.955388,"Y":39.957761,"Score":64,"Street":"6144 E MAIN ST","id":"a6210qqk47gy","Loc_name":"Address_Points"},"type":"Feature","geometry":{"type":"Point","coordinates":[-82.9553879999999,39.9577610000001]}},{"properties":{"Match_addr":"1769 ROANE STHY, HARRIMAN, TN, 37748","CITY":"HARRIMAN","NO":13772.0,"ST":"TN","X":-84.54492,"Y":35.892381,"Score":64,"Street":"1796 ROANE STATE HWY","id":"a6210r20nqb4","Loc_name":"Address_Points"},"type":"Feature","geometry":{"type":"Point","coordinates":[-84.5449199999999,35.8923810000001]}},{"properties":{"Match_addr":"4503 HWY 58, CHATTANOOGA, TN, 37416","CITY":"CHATTANOOGA","NO":13985.0,"ST":"TN","X":-85.198731,"Y":35.085432,"Score":79,"Street":"4503 HWY 58","id":"a6210qwjhws0","Loc_name":"Address_Points"},"type":"Feature","geometry":{"type":"Point","coordinates":[-85.1987309999999,35.0854320000001]}},{"properties":{"Match_addr":"1855 E MAIN ST, SPARTANBURG, SC, 29307","CITY":"SPARTANBURG","NO":11553.0,"ST":"SC","X":-81.892304,"Y":34.967259,"Score":79,"Street":"1855 E MAIN ST","id":"a6210qxdbffl","Loc_name":"Address_Points"},"type":"Feature","geometry":{"type":"Point","coordinates":[-81.8923039999999,34.9672590000001]}},{"properties":{"Match_addr":"3101 PGA BLVD, PALM BEACH GARDENS, FL, 33410","CITY":"PALM BEACH","NO":11406.0,"ST":"FL","X":-80.085391,"Y":26.848178,"Score":67,"Street":"3101 PGA BLVD","id":"a6210r11q0f2","Loc_name":"Address_Points"},"type":"Feature","geometry":{"type":"Point","coordinates":[-80.0853909999999,26.8481780000001]}},{"properties":{"Match_addr":"137 PROSPECT HILL RD, EAST WINDSOR, CT, 06088","CITY":"EAST WINDSOR","NO":11781.0,"ST":"CT","X":-72.60528,"Y":41.931383,"Score":79,"Street":"137 PROSPECT HILL RD","id":"a6210qlscqt9","Loc_name":"Address_Points"},"type":"Feature","geometry":{"type":"Point","coordinates":[-72.6052799999999,41.931383]}},{"properties":{"Match_addr":"925 N STATE ST, WESTERVILLE, OH, 43082","CITY":"WESTERVILLE","NO":11883.0,"ST":"OH","X":-82.923161,"Y":40.150572,"Score":79,"Street":"925 N. STATE ST","id":"a6210qqgn9ld","Loc_name":"Address_Points"},"type":"Feature","geometry":{"type":"Point","coordinates":[-82.9231609999999,40.1505720000001]}},{"properties":{"Match_addr":"682 WETHERSFIELD AVE, HARTFORD, CT, 06114","CITY":"HARTFORD","NO":13561.0,"ST":"CT","X":-72.670914,"Y":41.73747,"Score":79,"Street":"682 WETHERSFIELD AVE","id":"a6210qrobg4m","Loc_name":"Address_Points"},"type":"Feature","geometry":{"type":"Point","coordinates":[-72.6709139999999,41.7374700000001]}},{"properties":{"Match_addr":"1225 W BRITTON RD, OKLAHOMA CITY, OK, 73114","CITY":"OKLAHOMA CITY","NO":13324.0,"ST":"OK","X":-97.534651,"Y":35.565839,"Score":64,"Street":"125 W BRITTON RD","id":"a6210qwv0ejn","Loc_name":"Address_Points"},"type":"Feature","geometry":{"type":"Point","coordinates":[-97.5346509999999,35.565839]}},{"properties":{"Match_addr":"209 ELLA GRASSO TPKE, WINDSOR LOCKS, CT, 06096","CITY":"WINDSOR LOCKS","NO":9827.0,"ST":"CT","X":-72.669851,"Y":41.92921,"Score":79,"Street":"209 ELLA GRASSO TURNPIKE","id":"a6210qs20l5t","Loc_name":"Address_Points"},"type":"Feature","geometry":{"type":"Point","coordinates":[-72.6698509999999,41.9292100000001]}},{"properties":{"Match_addr":"2101 L ST NW, WASHINGTON, DC, 20037","CITY":"WASHINGTON","NO":14073.0,"ST":"DC","X":-77.047107,"Y":38.904185,"Score":63,"Street":"2101 L ST","id":"a6210qt1w6f9","Loc_name":"Address_Points"},"type":"Feature","geometry":{"type":"Point","coordinates":[-77.0471069999999,38.904185]}},{"properties":{"Match_addr":"9401 W COLONIAL DR, OCOEE, FL, 34761","CITY":"OCOEE","NO":11582.0,"ST":"FL","X":-81.516182,"Y":28.557527,"Score":79,"Street":"9401 W COLONIAL DR","id":"a6210qvooh01","Loc_name":"Address_Points"},"type":"Feature","geometry":{"type":"Point","coordinates":[-81.5161819999999,28.5575270000001]}},{"properties":{"Match_addr":"451 E ALTAMONTE DR, ALTAMONTE SPRINGS, FL, 32701","CITY":"ALTAMONTE SPRINGS","NO":11386.0,"ST":"FL","X":-81.377211,"Y":28.664343,"Score":79,"Street":"451 E ALTAMONTE DR","id":"a6210r286yew","Loc_name":"Address_Points"},"type":"Feature","geometry":{"type":"Point","coordinates":[-81.3772109999999,28.6643430000001]}},{"properties":{"Match_addr":"451 E ALTAMONTE DR, ALTAMONTE SPRINGS, FL, 32701","CITY":"ALTAMONTE SPRINGS","NO":11411.0,"ST":"FL","X":-81.377211,"Y":28.664343,"Score":79,"Street":"451 E ALTAMONTE DR","id":"a6210qr927s9","Loc_name":"Address_Points"},"type":"Feature","geometry":{"type":"Point","coordinates":[-81.3772109999999,28.6643430000001]}},{"properties":{"Match_addr":"24630 S TAMIAMI TRL, BONITA SPRINGS, FL, 34134","CITY":"BONITA SPRING","NO":11606.0,"ST":"FL","X":-81.808705,"Y":26.381029,"Score":77,"Street":"24630 S TAMIAMI TRAIL","id":"a6210qz4ssjg","Loc_name":"Address_Points"},"type":"Feature","geometry":{"type":"Point","coordinates":[-81.8087049999999,26.3810290000001]}},{"properties":{"Match_addr":"110 SE 82ND AVE, PORTLAND, OR, 97216","CITY":"PORTLAND","NO":14303.0,"ST":"OR","X":-122.578736,"Y":45.521878,"Score":56,"Street":"11860 SE 82ND AVE","id":"a6210qy25z9z","Loc_name":"Address_Points"},"type":"Feature","geometry":{"type":"Point","coordinates":[-122.578736,45.5218780000001]}},{"properties":{"Match_addr":"500 W GERMANTOWN PIKE, PLYMOUTH MEETING, PA, 19462","CITY":"PLYMOUTH MEETING","NO":9372.0,"ST":"PA","X":-75.283842,"Y":40.116655,"Score":79,"Street":"500 W GERMANTOWN PIKE","id":"a6210qvik17p","Loc_name":"Address_Points"},"type":"Feature","geometry":{"type":"Point","coordinates":[-75.2838419999999,40.116655]}},{"properties":{"Match_addr":"13100 JOG RD, DELRAY BEACH, FL, 33446","CITY":"DELRAY BEACH","NO":13404.0,"ST":"FL","X":-80.146099,"Y":26.480495,"Score":56,"Street":"13910 JOG RD","id":"a6210quxgq5l","Loc_name":"Address_Points"},"type":"Feature","geometry":{"type":"Point","coordinates":[-80.1460989999999,26.4804950000001]}},{"properties":{"Match_addr":"1200 TOWN CENTER DR, JUPITER, FL, 33458","CITY":"JUPITER","NO":11674.0,"ST":"FL","X":-80.114783,"Y":26.888948,"Score":79,"Street":"1200 TOWN CENTER DR","id":"a6210qnrn55p","Loc_name":"Address_Points"},"type":"Feature","geometry":{"type":"Point","coordinates":[-80.1147829999999,26.8889480000001]}},{"properties":{"Match_addr":"3462 PAXTON ST, HARRISBURG, PA, 17111","CITY":"HARRISBURG","NO":13543.0,"ST":"PA","X":-76.828648,"Y":40.254318,"Score":79,"Street":"3462 PAXTON ST","id":"a6210qvtc6mp","Loc_name":"Address_Points"},"type":"Feature","geometry":{"type":"Point","coordinates":[-76.8286479999999,40.2543180000001]}},{"properties":{"Match_addr":"113 E FORSYTH ST, JACKSONVILLE, FL, 32202","CITY":"JACKSONVILLE","NO":13464.0,"ST":"FL","X":-81.655884,"Y":30.326846,"Score":59,"Street":"11 E FORSYTH ST","id":"a6210qweppg8","Loc_name":"Address_Points"},"type":"Feature","geometry":{"type":"Point","coordinates":[-81.6558839999999,30.326846]}},{"properties":{"Match_addr":"1225 MARKET ST, HARRISBURG, PA, 17103","CITY":"HARRISBURG","NO":13636.0,"ST":"PA","X":-76.87103,"Y":40.26539,"Score":64,"Street":"225 MARKET ST","id":"a6210qmsxt5f","Loc_name":"Address_Points"},"type":"Feature","geometry":{"type":"Point","coordinates":[-76.8710299999999,40.2653900000001]}},{"properties":{"Match_addr":"ORANGE PARK, FL","CITY":"ORANGE PARK","NO":13608.0,"ST":"FL","X":-81.706373,"Y":30.170385,"Score":100,"Street":"1907 WELLS RD","id":"a6210r113wnw","Loc_name":"CityState"},"type":"Feature","geometry":{"type":"Point","coordinates":[-81.706373,30.170385]}},{"properties":{"Match_addr":"MORELAND, PA","CITY":"MORELAND","NO":7882.0,"ST":"PA","X":-76.646033,"Y":41.182402,"Score":100,"Street":"2770 EON RD UPPER","id":"a6210qs5viqn","Loc_name":"CityState"},"type":"Feature","geometry":{"type":"Point","coordinates":[-76.646033,41.182402]}},{"properties":{"Match_addr":"FORT MYERS, FL","CITY":"FORT MYERS","NO":11785.0,"ST":"FL","X":-81.839897,"Y":26.623125,"Score":100,"Street":"9903 GULF COAST","id":"a6210qydzt8d","Loc_name":"CityState"},"type":"Feature","geometry":{"type":"Point","coordinates":[-81.839897,26.623125]}},{"properties":{"Match_addr":"DALLAS, PA","CITY":"DALLAS","NO":10294.0,"ST":"PA","X":-75.964072,"Y":41.336065,"Score":100,"Street":"184 MEMORIAL HWY","id":"a6210qvnxkz6","Loc_name":"CityState"},"type":"Feature","geometry":{"type":"Point","coordinates":[-75.964072,41.3360650000001]}},{"properties":{"Match_addr":"ALTOONA, PA","CITY":"ALTOONA","NO":11767.0,"ST":"PA","X":-78.400179,"Y":40.507951,"Score":100,"Street":"11767 LOGAN VALLEY MALL RT 220","id":"a6210qz7a684","Loc_name":"CityState"},"type":"Feature","geometry":{"type":"Point","coordinates":[-78.4001789999999,40.5079510000001]}},{"properties":{"Match_addr":"ESTERO, FL","CITY":"ESTERO","NO":11389.0,"ST":"FL","X":-81.811045,"Y":26.442422,"Score":100,"Street":"8017 PLAZA DEL LAGO DR","id":"a6210qv4f8pu","Loc_name":"CityState"},"type":"Feature","geometry":{"type":"Point","coordinates":[-81.811045,26.442422]}},{"properties":{"Match_addr":"TILLAMOOK, OR","CITY":"TILLAMOOK","NO":10520.0,"ST":"OR","X":-123.839972,"Y":45.456318,"Score":100,"Street":"1701 WILSON RIVER","id":"a6210qlwrsc1","Loc_name":"CityState"},"type":"Feature","geometry":{"type":"Point","coordinates":[-123.839972,45.456318]}},{"properties":{"Match_addr":"READING, PA","CITY":"READING","NO":13545.0,"ST":"PA","X":-75.927867,"Y":40.335354,"Score":100,"Street":"3225 N5TH ST","id":"a6210qr3b7hj","Loc_name":"CityState"},"type":"Feature","geometry":{"type":"Point","coordinates":[-75.9278669999999,40.3353540000001]}},{"properties":{"Match_addr":"MIAMI, FL","CITY":"MIAMI","NO":13465.0,"ST":"FL","X":-80.190262,"Y":25.774252,"Score":100,"Street":"9600 SW 160th ST","id":"a6210r1focgd","Loc_name":"CityState"},"type":"Feature","geometry":{"type":"Point","coordinates":[-80.190262,25.774252]}},{"properties":{"Match_addr":"HILLSBORO, OR","CITY":"HILLSBORO","NO":13769.0,"ST":"OR","X":-122.938047,"Y":45.532685,"Score":100,"Street":"1887 NW 188TH AVE","id":"a6210r0zx7m7","Loc_name":"CityState"},"type":"Feature","geometry":{"type":"Point","coordinates":[-122.938047,45.532685]}},{"properties":{"Match_addr":"NAPLES, FL","CITY":"NAPLES","NO":10727.0,"ST":"FL","X":-81.795483,"Y":26.147369,"Score":100,"Street":"2405 TARPON BAY BLVD","id":"a6210r0befie","Loc_name":"CityState"},"type":"Feature","geometry":{"type":"Point","coordinates":[-81.7954829999999,26.147369]}},{"properties":{"Match_addr":"BEAVERTON, OR","CITY":"BEAVERTON","NO":460.0,"ST":"OR","X":-122.803999,"Y":45.486878,"Score":100,"Street":"18000 0NW EVERGREEN PKWY","id":"a6210qpfy38r","Loc_name":"CityState"},"type":"Feature","geometry":{"type":"Point","coordinates":[-122.803999,45.4868780000001]}},{"properties":{"Match_addr":"OKLAHOMA CITY, OK","CITY":"OKLAHOMA CITY","NO":14093.0,"ST":"OK","X":-97.459141,"Y":35.493138,"Score":100,"Street":"9201 S WERN AVE","id":"a6210qtcvzek","Loc_name":"CityState"},"type":"Feature","geometry":{"type":"Point","coordinates":[-97.4591409999999,35.4931380000001]}},{"properties":{"Match_addr":"OKLAHOMA CITY, OK","CITY":"OKLAHOMA CITY","NO":11144.0,"ST":"OK","X":-97.459141,"Y":35.493138,"Score":100,"Street":"12124 4N PENNSYLVANIA AVE","id":"a6210qpjl24c","Loc_name":"CityState"},"type":"Feature","geometry":{"type":"Point","coordinates":[-97.4591409999999,35.4931380000001]}},{"properties":{"Match_addr":"STROUDSBURG, PA","CITY":"STROUDSBURG","NO":14118.0,"ST":"PA","X":-75.19789,"Y":40.984371,"Score":100,"Street":"14118 RT 611","id":"a6210r1etp56","Loc_name":"CityState"},"type":"Feature","geometry":{"type":"Point","coordinates":[-75.19789,40.984371]}},{"properties":{"Match_addr":"FORT MYERS, FL","CITY":"FORT MYERS","NO":10950.0,"ST":"FL","X":-81.839897,"Y":26.623125,"Score":100,"Street":"9390 SIX MILE CYPRESS PKWY","id":"a6210r27k8bh","Loc_name":"CityState"},"type":"Feature","geometry":{"type":"Point","coordinates":[-81.839897,26.623125]}},{"properties":{"Match_addr":"ORANGE PARK, FL","CITY":"ORANGE PARK","NO":9860.0,"ST":"FL","X":-81.706373,"Y":30.170385,"Score":100,"Street":"1910 WELLS RD","id":"a6210qq93vok","Loc_name":"CityState"},"type":"Feature","geometry":{"type":"Point","coordinates":[-81.706373,30.170385]}},{"properties":{"Match_addr":"WARRINGTON, PA","CITY":"WARRINGTON","NO":9470.0,"ST":"PA","X":-75.133078,"Y":40.251342,"Score":100,"Street":"711 EON RD","id":"a6210qpc77vi","Loc_name":"CityState"},"type":"Feature","geometry":{"type":"Point","coordinates":[-75.1330779999999,40.2513420000001]}},{"properties":{"Match_addr":"WORTHINGTON, OH","CITY":"WORTHINGTON","NO":2792.0,"ST":"OH","X":-83.017593,"Y":40.096031,"Score":100,"Street":"530 N HIGH","id":"a6210qw5fr12","Loc_name":"CityState"},"type":"Feature","geometry":{"type":"Point","coordinates":[-83.0175929999999,40.096031]}},{"properties":{"Match_addr":"WILLOW GROVE, PA","CITY":"WILLOW GROVE","NO":7902.0,"ST":"PA","X":-75.119681,"Y":40.149067,"Score":100,"Street":"1107 EON RD","id":"a6210quk2g34","Loc_name":"CityState"},"type":"Feature","geometry":{"type":"Point","coordinates":[-75.119681,40.1490670000001]}},{"properties":{"Match_addr":"WYOMISSING, PA","CITY":"WYOMISSING","NO":11939.0,"ST":"PA","X":-75.963258,"Y":40.329338,"Score":100,"Street":"798 WOODLAND RD","id":"a6210qrenxgg","Loc_name":"CityState"},"type":"Feature","geometry":{"type":"Point","coordinates":[-75.963258,40.329338]}},{"properties":{"Match_addr":"PALM BEACH, FL","CITY":"PALM BEACH","NO":11405.0,"ST":"FL","X":-80.03641,"Y":26.705547,"Score":100,"Street":"801 N CONGRESS AVE","id":"a6210r1zdbz4","Loc_name":"CityState"},"type":"Feature","geometry":{"type":"Point","coordinates":[-80.0364099999999,26.705547]}},{"properties":{"Match_addr":"PALM BEACH, FL","CITY":"PALM BEACH","NO":7963.0,"ST":"FL","X":-80.03641,"Y":26.705547,"Score":100,"Street":"11701 LAKE VICTORIA GARDENS","id":"a6210r0foi6d","Loc_name":"CityState"},"type":"Feature","geometry":{"type":"Point","coordinates":[-80.0364099999999,26.705547]}},{"properties":{"Match_addr":"ST. CLAIRSVILLE, OH","CITY":"ST. CLAIRSVILLE","NO":10399.0,"ST":"OH","X":-80.90032,"Y":40.079365,"Score":100,"Street":"6780 0 MALL RD","id":"a6210qw13lg2","Loc_name":"CityState"},"type":"Feature","geometry":{"type":"Point","coordinates":[-80.90032,40.079365]}},{"properties":{"Match_addr":"PENSACOLA, FL","CITY":"PENSACOLA","NO":9750.0,"ST":"FL","X":-87.212261,"Y":30.473413,"Score":100,"Street":"8101 UNIVERSITY PKWY","id":"a6210qs3lasd","Loc_name":"CityState"},"type":"Feature","geometry":{"type":"Point","coordinates":[-87.212261,30.4734130000001]}},{"properties":{"Match_addr":"POMPANO BEACH, FL","CITY":"POMPANO BEACH","NO":11407.0,"ST":"FL","X":-80.136337,"Y":26.23152,"Score":100,"Street":"9439 W ATLANTIC BLVD","id":"a6210qs72gvp","Loc_name":"CityState"},"type":"Feature","geometry":{"type":"Point","coordinates":[-80.136337,26.2315200000001]}},{"properties":{"Match_addr":"MAUMEE, OH","CITY":"MAUMEE","NO":14170.0,"ST":"OH","X":-83.663582,"Y":41.567932,"Score":100,"Street":"3100 MAIN ST","id":"a6210qzykv14","Loc_name":"CityState"},"type":"Feature","geometry":{"type":"Point","coordinates":[-83.663582,41.567932]}},{"properties":{"Match_addr":"DUBLIN, OH","CITY":"DUBLIN","NO":13859.0,"ST":"OH","X":-80.785661,"Y":41.002813,"Score":100,"Street":"7561 SAWMILL RD","id":"a6210qnq0qsg","Loc_name":"CityState"},"type":"Feature","geometry":{"type":"Point","coordinates":[-80.785661,41.002813]}},{"properties":{"Match_addr":"DENVER, CO","CITY":"DENVER","NO":10675.0,"ST":"CO","X":-104.988089,"Y":39.755101,"Score":100,"Street":"1750 16TH ST","id":"a6210r0b444a","Loc_name":"CityState"},"type":"Feature","geometry":{"type":"Point","coordinates":[-104.988089,39.755101]}},{"properties":{"Match_addr":"CONIFER, CO","CITY":"CONFIER","NO":13938.0,"ST":"CO","X":-105.30563,"Y":39.520702,"Score":85,"Street":"27191 MAIN ST","id":"a6210qvolbue","Loc_name":"CityState"},"type":"Feature","geometry":{"type":"Point","coordinates":[-105.30563,39.520702]}},{"properties":{"Match_addr":"MEMPHIS, TN","CITY":"MEMPHIS","NO":8350.0,"ST":"TN","X":-90.05235,"Y":35.142852,"Score":100,"Street":"1645 N GERMANTOWN PKWY","id":"a6210qxezp5w","Loc_name":"CityState"},"type":"Feature","geometry":{"type":"Point","coordinates":[-90.05235,35.142852]}},{"properties":{"Match_addr":"ST. LUCIE, FL","CITY":"ST LUCIE","NO":13405.0,"ST":"FL","X":-80.34359,"Y":27.498455,"Score":88,"Street":"13405 BECKER RD","id":"a6210qxi8onu","Loc_name":"CityState"},"type":"Feature","geometry":{"type":"Point","coordinates":[-80.34359,27.498455]}},{"properties":{"Match_addr":"ST. PETERSBURG, FL","CITY":"ST. PETERSBURG","NO":14229.0,"ST":"FL","X":-82.638458,"Y":27.76707,"Score":100,"Street":"625 6th AVE S ST","id":"a6210qoquyej","Loc_name":"CityState"},"type":"Feature","geometry":{"type":"Point","coordinates":[-82.6384579999999,27.7670700000001]}},{"properties":{"Match_addr":"MEMPHIS, TN","CITY":"MEMPHIS","NO":11885.0,"ST":"TN","X":-90.05235,"Y":35.142852,"Score":100,"Street":"2293 N GERMANTOWN PKWY","id":"a6210quxcg4i","Loc_name":"CityState"},"type":"Feature","geometry":{"type":"Point","coordinates":[-90.05235,35.142852]}},{"properties":{"Match_addr":"MURFREESBORO, TN","CITY":"MURFREESBORO","NO":8471.0,"ST":"TN","X":-86.401054,"Y":35.852328,"Score":100,"Street":"8741 STONES RIVER MALL BLVD","id":"a6210qya4uje","Loc_name":"CityState"},"type":"Feature","geometry":{"type":"Point","coordinates":[-86.4010539999999,35.8523280000001]}},{"properties":{"Match_addr":"SYRACUSE, NY","CITY":"SYRACUSE","NO":8132.0,"ST":"NY","X":-76.147375,"Y":43.050831,"Score":100,"Street":"6570 WEIGHLOCK DR EAST","id":"a6210qs4u4nq","Loc_name":"CityState"},"type":"Feature","geometry":{"type":"Point","coordinates":[-76.147375,43.0508310000001]}},{"properties":{"Match_addr":"AUSTIN, TX","CITY":"AUSTIN","NO":14121.0,"ST":"TX","X":-97.745209,"Y":30.268735,"Score":100,"Street":"5000 W SLAUGHTER","id":"a6210qu5765k","Loc_name":"CityState"},"type":"Feature","geometry":{"type":"Point","coordinates":[-97.745209,30.268735]}},{"properties":{"Match_addr":"TAMPA, FL","CITY":"TAMPA","NO":11585.0,"ST":"FL","X":-82.451142,"Y":27.98146,"Score":100,"Street":"8021 CITRUS PK TOWN CNTR","id":"a6210qni7it5","Loc_name":"CityState"},"type":"Feature","geometry":{"type":"Point","coordinates":[-82.451142,27.9814600000001]}},{"properties":{"Match_addr":"SOUTHAMPTON, NY","CITY":"SOUTHAMPTON","NO":9845.0,"ST":"NY","X":-72.39575,"Y":40.883865,"Score":100,"Street":"9845 20 HWY","id":"a6210qu1h30l","Loc_name":"CityState"},"type":"Feature","geometry":{"type":"Point","coordinates":[-72.39575,40.8838650000001]}},{"properties":{"Match_addr":"THE VILLAGES, FL","CITY":"THE VILLAGES","NO":13496.0,"ST":"FL","X":-81.978993,"Y":28.938392,"Score":100,"Street":"4046 WEDGEWOOD LN","id":"a6210qnix3zj","Loc_name":"CityState"},"type":"Feature","geometry":{"type":"Point","coordinates":[-81.9789929999999,28.938392]}},{"properties":{"Match_addr":"VERO BEACH, FL","CITY":"VERO BEACH","NO":11417.0,"ST":"FL","X":-80.413684,"Y":27.645893,"Score":100,"Street":"6200 20th ST","id":"a6210qsa1qmc","Loc_name":"CityState"},"type":"Feature","geometry":{"type":"Point","coordinates":[-80.413684,27.6458929999999]}},{"properties":{"Match_addr":"SANTA CLARITA, CA","CITY":"SANTA CLARITA","NO":10584.0,"ST":"CA","X":-118.531397,"Y":34.433248,"Score":100,"Street":"26503 GOLDEN VALLEY RD","id":"a6210qyp2bri","Loc_name":"CityState"},"type":"Feature","geometry":{"type":"Point","coordinates":[-118.531397,34.4332479999999]}},{"properties":{"Match_addr":"WINTER GARDEN, FL","CITY":"WINTER GARDEN","NO":14134.0,"ST":"FL","X":-81.582483,"Y":28.55108,"Score":100,"Street":"15502 STONYBOROOK W PKWY","id":"a6210qptyp0f","Loc_name":"CityState"},"type":"Feature","geometry":{"type":"Point","coordinates":[-81.582483,28.55108]}},{"properties":{"Match_addr":"CORPUS CHRISTI, TX","CITY":"CORPUS CHRISTI","NO":11943.0,"ST":"TX","X":-97.391431,"Y":27.801643,"Score":100,"Street":"3738 STAPLES","id":"a6210qpiyjor","Loc_name":"CityState"},"type":"Feature","geometry":{"type":"Point","coordinates":[-97.391431,27.801643]}},{"properties":{"Match_addr":"ROSLYN HEIGHTS, NY","CITY":"ROSLYN HEIGHTS","NO":10611.0,"ST":"NY","X":-73.639307,"Y":40.780859,"Score":100,"Street":"1 RAILRD AVE","id":"a6210qvnvq84","Loc_name":"CityState"},"type":"Feature","geometry":{"type":"Point","coordinates":[-73.639307,40.780859]}},{"properties":{"Match_addr":"DALLAS, TX","CITY":"DALLAS","NO":14144.0,"ST":"TX","X":-96.797111,"Y":32.781078,"Score":100,"Street":"7995 LBJ","id":"a6210r1s1aqm","Loc_name":"CityState"},"type":"Feature","geometry":{"type":"Point","coordinates":[-96.797111,32.7810780000001]}},{"properties":{"Match_addr":"SAN DIEGO, CA","CITY":"SAN DIEGO","NO":11837.0,"ST":"CA","X":-117.163841,"Y":32.718834,"Score":100,"Street":"1122 BRDWAY AVE","id":"a6210qo47973","Loc_name":"CityState"},"type":"Feature","geometry":{"type":"Point","coordinates":[-117.163841,32.718834]}},{"properties":{"Match_addr":"SAN DIEGO, CA","CITY":"SAN DIEGO","NO":5637.0,"ST":"CA","X":-117.163841,"Y":32.718834,"Score":100,"Street":"6171 MISSION GORGE","id":"a6210qsa3zal","Loc_name":"CityState"},"type":"Feature","geometry":{"type":"Point","coordinates":[-117.163841,32.718834]}},{"properties":{"Match_addr":"AUSTELL, GA","CITY":"AUSTELL","NO":11870.0,"ST":"GA","X":-84.642831,"Y":33.821399,"Score":100,"Street":"2860 E-W CONNECTOR","id":"a6210qmtf2dn","Loc_name":"CityState"},"type":"Feature","geometry":{"type":"Point","coordinates":[-84.642831,33.8213990000001]}},{"properties":{"Match_addr":"POUGHKEEPSIE, NY","CITY":"POUGHKEEPSIE","NO":11651.0,"ST":"NY","X":-73.922049,"Y":41.694525,"Score":100,"Street":"2001 S RD","id":"a6210qviaah0","Loc_name":"CityState"},"type":"Feature","geometry":{"type":"Point","coordinates":[-73.922049,41.6945250000001]}},{"properties":{"Match_addr":"SACRAMENTO, CA","CITY":"SACRAMENTO","NO":11100.0,"ST":"CA","X":-121.487147,"Y":38.573659,"Score":100,"Street":"3630 N FREEWAY BLVD","id":"a6210qs54i5j","Loc_name":"CityState"},"type":"Feature","geometry":{"type":"Point","coordinates":[-121.487147,38.5736590000001]}},{"properties":{"Match_addr":"RIVERSIDE, CA","CITY":"RIVERSIDE","NO":10813.0,"ST":"CA","X":-117.400875,"Y":33.946458,"Score":100,"Street":"2692 CANYON SPRINGS","id":"a6210qnsjwym","Loc_name":"CityState"},"type":"Feature","geometry":{"type":"Point","coordinates":[-117.400875,33.9464580000001]}},{"properties":{"Match_addr":"FORT WORTH, TX","CITY":"FORT WORTH","NO":10057.0,"ST":"TX","X":-97.330335,"Y":32.75492,"Score":100,"Street":"4603 CAMP BOWIE","id":"a6210qy2pqvd","Loc_name":"CityState"},"type":"Feature","geometry":{"type":"Point","coordinates":[-97.330335,32.7549200000001]}},{"properties":{"Match_addr":"FRISCO, TX","CITY":"FRISCO","NO":14096.0,"ST":"TX","X":-96.787647,"Y":33.152866,"Score":100,"Street":"801 WARREN PKWY","id":"a6210qw8ft8h","Loc_name":"CityState"},"type":"Feature","geometry":{"type":"Point","coordinates":[-96.787647,33.1528660000001]}},{"properties":{"Match_addr":"FRISCO, TX","CITY":"FRISCO","NO":13928.0,"ST":"TX","X":-96.787647,"Y":33.152866,"Score":100,"Street":"423","id":"a6210qyudao6","Loc_name":"CityState"},"type":"Feature","geometry":{"type":"Point","coordinates":[-96.787647,33.1528660000001]}},{"properties":{"Match_addr":"GARLAND, TX","CITY":"GARLAND","NO":10295.0,"ST":"TX","X":-96.63089,"Y":32.908865,"Score":100,"Street":"470 CONEFLOWER DR","id":"a6210qrdc7v2","Loc_name":"CityState"},"type":"Feature","geometry":{"type":"Point","coordinates":[-96.63089,32.908865]}},{"properties":{"Match_addr":"NEW YORK, NY","CITY":"NEW YORK","NO":11538.0,"ST":"NY","X":-73.98555,"Y":40.757947,"Score":100,"Street":"1600 BRDWAY","id":"a6210qret1ek","Loc_name":"CityState"},"type":"Feature","geometry":{"type":"Point","coordinates":[-73.98555,40.7579470000001]}},{"properties":{"Match_addr":"HOUSTON, TX","CITY":"HOUSTON","NO":11562.0,"ST":"TX","X":-95.362534,"Y":29.759956,"Score":100,"Street":"14333 WHEIMER RD","id":"a6210qm9syqd","Loc_name":"CityState"},"type":"Feature","geometry":{"type":"Point","coordinates":[-95.3625339999999,29.7599560000001]}},{"properties":{"Match_addr":"MIDDLETOWN, NY","CITY":"MIDDLETOWN","NO":11368.0,"ST":"NY","X":-74.42581,"Y":41.448414,"Score":100,"Street":"11368 ONE GALLERIA DR","id":"a6210qo5r5dw","Loc_name":"CityState"},"type":"Feature","geometry":{"type":"Point","coordinates":[-74.42581,41.448414]}},{"properties":{"Match_addr":"MANHATTAN, NY","CITY":"MANHATTAN","NO":2880.0,"ST":"NY","X":-73.987951,"Y":40.749863,"Score":100,"Street":"1675 BRDWAY","id":"a6210r2bdbta","Loc_name":"CityState"},"type":"Feature","geometry":{"type":"Point","coordinates":[-73.987951,40.749863]}},{"properties":{"Match_addr":"MAMARONECK, NY","CITY":"MAMARONECK","NO":14187.0,"ST":"NY","X":-73.733037,"Y":40.948697,"Score":100,"Street":"14187 322 MAMARONECK AVE","id":"a6210quwn9rf","Loc_name":"CityState"},"type":"Feature","geometry":{"type":"Point","coordinates":[-73.733037,40.9486970000001]}},{"properties":{"Match_addr":"LOCKPORT, NY","CITY":"LOCKPORT","NO":9403.0,"ST":"NY","X":-78.696849,"Y":43.168862,"Score":100,"Street":"5774 S TRANSIT RD","id":"a6210r09m4tr","Loc_name":"CityState"},"type":"Feature","geometry":{"type":"Point","coordinates":[-78.6968489999999,43.168862]}},{"properties":{"Match_addr":"DUBUQUE, IA","CITY":"DUBUQUE","NO":10197.0,"ST":"IA","X":-90.665478,"Y":42.502272,"Score":100,"Street":"2515 NW ARTERIAL","id":"a6210qvtvzt5","Loc_name":"CityState"},"type":"Feature","geometry":{"type":"Point","coordinates":[-90.665478,42.5022720000001]}},{"properties":{"Match_addr":"MIRA LOMA, CA","CITY":"MIRA LOMA","NO":10941.0,"ST":"CA","X":-117.516748,"Y":33.982741,"Score":100,"Street":"6253 PATS RANCH","id":"a6210qn8xz2f","Loc_name":"CityState"},"type":"Feature","geometry":{"type":"Point","coordinates":[-117.516748,33.9827410000001]}},{"properties":{"Match_addr":"BOISE, ID","CITY":"BOISE","NO":3335.0,"ST":"ID","X":-116.212539,"Y":43.602071,"Score":100,"Street":"2209 UNIVERSITY DR","id":"a6210r1014p1","Loc_name":"CityState"},"type":"Feature","geometry":{"type":"Point","coordinates":[-116.212539,43.602071]}},{"properties":{"Match_addr":"ISLANDIA, NY","CITY":"ISLAND","NO":11280.0,"ST":"NY","X":-73.167552,"Y":40.808721,"Score":74,"Street":"1756 FOREST AVE STATEN","id":"a6210qv21kre","Loc_name":"CityState"},"type":"Feature","geometry":{"type":"Point","coordinates":[-73.1675519999999,40.808721]}},{"properties":{"Match_addr":"HYDE PARK, NY","CITY":"HYDE PARK","NO":7679.0,"ST":"NY","X":-74.958048,"Y":42.661059,"Score":100,"Street":"1441 JERICHO TURNPIKE NEW","id":"a6210qq5qte7","Loc_name":"CityState"},"type":"Feature","geometry":{"type":"Point","coordinates":[-74.958048,42.661059]}},{"properties":{"Match_addr":"HICKSVILLE, NY","CITY":"HICKVILLE","NO":7574.0,"ST":"NY","X":-73.523981,"Y":40.763489,"Score":89,"Street":"385B BRDWAY MALL","id":"a6210r23etjv","Loc_name":"CityState"},"type":"Feature","geometry":{"type":"Point","coordinates":[-73.5239809999999,40.763489]}},{"properties":{"Match_addr":"GLENDALE, NY","CITY":"GLENDALE","NO":10166.0,"ST":"NY","X":-75.410804,"Y":43.717638,"Score":100,"Street":"8989 UNION TURNPIKE","id":"a6210qwqmwx3","Loc_name":"CityState"},"type":"Feature","geometry":{"type":"Point","coordinates":[-75.410804,43.717638]}},{"properties":{"Match_addr":"GLENDALE, NY","CITY":"GLENDALE","NO":11812.0,"ST":"NY","X":-75.410804,"Y":43.717638,"Score":100,"Street":"8000 COOPER AVE","id":"a6210qttymh6","Loc_name":"CityState"},"type":"Feature","geometry":{"type":"Point","coordinates":[-75.410804,43.717638]}},{"properties":{"Match_addr":"CHANNAHON, IL","CITY":"CHANNAHON","NO":13438.0,"ST":"IL","X":-88.218327,"Y":41.434941,"Score":100,"Street":"27243 W SAXONY DR","id":"a6210qq6xhto","Loc_name":"CityState"},"type":"Feature","geometry":{"type":"Point","coordinates":[-88.2183269999999,41.4349410000001]}},{"properties":{"Match_addr":"CHATHAM, IL","CITY":"CHATHAM","NO":13689.0,"ST":"IL","X":-89.698806,"Y":39.676415,"Score":100,"Street":"1140 COMMERCE CT","id":"a6210r294kgd","Loc_name":"CityState"},"type":"Feature","geometry":{"type":"Point","coordinates":[-89.698806,39.676415]}},{"properties":{"Match_addr":"MAMMOTH LAKES, CA","CITY":"MAMMOTH LAKES","NO":6836.0,"ST":"CA","X":-118.992315,"Y":37.627673,"Score":100,"Street":"436 MAMMOTH RD","id":"a6210qrfqb2n","Loc_name":"CityState"},"type":"Feature","geometry":{"type":"Point","coordinates":[-118.992315,37.627673]}},{"properties":{"Match_addr":"CHEEKTOWAGA, NY","CITY":"CHEEKTOWAGA","NO":11422.0,"ST":"NY","X":-78.754312,"Y":42.903821,"Score":100,"Street":"2000 WALDEN AVE","id":"a6210qzagud6","Loc_name":"CityState"},"type":"Feature","geometry":{"type":"Point","coordinates":[-78.754312,42.9038210000001]}},{"properties":{"Match_addr":"BROOKLYN, NY","CITY":"BROOKLYN","NO":14186.0,"ST":"NY","X":-78.748652,"Y":42.433185,"Score":100,"Street":"8414 3RD AVE","id":"a6210qopyrk0","Loc_name":"CityState"},"type":"Feature","geometry":{"type":"Point","coordinates":[-78.748652,42.4331850000001]}},{"properties":{"Match_addr":"HOUSTON, TX","CITY":"HOUSTON","NO":6274.0,"ST":"TX","X":-95.362534,"Y":29.759956,"Score":100,"Street":"3821 SHEPHARD","id":"a6210quwq6ed","Loc_name":"CityState"},"type":"Feature","geometry":{"type":"Point","coordinates":[-95.3625339999999,29.7599560000001]}},{"properties":{"Match_addr":"LINCOLN, CA","CITY":"LINCOLN","NO":9637.0,"ST":"CA","X":-121.297568,"Y":38.874051,"Score":100,"Street":"1520 DEL WEBB BLVD","id":"a6210qv63vcc","Loc_name":"CityState"},"type":"Feature","geometry":{"type":"Point","coordinates":[-121.297568,38.8740510000001]}},{"properties":{"Match_addr":"LAKE FOREST, CA","CITY":"LAKE FOREST","NO":14013.0,"ST":"CA","X":-120.113385,"Y":39.189839,"Score":100,"Street":"22621 LAKE","id":"a6210qpdf5q8","Loc_name":"CityState"},"type":"Feature","geometry":{"type":"Point","coordinates":[-120.113385,39.1898390000001]}},{"properties":{"Match_addr":"LAKE ARROWHEAD, CA","CITY":"LAKE ARROWHEAD","NO":11328.0,"ST":"CA","X":-117.181901,"Y":34.251586,"Score":100,"Street":"173 ST HWY","id":"a6210qog3t2t","Loc_name":"CityState"},"type":"Feature","geometry":{"type":"Point","coordinates":[-117.181901,34.251586]}},{"properties":{"Match_addr":"LAS VEGAS, NV","CITY":"LAS VEGAS","NO":9884.0,"ST":"NV","X":-115.246776,"Y":36.233048,"Score":100,"Street":"6360 N SIMMON ST N","id":"a6210qwwq03b","Loc_name":"CityState"},"type":"Feature","geometry":{"type":"Point","coordinates":[-115.246776,36.233048]}},{"properties":{"Match_addr":"LAS VEGAS, NV","CITY":"LAS VEGAS","NO":10872.0,"ST":"NV","X":-115.246776,"Y":36.233048,"Score":100,"Street":"3720 LAKE MEAD BLVD","id":"a6210qtfqzwk","Loc_name":"CityState"},"type":"Feature","geometry":{"type":"Point","coordinates":[-115.246776,36.233048]}},{"properties":{"Match_addr":"LAGUNA, CA","CITY":"LAGUNA","NO":13745.0,"ST":"CA","X":-121.423433,"Y":38.423476,"Score":100,"Street":"636 N PACIFIC COAST HWY","id":"a6210qy5s8z0","Loc_name":"CityState"},"type":"Feature","geometry":{"type":"Point","coordinates":[-121.423433,38.4234760000001]}},{"properties":{"Match_addr":"LAS VEGAS, NV","CITY":"LAS VEGAS","NO":5544.0,"ST":"NV","X":-115.246776,"Y":36.233048,"Score":100,"Street":"2390 E SERENE AVE","id":"a6210qokylck","Loc_name":"CityState"},"type":"Feature","geometry":{"type":"Point","coordinates":[-115.246776,36.233048]}},{"properties":{"Match_addr":"LAS VEGAS, NV","CITY":"LAS VEGAS","NO":10079.0,"ST":"NV","X":-115.246776,"Y":36.233048,"Score":100,"Street":"6100 W FLAMINGO RD","id":"a6210qojq3nz","Loc_name":"CityState"},"type":"Feature","geometry":{"type":"Point","coordinates":[-115.246776,36.233048]}},{"properties":{"Match_addr":"JACKSON, CA","CITY":"JACKSON","NO":13934.0,"ST":"CA","X":-120.774185,"Y":38.348999,"Score":100,"Street":"711 STATE HWY","id":"a6210qwrzt91","Loc_name":"CityState"},"type":"Feature","geometry":{"type":"Point","coordinates":[-120.774185,38.348999]}},{"properties":{"Match_addr":"LOCKPORT, IL","CITY":"LOCKPORT","NO":2631.0,"ST":"IL","X":-88.049727,"Y":41.582612,"Score":100,"Street":"14124 S BELL RD","id":"a6210qya5sns","Loc_name":"CityState"},"type":"Feature","geometry":{"type":"Point","coordinates":[-88.049727,41.5826119999999]}},{"properties":{"Match_addr":"GREENVILLE, MI","CITY":"GREENVILLE","NO":13623.0,"ST":"MI","X":-85.253206,"Y":43.177457,"Score":100,"Street":"1925 W WASHINGTON","id":"a6210qqkosfp","Loc_name":"CityState"},"type":"Feature","geometry":{"type":"Point","coordinates":[-85.253206,43.1774570000001]}},{"properties":{"Match_addr":"LAS VEGAS, NV","CITY":"LAS VEGAS","NO":5592.0,"ST":"NV","X":-115.246776,"Y":36.233048,"Score":100,"Street":"1513 W CRAIG RD","id":"a6210qn01xcz","Loc_name":"CityState"},"type":"Feature","geometry":{"type":"Point","coordinates":[-115.246776,36.233048]}},{"properties":{"Match_addr":"RIVER FOREST, IL","CITY":"RIVER FOREST","NO":11624.0,"ST":"IL","X":-87.814847,"Y":41.893962,"Score":100,"Street":"7601 W NAVE","id":"a6210quai96x","Loc_name":"CityState"},"type":"Feature","geometry":{"type":"Point","coordinates":[-87.814847,41.8939620000001]}},{"properties":{"Match_addr":"HOUSTON, TX","CITY":"HOUSTON","NO":7944.0,"ST":"TX","X":-95.362534,"Y":29.759956,"Score":100,"Street":"6001 N FWY","id":"a6210qxezesa","Loc_name":"CityState"},"type":"Feature","geometry":{"type":"Point","coordinates":[-95.3625339999999,29.7599560000001]}},{"properties":{"Match_addr":"BLOOMFIELD, NM","CITY":"BLOOMFIELD","NO":10120.0,"ST":"NM","X":-107.979089,"Y":36.712805,"Score":100,"Street":"500 W BRDWAY AVE","id":"a6210qos029f","Loc_name":"CityState"},"type":"Feature","geometry":{"type":"Point","coordinates":[-107.979089,36.7128050000001]}},{"properties":{"Match_addr":"ALBUQUERQUE, NM","CITY":"ALBUQUERQUE","NO":13898.0,"ST":"NM","X":-106.626718,"Y":35.08133,"Score":100,"Street":"2270 WYOMING","id":"a6210qn5u5hh","Loc_name":"CityState"},"type":"Feature","geometry":{"type":"Point","coordinates":[-106.626718,35.08133]}},{"properties":{"Match_addr":"WAYNE, NJ","CITY":"WAYNE","NO":13298.0,"ST":"NJ","X":-74.244502,"Y":40.948493,"Score":100,"Street":"57 ROUTE 23 S","id":"a6210qxt6io3","Loc_name":"CityState"},"type":"Feature","geometry":{"type":"Point","coordinates":[-74.244502,40.948493]}},{"properties":{"Match_addr":"BLUFFTON, IN","CITY":"BLUFFTON","NO":13201.0,"ST":"IN","X":-85.171123,"Y":40.743167,"Score":100,"Street":"2133 N MAIN ST","id":"a6210qy91sj1","Loc_name":"CityState"},"type":"Feature","geometry":{"type":"Point","coordinates":[-85.171123,40.743167]}},{"properties":{"Match_addr":"HEMET, CA","CITY":"HEMET","NO":10341.0,"ST":"CA","X":-116.989083,"Y":33.738611,"Score":100,"Street":"3511 W STETSON AVE","id":"a6210qtigqjl","Loc_name":"CityState"},"type":"Feature","geometry":{"type":"Point","coordinates":[-116.989083,33.738611]}},{"properties":{"Match_addr":"CROWN POINT, IN","CITY":"CROWN POINT","NO":13805.0,"ST":"IN","X":-87.34305,"Y":41.420183,"Score":100,"Street":"10761 BRDWAY","id":"a6210qy6ej8r","Loc_name":"CityState"},"type":"Feature","geometry":{"type":"Point","coordinates":[-87.34305,41.4201830000001]}},{"properties":{"Match_addr":"HAYWARD, CA","CITY":"HAYWARD","NO":5908.0,"ST":"CA","X":-120.371569,"Y":37.645745,"Score":100,"Street":"2695 3 MISSION RD","id":"a6210qqwlv5b","Loc_name":"CityState"},"type":"Feature","geometry":{"type":"Point","coordinates":[-120.371569,37.6457449999999]}},{"properties":{"Match_addr":"NEWARK, NJ","CITY":"NEWARK","NO":7563.0,"ST":"NJ","X":-74.17211,"Y":40.735443,"Score":100,"Street":"744 BRD ST","id":"a6210qqgj5q7","Loc_name":"CityState"},"type":"Feature","geometry":{"type":"Point","coordinates":[-74.1721099999999,40.7354430000001]}},{"properties":{"Match_addr":"MESQUITE, TX","CITY":"MESQUITE","NO":2977.0,"ST":"TX","X":-96.59916,"Y":32.766812,"Score":100,"Street":"2228 TOWN E BLVD","id":"a6210qzowyx6","Loc_name":"CityState"},"type":"Feature","geometry":{"type":"Point","coordinates":[-96.5991599999999,32.766812]}},{"properties":{"Match_addr":"FONTANA, CA","CITY":"FONTANA","NO":11225.0,"ST":"CA","X":-117.435776,"Y":34.070323,"Score":100,"Street":"16645 SIERRA LAKES","id":"a6210qosbexj","Loc_name":"CityState"},"type":"Feature","geometry":{"type":"Point","coordinates":[-117.435776,34.070323]}},{"properties":{"Match_addr":"FONTANA, CA","CITY":"FONTANA","NO":10426.0,"ST":"CA","X":-117.435776,"Y":34.070323,"Score":100,"Street":"3480 SIERRA AVE","id":"a6210qxmdst4","Loc_name":"CityState"},"type":"Feature","geometry":{"type":"Point","coordinates":[-117.435776,34.070323]}},{"properties":{"Match_addr":"OAKS, TX","CITY":"OAK","NO":11301.0,"ST":"TX","X":-98.032247,"Y":28.608741,"Score":74,"Street":"502 N I-35 RED","id":"a6210qxz1t8q","Loc_name":"CityState"},"type":"Feature","geometry":{"type":"Point","coordinates":[-98.032247,28.6087410000001]}},{"properties":{"Match_addr":"PLAINVIEW, TX","CITY":"PLAINVIEW","NO":11074.0,"ST":"TX","X":-101.72449,"Y":34.191816,"Score":100,"Street":"1301 I-27 NORTH","id":"a6210qu6a2x8","Loc_name":"CityState"},"type":"Feature","geometry":{"type":"Point","coordinates":[-101.72449,34.191816]}},{"properties":{"Match_addr":"INDIANAPOLIS, IN","CITY":"INDIANAPOLIS","NO":2499.0,"ST":"IN","X":-86.156255,"Y":39.767016,"Score":100,"Street":"9642 ALLISONVILLE RD","id":"a6210qzbzmdr","Loc_name":"CityState"},"type":"Feature","geometry":{"type":"Point","coordinates":[-86.1562549999999,39.767016]}},{"properties":{"Match_addr":"ELK GROVE, CA","CITY":"ELK GROVE","NO":6889.0,"ST":"CA","X":-121.371458,"Y":38.403196,"Score":100,"Street":"8785 CENTER PKWY","id":"a6210r0hoefo","Loc_name":"CityState"},"type":"Feature","geometry":{"type":"Point","coordinates":[-121.371458,38.4031960000001]}},{"properties":{"Match_addr":"EL MONTE, CA","CITY":"EL MONTE","NO":10487.0,"ST":"CA","X":-118.032866,"Y":34.072491,"Score":100,"Street":"9327 GARVEY AVE","id":"a6210qqzi9jr","Loc_name":"CityState"},"type":"Feature","geometry":{"type":"Point","coordinates":[-118.032866,34.072491]}},{"properties":{"Match_addr":"CHARLOTTE, NC","CITY":"CHARLOTTE","NO":10836.0,"ST":"NC","X":-80.845841,"Y":35.231402,"Score":100,"Street":"9335 CENTER LAKE DR","id":"a6210qsei90s","Loc_name":"CityState"},"type":"Feature","geometry":{"type":"Point","coordinates":[-80.845841,35.2314020000001]}},{"properties":{"Match_addr":"PLAINFIELD, IN","CITY":"PLAINFIELD","NO":11722.0,"ST":"IN","X":-86.395104,"Y":39.705226,"Score":100,"Street":"2499 FUTURA PKWY","id":"a6210qzzdnb7","Loc_name":"CityState"},"type":"Feature","geometry":{"type":"Point","coordinates":[-86.3951039999999,39.705226]}},{"properties":{"Match_addr":"CHARLOTTE, NC","CITY":"CHARLOTTE","NO":11056.0,"ST":"NC","X":-80.845841,"Y":35.231402,"Score":100,"Street":"4620 PIEDMONT ROW DR","id":"a6210qlxe41z","Loc_name":"CityState"},"type":"Feature","geometry":{"type":"Point","coordinates":[-80.845841,35.2314020000001]}},{"properties":{"Match_addr":"CHARLOTTE, NC","CITY":"CHARLOTTE","NO":13533.0,"ST":"NC","X":-80.845841,"Y":35.231402,"Score":100,"Street":"1520 OVERLAND PARK LN","id":"a6210qxlf82w","Loc_name":"CityState"},"type":"Feature","geometry":{"type":"Point","coordinates":[-80.845841,35.2314020000001]}},{"properties":{"Match_addr":"CORONA, CA","CITY":"CORONA","NO":11775.0,"ST":"CA","X":-117.567561,"Y":33.875542,"Score":100,"Street":"2795 CABOT DR","id":"a6210r122ara","Loc_name":"CityState"},"type":"Feature","geometry":{"type":"Point","coordinates":[-117.567561,33.8755420000001]}},{"properties":{"Match_addr":"FLOWOOD, MS","CITY":"FLOWOOD","NO":10275.0,"ST":"MS","X":-90.107571,"Y":32.323721,"Score":100,"Street":"204 A E LAYFAIR DR","id":"a6210qluv819","Loc_name":"CityState"},"type":"Feature","geometry":{"type":"Point","coordinates":[-90.107571,32.323721]}},{"properties":{"Match_addr":"BATESVILLE, MS","CITY":"BATESVILLE","NO":13474.0,"ST":"MS","X":-89.942878,"Y":34.318494,"Score":100,"Street":"100 HOUSE-CARLSON DR","id":"a6210qxt1fo7","Loc_name":"CityState"},"type":"Feature","geometry":{"type":"Point","coordinates":[-89.942878,34.318494]}},{"properties":{"Match_addr":"WELDON SPRING, MO","CITY":"WELDON SPRINGS","NO":13323.0,"ST":"MO","X":-90.651484,"Y":38.712002,"Score":92,"Street":"5851 WWOOD DR WELDON","id":"a6210qy6fcgs","Loc_name":"CityState"},"type":"Feature","geometry":{"type":"Point","coordinates":[-90.651484,38.712002]}},{"properties":{"Match_addr":"CHULA VISTA, CA","CITY":"CHULA VISTA","NO":11223.0,"ST":"CA","X":-117.093509,"Y":32.641303,"Score":100,"Street":"2015 BIRCH RD","id":"a6210qzsrjit","Loc_name":"CityState"},"type":"Feature","geometry":{"type":"Point","coordinates":[-117.093509,32.6413030000001]}},{"properties":{"Match_addr":"ROSENBERG, TX","CITY":"ROSENBERG","NO":11302.0,"ST":"TX","X":-95.793461,"Y":29.542546,"Score":100,"Street":"27943 SW FWY","id":"a6210qm9p98q","Loc_name":"CityState"},"type":"Feature","geometry":{"type":"Point","coordinates":[-95.7934609999999,29.542546]}},{"properties":{"Match_addr":"WASHINGTON, MO","CITY":"WASHINGTON","NO":14364.0,"ST":"MO","X":-91.013097,"Y":38.556546,"Score":100,"Street":"3081 PHOENIX CENTER DR","id":"a6210r0n0ro3","Loc_name":"CityState"},"type":"Feature","geometry":{"type":"Point","coordinates":[-91.013097,38.5565460000001]}},{"properties":{"Match_addr":"ST. LOUIS, MO","CITY":"ST. LOUIS","NO":11360.0,"ST":"MO","X":-90.198268,"Y":38.627487,"Score":100,"Street":"1002 5 MANCHESTER RD","id":"a6210qvnzjdf","Loc_name":"CityState"},"type":"Feature","geometry":{"type":"Point","coordinates":[-90.1982679999999,38.627487]}},{"properties":{"Match_addr":"ST. LOUIS, MO","CITY":"ST. LOUIS","NO":11523.0,"ST":"MO","X":-90.198268,"Y":38.627487,"Score":100,"Street":"6070 H TELEGRAPH RD","id":"a6210qw9fmod","Loc_name":"CityState"},"type":"Feature","geometry":{"type":"Point","coordinates":[-90.1982679999999,38.627487]}},{"properties":{"Match_addr":"LOUISVILLE, KY","CITY":"LOUISVILLE","NO":10779.0,"ST":"KY","X":-85.75154,"Y":38.256065,"Score":100,"Street":"285 N HUBBARDS LN","id":"a6210qvpcbfk","Loc_name":"CityState"},"type":"Feature","geometry":{"type":"Point","coordinates":[-85.7515399999999,38.2560650000001]}},{"properties":{"Match_addr":"PARIS, KY","CITY":"PARIS","NO":11512.0,"ST":"KY","X":-84.268602,"Y":38.198273,"Score":100,"Street":"320 LETTON DR","id":"a6210r0xp38f","Loc_name":"CityState"},"type":"Feature","geometry":{"type":"Point","coordinates":[-84.2686019999999,38.198273]}},{"properties":{"Match_addr":"ST. LOUIS, MO","CITY":"ST. LOUIS","NO":13764.0,"ST":"MO","X":-90.198268,"Y":38.627487,"Score":100,"Street":"9 NE UCLID AVE","id":"a6210qx0x8hh","Loc_name":"CityState"},"type":"Feature","geometry":{"type":"Point","coordinates":[-90.1982679999999,38.627487]}},{"properties":{"Match_addr":"BATON ROUGE, LA","CITY":"BATON ROUGE","NO":6357.0,"ST":"LA","X":-91.18823,"Y":30.449311,"Score":100,"Street":"8729 SIEGAN LN BATON","id":"a6210qnxqqpf","Loc_name":"CityState"},"type":"Feature","geometry":{"type":"Point","coordinates":[-91.1882299999999,30.449311]}},{"properties":{"Match_addr":"ROSENBERG, TX","CITY":"ROSENBURG","NO":11982.0,"ST":"TX","X":-95.793461,"Y":29.542546,"Score":76,"Street":"24406 SW FWY","id":"a6210qthkvhs","Loc_name":"CityState"},"type":"Feature","geometry":{"type":"Point","coordinates":[-95.7934609999999,29.542546]}},{"properties":{"Match_addr":"LEE'S SUMMIT, MO","CITY":"LEES SUMMIT","NO":13653.0,"ST":"MO","X":-94.376178,"Y":38.912589,"Score":91,"Street":"3701 SW HOLLYWOOD DR","id":"a6210qmodbzx","Loc_name":"CityState"},"type":"Feature","geometry":{"type":"Point","coordinates":[-94.376178,38.912589]}},{"properties":{"Match_addr":"ATWATER, CA","CITY":"ATWATER","NO":11437.0,"ST":"CA","X":-120.602654,"Y":37.352303,"Score":100,"Street":"1861 BELLVUE RD","id":"a6210r1rha5l","Loc_name":"CityState"},"type":"Feature","geometry":{"type":"Point","coordinates":[-120.602654,37.3523030000001]}},{"properties":{"Match_addr":"ELOY, AZ","CITY":"ELOY","NO":10995.0,"ST":"AZ","X":-111.602576,"Y":32.748511,"Score":100,"Street":"4985 N SUNLAND","id":"a6210r1aor03","Loc_name":"CityState"},"type":"Feature","geometry":{"type":"Point","coordinates":[-111.602576,32.7485110000001]}},{"properties":{"Match_addr":"BATON ROUGE, LA","CITY":"BATON ROUGE","NO":8321.0,"ST":"LA","X":-91.18823,"Y":30.449311,"Score":100,"Street":"7777 BLUEBONNET BLVD BATON","id":"a6210qwrmpb6","Loc_name":"CityState"},"type":"Feature","geometry":{"type":"Point","coordinates":[-91.1882299999999,30.449311]}},{"properties":{"Match_addr":"DARDENNE PRAIRIE, MO","CITY":"DARDENNE PRAIRIE","NO":13348.0,"ST":"MO","X":-90.722411,"Y":38.739098,"Score":100,"Street":"7827 HWY N","id":"a6210qwpnnfy","Loc_name":"CityState"},"type":"Feature","geometry":{"type":"Point","coordinates":[-90.722411,38.739098]}},{"properties":{"Match_addr":"RIVERTON, UT","CITY":"RIVERTON","NO":10880.0,"ST":"UT","X":-111.938732,"Y":40.522266,"Score":100,"Street":"12600 S","id":"a6210r1w2887","Loc_name":"CityState"},"type":"Feature","geometry":{"type":"Point","coordinates":[-111.938732,40.5222660000001]}},{"properties":{"Match_addr":"CHESTERFIELD, MO","CITY":"CHESTERFIELD","NO":2523.0,"ST":"MO","X":-90.579549,"Y":38.660258,"Score":100,"Street":"1481 5 CLAYTON RD","id":"a6210qo9z2mt","Loc_name":"CityState"},"type":"Feature","geometry":{"type":"Point","coordinates":[-90.579549,38.6602580000001]}},{"properties":{"Match_addr":"ST. PAUL, MN","CITY":"ST. PAUL","NO":10690.0,"ST":"MN","X":-93.102665,"Y":44.944627,"Score":100,"Street":"242 W 7TH","id":"a6210qvivobj","Loc_name":"CityState"},"type":"Feature","geometry":{"type":"Point","coordinates":[-93.1026649999999,44.944627]}},{"properties":{"Match_addr":"FREDERICKSBURG, VA","CITY":"FREDERICKSBURG","NO":11772.0,"ST":"VA","X":-77.4848,"Y":38.295578,"Score":100,"Street":"137 SPOTSYLVANIA TOWNE CTR","id":"a6210qsv4qq2","Loc_name":"CityState"},"type":"Feature","geometry":{"type":"Point","coordinates":[-77.4848,38.2955780000001]}},{"properties":{"Match_addr":"ROCHESTER, MN","CITY":"ROCHESTER","NO":11186.0,"ST":"MN","X":-92.465953,"Y":44.02157,"Score":100,"Street":"2665 COMMERCE DR NW","id":"a6210qotigie","Loc_name":"CityState"},"type":"Feature","geometry":{"type":"Point","coordinates":[-92.465953,44.0215700000001]}},{"properties":{"Match_addr":"MINNETONKA, MN","CITY":"MINNETONKA","NO":9915.0,"ST":"MN","X":-93.455662,"Y":44.934619,"Score":100,"Street":"5101 COUNTY RD","id":"a6210qnz52ba","Loc_name":"CityState"},"type":"Feature","geometry":{"type":"Point","coordinates":[-93.455662,44.9346190000001]}},{"properties":{"Match_addr":"ROGERS, AR","CITY":"ROGERS","NO":11325.0,"ST":"AR","X":-94.143819,"Y":36.326741,"Score":100,"Street":"2203 45TH ST","id":"a6210r0e5pkm","Loc_name":"CityState"},"type":"Feature","geometry":{"type":"Point","coordinates":[-94.143819,36.326741]}},{"properties":{"Match_addr":"DARTMOUTH, MA","CITY":"DARTMOUTH","NO":10376.0,"ST":"MA","X":-70.949269,"Y":41.594242,"Score":100,"Street":"200 N DARTMOUTH MALL","id":"a6210qyz3ck0","Loc_name":"CityState"},"type":"Feature","geometry":{"type":"Point","coordinates":[-70.949269,41.5942420000001]}},{"properties":{"Match_addr":"MARION, AR","CITY":"MARION","NO":14103.0,"ST":"AR","X":-90.257555,"Y":35.190078,"Score":100,"Street":"320 BANCARIO","id":"a6210qznbrce","Loc_name":"CityState"},"type":"Feature","geometry":{"type":"Point","coordinates":[-90.257555,35.190078]}},{"properties":{"Match_addr":"MALVERN, AR","CITY":"MALVERN","NO":14176.0,"ST":"AR","X":-92.817765,"Y":34.368658,"Score":100,"Street":"1900 MLK DRIVE","id":"a6210qx7omnz","Loc_name":"CityState"},"type":"Feature","geometry":{"type":"Point","coordinates":[-92.817765,34.3686580000001]}},{"properties":{"Match_addr":"BURNSVILLE, MN","CITY":"BURNSVILLE","NO":2495.0,"ST":"MN","X":-93.278074,"Y":44.777035,"Score":100,"Street":"14637 COUNTRY RD 11","id":"a6210qp9u84e","Loc_name":"CityState"},"type":"Feature","geometry":{"type":"Point","coordinates":[-93.278074,44.777035]}},{"properties":{"Match_addr":"BLAINE, MN","CITY":"BLAINE","NO":10456.0,"ST":"MN","X":-93.211918,"Y":45.167792,"Score":100,"Street":"2331 108TH LANE NE","id":"a6210qz5sads","Loc_name":"CityState"},"type":"Feature","geometry":{"type":"Point","coordinates":[-93.211918,45.1677920000001]}},{"properties":{"Match_addr":"GAINESVILLE, VA","CITY":"GAINESVILLE","NO":10761.0,"ST":"VA","X":-77.613896,"Y":38.79572,"Score":100,"Street":"8006 CRESCENT PARK DR","id":"a6210qqidkwl","Loc_name":"CityState"},"type":"Feature","geometry":{"type":"Point","coordinates":[-77.613896,38.79572]}},{"properties":{"Match_addr":"ALBERTA, MN","CITY":"ALBERT","NO":9564.0,"ST":"MN","X":-96.047658,"Y":45.571407,"Score":85,"Street":"2221 E MAIN FRONTAGE RD","id":"a6210qmrhvlj","Loc_name":"CityState"},"type":"Feature","geometry":{"type":"Point","coordinates":[-96.047658,45.571407]}},{"properties":{"Match_addr":"LITTLE ROCK, AR","CITY":"LITTLE ROCK","NO":7968.0,"ST":"AR","X":-92.278864,"Y":34.724425,"Score":100,"Street":"4120 E MCCAIN","id":"a6210qzwem63","Loc_name":"CityState"},"type":"Feature","geometry":{"type":"Point","coordinates":[-92.278864,34.7244250000001]}},{"properties":{"Match_addr":"HAMPTON, VA","CITY":"HAMPTON","NO":2957.0,"ST":"VA","X":-76.365922,"Y":37.059659,"Score":100,"Street":"1984 POWER PLANT PKWY","id":"a6210qy3ll4a","Loc_name":"CityState"},"type":"Feature","geometry":{"type":"Point","coordinates":[-76.365922,37.0596590000001]}},{"properties":{"Match_addr":"BOWIE, MD","CITY":"BOWIE","NO":11799.0,"ST":"MD","X":-76.74307,"Y":38.953123,"Score":100,"Street":"3524 NCRAIN HWY","id":"a6210quyaka2","Loc_name":"CityState"},"type":"Feature","geometry":{"type":"Point","coordinates":[-76.74307,38.9531230000001]}},{"properties":{"Match_addr":"NEWPORT NEWS, VA","CITY":"NEWPORT NEWS","NO":10986.0,"ST":"VA","X":-76.460443,"Y":37.032439,"Score":100,"Street":"1230 0 JEFFERSON AVE","id":"a6210r13tz3v","Loc_name":"CityState"},"type":"Feature","geometry":{"type":"Point","coordinates":[-76.460443,37.0324390000001]}},{"properties":{"Match_addr":"EASTON, MD","CITY":"EASTON","NO":13379.0,"ST":"MD","X":-76.076248,"Y":38.77448,"Score":100,"Street":"28601 MARLBORO AVE","id":"a6210qoyb850","Loc_name":"CityState"},"type":"Feature","geometry":{"type":"Point","coordinates":[-76.076248,38.7744800000001]}},{"properties":{"Match_addr":"GAITHERSBURG, MD","CITY":"GAITHERSBURG","NO":11850.0,"ST":"MD","X":-77.233627,"Y":39.129248,"Score":100,"Street":"18314 CONTOUR RD","id":"a6210qsmhmsb","Loc_name":"CityState"},"type":"Feature","geometry":{"type":"Point","coordinates":[-77.233627,39.129248]}},{"properties":{"Match_addr":"ORANGE BEACH, AL","CITY":"ORANGE BEACH","NO":10951.0,"ST":"AL","X":-87.598288,"Y":30.290328,"Score":100,"Street":"4725 MAIN ST","id":"a6210qu4k79a","Loc_name":"CityState"},"type":"Feature","geometry":{"type":"Point","coordinates":[-87.598288,30.290328]}},{"properties":{"Match_addr":"WINCHESTER, VA","CITY":"WINCHESTER","NO":11154.0,"ST":"VA","X":-78.170418,"Y":39.175942,"Score":100,"Street":"240 RIVENDELL CT","id":"a6210qw3zwt6","Loc_name":"CityState"},"type":"Feature","geometry":{"type":"Point","coordinates":[-78.170418,39.1759420000001]}},{"properties":{"Match_addr":"TUKWILA, WA","CITY":"TUKWILA","NO":14274.0,"ST":"WA","X":-122.284351,"Y":47.474218,"Score":100,"Street":"17100 S CENTER PKWY","id":"a6210qyj7tsh","Loc_name":"CityState"},"type":"Feature","geometry":{"type":"Point","coordinates":[-122.284351,47.4742180000001]}},{"properties":{"Match_addr":"WHEATON, MD","CITY":"WHEATON","NO":9953.0,"ST":"MD","X":-77.055571,"Y":39.040034,"Score":100,"Street":"1116 VEIRS MILL RD","id":"a6210qnp8wl2","Loc_name":"CityState"},"type":"Feature","geometry":{"type":"Point","coordinates":[-77.055571,39.040034]}},{"properties":{"Match_addr":"BANGOR, ME","CITY":"BANGOR","NO":13979.0,"ST":"ME","X":-68.79162,"Y":44.836236,"Score":100,"Street":"652 BRDWAY","id":"a6210qvtcgxf","Loc_name":"CityState"},"type":"Feature","geometry":{"type":"Point","coordinates":[-68.7916199999999,44.836236]}},{"properties":{"Match_addr":"MOBILE, AL","CITY":"MOBILE","NO":10797.0,"ST":"AL","X":-88.050634,"Y":30.688781,"Score":100,"Street":"9 DURHU DRIVE","id":"a6210qnbkx6o","Loc_name":"CityState"},"type":"Feature","geometry":{"type":"Point","coordinates":[-88.050634,30.688781]}},{"properties":{"Match_addr":"MOBILE, AL","CITY":"MOBILE","NO":10538.0,"ST":"AL","X":-88.050634,"Y":30.688781,"Score":100,"Street":"3451 SPRING HILL","id":"a6210qsvh0oa","Loc_name":"CityState"},"type":"Feature","geometry":{"type":"Point","coordinates":[-88.050634,30.688781]}},{"properties":{"Match_addr":"WENATCHEE, WA","CITY":"WENATCHEE","NO":355.0,"ST":"WA","X":-120.324728,"Y":47.426178,"Score":100,"Street":"10 GRANT RD EAST","id":"a6210qr15o9n","Loc_name":"CityState"},"type":"Feature","geometry":{"type":"Point","coordinates":[-120.324728,47.426178]}},{"properties":{"Match_addr":"LA CROSSE, WI","CITY":"LACROSSE","NO":11672.0,"ST":"WI","X":-91.219353,"Y":43.818787,"Score":88,"Street":"1422 S LOSEY BLVD","id":"a6210qqqxqc5","Loc_name":"CityState"},"type":"Feature","geometry":{"type":"Point","coordinates":[-91.219353,43.8187870000001]}},{"properties":{"Match_addr":"BIRMINGHAM, AL","CITY":"BIRMINGHAM","NO":9684.0,"ST":"AL","X":-86.814743,"Y":33.51952,"Score":100,"Street":"9190 PKWY","id":"a6210qvq7nnn","Loc_name":"CityState"},"type":"Feature","geometry":{"type":"Point","coordinates":[-86.814743,33.5195200000001]}},{"properties":{"Match_addr":"EASTPOINTE, MI","CITY":"EASTPOINTE","NO":2493.0,"ST":"MI","X":-82.945808,"Y":42.464874,"Score":100,"Street":"22511 1GRATIOT AVE","id":"a6210quatokj","Loc_name":"CityState"},"type":"Feature","geometry":{"type":"Point","coordinates":[-82.945808,42.4648740000001]}},{"properties":{"Match_addr":"TRIADELPHIA, WV","CITY":"TRIDELPHIA","NO":11213.0,"ST":"WV","X":-80.631287,"Y":40.044973,"Score":90,"Street":"36 FORT HENRY RD","id":"a6210qmet52b","Loc_name":"CityState"},"type":"Feature","geometry":{"type":"Point","coordinates":[-80.631287,40.0449730000001]}},{"properties":{"Match_addr":"LANSING, MI","CITY":"LANSING","NO":13955.0,"ST":"MI","X":-84.546582,"Y":42.733621,"Score":100,"Street":"3201 E GRAND RIVER","id":"a6210qq2g8jf","Loc_name":"CityState"},"type":"Feature","geometry":{"type":"Point","coordinates":[-84.546582,42.7336210000001]}},{"properties":{"Match_addr":"KALAMAZOO, MI","CITY":"KALAMAZOO","NO":13202.0,"ST":"MI","X":-85.593608,"Y":42.291509,"Score":100,"Street":"5625 GULL RD","id":"a6210qvz8jjs","Loc_name":"CityState"},"type":"Feature","geometry":{"type":"Point","coordinates":[-85.593608,42.2915090000001]}},{"properties":{"Match_addr":"OTTAWA, IL","CITY":"OTTAWA","NO":11962.0,"ST":"IL","X":-88.841192,"Y":41.353634,"Score":100,"Street":"110 ETNA RD","id":"a6210qxoo5c2","Loc_name":"CityState"},"type":"Feature","geometry":{"type":"Point","coordinates":[-88.8411919999999,41.3536340000001]}},{"properties":{"Match_addr":"3700 RIVERTOWN PKWY, GRANDVILLE, MI, 49418","CITY":"GRANDVILLE","NO":2590.0,"ST":"MI","X":-85.75294139138,"Y":42.882293915169,"Score":82,"Street":"3700 RIVERTOWN PKWY","id":"a6210qnpi86w","Loc_name":"Street_Address"},"type":"Feature","geometry":{"type":"Point","coordinates":[-85.7529430101601,42.8822939151685]}},{"properties":{"Match_addr":"4375 CANAL AVE SW, GRANDVILLE, MI, 49418","CITY":"GRANDVILLE","NO":11758.0,"ST":"MI","X":-85.771649519909,"Y":42.88489453864,"Score":69,"Street":"4375 CANAL SW","id":"a6210qnswglp","Loc_name":"Street_Address"},"type":"Feature","geometry":{"type":"Point","coordinates":[-85.7716489083696,42.8848929558332]}},{"properties":{"Match_addr":"1251 W MAIN ST, GAYLORD, MI, 49735","CITY":"GAYLORD","NO":11633.0,"ST":"MI","X":-84.698565229086,"Y":45.027429909527,"Score":82,"Street":"1251 W MAIN ST","id":"a6210qrnnsbr","Loc_name":"Street_Address"},"type":"Feature","geometry":{"type":"Point","coordinates":[-84.6985688697885,45.0274287652172]}},{"properties":{"Match_addr":"31205 UTICA RD, FRASER, MI, 48026","CITY":"FRASER","NO":11877.0,"ST":"MI","X":-82.945707758832,"Y":42.526433254757,"Score":82,"Street":"31205 UTICA RD","id":"a6210r09azcc","Loc_name":"Street_Address"},"type":"Feature","geometry":{"type":"Point","coordinates":[-82.9457092957002,42.5264321881745]}},{"properties":{"Match_addr":"4551 W USHY 10, LUDINGTON, MI, 49431","CITY":"LUDINGTON","NO":13691.0,"ST":"MI","X":-86.393486440098,"Y":43.955613871699,"Score":82,"Street":"4551 W US HWY 10","id":"a6210qweqb0e","Loc_name":"Street_Address"},"type":"Feature","geometry":{"type":"Point","coordinates":[-86.393485125529,43.9556167706975]}},{"properties":{"Match_addr":"663 STILLWATER AVE, BANGOR, ME, 04401","CITY":"BANGOR","NO":11185.0,"ST":"ME","X":-68.751575348547,"Y":44.832551661959,"Score":82,"Street":"663 STILLWATER AVE","id":"a6210qql30dc","Loc_name":"Street_Address"},"type":"Feature","geometry":{"type":"Point","coordinates":[-68.7515748089539,44.8325546746882]}},{"properties":{"Match_addr":"1982 E GRAND RIVER AVE, OKEMOS, MI, 48823","CITY":"OKEMOS","NO":10831.0,"ST":"MI","X":-84.456225466875,"Y":42.727810617283,"Score":70,"Street":"1982 GRAND RIVER AVE","id":"a6210qob9idv","Loc_name":"Street_Address"},"type":"Feature","geometry":{"type":"Point","coordinates":[-84.456228562553,42.7278083769754]}},{"properties":{"Match_addr":"1433 REISTERSTOWN RD, PIKESVILLE, MD, 21208","CITY":"PIKESVILLE","NO":10640.0,"ST":"MD","X":-76.724902452067,"Y":39.37677410172,"Score":82,"Street":"1433 REISTERSTOWN RD","id":"a6210qmpn7ut","Loc_name":"Street_Address"},"type":"Feature","geometry":{"type":"Point","coordinates":[-76.7249009681856,39.3767726178383]}},{"properties":{"Match_addr":"2 PARK LN, ANNAPOLIS, MD, 21403","CITY":"ANNAPOLIS","NO":11265.0,"ST":"MD","X":-76.488699523054,"Y":38.960158090477,"Score":69,"Street":"2 PARK PLACE","id":"a6210qywtmpx","Loc_name":"Street_Address"},"type":"Feature","geometry":{"type":"Point","coordinates":[-76.4887030304102,38.960161687765]}},{"properties":{"Match_addr":"599 NORTHTOWN DR NE, BLAINE, MN, 55434","CITY":"BLAINE","NO":9271.0,"ST":"MN","X":-93.257620403825,"Y":45.127422850216,"Score":82,"Street":"599 NORTHTOWN DR NE","id":"a6210r0urg2m","Loc_name":"Street_Address"},"type":"Feature","geometry":{"type":"Point","coordinates":[-93.2576234667033,45.1274243816551]}},{"properties":{"Match_addr":"425 WASHINGTON ST, STOUGHTON, MA, 02072","CITY":"STOUGHTON","NO":2766.0,"ST":"MA","X":-71.101711291124,"Y":42.133744168368,"Score":82,"Street":"425 WASHINGTON ST","id":"a6210qtf19qr","Loc_name":"Street_Address"},"type":"Feature","geometry":{"type":"Point","coordinates":[-71.1017101155815,42.1337432240807]}},{"properties":{"Match_addr":"615 66TH AVE N, BROOKLYN CENTER, MN, 55430","CITY":"BROOKLYN CENTER","NO":11635.0,"ST":"MN","X":-93.28895404756,"Y":45.07417876186,"Score":82,"Street":"615 66TH AVE N","id":"a6210qvz2tsy","Loc_name":"Street_Address"},"type":"Feature","geometry":{"type":"Point","coordinates":[-93.2889558462041,45.0741755243002]}},{"properties":{"Match_addr":"5512 BROOKLYN BLVD, BROOKLYN CENTER, MN, 55429","CITY":"BROOKLYN CENTER","NO":9605.0,"ST":"MN","X":-93.323568108196,"Y":45.055000117551,"Score":82,"Street":"5512 BROOKLYN BLVD","id":"a6210r1c08zk","Loc_name":"Street_Address"},"type":"Feature","geometry":{"type":"Point","coordinates":[-93.3235707511119,45.0550019786356]}},{"properties":{"Match_addr":"6901 BROOKLYN BLVD, BROOKLYN CENTER, MN, 55429","CITY":"BROOKLYN CENTER","NO":13346.0,"ST":"MN","X":-93.336993042467,"Y":45.080119863049,"Score":82,"Street":"6901 BROOKLYN BLVD","id":"a6210qu15lpk","Loc_name":"Street_Address"},"type":"Feature","geometry":{"type":"Point","coordinates":[-93.3369886357891,45.0801200429139]}},{"properties":{"Match_addr":"5 BOX SQ, SHARON, MA, 02067","CITY":"SHARON","NO":7523.0,"ST":"MA","X":-71.178567479312,"Y":42.123528384935,"Score":82,"Street":"5 POST OFFICE SQUARE","id":"a6210qyktzp6","Loc_name":"Street_Address"},"type":"Feature","geometry":{"type":"Point","coordinates":[-71.1785661762055,42.1235269258278]}},{"properties":{"Match_addr":"999 S WASHINGTON ST, NORTH ATTLEBORO, MA, 02760","CITY":"NORTH ATTLEBORO","NO":10273.0,"ST":"MA","X":-71.347659589974,"Y":41.944874989935,"Score":82,"Street":"999 S WASHINGTON ST","id":"a6210qvdchde","Loc_name":"Street_Address"},"type":"Feature","geometry":{"type":"Point","coordinates":[-71.3476567041545,41.9448766047074]}},{"properties":{"Match_addr":"2740 MAIN ST NW, COON RAPIDS, MN, 55448","CITY":"COON RAPIDS","NO":10457.0,"ST":"MN","X":-93.336961656128,"Y":45.197593982991,"Score":69,"Street":"2740 MAIN ST","id":"a6210qpt1vns","Loc_name":"Street_Address"},"type":"Feature","geometry":{"type":"Point","coordinates":[-93.3369616561282,45.197589486381]}},{"properties":{"Match_addr":"13131 RIVERDALE DR NW, COON RAPIDS, MN, 55448","CITY":"COON RAPIDS","NO":10871.0,"ST":"MN","X":-93.359084978049,"Y":45.20890952256,"Score":69,"Street":"13131 RIVERDALE DR","id":"a6210qudlzlk","Loc_name":"Street_Address"},"type":"Feature","geometry":{"type":"Point","coordinates":[-93.3590849780489,45.2089119507299]}},{"properties":{"Match_addr":"3450 124TH AVE NW, COON RAPIDS, MN, 55433","CITY":"COON RAPIDS","NO":2354.0,"ST":"MN","X":-93.352547824973,"Y":45.196470395191,"Score":82,"Street":"3450 124TH AVE NW","id":"a6210qrnji6v","Loc_name":"Street_Address"},"type":"Feature","geometry":{"type":"Point","coordinates":[-93.352546906896,45.1964743270647]}},{"properties":{"Match_addr":"1140 TORGERSON DR, FAIRMONT, MN, 56031","CITY":"FAIRMONT","NO":10204.0,"ST":"MN","X":-94.447154646418,"Y":43.676422246701,"Score":82,"Street":"1140 TORGERSON DR","id":"a6210qrhhpsa","Loc_name":"Street_Address"},"type":"Feature","geometry":{"type":"Point","coordinates":[-94.4471567148585,43.6764222467013]}},{"properties":{"Match_addr":"2280 N GRANT ST, FARIBAULT, MN, 55021","CITY":"FARIBAULT","NO":9606.0,"ST":"MN","X":-93.302504120913,"Y":44.294610681597,"Score":70,"Street":"2280 GRANT ST","id":"a6210qm077gc","Loc_name":"Street_Address"},"type":"Feature","geometry":{"type":"Point","coordinates":[-93.3024996359654,44.2946072164218]}},{"properties":{"Match_addr":"1731 N FRONTAGE RD, HASTINGS, MN, 55033","CITY":"HASTINGS","NO":9360.0,"ST":"MN","X":-92.888526417394,"Y":44.740149336178,"Score":82,"Street":"1731 N FRONTAGE RD","id":"a6210qq0kyhi","Loc_name":"Street_Address"},"type":"Feature","geometry":{"type":"Point","coordinates":[-92.888523719438,44.7401493361776]}},{"properties":{"Match_addr":"3156 CENTURY AVE N, MAHTOMEDI, MN, 55115","CITY":"MAHTOMEDI","NO":9881.0,"ST":"MN","X":-92.984701444065,"Y":45.037160238964,"Score":82,"Street":"3156 CENTURY AVE N","id":"a6210qpsjghx","Loc_name":"Street_Address"},"type":"Feature","geometry":{"type":"Point","coordinates":[-92.9846972172514,45.0371594295742]}},{"properties":{"Match_addr":"1680 WARREN ST, MANKATO, MN, 56001","CITY":"MANKATO","NO":14262.0,"ST":"MN","X":-93.994294113784,"Y":44.146881270405,"Score":82,"Street":"1680 WARREN ST","id":"a6210qterryu","Loc_name":"Street_Address"},"type":"Feature","geometry":{"type":"Point","coordinates":[-93.9942941137841,44.146884579889]}},{"properties":{"Match_addr":"1881 E MADISON AVE, MANKATO, MN, 56001","CITY":"MANKATO","NO":10744.0,"ST":"MN","X":-93.950730834772,"Y":44.166795569618,"Score":70,"Street":"1881 MADISON AVE","id":"a6210quy8nnz","Loc_name":"Street_Address"},"type":"Feature","geometry":{"type":"Point","coordinates":[-93.9507309546848,44.1667955696177]}},{"properties":{"Match_addr":"1201 W MAIN ST, MARSHALL, MN, 56258","CITY":"MARSHALL","NO":9914.0,"ST":"MN","X":-95.810838832894,"Y":44.461366756546,"Score":70,"Street":"1201 E MAIN ST","id":"a6210qwrxch0","Loc_name":"Street_Address"},"type":"Feature","geometry":{"type":"Point","coordinates":[-95.8108346807672,44.4613685003149]}},{"properties":{"Match_addr":"70 UNION ST, NEWTON, MA, 02459","CITY":"NEWTON","NO":863.0,"ST":"MA","X":-71.191942646464,"Y":42.329949379967,"Score":82,"Street":"70 UNION ST","id":"a6210quotepg","Loc_name":"Street_Address"},"type":"Feature","geometry":{"type":"Point","coordinates":[-71.1919390947812,42.3299483112131]}},{"properties":{"Match_addr":"6730 PINES RD, SHREVEPORT, LA, 71129","CITY":"SHREVEPORT","NO":11049.0,"ST":"LA","X":-93.864569899987,"Y":32.447429480476,"Score":82,"Street":"6730 PINES RD","id":"a6210qnjz6r8","Loc_name":"Street_Address"},"type":"Feature","geometry":{"type":"Point","coordinates":[-93.8645669110576,32.4474334295397]}},{"properties":{"Match_addr":"5980 NEAL AVE N, OAK PARK HEIGHTS, MN, 55082","CITY":"OAK PARK","NO":13347.0,"ST":"MN","X":-92.845223305826,"Y":45.034876717692,"Score":70,"Street":"5980 NEAL AVE N","id":"a6210qrlu3ql","Loc_name":"Street_Address"},"type":"Feature","geometry":{"type":"Point","coordinates":[-92.8452213637272,45.0348751516198]}},{"properties":{"Match_addr":"4000 ANNAPOLIS LN N, PLYMOUTH, MN, 55447","CITY":"PLYMOUTH","NO":2451.0,"ST":"MN","X":-93.454857514634,"Y":45.028220969697,"Score":69,"Street":"4000 ANNAPOLIS LN","id":"a6210qm0p6ws","Loc_name":"Street_Address"},"type":"Feature","geometry":{"type":"Point","coordinates":[-93.4548537809491,45.028220168603]}},{"properties":{"Match_addr":"144 TYLER RD N, RED WING, MN, 55066","CITY":"RED WING","NO":10642.0,"ST":"MN","X":-92.585022273906,"Y":44.568289125019,"Score":82,"Street":"144 TYLER RD N","id":"a6210qzstg85","Loc_name":"Street_Address"},"type":"Feature","geometry":{"type":"Point","coordinates":[-92.5850205209899,44.5682888963784]}},{"properties":{"Match_addr":"4700 MILLHAVEN RD, MONROE, LA, 71203","CITY":"MONROE","NO":10597.0,"ST":"LA","X":-92.056090810553,"Y":32.499969202469,"Score":78,"Street":"4700 MILHAVEN RD","id":"a6210qvfnozu","Loc_name":"Street_Address"},"type":"Feature","geometry":{"type":"Point","coordinates":[-92.0560932626773,32.4999718224914]}},{"properties":{"Match_addr":"115 VEROT SCHOOL RD, LAFAYETTE, LA, 70508","CITY":"LAFAYETTE","NO":13649.0,"ST":"LA","X":-92.003809048086,"Y":30.176674293702,"Score":82,"Street":"115 VEROT SCHOOL RD","id":"a6210qs5dwzx","Loc_name":"Street_Address"},"type":"Feature","geometry":{"type":"Point","coordinates":[-92.0038066798938,30.1766722852181]}},{"properties":{"Match_addr":"3117 LOYOLA DR, KENNER, LA, 70065","CITY":"KENNER","NO":13575.0,"ST":"LA","X":-90.266898650436,"Y":30.011217266573,"Score":82,"Street":"3117 LOYOLA DR","id":"a6210qsuhcgt","Loc_name":"Street_Address"},"type":"Feature","geometry":{"type":"Point","coordinates":[-90.2669010786053,30.0112150182675]}},{"properties":{"Match_addr":"9000 HUDSON RD, WOODBURY, MN, 55125","CITY":"WOODBURY","NO":10157.0,"ST":"MN","X":-92.926688608124,"Y":44.942054416264,"Score":82,"Street":"9000 HUDSON RD","id":"a6210qvda664","Loc_name":"Street_Address"},"type":"Feature","geometry":{"type":"Point","coordinates":[-92.9266909463615,44.9420561249757]}},{"properties":{"Match_addr":"8183 AIRLINE HWY, BATON ROUGE, LA, 70815","CITY":"BATON ROUGE","NO":13291.0,"ST":"LA","X":-91.102871621094,"Y":30.462762346188,"Score":82,"Street":"8183 AIRLINE HWY BATON","id":"a6210r04444z","Loc_name":"Street_Address"},"type":"Feature","geometry":{"type":"Point","coordinates":[-91.1028748641614,30.462764609179]}},{"properties":{"Match_addr":"6556 SIEGEN LN, INNISWOLD, LA, 70809","CITY":"BATON ROUGE","NO":11263.0,"ST":"LA","X":-91.061542380447,"Y":30.389788641394,"Score":82,"Street":"6556 SIEGEN LN BATON","id":"a6210qugraek","Loc_name":"Street_Address"},"type":"Feature","geometry":{"type":"Point","coordinates":[-91.0615420236948,30.3897846265014]}},{"properties":{"Match_addr":"5720 CORPORATE BLVD, BATON ROUGE, LA, 70808","CITY":"BATON ROUGE","NO":6326.0,"ST":"LA","X":-91.131774476631,"Y":30.424916103818,"Score":82,"Street":"5720 CORPORATE BLVD BATON","id":"a6210qvdz1mm","Loc_name":"Street_Address"},"type":"Feature","geometry":{"type":"Point","coordinates":[-91.1317700809628,30.4249121449658]}},{"properties":{"Match_addr":"6045 HOWDERSHELL RD, HAZELWOOD, MO, 63042","CITY":"HAZELWOOD","NO":9957.0,"ST":"MO","X":-90.385274886831,"Y":38.782261336966,"Score":82,"Street":"6045 HOWDERSHELL RD","id":"a6210qyiuf1f","Loc_name":"Street_Address"},"type":"Feature","geometry":{"type":"Point","coordinates":[-90.3852788373221,38.7822578039289]}},{"properties":{"Match_addr":"8031 W FLORISSANT AVE, JENNINGS, MO, 63136","CITY":"JENNINGS","NO":10834.0,"ST":"MO","X":-90.277495346707,"Y":38.731013168048,"Score":82,"Street":"8031 W. FLORISSANT AVE","id":"a6210qx9yw7u","Loc_name":"Street_Address"},"type":"Feature","geometry":{"type":"Point","coordinates":[-90.2774950921104,38.7310144346994]}},{"properties":{"Match_addr":"9837 BLUEBONNET BLVD, BATON ROUGE, LA, 70810","CITY":"BATON ROUGE","NO":13292.0,"ST":"LA","X":-91.108829752054,"Y":30.356652927123,"Score":82,"Street":"9837 BLUEBONNET BLVD BATON","id":"a6210qryoozg","Loc_name":"Street_Address"},"type":"Feature","geometry":{"type":"Point","coordinates":[-91.1088283759954,30.3566536029419]}},{"properties":{"Match_addr":"4581 HWY K, O'FALLON, MO, 63368","CITY":"O'FALLON","NO":9990.0,"ST":"MO","X":-90.701345921104,"Y":38.719365871092,"Score":82,"Street":"4581 HWY K","id":"a6210qvc52km","Loc_name":"Street_Address"},"type":"Feature","geometry":{"type":"Point","coordinates":[-90.7013455645196,38.71936821442]}},{"properties":{"Match_addr":"3788 ELM ST, ST. CHARLES, MO, 63301","CITY":"ST. CHARLES","NO":10912.0,"ST":"MO","X":-90.51680842133,"Y":38.82192576483,"Score":82,"Street":"3788 ELM ST","id":"a6210qrngz7w","Loc_name":"Street_Address"},"type":"Feature","geometry":{"type":"Point","coordinates":[-90.5168046841072,38.8219268986414]}},{"properties":{"Match_addr":"2000 S 7TH ST, ST. LOUIS, MO, 63104","CITY":"ST. LOUIS","NO":13765.0,"ST":"MO","X":-90.202662036994,"Y":38.606819079921,"Score":82,"Street":"2000 S 7TH ST","id":"a6210r19qfal","Loc_name":"Street_Address"},"type":"Feature","geometry":{"type":"Point","coordinates":[-90.2026625060524,38.6068180624531]}},{"properties":{"Match_addr":"2049 S HWY 27, SOMERSET, KY, 42501","CITY":"SOMERSET","NO":11755.0,"ST":"KY","X":-84.621506015047,"Y":37.063428063347,"Score":82,"Street":"2049 S HWY 27","id":"a6210qwmn3hf","Loc_name":"Street_Address"},"type":"Feature","geometry":{"type":"Point","coordinates":[-84.6215059650978,37.0634285754293]}},{"properties":{"Match_addr":"3009 POPLAR LEVEL RD, LOUISVILLE, KY, 40217","CITY":"LOUISVILLE","NO":10870.0,"ST":"KY","X":-85.722736919546,"Y":38.213817077665,"Score":82,"Street":"3009 POPLAR LEVEL RD","id":"a6210qm96t5h","Loc_name":"Street_Address"},"type":"Feature","geometry":{"type":"Point","coordinates":[-85.7227347831959,38.213814335649]}},{"properties":{"Match_addr":"1820 MARKET ST, ST. LOUIS, MO, 63103","CITY":"ST. LOUIS","NO":2422.0,"ST":"MO","X":-90.206594157825,"Y":38.629370241074,"Score":82,"Street":"1820 MARKET ST","id":"a6210qlu7qjw","Loc_name":"Street_Address"},"type":"Feature","geometry":{"type":"Point","coordinates":[-90.2065925433204,38.6293730589479]}},{"properties":{"Match_addr":"535 S UPPER ST, LEXINGTON-FAYETTE, KY, 40508","CITY":"LEXINGTON","NO":10910.0,"ST":"KY","X":-84.504329084924,"Y":38.042739965563,"Score":71,"Street":"535 S UPPER ST","id":"a6210qtcpxoq","Loc_name":"Street_Address"},"type":"Feature","geometry":{"type":"Point","coordinates":[-84.5043332979003,38.0427363060152]}},{"properties":{"Match_addr":"3491 S DANVILLE BYP, DANVILLE, KY, 40422","CITY":"DANVILLE","NO":11753.0,"ST":"KY","X":-84.757745779029,"Y":37.620255113794,"Score":82,"Street":"3491 S DANVILLE BYPASS","id":"a6210r27o8q7","Loc_name":"Street_Address"},"type":"Feature","geometry":{"type":"Point","coordinates":[-84.7577442593164,37.6202528030907]}},{"properties":{"Match_addr":"234 W LOCKWOOD AVE, WEBSTER GROVES, MO, 63119","CITY":"WEBSTER GROVE","NO":11920.0,"ST":"MO","X":-90.362268129836,"Y":38.593317734474,"Score":67,"Street":"234 W LOCKWOOD","id":"a6210qphtga8","Loc_name":"Street_Address"},"type":"Feature","geometry":{"type":"Point","coordinates":[-90.3622651865923,38.5933192387933]}},{"properties":{"Match_addr":"13430 COLLEGE BLVD, LENEXA, KS, 66210","CITY":"LENEXA","NO":14237.0,"ST":"KS","X":-94.741396616627,"Y":38.927485056653,"Score":82,"Street":"13430 COLLEGE BLVD","id":"a6210qxb6csf","Loc_name":"Street_Address"},"type":"Feature","geometry":{"type":"Point","coordinates":[-94.7413968964048,38.9274893184406]}},{"properties":{"Match_addr":"2605 HART ST, VINCENNES, IN, 47591","CITY":"VINCENNES","NO":9521.0,"ST":"IN","X":-87.504573428213,"Y":38.656555036806,"Score":82,"Street":"2605 HART ST","id":"a6210qqnqjw3","Loc_name":"Street_Address"},"type":"Feature","geometry":{"type":"Point","coordinates":[-87.5045705130683,38.6565505706734]}},{"properties":{"Match_addr":"5945 CRAWFORDSVILLE RD, SPEEDWAY, IN, 46224","CITY":"SPEEDWAY","NO":2704.0,"ST":"IN","X":-86.264149753984,"Y":39.798078663467,"Score":82,"Street":"5945 CRAWFORDSVILLE RD","id":"a6210qsjbi3z","Loc_name":"Street_Address"},"type":"Feature","geometry":{"type":"Point","coordinates":[-86.2641536244954,39.7980780089044]}},{"properties":{"Match_addr":"6136 USHY 98 W, HATTIESBURG, MS, 39402","CITY":"HATTIESBURG","NO":11524.0,"ST":"MS","X":-89.424283521485,"Y":31.317133307396,"Score":72,"Street":"6136 HWY 98 W","id":"a6210qn63r6a","Loc_name":"Street_Address"},"type":"Feature","geometry":{"type":"Point","coordinates":[-89.4242813032527,31.3171295302343]}},{"properties":{"Match_addr":"1903 MAIN ST, MADISON, MS, 39110","CITY":"MADISON","NO":10385.0,"ST":"MS","X":-90.131411679868,"Y":32.469029071287,"Score":82,"Street":"1903 MAIN ST","id":"a6210qzsa230","Loc_name":"Street_Address"},"type":"Feature","geometry":{"type":"Point","coordinates":[-90.1314092216709,32.4690261514633]}},{"properties":{"Match_addr":"7058 HACKS CROSS LN, OLIVE BRANCH, MS, 38654","CITY":"OLIVE BRANCH","NO":11053.0,"ST":"MS","X":-89.795168153278,"Y":34.965922059858,"Score":69,"Street":"7058 HACKS CROSS","id":"a6210qmncz4m","Loc_name":"Street_Address"},"type":"Feature","geometry":{"type":"Point","coordinates":[-89.7951707013563,34.9659218200524]}},{"properties":{"Match_addr":"403 RIVERWIND DR, PEARL, MS, 39208","CITY":"PEARL","NO":10386.0,"ST":"MS","X":-90.139170767834,"Y":32.267377303031,"Score":69,"Street":"403 RIVERWIND RD","id":"a6210qwrufqi","Loc_name":"Street_Address"},"type":"Feature","geometry":{"type":"Point","coordinates":[-90.1391703707838,32.2673801660536]}},{"properties":{"Match_addr":"1200 E COUNTY LINE RD, RIDGELAND, MS, 39157","CITY":"RIDGELAND","NO":11054.0,"ST":"MS","X":-90.132299260424,"Y":32.399591963463,"Score":69,"Street":"1200 E COUNTY LINE","id":"a6210qwtlr7o","Loc_name":"Street_Address"},"type":"Feature","geometry":{"type":"Point","coordinates":[-90.13229955048,32.399589497581]}},{"properties":{"Match_addr":"2921 PROVIDENCE RD, CHARLOTTE, NC, 28211","CITY":"CHARLOTTE","NO":14141.0,"ST":"NC","X":-80.807897232507,"Y":35.171050732522,"Score":82,"Street":"2921 PROVIDENCE RD","id":"a6210r0yg4o4","Loc_name":"Street_Address"},"type":"Feature","geometry":{"type":"Point","coordinates":[-80.8078949269699,35.1710481817154]}},{"properties":{"Match_addr":"3600 PORTAGE RD, SOUTH BEND, IN, 46628","CITY":"SOUTH BEND","NO":11504.0,"ST":"IN","X":-86.287130601457,"Y":41.724157076533,"Score":82,"Street":"3600 PORTAGE RD","id":"a6210qs346mk","Loc_name":"Street_Address"},"type":"Feature","geometry":{"type":"Point","coordinates":[-86.287131302344,41.7241559990563]}},{"properties":{"Match_addr":"250 E TIPTON ST, SEYMOUR, IN, 47274","CITY":"SEYMOUR","NO":10739.0,"ST":"IN","X":-85.886075042413,"Y":38.957394363761,"Score":82,"Street":"250 E TIPTON ST","id":"a6210qu3686x","Loc_name":"Street_Address"},"type":"Feature","geometry":{"type":"Point","coordinates":[-85.8860786433777,38.9573917759148]}},{"properties":{"Match_addr":"6200 USHY 6, PORTAGE, IN, 46368","CITY":"PORTAGE","NO":11354.0,"ST":"IN","X":-87.175574240959,"Y":41.550511335631,"Score":82,"Street":"6200 US HWY 6","id":"a6210qxecdx2","Loc_name":"Street_Address"},"type":"Feature","geometry":{"type":"Point","coordinates":[-87.1755715350895,41.550514901639]}},{"properties":{"Match_addr":"1902 S MEMORIAL DR, NEW CASTLE, IN, 47362","CITY":"NEW CASTLE","NO":10074.0,"ST":"IN","X":-85.385210232379,"Y":39.903899688735,"Score":82,"Street":"1902 S MEMORIAL DR","id":"a6210qu7doq8","Loc_name":"Street_Address"},"type":"Feature","geometry":{"type":"Point","coordinates":[-85.3852102323793,39.9039012320922]}},{"properties":{"Match_addr":"1889 E FIRE TOWER RD, GREENVILLE, NC, 27858","CITY":"GREENVILLE","NO":14183.0,"ST":"NC","X":-77.365786728334,"Y":35.558952531245,"Score":79,"Street":"1889 E FIRETOWER RD","id":"a6210qx0wuh5","Loc_name":"Street_Address"},"type":"Feature","geometry":{"type":"Point","coordinates":[-77.3657848259257,35.5589527526133]}},{"properties":{"Match_addr":"1960 HWY 70 SE, HICKORY, NC, 28658","CITY":"HICKORY","NO":11136.0,"ST":"NC","X":-81.2774221822,"Y":35.698687604392,"Score":82,"Street":"1960 HWY 70 SE","id":"a6210qrqgve9","Loc_name":"Street_Address"},"type":"Feature","geometry":{"type":"Point","coordinates":[-81.2774219652472,35.698689409526]}},{"properties":{"Match_addr":"2113 NASH ST E, WILSON, NC, 27893","CITY":"WILSON","NO":11925.0,"ST":"NC","X":-77.882378291387,"Y":35.709863935399,"Score":69,"Street":"2113 NASH ST","id":"a6210qrtxovl","Loc_name":"Street_Address"},"type":"Feature","geometry":{"type":"Point","coordinates":[-77.8823823792165,35.7098679823501]}},{"properties":{"Match_addr":"3801 S KEYSTONE AVE, INDIANAPOLIS CITY (BALANCE), IN, 46227","CITY":"INDIANAPOLIS","NO":13444.0,"ST":"IN","X":-86.120452576217,"Y":39.710939969586,"Score":69,"Street":"3801 S KEYSTONE AVE","id":"a6210qv4a4qp","Loc_name":"Street_Address"},"type":"Feature","geometry":{"type":"Point","coordinates":[-86.1204509574335,39.7109426974856]}},{"properties":{"Match_addr":"868 KIRKWOOD MALL, BISMARCK, ND, 58504","CITY":"BISMARCK","NO":2734.0,"ST":"ND","X":-100.785078278864,"Y":46.801810209744,"Score":82,"Street":"868 KIRKWOOD MALL","id":"a6210qsgw220","Loc_name":"Street_Address"},"type":"Feature","geometry":{"type":"Point","coordinates":[-100.785074757028,46.8018091154667]}},{"properties":{"Match_addr":"1601 UNIVERSITY DR, FARGO, ND, 58102","CITY":"FARGO","NO":8923.0,"ST":"ND","X":-96.798028925957,"Y":46.899560024119,"Score":82,"Street":"1601 UNIVERSITY DRIVE","id":"a6210qmwh8h2","Loc_name":"Street_Address"},"type":"Feature","geometry":{"type":"Point","coordinates":[-96.7980294655501,46.8995564268313]}},{"properties":{"Match_addr":"3402 13TH AVE S, FARGO, ND, 58103","CITY":"FARGO","NO":11060.0,"ST":"ND","X":-96.836215546441,"Y":46.86154243984,"Score":82,"Street":"3402 13TH AVE S","id":"a6210qnmc2oc","Loc_name":"Street_Address"},"type":"Feature","geometry":{"type":"Point","coordinates":[-96.8362146789142,46.8615420846528]}},{"properties":{"Match_addr":"1310 25TH ST S, FARGO, ND, 58103","CITY":"FARGO","NO":10459.0,"ST":"ND","X":-96.819564961582,"Y":46.86123736534,"Score":69,"Street":"1310 25TH ST","id":"a6210qwlhk1a","Loc_name":"Street_Address"},"type":"Feature","geometry":{"type":"Point","coordinates":[-96.8195682281519,46.8612363151628]}},{"properties":{"Match_addr":"3811 TWIN CREEK DR, BELLEVUE, NE, 68123","CITY":"BELLEVUE","NO":11527.0,"ST":"NE","X":-95.97034537865,"Y":41.1408890957,"Score":82,"Street":"3811 TWIN CREEK DR","id":"a6210qo5qkkz","Loc_name":"Street_Address"},"type":"Feature","geometry":{"type":"Point","coordinates":[-95.9703474291042,41.1408917037335]}},{"properties":{"Match_addr":"610 E 23RD ST, FREMONT, NE, 68025","CITY":"FREMONT","NO":13626.0,"ST":"NE","X":-96.48994859894,"Y":41.451483511544,"Score":82,"Street":"610 E 23RD ST","id":"a6210r0r4i3h","Loc_name":"Street_Address"},"type":"Feature","geometry":{"type":"Point","coordinates":[-96.4899487179728,41.4514815597725]}},{"properties":{"Match_addr":"4116 2ND AVE, KEARNEY, NE, 68847","CITY":"KEARNEY","NO":11270.0,"ST":"NE","X":-99.084008529236,"Y":40.715578864326,"Score":82,"Street":"4116 2ND AVE","id":"a6210qxx2tb1","Loc_name":"Street_Address"},"type":"Feature","geometry":{"type":"Point","coordinates":[-99.0840071386075,40.7155753364166]}},{"properties":{"Match_addr":"2012 N 117TH AVE, OMAHA, NE, 68164","CITY":"OMAHA","NO":9883.0,"ST":"NE","X":-96.098091085758,"Y":41.277894084431,"Score":82,"Street":"2012 N 117TH AVE","id":"a6210qmj9g5c","Loc_name":"Street_Address"},"type":"Feature","geometry":{"type":"Point","coordinates":[-96.0980871301459,41.277894421677]}},{"properties":{"Match_addr":"6303 CENTER ST, OMAHA, NE, 68106","CITY":"OMAHA","NO":11528.0,"ST":"NE","X":-96.009622283522,"Y":41.237883584593,"Score":82,"Street":"6303 CENTER ST","id":"a6210qukhtzk","Loc_name":"Street_Address"},"type":"Feature","geometry":{"type":"Point","coordinates":[-96.0096208221237,41.2378835845935]}},{"properties":{"Match_addr":"1423 PAPILLION DR, PAPILLION, NE, 68133","CITY":"PAPILLION","NO":11529.0,"ST":"NE","X":-96.021545112807,"Y":41.137947323419,"Score":82,"Street":"1423 PAPILLION DR","id":"a6210qvw8i82","Loc_name":"Street_Address"},"type":"Feature","geometry":{"type":"Point","coordinates":[-96.0215458322322,41.1379509206976]}},{"properties":{"Match_addr":"8440 S 72ND ST, PAPILLION, NE, 68046","CITY":"PAPILLION","NO":11805.0,"ST":"NE","X":-96.023652834739,"Y":41.174613963446,"Score":82,"Street":"8440 S 72ND ST","id":"a6210qpmd110","Loc_name":"Street_Address"},"type":"Feature","geometry":{"type":"Point","coordinates":[-96.0236502457807,41.1746162798322]}},{"properties":{"Match_addr":"160 WASHINGTON ST, ROCHESTER, NH, 03839","CITY":"ROCHESTER","NO":14089.0,"ST":"NH","X":-70.996992152057,"Y":43.293715538481,"Score":82,"Street":"160 WASHINGTON ST","id":"a6210qndafmh","Loc_name":"Street_Address"},"type":"Feature","geometry":{"type":"Point","coordinates":[-70.9969930584898,43.2937157571327]}},{"properties":{"Match_addr":"789 USHY 31, GREENWOOD, IN, 46142","CITY":"GREENWOOD","NO":2549.0,"ST":"IN","X":-86.121210951997,"Y":39.627801792309,"Score":82,"Street":"789 US 31","id":"a6210qn0a10a","Loc_name":"Street_Address"},"type":"Feature","geometry":{"type":"Point","coordinates":[-86.1212153811584,39.6278003758768]}},{"properties":{"Match_addr":"1703 N LINCOLN ST, GREENSBURG, IN, 47240","CITY":"GREENSBURG","NO":13948.0,"ST":"IN","X":-85.479230429499,"Y":39.349195213579,"Score":82,"Street":"1703 N LINCOLN ST","id":"a6210qv3bpli","Loc_name":"Street_Address"},"type":"Feature","geometry":{"type":"Point","coordinates":[-85.4792343505426,39.3491994044199]}},{"properties":{"Match_addr":"2316 E 116TH ST, CARMEL, IN, 46032","CITY":"CARMEL","NO":2365.0,"ST":"IN","X":-86.116029641091,"Y":39.956653260277,"Score":69,"Street":"2316 E 116TH","id":"a6210qqf1ea9","Loc_name":"Street_Address"},"type":"Feature","geometry":{"type":"Point","coordinates":[-86.1160262930494,39.9566554623309]}},{"properties":{"Match_addr":"1718 CHURCHMAN AVE, BEECH GROVE, IN, 46107","CITY":"BEECH GROVE","NO":7989.0,"ST":"IN","X":-86.101926441474,"Y":39.723536579275,"Score":82,"Street":"1718 CHURCHMAN AVE","id":"a6210qoz2r2n","Loc_name":"Street_Address"},"type":"Feature","geometry":{"type":"Point","coordinates":[-86.10192492363,39.7235332058958]}},{"properties":{"Match_addr":"4364 RT 130, WILLINGBORO, NJ, 08046","CITY":"WILLINGBORO","NO":10327.0,"ST":"NJ","X":-74.89630948601,"Y":40.051210180492,"Score":69,"Street":"4364 ROUTE 130 N","id":"a6210qrj6e4v","Loc_name":"Street_Address"},"type":"Feature","geometry":{"type":"Point","coordinates":[-74.8963094860099,40.0512101804915]}},{"properties":{"Match_addr":"14 ALPINE DR, BATESVILLE, IN, 47006","CITY":"BATESVILLE","NO":11500.0,"ST":"IN","X":-85.217486673915,"Y":39.309893138508,"Score":82,"Street":"14 ALPINE DR","id":"a6210qn6l3y6","Loc_name":"Street_Address"},"type":"Feature","geometry":{"type":"Point","coordinates":[-85.2174866739149,39.3098900385193]}},{"properties":{"Match_addr":"1426 N WAYNE ST, ANGOLA, IN, 46703","CITY":"ANGOLA","NO":11499.0,"ST":"IN","X":-84.999535980114,"Y":41.653820562738,"Score":82,"Street":"1426 N WAYNE ST","id":"a6210qrdgup7","Loc_name":"Street_Address"},"type":"Feature","geometry":{"type":"Point","coordinates":[-84.999535980114,41.6538200231447]}},{"properties":{"Match_addr":"2800 N MAIN ST, LAS CRUCES, NM, 88001","CITY":"LA CRUCES","NO":11732.0,"ST":"NM","X":-106.778221889185,"Y":32.337285870333,"Score":80,"Street":"2800 N MAIN ST","id":"a6210qqf0640","Loc_name":"Street_Address"},"type":"Feature","geometry":{"type":"Point","coordinates":[-106.778219712826,32.3372844673911]}},{"properties":{"Match_addr":"4506 N MAIN ST, ROSWELL, NM, 88201","CITY":"ROSWELL","NO":11733.0,"ST":"NM","X":-104.523345182084,"Y":33.451704810829,"Score":82,"Street":"4506 N MAIN ST","id":"a6210qntj8dr","Loc_name":"Street_Address"},"type":"Feature","geometry":{"type":"Point","coordinates":[-104.523349588762,33.451706339659]}},{"properties":{"Match_addr":"65 E HORIZON RIDGE PKWY, HENDERSON, NV, 89015","CITY":"HENDERSON","NO":11139.0,"ST":"NV","X":-114.991277479401,"Y":36.008946521237,"Score":82,"Street":"65 E HORIZON RIDGE PKWY","id":"a6210qvd7sqn","Loc_name":"Street_Address"},"type":"Feature","geometry":{"type":"Point","coordinates":[-114.991278145408,36.0089465164142]}},{"properties":{"Match_addr":"401 E 162ND ST, SOUTH HOLLAND, IL, 60473","CITY":"SOUTH HOLLAND","NO":2596.0,"ST":"IL","X":-87.607202761832,"Y":41.600787003077,"Score":82,"Street":"401 E 162nd ST","id":"a6210quww0d0","Loc_name":"Street_Address"},"type":"Feature","geometry":{"type":"Point","coordinates":[-87.607201143052,41.6007870030769]}},{"properties":{"Match_addr":"4221 N STERLING AVE, PEORIA, IL, 61615","CITY":"PEORIA","NO":13375.0,"ST":"IL","X":-89.631726788419,"Y":40.73963210623,"Score":69,"Street":"4221 N STERLING","id":"a6210qq4p4e1","Loc_name":"Street_Address"},"type":"Feature","geometry":{"type":"Point","coordinates":[-89.6317279157513,40.7396322007004]}},{"properties":{"Match_addr":"6515 N BUFFALO DR, LAS VEGAS, NV, 89131","CITY":"LAS VEGAS","NO":11647.0,"ST":"NV","X":-115.264288301642,"Y":36.281072818922,"Score":82,"Street":"6515 N BUFFALO DR","id":"a6210qzzl7pl","Loc_name":"Street_Address"},"type":"Feature","geometry":{"type":"Point","coordinates":[-115.264285333843,36.2810723692601]}},{"properties":{"Match_addr":"950 S DURANGO DR, LAS VEGAS, NV, 89145","CITY":"LAS VEGAS","NO":11140.0,"ST":"NV","X":-115.279297896352,"Y":36.161406241794,"Score":82,"Street":"950 S DURANGO DR","id":"a6210qo33c2r","Loc_name":"Street_Address"},"type":"Feature","geometry":{"type":"Point","coordinates":[-115.279295018512,36.1614085800414]}},{"properties":{"Match_addr":"5590 PAINTED MIRAGE RD, LAS VEGAS, NV, 89149","CITY":"LAS VEGAS","NO":10970.0,"ST":"NV","X":-115.256603733849,"Y":36.262760382252,"Score":82,"Street":"5590 PAINTED MIRAGE RD","id":"a6210qsgp6l6","Loc_name":"Street_Address"},"type":"Feature","geometry":{"type":"Point","coordinates":[-115.256605123712,36.2627621727435]}},{"properties":{"Match_addr":"5181 W CHARLESTON BLVD, LAS VEGAS, NV, 89146","CITY":"LAS VEGAS","NO":10462.0,"ST":"NV","X":-115.210072674288,"Y":36.159076214312,"Score":82,"Street":"5181 W CHARLESTON BLVD","id":"a6210qmkq17x","Loc_name":"Street_Address"},"type":"Feature","geometry":{"type":"Point","coordinates":[-115.210074201916,36.1590793359855]}},{"properties":{"Match_addr":"20505 USHY 12, KILDEER, IL, 60047","CITY":"KILDEER","NO":2533.0,"ST":"IL","X":-88.051658410644,"Y":42.161622926447,"Score":60,"Street":"20505 N HWY 12","id":"a6210qmbqpto","Loc_name":"Street_Address"},"type":"Feature","geometry":{"type":"Point","coordinates":[-88.0516550831524,42.161622206989]}},{"properties":{"Match_addr":"3457 NAMEOKI RD, GRANITE CITY, IL, 62040","CITY":"GRANITE CITY","NO":10270.0,"ST":"IL","X":-90.123127133848,"Y":38.725232847538,"Score":82,"Street":"3457 NAMEOKI RD","id":"a6210qzzukv3","Loc_name":"Street_Address"},"type":"Feature","geometry":{"type":"Point","coordinates":[-90.1231264657811,38.725231794051]}},{"properties":{"Match_addr":"7595 W WASHINGTON AVE, LAS VEGAS, NV, 89128","CITY":"LAS VEGAS","NO":9770.0,"ST":"NV","X":-115.259613687335,"Y":36.181380553271,"Score":82,"Street":"7595 W WASHINGTON AVE","id":"a6210qtl5obt","Loc_name":"Street_Address"},"type":"Feature","geometry":{"type":"Point","coordinates":[-115.25961785251,36.1813825223122]}},{"properties":{"Match_addr":"1890 N HENDERSON ST, GALESBURG, IL, 61401","CITY":"GALESBURG","NO":11791.0,"ST":"IL","X":-90.383161546454,"Y":40.970843023544,"Score":82,"Street":"1890 N HENDERSON ST","id":"a6210qrsdk6p","Loc_name":"Street_Address"},"type":"Feature","geometry":{"type":"Point","coordinates":[-90.3831654305532,40.9708389012131]}},{"properties":{"Match_addr":"10335 GRAND AVE, FRANKLIN PARK, IL, 60131","CITY":"FRANKLIN PARK","NO":11912.0,"ST":"IL","X":-87.883092144271,"Y":41.930151796479,"Score":70,"Street":"10335 W GRAND AVE","id":"a6210qzdacsz","Loc_name":"Street_Address"},"type":"Feature","geometry":{"type":"Point","coordinates":[-87.8830951552007,41.9301547030877]}},{"properties":{"Match_addr":"8738 S KEDZIE AVE, EVERGREEN PARK, IL, 60805","CITY":"EVERGREEN PARK","NO":3431.0,"ST":"IL","X":-87.702131678712,"Y":41.734183777405,"Score":82,"Street":"8738 S KEDZIE AVE","id":"a6210qsio9yy","Loc_name":"Street_Address"},"type":"Feature","geometry":{"type":"Point","coordinates":[-87.7021335764649,41.734183439683]}},{"properties":{"Match_addr":"2848 N HARLEM AVE, ELMWOOD PARK, IL, 60707","CITY":"ELMWOOD PARK","NO":13712.0,"ST":"IL","X":-87.806403921482,"Y":41.931682996303,"Score":82,"Street":"2848 N HARLEM AVE","id":"a6210r10hr4a","Loc_name":"Street_Address"},"type":"Feature","geometry":{"type":"Point","coordinates":[-87.806400972542,41.9316835505375]}},{"properties":{"Match_addr":"3100 N VERMILION ST, DANVILLE, IL, 61832","CITY":"DANVILLE","NO":11491.0,"ST":"IL","X":-87.63051937916,"Y":40.173783831081,"Score":66,"Street":"3100 N VERMILLION","id":"a6210qm3ulit","Loc_name":"Street_Address"},"type":"Feature","geometry":{"type":"Point","coordinates":[-87.6305205632718,40.1737877730851]}},{"properties":{"Match_addr":"2475 N LINCOLN AVE, CHICAGO, IL, 60614","CITY":"CHICAGO","NO":2286.0,"ST":"IL","X":-87.650820021578,"Y":41.926923194937,"Score":69,"Street":"2475 N LINCOLN","id":"a6210qycxep2","Loc_name":"Street_Address"},"type":"Feature","geometry":{"type":"Point","coordinates":[-87.6508182614731,41.9269261370025]}},{"properties":{"Match_addr":"2454 N ASHLAND AVE, CHICAGO, IL, 60614","CITY":"CHICAGO","NO":2403.0,"ST":"IL","X":-87.668184936927,"Y":41.926382391028,"Score":82,"Street":"2454 N ASHLAND AVE","id":"a6210qxjsrq2","Loc_name":"Street_Address"},"type":"Feature","geometry":{"type":"Point","coordinates":[-87.6681841698589,41.926386543785]}},{"properties":{"Match_addr":"426 CENTRAL AVE, CEDARHURST, NY, 11516","CITY":"CEDARHURST","NO":843.0,"ST":"NY","X":-73.726231720976,"Y":40.619916250804,"Score":82,"Street":"426 CENTRAL AVE","id":"a6210qvoad4v","Loc_name":"Street_Address"},"type":"Feature","geometry":{"type":"Point","coordinates":[-73.7262285733486,40.6199144521599]}},{"properties":{"Match_addr":"101 N RESEARCH PL, CENTRAL ISLIP, NY, 11722","CITY":"CENTRAL ISLIP","NO":10840.0,"ST":"NY","X":-73.203530161865,"Y":40.773443481794,"Score":70,"Street":"101 S RESEARCH PL","id":"a6210qpibq23","Loc_name":"Street_Address"},"type":"Feature","geometry":{"type":"Point","coordinates":[-73.2035336166991,40.7734467090021]}},{"properties":{"Match_addr":"3350 W ROOSEVELT RD, CHICAGO, IL, 60624","CITY":"CHICAGO","NO":9895.0,"ST":"IL","X":-87.709620514123,"Y":41.866354222998,"Score":82,"Street":"3350 W ROOSEVELT RD","id":"a6210qoci9sh","Loc_name":"Street_Address"},"type":"Feature","geometry":{"type":"Point","coordinates":[-87.709624928969,41.8663567983292]}},{"properties":{"Match_addr":"7897 BREWERTON RD, CICERO, NY, 13039","CITY":"CICERO","NO":11278.0,"ST":"NY","X":-76.124297744138,"Y":43.152553674804,"Score":82,"Street":"7897 BREWERTON RD","id":"a6210qsauzqg","Loc_name":"Street_Address"},"type":"Feature","geometry":{"type":"Point","coordinates":[-76.1242977441379,43.1525581714138]}},{"properties":{"Match_addr":"1818 CENTRAL AVE, COLONIE, NY, 12205","CITY":"COLONIE","NO":10048.0,"ST":"NY","X":-73.848073102858,"Y":42.730947087939,"Score":82,"Street":"1818 CENTRAL AVE","id":"a6210quow0n0","Loc_name":"Street_Address"},"type":"Feature","geometry":{"type":"Point","coordinates":[-73.8480687218781,42.7309470108576]}},{"properties":{"Match_addr":"1753 E 95TH ST, CHICAGO, IL, 60617","CITY":"CHICAGO","NO":11953.0,"ST":"IL","X":-87.580515308818,"Y":41.722404671146,"Score":82,"Street":"1753 E 95TH ST","id":"a6210qs9e9vk","Loc_name":"Street_Address"},"type":"Feature","geometry":{"type":"Point","coordinates":[-87.5805182584427,41.7224023210991]}},{"properties":{"Match_addr":"1946 JERICHO TPKE, DIX HILLS, NY, 11731","CITY":"ELWOOD","NO":7259.0,"ST":"NY","X":-73.331382374889,"Y":40.838239740939,"Score":82,"Street":"1946 JERICHO TURNPIKE","id":"a6210qnuiz0r","Loc_name":"Street_Address"},"type":"Feature","geometry":{"type":"Point","coordinates":[-73.3313812363844,40.8382428612131]}},{"properties":{"Match_addr":"123 FULTON ST, FARMINGDALE, NY, 11735","CITY":"FARMINGDALE","NO":10567.0,"ST":"NY","X":-73.459068383295,"Y":40.730774440788,"Score":69,"Street":"123 FULTON AVE","id":"a6210qn9c8qs","Loc_name":"Street_Address"},"type":"Feature","geometry":{"type":"Point","coordinates":[-73.4590669781044,40.7307738787118]}},{"properties":{"Match_addr":"4262 LAKEVILLE RD, GENESEO, NY, 14454","CITY":"GENESEO","NO":9484.0,"ST":"NY","X":-77.787455678754,"Y":42.797590027982,"Score":82,"Street":"4262 LAKEVILLE RD","id":"a6210qv9ocmr","Loc_name":"Street_Address"},"type":"Feature","geometry":{"type":"Point","coordinates":[-77.7874589390238,42.7975867732288]}},{"properties":{"Match_addr":"2000 N NEIL ST, CHAMPAIGN, IL, 61820","CITY":"CHAMPAIGN","NO":10365.0,"ST":"IL","X":-88.243660336408,"Y":40.137969665234,"Score":82,"Street":"2000 N NEIL ST","id":"a6210qo4ibym","Loc_name":"Street_Address"},"type":"Feature","geometry":{"type":"Point","coordinates":[-88.2436603364079,40.1379677766581]}},{"properties":{"Match_addr":"96 RIVER OAKS DR, CALUMET CITY, IL, 60409","CITY":"CALUMET CITY","NO":10633.0,"ST":"IL","X":-87.528948586595,"Y":41.596750168061,"Score":69,"Street":"96 RIVER OAKS CTR","id":"a6210qrn464s","Loc_name":"Street_Address"},"type":"Feature","geometry":{"type":"Point","coordinates":[-87.5289511332826,41.5967490471654]}},{"properties":{"Match_addr":"2150 RIDGE RD W, GREECE, NY, 14626","CITY":"GREECE","NO":7343.0,"ST":"NY","X":-77.685283415008,"Y":43.208147326304,"Score":82,"Street":"2150 RIDGE RD W","id":"a6210qrrdb8d","Loc_name":"Street_Address"},"type":"Feature","geometry":{"type":"Point","coordinates":[-77.6852869632751,43.2081452660448]}},{"properties":{"Match_addr":"627 E BOUGHTON RD, BOLINGBROOK, IL, 60440","CITY":"BOLINGBROOK","NO":13521.0,"ST":"IL","X":-88.044141067754,"Y":41.720511894795,"Score":82,"Street":"627 E BOUGHTON RD","id":"a6210qnwuk1m","Loc_name":"Street_Address"},"type":"Feature","geometry":{"type":"Point","coordinates":[-88.0441367509874,41.7205137448376]}},{"properties":{"Match_addr":"617 STRATFORD SQUARE MALL, BLOOMINGDALE, IL, 60108","CITY":"BLOOMINGDALE","NO":10071.0,"ST":"IL","X":-88.115432085321,"Y":41.952672460585,"Score":82,"Street":"617 STRATFORD SQUARE MALL","id":"a6210r221he2","Loc_name":"Street_Address"},"type":"Feature","geometry":{"type":"Point","coordinates":[-88.1154350014703,41.9526737267014]}},{"properties":{"Match_addr":"1742 E FAIRVIEW AVE, MERIDIAN, ID, 83642","CITY":"MERIDIAN","NO":3253.0,"ST":"ID","X":-116.37291590007,"Y":43.619482773149,"Score":69,"Street":"1742 E FAIRVIEW DR","id":"a6210qqwvpm1","Loc_name":"Street_Address"},"type":"Feature","geometry":{"type":"Point","coordinates":[-116.372915572242,43.6194861690263]}},{"properties":{"Match_addr":"5340 MERLE HAY RD, JOHNSTON, IA, 50131","CITY":"JOHNSTON","NO":10447.0,"ST":"IA","X":-93.69771294885,"Y":41.657517294929,"Score":82,"Street":"5340 MERLE HAY RD","id":"a6210qz8htop","Loc_name":"Street_Address"},"type":"Feature","geometry":{"type":"Point","coordinates":[-93.6977156949616,41.6575162366851]}},{"properties":{"Match_addr":"1736 N DIVISION ST, DAVENPORT, IA, 52804","CITY":"DAVENPORT","NO":13752.0,"ST":"IA","X":-90.601132263097,"Y":41.537150436688,"Score":82,"Street":"1736 N DIVISION ST","id":"a6210qvhi35l","Loc_name":"Street_Address"},"type":"Feature","geometry":{"type":"Point","coordinates":[-90.6011341107946,41.5371509762836]}},{"properties":{"Match_addr":"201 N HARRISON ST, DAVENPORT, IA, 52801","CITY":"DAVENPORT","NO":13570.0,"ST":"IA","X":-90.577023017392,"Y":41.521364547178,"Score":82,"Street":"201 N HARRISON ST","id":"a6210qyy6dqw","Loc_name":"Street_Address"},"type":"Feature","geometry":{"type":"Point","coordinates":[-90.5770232871891,41.5213678746694]}},{"properties":{"Match_addr":"320 W KIMBERLY RD, DAVENPORT, IA, 52806","CITY":"DAVENPORT","NO":10069.0,"ST":"IA","X":-90.577085340393,"Y":41.560209620368,"Score":82,"Street":"320 W KIMBERLY RD","id":"a6210qr1fusf","Loc_name":"Street_Address"},"type":"Feature","geometry":{"type":"Point","coordinates":[-90.5770862397312,41.5602095931148]}},{"properties":{"Match_addr":"1451 CORAL RIDGE AVE, CORALVILLE, IA, 52241","CITY":"CORALVILLE","NO":8688.0,"ST":"IA","X":-91.608387464051,"Y":41.690998490463,"Score":82,"Street":"1451 CORAL RIDGE AVE","id":"a6210qpu319i","Loc_name":"Street_Address"},"type":"Feature","geometry":{"type":"Point","coordinates":[-91.6083837768309,41.690997995836]}},{"properties":{"Match_addr":"4444 1ST AVE NE, CEDAR RAPIDS, IA, 52402","CITY":"CEDAR RAPIDS","NO":9644.0,"ST":"IA","X":-91.627087756532,"Y":42.023082697573,"Score":82,"Street":"4444 FIRST AVE NE","id":"a6210qtk8q6i","Loc_name":"Street_Address"},"type":"Feature","geometry":{"type":"Point","coordinates":[-91.6270896750404,42.0230816483753]}},{"properties":{"Match_addr":"4624 CAMP HIGHLAND RD SE, SMYRNA, GA, 30082","CITY":"SMYRNA","NO":11177.0,"ST":"GA","X":-84.50594785074,"Y":33.841006208685,"Score":69,"Street":"4624 CAMP HIGHLAND RD","id":"a6210qzi4l21","Loc_name":"Street_Address"},"type":"Feature","geometry":{"type":"Point","coordinates":[-84.505952077553,33.8410048597024]}},{"properties":{"Match_addr":"1693 BASS RD, MACON, GA, 31210","CITY":"MACON","NO":13408.0,"ST":"GA","X":-83.725069635359,"Y":32.933878378934,"Score":82,"Street":"1693 BASS RD","id":"a6210r26ah8p","Loc_name":"Street_Address"},"type":"Feature","geometry":{"type":"Point","coordinates":[-83.7250707595118,32.9338767151881]}},{"properties":{"Match_addr":"836 VETERANS MEMORIAL HWY, MABLETON, GA, 30126","CITY":"MABLETON","NO":13341.0,"ST":"GA","X":-84.530410504078,"Y":33.806906173111,"Score":69,"Street":"836 VETERANS MEMORIAL PKWY","id":"a6210qrqf7jw","Loc_name":"Street_Address"},"type":"Feature","geometry":{"type":"Point","coordinates":[-84.53041363675,33.8069025683513]}},{"properties":{"Match_addr":"2100 PLEASANT HILL RD, DULUTH, GA, 30096","CITY":"DULUTH","NO":11675.0,"ST":"GA","X":-84.133308192102,"Y":33.957082152668,"Score":82,"Street":"2100 PLEASANT HILL RD","id":"a6210qx2f20x","Loc_name":"Street_Address"},"type":"Feature","geometry":{"type":"Point","coordinates":[-84.1333090014923,33.9570803540242]}},{"properties":{"Match_addr":"2011 VETERANS BLVD, DUBLIN, GA, 31021","CITY":"DUBLIN","NO":13433.0,"ST":"GA","X":-82.957436454962,"Y":32.542379352783,"Score":65,"Street":"2011 VETERAN PKWY","id":"a6210qwl4dnf","Loc_name":"Street_Address"},"type":"Feature","geometry":{"type":"Point","coordinates":[-82.9574364549622,32.5423838493932]}},{"properties":{"Match_addr":"3333 BUFORD DR, BUFORD, GA, 30519","CITY":"BUFORD","NO":13518.0,"ST":"GA","X":-83.984286471713,"Y":34.071246989892,"Score":82,"Street":"3333 BUFORD DR","id":"a6210r0dlkr6","Loc_name":"Street_Address"},"type":"Feature","geometry":{"type":"Point","coordinates":[-83.984282348017,34.0712492856438]}},{"properties":{"Match_addr":"250 PARK AVE SE, ATLANTA, GA, 30312","CITY":"ATLANTA","NO":11843.0,"ST":"GA","X":-84.369687943696,"Y":33.746295397319,"Score":69,"Street":"250 PARK AVE W","id":"a6210qwtiu7s","Loc_name":"Street_Address"},"type":"Feature","geometry":{"type":"Point","coordinates":[-84.3696868036735,33.7462972567968]}},{"properties":{"Match_addr":"650 S ROSEMARY AVE, WEST PALM BEACH, FL, 33401","CITY":"WEST PALM","NO":14077.0,"ST":"FL","X":-80.057178725466,"Y":26.707985794656,"Score":73,"Street":"650 S ROSEMARY AVE","id":"a6210qxck6rs","Loc_name":"Street_Address"},"type":"Feature","geometry":{"type":"Point","coordinates":[-80.0571768697915,26.707987218208]}},{"properties":{"Match_addr":"13811 W HILLSBOROUGH AVE, TAMPA, FL, 33635","CITY":"TAMPA","NO":9294.0,"ST":"FL","X":-82.644192117009,"Y":28.032303489404,"Score":69,"Street":"13811 W HILLSBOROUGH","id":"a6210qt75gzl","Loc_name":"Street_Address"},"type":"Feature","geometry":{"type":"Point","coordinates":[-82.6441935989367,28.0323018588943]}},{"properties":{"Match_addr":"2164 E FOWLER AVE, TAMPA, FL, 33612","CITY":"TAMPA","NO":11415.0,"ST":"FL","X":-82.436054431415,"Y":28.054574474696,"Score":82,"Street":"2164 E FOWLER AVE","id":"a6210qwmv3bm","Loc_name":"Street_Address"},"type":"Feature","geometry":{"type":"Point","coordinates":[-82.4360545084755,28.0545780655601]}},{"properties":{"Match_addr":"800 OCALA RD, TALLAHASSEE, FL, 32304","CITY":"TALLAHASSEE","NO":13686.0,"ST":"FL","X":-84.31709526079,"Y":30.44867511081,"Score":82,"Street":"800 OCALA RD","id":"a6210qwijg3m","Loc_name":"Street_Address"},"type":"Feature","geometry":{"type":"Point","coordinates":[-84.3170944514,30.4486722329799]}},{"properties":{"Match_addr":"3911 BREWERTON RD, SYRACUSE, NY, 13212","CITY":"SYRACUSE","NO":10752.0,"ST":"NY","X":-76.142056975575,"Y":43.122468598913,"Score":69,"Street":"3911 BREWERTON RD N","id":"a6210qwoikv0","Loc_name":"Street_Address"},"type":"Feature","geometry":{"type":"Point","coordinates":[-76.1420593542166,43.1224668563134]}},{"properties":{"Match_addr":"4451 PALISADES CENTER DR, WEST NYACK, NY, 10994","CITY":"WEST NYACK","NO":10281.0,"ST":"NY","X":-73.960671135345,"Y":41.098965129093,"Score":82,"Street":"4451 PALISADES CTR DR","id":"a6210qq6zjq4","Loc_name":"Street_Address"},"type":"Feature","geometry":{"type":"Point","coordinates":[-73.9606728331668,41.0989653107275]}},{"properties":{"Match_addr":"2223 SE OCEAN BLVD, STUART, FL, 34996","CITY":"STUART","NO":13830.0,"ST":"FL","X":-80.220637094429,"Y":27.196673960412,"Score":82,"Street":"2223 SE OCEAN BLVD","id":"a6210qx5sxzk","Loc_name":"Street_Address"},"type":"Feature","geometry":{"type":"Point","coordinates":[-80.2206376418371,27.1966698157094]}},{"properties":{"Match_addr":"4209 SE FEDERAL HWY, STUART, FL, 34997","CITY":"STUART","NO":10554.0,"ST":"FL","X":-80.219998223874,"Y":27.154748638771,"Score":82,"Street":"4209 SE FEDERAL HWY","id":"a6210qmzzngy","Loc_name":"Street_Address"},"type":"Feature","geometry":{"type":"Point","coordinates":[-80.2199991231963,27.1547524159237]}},{"properties":{"Match_addr":"1198 EGLIN PKWY, LAKE LORRAINE, FL, 32579","CITY":"SHALIMAR","NO":11958.0,"ST":"FL","X":-86.580298502777,"Y":30.44332306555,"Score":82,"Street":"1198 EGLIN PKWY","id":"a6210qqd08qw","Loc_name":"Street_Address"},"type":"Feature","geometry":{"type":"Point","coordinates":[-86.5803012906755,30.4433212669056]}},{"properties":{"Match_addr":"901 USHY 27 N, SEBRING, FL, 33870","CITY":"SEBRING","NO":11584.0,"ST":"FL","X":-81.484827650162,"Y":27.492033988195,"Score":82,"Street":"901 US HWY 27 N","id":"a6210r1k7jn0","Loc_name":"Street_Address"},"type":"Feature","geometry":{"type":"Point","coordinates":[-81.4848236116443,27.4920341497923]}},{"properties":{"Match_addr":"8201 S TAMIAMI TRL, VAMO, FL, 34238","CITY":"SARASOTA","NO":11413.0,"ST":"FL","X":-82.497452932128,"Y":27.233231123285,"Score":82,"Street":"8201 S TAMIAMI TRL","id":"a6210qvtdsqp","Loc_name":"Street_Address"},"type":"Feature","geometry":{"type":"Point","coordinates":[-82.4974512234159,27.2332272562004]}},{"properties":{"Match_addr":"155 TOWNE CENTER CIR, SANFORD, FL, 32771","CITY":"SANFORD","NO":11412.0,"ST":"FL","X":-81.340535057059,"Y":28.804480235674,"Score":82,"Street":"155 TOWNE CENTER CIR","id":"a6210qtof3ls","Loc_name":"Street_Address"},"type":"Feature","geometry":{"type":"Point","coordinates":[-81.3405363852635,28.8044777396919]}},{"properties":{"Match_addr":"155 TOWNE CENTER CIR, SANFORD, FL, 32771","CITY":"SANFORD","NO":11410.0,"ST":"FL","X":-81.340535057059,"Y":28.804480235674,"Score":82,"Street":"155 TOWNE CENTER CIR","id":"a6210qt59wyx","Loc_name":"Street_Address"},"type":"Feature","geometry":{"type":"Point","coordinates":[-81.3405363852635,28.8044777396919]}},{"properties":{"Match_addr":"691 RICHMOND RD, RICHMOND HEIGHTS, OH, 44143","CITY":"RICHMOND HEIGHTS","NO":2389.0,"ST":"OH","X":-81.497189289547,"Y":41.54038951394,"Score":82,"Street":"691 RICHMOND RD","id":"a6210qydh7qs","Loc_name":"Street_Address"},"type":"Feature","geometry":{"type":"Point","coordinates":[-81.4971892895472,41.5403885355891]}},{"properties":{"Match_addr":"5100 PGA BLVD, PALM BEACH GARDENS, FL, 33418","CITY":"PALM BEACH","NO":11840.0,"ST":"FL","X":-80.114627269737,"Y":26.838420367567,"Score":72,"Street":"5100 PGA BLVD","id":"a6210r1xn62i","Loc_name":"Street_Address"},"type":"Feature","geometry":{"type":"Point","coordinates":[-80.1146255610232,26.8384158921174]}},{"properties":{"Match_addr":"1515 OVIEDO MARKETPLACE BLVD, OVIEDO, FL, 32765","CITY":"OVIEDO","NO":11404.0,"ST":"FL","X":-81.239481259516,"Y":28.664260037157,"Score":82,"Street":"1515 OVIEDO MARKETPLACE BLVD","id":"a6210qymrmn8","Loc_name":"Street_Address"},"type":"Feature","geometry":{"type":"Point","coordinates":[-81.239479568831,28.6642644421037]}},{"properties":{"Match_addr":"3351 E COLONIAL DR, ORLANDO, FL, 32803","CITY":"ORLANDO","NO":11403.0,"ST":"FL","X":-81.342030172336,"Y":28.55335507673,"Score":82,"Street":"3351 E COLONIAL DR","id":"a6210qy6jkaz","Loc_name":"Street_Address"},"type":"Feature","geometry":{"type":"Point","coordinates":[-81.3420292598321,28.5533510562302]}},{"properties":{"Match_addr":"1610 N MAIN ST, ALTUS, OK, 73521","CITY":"ALTUS","NO":13302.0,"ST":"OK","X":-99.334057181407,"Y":34.655882127752,"Score":82,"Street":"1610 N MAIN ST","id":"a6210qu933m1","Loc_name":"Street_Address"},"type":"Feature","geometry":{"type":"Point","coordinates":[-99.3340546356341,34.6558805504512]}},{"properties":{"Match_addr":"1100 S LYNN RIGGS BLVD, CLAREMORE, OK, 74017","CITY":"CLAREMORE","NO":13415.0,"ST":"OK","X":-95.626679691286,"Y":36.299172124386,"Score":82,"Street":"1100 S LYNN RIGGS BLVD","id":"a6210qlzfd9t","Loc_name":"Street_Address"},"type":"Feature","geometry":{"type":"Point","coordinates":[-95.6266805088275,36.2991757217099]}},{"properties":{"Match_addr":"4755 SE 29TH ST, DEL CITY, OK, 73115","CITY":"DEL CITY","NO":11285.0,"ST":"OK","X":-97.430613764809,"Y":35.435277987144,"Score":82,"Street":"4755 SE 29TH ST","id":"a6210qni057i","Loc_name":"Street_Address"},"type":"Feature","geometry":{"type":"Point","coordinates":[-97.4306125809597,35.435277987144]}},{"properties":{"Match_addr":"2141 W 15TH ST, EDMOND, OK, 73013","CITY":"EDMOND","NO":13459.0,"ST":"OK","X":-97.512285615101,"Y":35.638474100302,"Score":82,"Street":"2141 W 15TH ST","id":"a6210r0655je","Loc_name":"Street_Address"},"type":"Feature","geometry":{"type":"Point","coordinates":[-97.5122890076607,35.638470806444]}},{"properties":{"Match_addr":"2015 W DANFORTH RD, EDMOND, OK, 73003","CITY":"EDMOND","NO":11858.0,"ST":"OK","X":-97.510286133647,"Y":35.667541032837,"Score":82,"Street":"2015 W DANFORTH RD","id":"a6210r1cn7ln","Loc_name":"Street_Address"},"type":"Feature","geometry":{"type":"Point","coordinates":[-97.5102835195354,35.667536894431]}},{"properties":{"Match_addr":"1204 NW SHERIDAN RD, LAWTON, OK, 73505","CITY":"LAWTON","NO":13720.0,"ST":"OK","X":-98.422375921651,"Y":34.620427563793,"Score":82,"Street":"1204 NW SHERIDAN RD","id":"a6210qmxcgyx","Loc_name":"Street_Address"},"type":"Feature","geometry":{"type":"Point","coordinates":[-98.4223759216515,34.6204292760561]}},{"properties":{"Match_addr":"427 S GEORGE NIGH EXPY, MCALESTER, OK, 74501","CITY":"MCALESTER","NO":11542.0,"ST":"OK","X":-95.744729459065,"Y":34.921105856295,"Score":82,"Street":"427 S GEORGE NIGH EXPY","id":"a6210r0392tg","Loc_name":"Street_Address"},"type":"Feature","geometry":{"type":"Point","coordinates":[-95.7447255183934,34.9211086033323]}},{"properties":{"Match_addr":"591 W SHAWNEE ST, MUSKOGEE, OK, 74401","CITY":"MUSKOGEE","NO":13541.0,"ST":"OK","X":-95.365914818404,"Y":35.769537998994,"Score":69,"Street":"591 W SHAWNEE","id":"a6210qzy3fb0","Loc_name":"Street_Address"},"type":"Feature","geometry":{"type":"Point","coordinates":[-95.3659130932116,35.7695379989942]}},{"properties":{"Match_addr":"410 BLANDING BLVD, ORANGE PARK, FL, 32073","CITY":"ORANGE PARK","NO":10680.0,"ST":"FL","X":-81.747601894968,"Y":30.16367276517,"Score":82,"Street":"410 BLANDING BLVD","id":"a6210qrdvfjg","Loc_name":"Street_Address"},"type":"Feature","geometry":{"type":"Point","coordinates":[-81.7476055086058,30.1636770818947]}},{"properties":{"Match_addr":"3131 W MEMORIAL RD, OKLAHOMA CITY, OK, 73134","CITY":"OKLAHOMA CITY","NO":11543.0,"ST":"OK","X":-97.572729906408,"Y":35.609899345573,"Score":69,"Street":"3131 W MEMORIAL","id":"a6210qt6476j","Loc_name":"Street_Address"},"type":"Feature","geometry":{"type":"Point","coordinates":[-97.57273244125,35.6098993455732]}},{"properties":{"Match_addr":"9548 SW HWY 200, OCALA, FL, 34481","CITY":"OCALA","NO":13784.0,"ST":"FL","X":-82.275582504072,"Y":29.061185952378,"Score":82,"Street":"9548 SW HWY 200","id":"a6210qun8hoh","Loc_name":"Street_Address"},"type":"Feature","geometry":{"type":"Point","coordinates":[-82.2755794855673,29.0611892129556]}},{"properties":{"Match_addr":"3100 SW COLLEGE RD, OCALA, FL, 34474","CITY":"OCALA","NO":11581.0,"ST":"FL","X":-82.17439009191,"Y":29.160762647691,"Score":82,"Street":"3100 SW COLLEGE RD","id":"a6210qman17o","Loc_name":"Street_Address"},"type":"Feature","geometry":{"type":"Point","coordinates":[-82.1743877708304,29.1607621480397]}},{"properties":{"Match_addr":"2400 N 14TH ST, PONCA CITY, OK, 74601","CITY":"PONCA CITY","NO":13721.0,"ST":"OK","X":-97.067226334465,"Y":36.732424397108,"Score":82,"Street":"2400 N 14TH ST","id":"a6210qrt8qcw","Loc_name":"Street_Address"},"type":"Feature","geometry":{"type":"Point","coordinates":[-97.0672235285805,36.7324241093252]}},{"properties":{"Match_addr":"1702 S MUSKOGEE AVE, TAHLEQUAH, OK, 74464","CITY":"TAHLEQUAH","NO":11287.0,"ST":"OK","X":-94.976700288026,"Y":35.895799456008,"Score":82,"Street":"1702 S MUSKOGEE AVE","id":"a6210qtxibfr","Loc_name":"Street_Address"},"type":"Feature","geometry":{"type":"Point","coordinates":[-94.9767045053712,35.895802811908]}},{"properties":{"Match_addr":"9524 E 81ST ST, TULSA, OK, 74133","CITY":"TULSA","NO":11936.0,"ST":"OK","X":-95.870171399871,"Y":36.046421681127,"Score":82,"Street":"9524 E 81ST ST","id":"a6210qxlv2vy","Loc_name":"Street_Address"},"type":"Feature","geometry":{"type":"Point","coordinates":[-95.8701719482604,36.0464212653751]}},{"properties":{"Match_addr":"750 NE 125TH ST, NORTH MIAMI, FL, 33161","CITY":"NORTH MIAMI","NO":10552.0,"ST":"FL","X":-80.183706669363,"Y":25.890396944222,"Score":82,"Street":"750 NE 125TH ST","id":"a6210qyrz9zo","Loc_name":"Street_Address"},"type":"Feature","geometry":{"type":"Point","coordinates":[-80.1837024860937,25.8903955749308]}},{"properties":{"Match_addr":"2128 TAMIAMI TRL N, NAPLES, FL, 34102","CITY":"NAPLES","NO":8427.0,"ST":"FL","X":-81.799537312759,"Y":26.173284654584,"Score":69,"Street":"2128 TAMIAMI TRAIL","id":"a6210qwbfjyr","Loc_name":"Street_Address"},"type":"Feature","geometry":{"type":"Point","coordinates":[-81.7995413557979,26.1732863124674]}},{"properties":{"Match_addr":"3399 N STHY 7, LAUDERDALE LAKES, FL, 33319","CITY":"LAUDERDALE","NO":8329.0,"ST":"FL","X":-80.203262740231,"Y":26.168394390328,"Score":73,"Street":"3399 N STATE RD 7","id":"a6210quh58k4","Loc_name":"Street_Address"},"type":"Feature","geometry":{"type":"Point","coordinates":[-80.203262740231,26.168394000628]}},{"properties":{"Match_addr":"1864 SE HAWTHORNE BLVD, PORTLAND, OR, 97214","CITY":"PORTLAND","NO":426.0,"ST":"OR","X":-122.646349019476,"Y":45.512181325451,"Score":82,"Street":"1864 SE HAWTHORNE BLVD","id":"a6210qpez2tc","Loc_name":"Street_Address"},"type":"Feature","geometry":{"type":"Point","coordinates":[-122.646352224911,45.5121813254505]}},{"properties":{"Match_addr":"2045 SE DIVISION ST, PORTLAND, OR, 97202","CITY":"PORTLAND","NO":3441.0,"ST":"OR","X":-122.644911165131,"Y":45.504804013898,"Score":82,"Street":"2045 SE DIVISION ST","id":"a6210qni4uny","Loc_name":"Street_Address"},"type":"Feature","geometry":{"type":"Point","coordinates":[-122.644913309664,45.5048068848103]}},{"properties":{"Match_addr":"3800 USHY 98, LAKELAND, FL, 33809","CITY":"LAKELAND","NO":11397.0,"ST":"FL","X":-81.973876280161,"Y":28.091023720323,"Score":82,"Street":"3800 US HWY 98","id":"a6210qoi9luo","Loc_name":"Street_Address"},"type":"Feature","geometry":{"type":"Point","coordinates":[-81.9738749311777,28.0910275874076]}},{"properties":{"Match_addr":"6379 HAMILTON BLVD, ALLENTOWN, PA, 18106","CITY":"ALLENTOWN","NO":11697.0,"ST":"PA","X":-75.581038790028,"Y":40.555648050591,"Score":82,"Street":"6379 HAMILTON BLVD","id":"a6210qnamokb","Loc_name":"Street_Address"},"type":"Feature","geometry":{"type":"Point","coordinates":[-75.5810352926783,40.5556488999462]}},{"properties":{"Match_addr":"118 E CHESTNUT AVE, ALTOONA, PA, 16601","CITY":"ALTOONA","NO":13696.0,"ST":"PA","X":-78.391546274726,"Y":40.525562531114,"Score":82,"Street":"118 E CHESTNUT AVE","id":"a6210qpph491","Loc_name":"Street_Address"},"type":"Feature","geometry":{"type":"Point","coordinates":[-78.391542539325,40.5255665780661]}},{"properties":{"Match_addr":"3306 FEDERAL HWY, JENSEN BEACH, FL, 34957","CITY":"JENSEN BEACH","NO":11395.0,"ST":"FL","X":-80.272520959629,"Y":27.245655293093,"Score":69,"Street":"3306 FEDERAL HWY NW","id":"a6210qxjlf4p","Loc_name":"Street_Address"},"type":"Feature","geometry":{"type":"Point","coordinates":[-80.2725195297074,27.2456558866453]}},{"properties":{"Match_addr":"707 NESHAMINY MALL, BENSALEM, PA, 19020","CITY":"BENSALEM","NO":13837.0,"ST":"PA","X":-74.955706126816,"Y":40.137837838793,"Score":82,"Street":"707 NESHAMINY MALL","id":"a6210qn639af","Loc_name":"Street_Address"},"type":"Feature","geometry":{"type":"Point","coordinates":[-74.9557097060452,40.137841871574]}},{"properties":{"Match_addr":"34 E MAIN ST, BLOOMSBURG, PA, 17815","CITY":"BLOOMSBURG","NO":13905.0,"ST":"PA","X":-76.455695002364,"Y":41.003447439834,"Score":82,"Street":"34 E MAIN ST","id":"a6210qssg2bs","Loc_name":"Street_Address"},"type":"Feature","geometry":{"type":"Point","coordinates":[-76.455697911935,41.0034483179955]}},{"properties":{"Match_addr":"290 W BUTLER AVE, BRITTANY FARMS-HIGHLANDS, PA, 18914","CITY":"CHALFONT","NO":13268.0,"ST":"PA","X":-75.214914849396,"Y":40.278836005528,"Score":69,"Street":"290 W BUTLER PIKE","id":"a6210qp3ekcm","Loc_name":"Street_Address"},"type":"Feature","geometry":{"type":"Point","coordinates":[-75.2149123013301,40.2788375793277]}},{"properties":{"Match_addr":"8060 PHILLIPS HWY, JACKSONVILLE, FL, 32256","CITY":"JACKSONVILLE","NO":11610.0,"ST":"FL","X":-81.588038264464,"Y":30.224563478116,"Score":82,"Street":"8060 PHILLIPS HWY","id":"a6210qn395za","Loc_name":"Street_Address"},"type":"Feature","geometry":{"type":"Point","coordinates":[-81.5880388009471,30.2245611832784]}},{"properties":{"Match_addr":"677 S 25TH ST, EASTON, PA, 18045","CITY":"EASTON","NO":11859.0,"ST":"PA","X":-75.24736408165,"Y":40.680447214142,"Score":82,"Street":"677 S 25TH ST","id":"a6210quri7ix","Loc_name":"Street_Address"},"type":"Feature","geometry":{"type":"Point","coordinates":[-75.2473598401472,40.6804478179521]}},{"properties":{"Match_addr":"189 EISENHOWER DR, HANOVER, PA, 17331","CITY":"HANOVER","NO":10789.0,"ST":"PA","X":-76.993805482222,"Y":39.824208693438,"Score":82,"Street":"189 EISENHOWER DR","id":"a6210qq7ka7p","Loc_name":"Street_Address"},"type":"Feature","geometry":{"type":"Point","coordinates":[-76.9938072481666,39.8242123070759]}},{"properties":{"Match_addr":"305 CORD 210 W, JACKSONVILLE, FL, 32259","CITY":"JACKSONVILLE","NO":11173.0,"ST":"FL","X":-81.462086286282,"Y":30.082290178452,"Score":72,"Street":"305 CR 210 W","id":"a6210qm9w7zz","Loc_name":"Street_Address"},"type":"Feature","geometry":{"type":"Point","coordinates":[-81.4620887507436,30.0822884382431]}},{"properties":{"Match_addr":"4125 CLEVELAND AVE, FORT MYERS, FL, 33901","CITY":"FORT MYERS","NO":11393.0,"ST":"FL","X":-81.871667266543,"Y":26.602303986312,"Score":82,"Street":"4125 CLEVELAND AVE","id":"a6210qm6bf0v","Loc_name":"Street_Address"},"type":"Feature","geometry":{"type":"Point","coordinates":[-81.8716669825478,26.602307886545]}},{"properties":{"Match_addr":"1067 W BALTIMORE PIKE, LIMA, PA, 19063","CITY":"MEDIA","NO":13863.0,"ST":"PA","X":-75.429247720573,"Y":39.914531218479,"Score":82,"Street":"1067 W BALTIMORE PIKE","id":"a6210r1ms9j9","Loc_name":"Street_Address"},"type":"Feature","geometry":{"type":"Point","coordinates":[-75.4292477205731,39.9145312184785]}},{"properties":{"Match_addr":"2059 ALTAMONT AVE, FORT MYERS, FL, 33901","CITY":"FORT MYERS","NO":13340.0,"ST":"FL","X":-81.877376931863,"Y":26.637656211773,"Score":78,"Street":"2059 ALTAMONTE AVE","id":"a6210r1q17nz","Loc_name":"Street_Address"},"type":"Feature","geometry":{"type":"Point","coordinates":[-81.8773776774338,26.6376602355168]}},{"properties":{"Match_addr":"5 E STATION SQUARE DR, PITTSBURGH, PA, 15219","CITY":"PITTSBURGH","NO":7723.0,"ST":"PA","X":-80.00157628533,"Y":40.43114675821,"Score":70,"Street":"5 STATION SQUARE DR","id":"a6210r28rcck","Loc_name":"Street_Address"},"type":"Feature","geometry":{"type":"Point","coordinates":[-80.0015717887198,40.4311467582099]}},{"properties":{"Match_addr":"303 USHY 301, BRADENTON, FL, 34208","CITY":"BRADENTON","NO":11390.0,"ST":"FL","X":-82.562921867149,"Y":27.496446382373,"Score":82,"Street":"303 US HWY 301","id":"a6210qlslu36","Loc_name":"Street_Address"},"type":"Feature","geometry":{"type":"Point","coordinates":[-82.5629218671489,27.4964498209562]}},{"properties":{"Match_addr":"26841 S BAY DR, BONITA SPRINGS, FL, 34134","CITY":"BONITA SPRING","NO":8441.0,"ST":"FL","X":-81.80991377634,"Y":26.348281039475,"Score":80,"Street":"26841 S BAY DR","id":"a6210r22go10","Loc_name":"Street_Address"},"type":"Feature","geometry":{"type":"Point","coordinates":[-81.8099105387957,26.3482853861489]}},{"properties":{"Match_addr":"22888 SUSSEX HWY, SEAFORD, DE, 19973","CITY":"SEAFORD","NO":13733.0,"ST":"DE","X":-75.594083376137,"Y":38.660858233262,"Score":82,"Street":"22888 SUSSEX HWY","id":"a6210qxhwzjz","Loc_name":"Street_Address"},"type":"Feature","geometry":{"type":"Point","coordinates":[-75.5940844553235,38.6608583231937]}},{"properties":{"Match_addr":"301 EVERGREEN WAY, SOUTH WINDSOR, CT, 06074","CITY":"SOUTH WINDSOR","NO":8116.0,"ST":"CT","X":-72.556111834205,"Y":41.812739825491,"Score":82,"Street":"301 EVERGREEN WAY","id":"a6210qurz4jx","Loc_name":"Street_Address"},"type":"Feature","geometry":{"type":"Point","coordinates":[-72.556111687806,41.8127392189423]}},{"properties":{"Match_addr":"1201 KINGS HWY, FAIRFIELD, CT, 06824","CITY":"FAIRFIELD","NO":13968.0,"ST":"CT","X":-73.243835617789,"Y":41.152450754678,"Score":82,"Street":"1201 KINGS HWY","id":"a6210qm8xav8","Loc_name":"Street_Address"},"type":"Feature","geometry":{"type":"Point","coordinates":[-73.2438322368321,41.1524479918099]}},{"properties":{"Match_addr":"5897 SKY POND DR, LOVELAND, CO, 80538","CITY":"LOVELAND","NO":10150.0,"ST":"CO","X":-104.988656449537,"Y":40.41143904698,"Score":82,"Street":"5897 SKY POND DR","id":"a6210qxpj9r8","Loc_name":"Street_Address"},"type":"Feature","geometry":{"type":"Point","coordinates":[-104.988658806722,40.4114426125479]}},{"properties":{"Match_addr":"1385 DENVER AVE, LOVELAND, CO, 80537","CITY":"LOVELAND","NO":13684.0,"ST":"CO","X":-105.044551670843,"Y":40.407138920814,"Score":70,"Street":"1385 N DENVER AVE","id":"a6210qlzkkoy","Loc_name":"Street_Address"},"type":"Feature","geometry":{"type":"Point","coordinates":[-105.044551670843,40.4071348600276]}},{"properties":{"Match_addr":"7610 USHY 70, BARTLETT, TN, 38133","CITY":"BARTLETT","NO":10792.0,"ST":"TN","X":-89.809636745859,"Y":35.229803857652,"Score":82,"Street":"7610 US HWY 70","id":"a6210qxsnxgr","Loc_name":"Street_Address"},"type":"Feature","geometry":{"type":"Point","coordinates":[-89.8096407928077,35.2298008898895]}},{"properties":{"Match_addr":"15 KEN PRATT BLVD, LONGMONT, CO, 80501","CITY":"LONGMONT","NO":10498.0,"ST":"CO","X":-105.072974743579,"Y":40.156277973175,"Score":82,"Street":"15 KEN PRATT BLVD","id":"a6210qmd28an","Loc_name":"Street_Address"},"type":"Feature","geometry":{"type":"Point","coordinates":[-105.072970246969,40.1562779731747]}},{"properties":{"Match_addr":"4630 MERCHANTS PARK CIR, COLLIERVILLE, TN, 38017","CITY":"COLLIERVILLE","NO":9442.0,"ST":"TN","X":-89.719764643354,"Y":35.020688851992,"Score":79,"Street":"4630 MERCHANT PARK CIR","id":"a6210r09b4g1","Loc_name":"Street_Address"},"type":"Feature","geometry":{"type":"Point","coordinates":[-89.7197625491995,35.0206905316367]}},{"properties":{"Match_addr":"1625 HWY 51 S, COVINGTON, TN, 38019","CITY":"COVINGTON","NO":11769.0,"ST":"TN","X":-89.663562214157,"Y":35.544194695826,"Score":82,"Street":"1625 HWY 51 S","id":"a6210r147sa0","Loc_name":"Street_Address"},"type":"Feature","geometry":{"type":"Point","coordinates":[-89.6635639155885,35.5441948781125]}},{"properties":{"Match_addr":"1509 WADSWORTH BLVD, LAKEWOOD, CO, 80214","CITY":"LAKEWOOD","NO":10497.0,"ST":"CO","X":-105.081335861618,"Y":39.74055068756,"Score":82,"Street":"1509 WADSWORTH BLVD","id":"a6210qsul2ij","Loc_name":"Street_Address"},"type":"Feature","geometry":{"type":"Point","coordinates":[-105.081333941841,39.7405483786902]}},{"properties":{"Match_addr":"112 E BALTIMORE ST, JACKSON, TN, 38301","CITY":"JACKSON","NO":11819.0,"ST":"TN","X":-88.81864968513,"Y":35.613454026317,"Score":82,"Street":"112 E BALTIMORE ST","id":"a6210qu96f0l","Loc_name":"Street_Address"},"type":"Feature","geometry":{"type":"Point","coordinates":[-88.8186508690612,35.6134516675889]}},{"properties":{"Match_addr":"7228 REGION LN, KNOXVILLE, TN, 37914","CITY":"KNOXVILLE","NO":11942.0,"ST":"TN","X":-83.775551143932,"Y":36.000965303201,"Score":82,"Street":"7228 REGION LANE","id":"a6210qy8turw","Loc_name":"Street_Address"},"type":"Feature","geometry":{"type":"Point","coordinates":[-83.7755497050164,36.0009695300143]}},{"properties":{"Match_addr":"3586 RIVERDALE RD, MEMPHIS, TN, 38115","CITY":"MEMPHIS","NO":11886.0,"ST":"TN","X":-89.829842551335,"Y":35.049633214655,"Score":82,"Street":"3586 RIVERDALE RD","id":"a6210qvwlsw6","Loc_name":"Street_Address"},"type":"Feature","geometry":{"type":"Point","coordinates":[-89.8298395655858,35.0496307145396]}},{"properties":{"Match_addr":"3530 S MOONEY BLVD, VISALIA, CA, 93277","CITY":"VISALIA","NO":5532.0,"ST":"CA","X":-119.313638828573,"Y":36.299134790795,"Score":82,"Street":"3530 S MOONEY BLVD","id":"a6210qnk6ei5","Loc_name":"Street_Address"},"type":"Feature","geometry":{"type":"Point","coordinates":[-119.313635655511,36.2991307556084]}},{"properties":{"Match_addr":"14689 LA PAZ DR, VICTORVILLE, CA, 92395","CITY":"VICTORVILLE","NO":11029.0,"ST":"CA","X":-117.312813048639,"Y":34.516532162151,"Score":82,"Street":"14689 LA PAZ DR","id":"a6210r0m0le7","Loc_name":"Street_Address"},"type":"Feature","geometry":{"type":"Point","coordinates":[-117.312815011504,34.5165306020111]}},{"properties":{"Match_addr":"17080 BEAR VALLEY RD, VICTORVILLE, CA, 92395","CITY":"VICTORVILLE","NO":6524.0,"ST":"CA","X":-117.290902157342,"Y":34.471006465938,"Score":82,"Street":"17080 BEAR VALLEY RD","id":"a6210qq90efj","Loc_name":"Street_Address"},"type":"Feature","geometry":{"type":"Point","coordinates":[-117.29089853365,34.471006920888]}},{"properties":{"Match_addr":"1720 OLD FORT PKWY, MURFREESBORO, TN, 37129","CITY":"MURFREESBORO","NO":14053.0,"ST":"TN","X":-86.422483314698,"Y":35.846222674534,"Score":82,"Street":"1720 OLD FORT PKWY","id":"a6210qyv9u8t","Loc_name":"Street_Address"},"type":"Feature","geometry":{"type":"Point","coordinates":[-86.4224792677537,35.8462231884326]}},{"properties":{"Match_addr":"7275 HWY 64, OAKLAND, TN, 38060","CITY":"OAKLAND","NO":11980.0,"ST":"TN","X":-89.516465948148,"Y":35.228874588199,"Score":82,"Street":"7275 HWY 64","id":"a6210quoy00e","Loc_name":"Street_Address"},"type":"Feature","geometry":{"type":"Point","coordinates":[-89.5164618112559,35.2288745881993]}},{"properties":{"Match_addr":"5435 S COOPER ST, ARLINGTON, TX, 76017","CITY":"ARLINGTON","NO":6299.0,"ST":"TX","X":-97.134502536546,"Y":32.658729766078,"Score":69,"Street":"5435 S COOPER","id":"a6210qnledkm","Loc_name":"Street_Address"},"type":"Feature","geometry":{"type":"Point","coordinates":[-97.1345018095924,32.6587291403238]}},{"properties":{"Match_addr":"386 S MOUNTAIN AVE, UPLAND, CA, 91786","CITY":"UPLAND","NO":673.0,"ST":"CA","X":-117.670035782707,"Y":34.089059402904,"Score":82,"Street":"386 S MOUNTAIN AVE","id":"a6210qv1lsui","Loc_name":"Street_Address"},"type":"Feature","geometry":{"type":"Point","coordinates":[-117.670034714762,34.089055861824]}},{"properties":{"Match_addr":"775 N LAKE BLVD, TAHOE CITY, CA, 96145","CITY":"TAHOE CITY","NO":13335.0,"ST":"CA","X":-120.138177424311,"Y":39.17366183169,"Score":82,"Street":"775 N LAKE BLVD","id":"a6210qxr5vep","Loc_name":"Street_Address"},"type":"Feature","geometry":{"type":"Point","coordinates":[-120.138179058074,39.1736607375209]}},{"properties":{"Match_addr":"1201 W ARBROOK BLVD, ARLINGTON, TX, 76015","CITY":"ARLINGTON","NO":6236.0,"ST":"TX","X":-97.130027862361,"Y":32.683504832706,"Score":69,"Street":"1201 W ARBROOK","id":"a6210r1qt0pb","Loc_name":"Street_Address"},"type":"Feature","geometry":{"type":"Point","coordinates":[-97.1300321791068,32.683505462231]}},{"properties":{"Match_addr":"4184 TWEEDY BLVD, SOUTH GATE, CA, 90280","CITY":"SOUTHGATE","NO":2993.0,"ST":"CA","X":-118.198021157707,"Y":33.943381458884,"Score":80,"Street":"4184 TWEEDY BLVD","id":"a6210qwp7zxw","Loc_name":"Street_Address"},"type":"Feature","geometry":{"type":"Point","coordinates":[-118.198017684944,33.9433836795179]}},{"properties":{"Match_addr":"732 MONTANA AVE, SANTA MONICA, CA, 90403","CITY":"SANTA MONICA","NO":14024.0,"ST":"CA","X":-118.501239803753,"Y":34.027277011116,"Score":69,"Street":"732 MONTANA","id":"a6210qqpeydc","Loc_name":"Street_Address"},"type":"Feature","geometry":{"type":"Point","coordinates":[-118.501242093563,34.0272814316314]}},{"properties":{"Match_addr":"100 S EXPY 83, BROWNSVILLE, TX, 78520","CITY":"BROWNSVILLE","NO":9675.0,"ST":"TX","X":-97.491066380581,"Y":25.92205280339,"Score":70,"Street":"100 EXPRESSWAY 83","id":"a6210qw6la78","Loc_name":"Street_Address"},"type":"Feature","geometry":{"type":"Point","coordinates":[-97.4910650077693,25.9220517103622]}},{"properties":{"Match_addr":"300 W COMMERCE ST, BROWNWOOD, TX, 76801","CITY":"BROWNWOOD","NO":9300.0,"ST":"TX","X":-98.981354834963,"Y":31.728454605148,"Score":69,"Street":"300 W COMMERCE","id":"a6210qp0360b","Loc_name":"Street_Address"},"type":"Feature","geometry":{"type":"Point","coordinates":[-98.9813585221832,31.7284524467753]}},{"properties":{"Match_addr":"1640 E 1ST ST, SANTA ANA, CA, 92701","CITY":"SANTA ANA","NO":10946.0,"ST":"CA","X":-117.844968969808,"Y":33.745451894089,"Score":82,"Street":"1640 E 1ST ST","id":"a6210qxkq5z8","Loc_name":"Street_Address"},"type":"Feature","geometry":{"type":"Point","coordinates":[-117.844970835902,33.7454518940893]}},{"properties":{"Match_addr":"5631 LBJ FWY, DALLAS, TX, 75240","CITY":"DALLAS","NO":10759.0,"ST":"TX","X":-96.81160257321,"Y":32.926340666379,"Score":82,"Street":"5631 LBJ FWY","id":"a6210qn49bb9","Loc_name":"Street_Address"},"type":"Feature","geometry":{"type":"Point","coordinates":[-96.8116002349722,32.9263403965826]}},{"properties":{"Match_addr":"5500 GREENVILLE AVE, DALLAS, TX, 75206","CITY":"DALLAS","NO":6370.0,"ST":"TX","X":-96.769374097934,"Y":32.853103567533,"Score":82,"Street":"5500 GREENVILLE AVE","id":"a6210qwbhfxo","Loc_name":"Street_Address"},"type":"Feature","geometry":{"type":"Point","coordinates":[-96.7693770656966,32.8530996105164]}},{"properties":{"Match_addr":"101 4TH ST, SAN FRANCISCO, CA, 94103","CITY":"SAN FRANCISCO","NO":5706.0,"ST":"CA","X":-122.404238456895,"Y":37.784472333132,"Score":82,"Street":"101 4TH ST","id":"a6210qxgx7dz","Loc_name":"Street_Address"},"type":"Feature","geometry":{"type":"Point","coordinates":[-122.404236748183,37.7844690056409]}},{"properties":{"Match_addr":"2990 EL CAJON BLVD, SAN DIEGO, CA, 92104","CITY":"SAN DIEGO","NO":9471.0,"ST":"CA","X":-117.130281957442,"Y":32.755406258473,"Score":82,"Street":"2990 EL CAJON BLVD","id":"a6210qy29v9r","Loc_name":"Street_Address"},"type":"Feature","geometry":{"type":"Point","coordinates":[-117.130279619217,32.7554062584735]}},{"properties":{"Match_addr":"6511 UNIVERSITY AVE, SAN DIEGO, CA, 92115","CITY":"SAN DIEGO","NO":6818.0,"ST":"CA","X":-117.055968999665,"Y":32.755339888508,"Score":82,"Street":"6511 UNIVERSITY AVE","id":"a6210qoboro6","Loc_name":"Street_Address"},"type":"Feature","geometry":{"type":"Point","coordinates":[-117.055968639936,32.7553433059315]}},{"properties":{"Match_addr":"3582 NATIONAL AVE, SAN DIEGO, CA, 92113","CITY":"SAN DIEGO","NO":9583.0,"ST":"CA","X":-117.117155504501,"Y":32.696024768196,"Score":82,"Street":"3582 NATIONAL AVE","id":"a6210qmcw06h","Loc_name":"Street_Address"},"type":"Feature","geometry":{"type":"Point","coordinates":[-117.117158510809,32.6960240248789]}},{"properties":{"Match_addr":"8687 N CENTRAL EXPY, DALLAS, TX, 75231","CITY":"DALLAS","NO":10758.0,"ST":"TX","X":-96.770724014209,"Y":32.868708538516,"Score":82,"Street":"8687 N CENTRAL EXP","id":"a6210qpkofpv","Loc_name":"Street_Address"},"type":"Feature","geometry":{"type":"Point","coordinates":[-96.7707260487405,32.868711840945]}},{"properties":{"Match_addr":"101 MARKET ST, SAN DIEGO, CA, 92101","CITY":"SAN DIEGO","NO":6514.0,"ST":"CA","X":-117.163742852334,"Y":32.711402971173,"Score":82,"Street":"101 MARKET ST","id":"a6210qycsuns","Loc_name":"Street_Address"},"type":"Feature","geometry":{"type":"Point","coordinates":[-117.163743391927,32.7114024315799]}},{"properties":{"Match_addr":"7800 STOCKTON BLVD, SACRAMENTO, CA, 95823","CITY":"SACRAMENTO","NO":11955.0,"ST":"CA","X":-121.41893332756,"Y":38.474307727842,"Score":82,"Street":"7800 STOCKTON BLVD","id":"a6210qr5x31u","Loc_name":"Street_Address"},"type":"Feature","geometry":{"type":"Point","coordinates":[-121.418930539661,38.474311954656]}},{"properties":{"Match_addr":"760 E CYPRESS AVE, REDDING, CA, 96002","CITY":"REDDING","NO":9455.0,"ST":"CA","X":-122.358189058452,"Y":40.571081265969,"Score":70,"Street":"760 CYPRESS AVE","id":"a6210qz5h7gy","Loc_name":"Street_Address"},"type":"Feature","geometry":{"type":"Point","coordinates":[-122.358191460283,40.571081265969]}},{"properties":{"Match_addr":"1701 CALIFORNIA ST, REDDING, CA, 96001","CITY":"REDDING","NO":13936.0,"ST":"CA","X":-122.391300540385,"Y":40.582032040523,"Score":82,"Street":"1701 CALIFORNIA ST","id":"a6210qrfv1rv","Loc_name":"Street_Address"},"type":"Feature","geometry":{"type":"Point","coordinates":[-122.391304497402,40.5820350082859]}},{"properties":{"Match_addr":"12592 FOOTHILL BLVD, RANCHO CUCAMONGA, CA, 91739","CITY":"RANCHO CUCAMONGA","NO":2942.0,"ST":"CA","X":-117.534313071891,"Y":34.106403783769,"Score":82,"Street":"12592 FOOTHILL BLVD","id":"a6210qw3aoqm","Loc_name":"Street_Address"},"type":"Feature","geometry":{"type":"Point","coordinates":[-117.5343090341,34.1064037837692]}},{"properties":{"Match_addr":"13901 MIDWAY RD, FARMERS BRANCH, TX, 75244","CITY":"FARMERS BRANCH","NO":6282.0,"ST":"TX","X":-96.839011570425,"Y":32.938355069097,"Score":82,"Street":"13901 MIDWAY RD","id":"a6210qs3it03","Loc_name":"Street_Address"},"type":"Feature","geometry":{"type":"Point","coordinates":[-96.8390115704253,32.938355338894]}},{"properties":{"Match_addr":"2254 S EUCLID AVE, ONTARIO, CA, 91762","CITY":"ONTARIO","NO":10545.0,"ST":"CA","X":-117.651055739266,"Y":34.032808319841,"Score":82,"Street":"2254 S EUCLID AVE","id":"a6210qoyo6wb","Loc_name":"Street_Address"},"type":"Feature","geometry":{"type":"Point","coordinates":[-117.651059019944,34.0328122621115]}},{"properties":{"Match_addr":"562 W HOLT BLVD, ONTARIO, CA, 91762","CITY":"ONTARIO","NO":10141.0,"ST":"CA","X":-117.658015997673,"Y":34.063407197548,"Score":82,"Street":"562 W HOLT BLVD","id":"a6210qoiwwiz","Loc_name":"Street_Address"},"type":"Feature","geometry":{"type":"Point","coordinates":[-117.658019772451,34.0634071975483]}},{"properties":{"Match_addr":"2200 S GROVE AVE, ONTARIO, CA, 91761","CITY":"ONTARIO","NO":10712.0,"ST":"CA","X":-117.628476504195,"Y":34.033898013598,"Score":82,"Street":"2200 S GROVE AVE","id":"a6210qxnduy8","Loc_name":"Street_Address"},"type":"Feature","geometry":{"type":"Point","coordinates":[-117.628477043788,34.033900441767]}},{"properties":{"Match_addr":"12200 CIVIC CENTER DR, NORWALK, CA, 90650","CITY":"NORWALK","NO":5929.0,"ST":"CA","X":-118.072414187144,"Y":33.914181856645,"Score":82,"Street":"12200 CIVIC CENTER DR","id":"a6210qzigopo","Loc_name":"Street_Address"},"type":"Feature","geometry":{"type":"Point","coordinates":[-118.072418370332,33.9141826932266]}},{"properties":{"Match_addr":"141 N ATLANTIC BLVD, MONTEREY PARK, CA, 91754","CITY":"MONTEREY PARK","NO":5678.0,"ST":"CA","X":-118.134260804963,"Y":34.063104248561,"Score":82,"Street":"141 N ATLANTIC BLVD","id":"a6210qqcyakn","Loc_name":"Street_Address"},"type":"Feature","geometry":{"type":"Point","coordinates":[-118.134264746287,34.0631014280584]}},{"properties":{"Match_addr":"4467 MISSION BLVD, MONTCLAIR, CA, 91763","CITY":"MONTCLAIR","NO":10888.0,"ST":"CA","X":-117.707617301271,"Y":34.055872257412,"Score":65,"Street":"4467 E MISSON BLVD","id":"a6210qxz8mg5","Loc_name":"Street_Address"},"type":"Feature","geometry":{"type":"Point","coordinates":[-117.707617382367,34.0558708789428]}},{"properties":{"Match_addr":"27775 SANTA MARGARITA PKWY, MISSION VIEJO, CA, 92691","CITY":"MISSION VIEJO","NO":14017.0,"ST":"CA","X":-117.645895822859,"Y":33.652547337198,"Score":82,"Street":"27775 SANTA MARGARITA PKWY","id":"a6210qoywpl5","Loc_name":"Street_Address"},"type":"Feature","geometry":{"type":"Point","coordinates":[-117.645896911496,33.6525429352423]}},{"properties":{"Match_addr":"10611 BELLAIRE BLVD, HOUSTON, TX, 77072","CITY":"HOUSTON","NO":13479.0,"ST":"TX","X":-95.566838474365,"Y":29.703921612138,"Score":82,"Street":"10611 BELLAIRE BLVD","id":"a6210qyhj8bj","Loc_name":"Street_Address"},"type":"Feature","geometry":{"type":"Point","coordinates":[-95.5668396209978,29.703925674076]}},{"properties":{"Match_addr":"6400 FANNIN ST, HOUSTON, TX, 77030","CITY":"HOUSTON","NO":13672.0,"ST":"TX","X":-95.396574128818,"Y":29.715287348865,"Score":82,"Street":"6400 FANNIN ST","id":"a6210qy4w0nf","Loc_name":"Street_Address"},"type":"Feature","geometry":{"type":"Point","coordinates":[-95.3965709811905,29.7152841113061]}},{"properties":{"Match_addr":"14820 STAR ST, LODI, CA, 95242","CITY":"LODI","NO":10629.0,"ST":"CA","X":-121.392814312575,"Y":38.11435051477,"Score":82,"Street":"14820 STAR ST","id":"a6210r1kngfr","Loc_name":"Street_Address"},"type":"Feature","geometry":{"type":"Point","coordinates":[-121.392814227931,38.1143493192084]}},{"properties":{"Match_addr":"2901 E FLORENCE AVE, HUNTINGTON PARK, CA, 90255","CITY":"HUNTINGTON PARK","NO":13966.0,"ST":"CA","X":-118.217560582166,"Y":33.973426251364,"Score":70,"Street":"2901 FLORENCE AVE","id":"a6210qshfxqt","Loc_name":"Street_Address"},"type":"Feature","geometry":{"type":"Point","coordinates":[-118.21755995264,33.9734300285169]}},{"properties":{"Match_addr":"12503 TOMBALL PKWY, HOUSTON, TX, 77086","CITY":"HOUSTON","NO":9615.0,"ST":"TX","X":-95.480067699916,"Y":29.911310297592,"Score":82,"Street":"12503 TOMBALL PKWY","id":"a6210qx5481t","Loc_name":"Street_Address"},"type":"Feature","geometry":{"type":"Point","coordinates":[-95.4800640383907,29.9113093340326]}},{"properties":{"Match_addr":"1280 SAN JUAN RD, HOLLISTER, CA, 95023","CITY":"HOLLISTER","NO":11896.0,"ST":"CA","X":-121.41995964809,"Y":36.85307510327,"Score":82,"Street":"1280 SAN JUAN RD","id":"a6210qv2j9jx","Loc_name":"Street_Address"},"type":"Feature","geometry":{"type":"Point","coordinates":[-121.419955766775,36.8530771527761]}},{"properties":{"Match_addr":"831 5TH ST, GONZALES, CA, 93926","CITY":"GONZALES","NO":2995.0,"ST":"CA","X":-121.436802964201,"Y":36.513829968599,"Score":70,"Street":"831 E FIFTH ST","id":"a6210qnruvf9","Loc_name":"Street_Address"},"type":"Feature","geometry":{"type":"Point","coordinates":[-121.436800068384,36.5138259036632]}},{"properties":{"Match_addr":"20131 HWY 59 N, HUMBLE, TX, 77338","CITY":"HUMBLE","NO":11563.0,"ST":"TX","X":-95.267428914973,"Y":30.007389773461,"Score":69,"Street":"20131 HWY 59","id":"a6210qmbwy0s","Loc_name":"Street_Address"},"type":"Feature","geometry":{"type":"Point","coordinates":[-95.267428337783,30.007392899643]}},{"properties":{"Match_addr":"1401 E GENERAL CAVAZOS BLVD, KINGSVILLE, TX, 78363","CITY":"KINGSVILLE","NO":11072.0,"ST":"TX","X":-97.851522723988,"Y":27.49139463416,"Score":69,"Street":"1401 E GENERAL CAVAZOS","id":"a6210qn7nnww","Loc_name":"Street_Address"},"type":"Feature","geometry":{"type":"Point","coordinates":[-97.851522270333,27.4913956311515]}},{"properties":{"Match_addr":"2201 CHESTNUT ST, LAREDO, TX, 78046","CITY":"LAREDO","NO":11565.0,"ST":"TX","X":-99.472822173135,"Y":27.479502140009,"Score":69,"Street":"2201 CHESTNUT","id":"a6210qqm3c6s","Loc_name":"Street_Address"},"type":"Feature","geometry":{"type":"Point","coordinates":[-99.472820024755,27.4795065939242]}},{"properties":{"Match_addr":"7010 N MARKS AVE, FRESNO, CA, 93711","CITY":"FRESNO","NO":5575.0,"ST":"CA","X":-119.847401266341,"Y":36.8380554114,"Score":69,"Street":"7010 N MARKS","id":"a6210qnlkmbj","Loc_name":"Street_Address"},"type":"Feature","geometry":{"type":"Point","coordinates":[-119.847401266341,36.8380584748867]}},{"properties":{"Match_addr":"1102 VISALIA RD, EXETER, CA, 93221","CITY":"EXETER","NO":9257.0,"ST":"CA","X":-119.157115311294,"Y":36.297377077651,"Score":82,"Street":"1102 VISALIA RD","id":"a6210qty3ko7","Loc_name":"Street_Address"},"type":"Feature","geometry":{"type":"Point","coordinates":[-119.157117649531,36.2973770776513]}},{"properties":{"Match_addr":"3855 NE LOOP 286, PARIS, TX, 75460","CITY":"PARIS","NO":13395.0,"ST":"TX","X":-95.510549829858,"Y":33.664926700759,"Score":82,"Street":"3855 NE LOOP 286","id":"a6210qopvegx","Loc_name":"Street_Address"},"type":"Feature","geometry":{"type":"Point","coordinates":[-95.510551055184,33.6649265995858]}},{"properties":{"Match_addr":"4125 SAN PABLO AVE, EMERYVILLE, CA, 94608","CITY":"EMERYVILLE","NO":13487.0,"ST":"CA","X":-122.280429877758,"Y":37.832385632796,"Score":69,"Street":"4125 SAN PABLO","id":"a6210qrtdx9w","Loc_name":"Street_Address"},"type":"Feature","geometry":{"type":"Point","coordinates":[-122.280427084409,37.832384883362]}},{"properties":{"Match_addr":"115 N MCKINLEY ST, CORONA, CA, 92879","CITY":"CORONA","NO":6900.0,"ST":"CA","X":-117.51501524908,"Y":33.882976488606,"Score":82,"Street":"115 N MCKINLEY ST","id":"a6210qw9quyp","Loc_name":"Street_Address"},"type":"Feature","geometry":{"type":"Point","coordinates":[-117.515018576572,33.8829762188099]}},{"properties":{"Match_addr":"1881 N CENTRAL EXPY, PLANO, TX, 75075","CITY":"PLANO","NO":13838.0,"ST":"TX","X":-96.710286266943,"Y":33.02550155119,"Score":70,"Street":"1881 CENTRAL EXWY","id":"a6210qsj3u95","Loc_name":"Street_Address"},"type":"Feature","geometry":{"type":"Point","coordinates":[-96.7102826151513,33.0254996435332]}},{"properties":{"Match_addr":"68718 E PALM CANYON DR, CATHEDRAL CITY, CA, 92234","CITY":"CATHEDRAL","NO":9898.0,"ST":"CA","X":-116.463333169255,"Y":33.779585361939,"Score":61,"Street":"68718 E PALM CANYON RD","id":"a6210qw0dveh","Loc_name":"Street_Address"},"type":"Feature","geometry":{"type":"Point","coordinates":[-116.463333409068,33.7795811651013]}},{"properties":{"Match_addr":"7760 BRENTWOOD BLVD, BRENTWOOD, CA, 94513","CITY":"BRENTWOOD","NO":13216.0,"ST":"CA","X":-121.696128568753,"Y":37.943948450284,"Score":82,"Street":"7760 BRENTWOOD BLVD","id":"a6210qrmv84u","Loc_name":"Street_Address"},"type":"Feature","geometry":{"type":"Point","coordinates":[-121.696128568753,37.9439457810967]}},{"properties":{"Match_addr":"1205 HWY 35 N, ROCKPORT, TX, 78382","CITY":"ROCKPORT","NO":10528.0,"ST":"TX","X":-97.043050679285,"Y":28.035257618394,"Score":82,"Street":"1205 HWY 35 N","id":"a6210qzxl0lz","Loc_name":"Street_Address"},"type":"Feature","geometry":{"type":"Point","coordinates":[-97.0430497524329,28.0352606283707]}},{"properties":{"Match_addr":"703 E IMPERIAL HWY, BREA, CA, 92821","CITY":"BREA","NO":14001.0,"ST":"CA","X":-117.894275526641,"Y":33.914328853042,"Score":82,"Street":"703 E IMPERIAL HWY","id":"a6210qu0znk3","Loc_name":"Street_Address"},"type":"Feature","geometry":{"type":"Point","coordinates":[-117.894271669548,33.9143265847513]}},{"properties":{"Match_addr":"1600 SHATTUCK AVE, BERKELEY, CA, 94709","CITY":"BERKELEY","NO":5668.0,"ST":"CA","X":-122.269164335043,"Y":37.878384935364,"Score":82,"Street":"1600 SHATTUCK AVE","id":"a6210qzssait","Loc_name":"Street_Address"},"type":"Feature","geometry":{"type":"Point","coordinates":[-122.269167572602,37.8783852051607]}},{"properties":{"Match_addr":"2420 E KATELLA AVE, ANAHEIM, CA, 92806","CITY":"ANAHEIM","NO":10184.0,"ST":"CA","X":-117.883215854184,"Y":33.805632646293,"Score":82,"Street":"2420 E KATELLA AVE","id":"a6210qrlgxyc","Loc_name":"Street_Address"},"type":"Feature","geometry":{"type":"Point","coordinates":[-117.883219001808,33.80563452429]}},{"properties":{"Match_addr":"1310 E RIO GRANDE ST, VICTORIA, TX, 77901","CITY":"VICTORIA","NO":10924.0,"ST":"TX","X":-96.990809814484,"Y":28.80621538503,"Score":69,"Street":"1310 E RIO GRANDE","id":"a6210qmbq2p4","Loc_name":"Street_Address"},"type":"Feature","geometry":{"type":"Point","coordinates":[-96.9908081357509,28.8062134312084]}},{"properties":{"Match_addr":"4300 W WACO DR, WACO, TX, 76710","CITY":"WACO","NO":13332.0,"ST":"TX","X":-97.170788194424,"Y":31.528088265054,"Score":82,"Street":"4300 W WACO DR","id":"a6210qti5zbl","Loc_name":"Street_Address"},"type":"Feature","geometry":{"type":"Point","coordinates":[-97.1707894534746,31.5280924918675]}},{"properties":{"Match_addr":"2009 MAURINE ST, WICHITA FALLS, TX, 76306","CITY":"WICHITA FALLS","NO":14246.0,"ST":"TX","X":-98.519835449967,"Y":33.936310511758,"Score":82,"Street":"2009 MAURINE ST","id":"a6210r27dw9u","Loc_name":"Street_Address"},"type":"Feature","geometry":{"type":"Point","coordinates":[-98.5198354499667,33.9363150083677]}},{"properties":{"Match_addr":"3685 HARRISON BLVD, OGDEN, UT, 84403","CITY":"OGDEN","NO":11823.0,"ST":"UT","X":-111.948723396389,"Y":41.196138854619,"Score":70,"Street":"3685 S HARRISON BLVD","id":"a6210qqg9tou","Loc_name":"Street_Address"},"type":"Feature","geometry":{"type":"Point","coordinates":[-111.948727828761,41.1961370559933]}},{"properties":{"Match_addr":"2008 FAYETTEVILLE RD, VAN BUREN, AR, 72956","CITY":"VAN BUREN","NO":10883.0,"ST":"AR","X":-94.356373807248,"Y":35.467703078883,"Score":82,"Street":"2008 FAYETTEVILLE RD","id":"a6210qvuz5fn","Loc_name":"Street_Address"},"type":"Feature","geometry":{"type":"Point","coordinates":[-94.3563701560006,35.4677075395206]}},{"properties":{"Match_addr":"1642 S 2000 W, SYRACUSE, UT, 84075","CITY":"SYRACUSE","NO":11950.0,"ST":"UT","X":-112.064602054813,"Y":41.089996012338,"Score":82,"Street":"1642 S 2000 W","id":"a6210qywnrft","Loc_name":"Street_Address"},"type":"Feature","geometry":{"type":"Point","coordinates":[-112.064605472237,41.0899990700954]}},{"properties":{"Match_addr":"3351 PINNACLE HILLS PKWY, ROGERS, AR, 72758","CITY":"ROGERS","NO":10421.0,"ST":"AR","X":-94.187255174514,"Y":36.305240621848,"Score":82,"Street":"3351 PINNACLE HILLS PKWY","id":"a6210qr3orhc","Loc_name":"Street_Address"},"type":"Feature","geometry":{"type":"Point","coordinates":[-94.1872526483907,36.3052371521874]}},{"properties":{"Match_addr":"105 S DIXIELAND RD, LOWELL, AR, 72745","CITY":"LOWELL","NO":11864.0,"ST":"AR","X":-94.145715652958,"Y":36.254207826654,"Score":69,"Street":"105 S DIXIELAND","id":"a6210r04ze7b","Loc_name":"Street_Address"},"type":"Feature","geometry":{"type":"Point","coordinates":[-94.1457129638574,36.2542096202449]}},{"properties":{"Match_addr":"1301 E MAIN ST, BLYTHEVILLE, AR, 72315","CITY":"BLYTHEVILLE","NO":13731.0,"ST":"AR","X":-89.890390097187,"Y":35.9273301307,"Score":70,"Street":"1301 MAIN ST","id":"a6210qxo3t6z","Loc_name":"Street_Address"},"type":"Feature","geometry":{"type":"Point","coordinates":[-89.8903909178185,35.9273330422552]}},{"properties":{"Match_addr":"2531 ROCKY RIDGE RD, VESTAVIA HILLS, AL, 35243","CITY":"VESTAVIA HILLS","NO":10335.0,"ST":"AL","X":-86.772828150708,"Y":33.425895797418,"Score":82,"Street":"2531 ROCKY RIDGE RD","id":"a6210qpw257y","Loc_name":"Street_Address"},"type":"Feature","geometry":{"type":"Point","coordinates":[-86.7728281507081,33.4258957974181]}},{"properties":{"Match_addr":"6601 OLD SHELL RD, MOBILE, AL, 36608","CITY":"MOBILE","NO":11774.0,"ST":"AL","X":-88.195390295127,"Y":30.690571547479,"Score":78,"Street":"6601 OLDSHELL RD","id":"a6210qwg9ogb","Loc_name":"Street_Address"},"type":"Feature","geometry":{"type":"Point","coordinates":[-88.1953937230954,30.690571872421]}},{"properties":{"Match_addr":"1213 E WISHKAH ST, ABERDEEN, WA, 98520","CITY":"ABERDEEN","NO":3327.0,"ST":"WA","X":-123.803085236501,"Y":46.977385602945,"Score":82,"Street":"1213 E WISHKAH ST","id":"a6210qr1ujof","Loc_name":"Street_Address"},"type":"Feature","geometry":{"type":"Point","coordinates":[-123.803087198658,46.9773837552469]}},{"properties":{"Match_addr":"1030 S BURLINGTON BLVD, BURLINGTON, WA, 98233","CITY":"BURLINGTON","NO":3280.0,"ST":"WA","X":-122.335894829831,"Y":48.465736334525,"Score":82,"Street":"1030 S BURLINGTON BLVD","id":"a6210r12lrq3","Loc_name":"Street_Address"},"type":"Feature","geometry":{"type":"Point","coordinates":[-122.335897267176,48.4657347340776]}},{"properties":{"Match_addr":"31515 20TH AVE S, FEDERAL WAY, WA, 98003","CITY":"FEDERAL WAY","NO":338.0,"ST":"WA","X":-122.308104393236,"Y":47.319323913352,"Score":82,"Street":"31515 20TH AVE S","id":"a6210qsanja2","Loc_name":"Street_Address"},"type":"Feature","geometry":{"type":"Point","coordinates":[-122.308108216471,47.3193239772274]}},{"properties":{"Match_addr":"26015 104TH AVE SE, KENT, WA, 98030","CITY":"KENT","NO":3317.0,"ST":"WA","X":-122.202344563592,"Y":47.368780608635,"Score":69,"Street":"26015 104TH AVE SW","id":"a6210qolcbde","Loc_name":"Street_Address"},"type":"Feature","geometry":{"type":"Point","coordinates":[-122.202347945825,47.3687776956186]}},{"properties":{"Match_addr":"211 WASHINGTON AVE N, ORTING, WA, 98360","CITY":"ORTING","NO":10532.0,"ST":"WA","X":-122.206188438148,"Y":47.098939046276,"Score":69,"Street":"211 WASHINGTON AVE","id":"a6210qug8gpc","Loc_name":"Street_Address"},"type":"Feature","geometry":{"type":"Point","coordinates":[-122.20618805089,47.0989361207271]}},{"properties":{"Match_addr":"108 DEL GUZZI DR, PORT ANGELES, WA, 98362","CITY":"PORT ANGLES","NO":13676.0,"ST":"WA","X":-123.397805467906,"Y":48.10591289672,"Score":78,"Street":"108 DEL GUZZI DR","id":"a6210qtcdk0b","Loc_name":"Street_Address"},"type":"Feature","geometry":{"type":"Point","coordinates":[-123.397807726153,48.1059159901546]}},{"properties":{"Match_addr":"328 15TH AVE E, SEATTLE, WA, 98112","CITY":"SEATTLE","NO":3207.0,"ST":"WA","X":-122.312712475465,"Y":47.621420516102,"Score":82,"Street":"328 15TH AVE E","id":"a6210qmjr6yd","Loc_name":"Street_Address"},"type":"Feature","geometry":{"type":"Point","coordinates":[-122.312712745261,47.6214242333098]}},{"properties":{"Match_addr":"2201 E MADISON ST, SEATTLE, WA, 98122","CITY":"SEATTLE","NO":8739.0,"ST":"WA","X":-122.303660889172,"Y":47.618354937156,"Score":69,"Street":"2201 E MADISON AVE","id":"a6210quzl8p9","Loc_name":"Street_Address"},"type":"Feature","geometry":{"type":"Point","coordinates":[-122.303656572426,47.61835754519]}},{"properties":{"Match_addr":"1218 N 45TH ST, SEATTLE, WA, 98103","CITY":"SEATTLE","NO":13508.0,"ST":"WA","X":-122.342916187832,"Y":47.661406975573,"Score":82,"Street":"1218 N 45TH ST","id":"a6210qq0o5ms","Loc_name":"Street_Address"},"type":"Feature","geometry":{"type":"Point","coordinates":[-122.342911979005,47.6614080907325]}},{"properties":{"Match_addr":"1220 HOWELL ST, SEATTLE, WA, 98101","CITY":"SEATTLE","NO":3308.0,"ST":"WA","X":-122.330407319876,"Y":47.617017591339,"Score":82,"Street":"1220 HOWELL ST","id":"a6210qvejioi","Loc_name":"Street_Address"},"type":"Feature","geometry":{"type":"Point","coordinates":[-122.330411402798,47.6170175553663]}},{"properties":{"Match_addr":"620 DENNY WAY, SEATTLE, WA, 98109","CITY":"SEATTLE","NO":3241.0,"ST":"WA","X":-122.344743088589,"Y":47.618579992494,"Score":82,"Street":"620 DENNY WAY","id":"a6210r0w3glw","Loc_name":"Street_Address"},"type":"Feature","geometry":{"type":"Point","coordinates":[-122.344746595945,47.6185823756973]}},{"properties":{"Match_addr":"4704 42ND AVE SW, SEATTLE, WA, 98116","CITY":"SEATTLE","NO":14350.0,"ST":"WA","X":-122.385471586487,"Y":47.56094960793,"Score":82,"Street":"4704 42ND AVE SW","id":"a6210qp3kyz5","Loc_name":"Street_Address"},"type":"Feature","geometry":{"type":"Point","coordinates":[-122.385467897431,47.5609538200597]}},{"properties":{"Match_addr":"301 NE NORTHGATE WAY, SEATTLE, WA, 98125","CITY":"SEATTLE","NO":13777.0,"ST":"WA","X":-122.325949776278,"Y":47.70858652439,"Score":82,"Street":"301 NE NORTHGATE WAY","id":"a6210qsljaqn","Loc_name":"Street_Address"},"type":"Feature","geometry":{"type":"Point","coordinates":[-122.325950765532,47.7085865243896]}},{"properties":{"Match_addr":"3907 N MARKET ST, SPOKANE, WA, 99207","CITY":"SPOKANE","NO":10477.0,"ST":"WA","X":-117.365047158983,"Y":47.693499636235,"Score":82,"Street":"3907 N MARKET ST","id":"a6210quu2n9u","Loc_name":"Street_Address"},"type":"Feature","geometry":{"type":"Point","coordinates":[-117.365047634966,47.693495900738]}},{"properties":{"Match_addr":"1498 PACIFIC AVE, TACOMA, WA, 98402","CITY":"TACOMA","NO":9321.0,"ST":"WA","X":-122.437575186269,"Y":47.248751777589,"Score":82,"Street":"1498 PACIFIC AVE","id":"a6210qqnltbk","Loc_name":"Street_Address"},"type":"Feature","geometry":{"type":"Point","coordinates":[-122.437574615809,47.2487541775882]}},{"properties":{"Match_addr":"6601 AIRPORT BLVD, MOBILE, AL, 36608","CITY":"MOBILE","NO":11429.0,"ST":"AL","X":-88.195180793595,"Y":30.680231857425,"Score":69,"Street":"6601 AIRPORT RD","id":"a6210qxvg798","Loc_name":"Street_Address"},"type":"Feature","geometry":{"type":"Point","coordinates":[-88.1951778858083,30.680229669084]}},{"properties":{"Match_addr":"4401 OLD SHELL RD, MOBILE, AL, 36608","CITY":"MOBILE","NO":11322.0,"ST":"AL","X":-88.143128418579,"Y":30.697398939871,"Score":82,"Street":"4401 OLD SHELL RD","id":"a6210qsx5884","Loc_name":"Street_Address"},"type":"Feature","geometry":{"type":"Point","coordinates":[-88.1431251267525,30.6973977266234]}},{"properties":{"Match_addr":"5901 UNIVERSITY DR NW, HUNTSVILLE, AL, 35806","CITY":"HUNTSVILLE","NO":11427.0,"ST":"AL","X":-86.663879783469,"Y":34.74024595002,"Score":69,"Street":"5901 UNIVERSITY DR","id":"a6210qxh1mp9","Loc_name":"Street_Address"},"type":"Feature","geometry":{"type":"Point","coordinates":[-86.6638752868583,34.7402459500198]}},{"properties":{"Match_addr":"2203 S 1ST ST, YAKIMA, WA, 98903","CITY":"YAKIMA","NO":359.0,"ST":"WA","X":-120.48745025826,"Y":46.570387642464,"Score":69,"Street":"2203 S 1ST","id":"a6210qoswp4b","Loc_name":"Street_Address"},"type":"Feature","geometry":{"type":"Point","coordinates":[-120.487448754594,46.5703865776669]}},{"properties":{"Match_addr":"4301 W WISCONSIN AVE, APPLETON, WI, 54913","CITY":"APPLETON","NO":13844.0,"ST":"WI","X":-88.470980398375,"Y":44.272993822939,"Score":82,"Street":"4301 W WISCONSIN AVE","id":"a6210qt7yuns","Loc_name":"Street_Address"},"type":"Feature","geometry":{"type":"Point","coordinates":[-88.4709819657541,44.2729965080578]}},{"properties":{"Match_addr":"4800 GOLF RD, EAU CLAIRE, WI, 54701","CITY":"EAU CLAIRE","NO":10179.0,"ST":"WI","X":-91.436625921758,"Y":44.776482293495,"Score":82,"Street":"4800 GOLF RD","id":"a6210qtsuvg3","Loc_name":"Street_Address"},"type":"Feature","geometry":{"type":"Point","coordinates":[-91.4366222624549,44.7764819461614]}},{"properties":{"Match_addr":"1830 29TH AVE S, HOMEWOOD, AL, 35209","CITY":"HOMEWOOD","NO":13360.0,"ST":"AL","X":-86.790379502079,"Y":33.479594841755,"Score":82,"Street":"1830 29TH AVE S","id":"a6210r0kusog","Loc_name":"Street_Address"},"type":"Feature","geometry":{"type":"Point","coordinates":[-86.79038291672,33.4795943157877]}},{"properties":{"Match_addr":"3800 GULF SHORES PKWY, GULF SHORES, AL, 36542","CITY":"GULF SHORES","NO":11983.0,"ST":"AL","X":-87.682945132032,"Y":30.308077502932,"Score":79,"Street":"3800 GULF SHORE PKWY","id":"a6210qzmat20","Loc_name":"Street_Address"},"type":"Feature","geometry":{"type":"Point","coordinates":[-87.6829420443597,30.3080812201395]}},{"properties":{"Match_addr":"1710 N CENTRAL AVE, MARSHFIELD, WI, 54449","CITY":"MARSHFIELD","NO":9808.0,"ST":"WI","X":-90.161538245636,"Y":44.683941513975,"Score":70,"Street":"1710 CENTRAL AVE","id":"a6210qzvevu6","Loc_name":"Street_Address"},"type":"Feature","geometry":{"type":"Point","coordinates":[-90.1615365096525,44.6839417093464]}},{"properties":{"Match_addr":"1951 8TH ST S, WISCONSIN RAPIDS, WI, 54494","CITY":"WISCONSIN RAPIDS","NO":11827.0,"ST":"WI","X":-89.817202071347,"Y":44.377235622995,"Score":69,"Street":"1951 8TH ST","id":"a6210qve49cs","Loc_name":"Street_Address"},"type":"Feature","geometry":{"type":"Point","coordinates":[-89.8172040910741,44.3772369244739]}},{"properties":{"Match_addr":"801 20TH ST S, BIRMINGHAM, AL, 35205","CITY":"BIRMINGHAM","NO":10482.0,"ST":"AL","X":-86.799018296778,"Y":33.504669932066,"Score":82,"Street":"801 20TH ST S","id":"a6210qzwjc5d","Loc_name":"Street_Address"},"type":"Feature","geometry":{"type":"Point","coordinates":[-86.7990164082013,33.5046674139645]}}],"is_temporal":false,"author":{"url":"http://www.starbucks.com/aboutus/pressdesc.asp?id=882","metadata":"http://www.starbucks.com/aboutus/USStoreClosureInfo.pdf","contact_name":"","contact_address":"","source":"Starbucks website","contact_phone":""},"source":"http://www.starbucks.com/aboutus/pressdesc.asp?id=882","pagination":{"sort":null,"start":0,"total":590,"limit":1000000},"state":"complete","tags":"coffee,shops,starbucks,stores","published":"2008-07-18T12:00:00Z","id":3090}