{"type":"FeatureCollection","data_type":"Dataset","url_type":null,"permissions":[{"permissions":{"download":true,"view":true},"group_id":"everyone"}],"classification":null,"title":"ca-bc","count":100,"stream_id":310581,"contributor":{"url":"http://geocommons.com/users/58997","name":"adam@rooof.com"},"data_attributes":null,"calculation_params":null,"icon_link":null,"link":"http://geocommons.com/overlays/310581.json","extent":[-148.667,-51.0,179.35,60.1594],"geometry_types":["point"],"unique_name":null,"name":"ca-bc","feature_count":100,"description":"","next_feature":null,"is_raster":false,"short_classification":"Y","stats":{},"features":[{"properties":{"city":"Vancouver","country":"Canada","geo_score":0.857,"id":"abe9kqhkmk53","province":"British Columbia","geo_precision":"zip"},"type":"Feature","geometry":{"type":"Point","coordinates":[-128.8333333,49.8333333]}},{"properties":{"city":"Victoria","country":"Canada","geo_score":0.714,"id":"abe9kq9bb413","province":"British Columbia","geo_precision":"zip"},"type":"Feature","geometry":{"type":"Point","coordinates":[-4.421239,36.718467]}},{"properties":{"city":"Abbotsford","country":"Canada","geo_score":0.714,"id":"abe9kq8eimsl","province":"British Columbia","geo_precision":"zip"},"type":"Feature","geometry":{"type":"Point","coordinates":[147.9,-41.65]}},{"properties":{"city":"Kelowna","country":"Canada","geo_score":0.857,"id":"abe9kqggvpxa","province":"British Columbia","geo_precision":"zip"},"type":"Feature","geometry":{"type":"Point","coordinates":[0.0,24.3555555333333]}},{"properties":{"city":"Nanaimo","country":"Canada","geo_score":0.714,"id":"abe9kqhc9cee","province":"British Columbia","geo_precision":"zip"},"type":"Feature","geometry":{"type":"Point","coordinates":[-40.6666667,-16.4333333]}},{"properties":{"city":"White Rock","country":"Canada","geo_score":0.714,"id":"abe9kq9hdsuh","province":"British Columbia","geo_precision":"zip"},"type":"Feature","geometry":{"type":"Point","coordinates":[32.14,-22.8566667]}},{"properties":{"city":"Kamloops","country":"Canada","geo_score":0.714,"id":"abe9kqe5a2yo","province":"British Columbia","geo_precision":"zip"},"type":"Feature","geometry":{"type":"Point","coordinates":[-119.035646397,49.249770413]}},{"properties":{"city":"Chilliwack","country":"Canada","geo_score":0.714,"id":"abe9kqe76ja8","province":"British Columbia","geo_precision":"zip"},"type":"Feature","geometry":{"type":"Point","coordinates":[67.64,33.72]}},{"properties":{"city":"Prince George","country":"Canada","geo_score":0.714,"id":"abe9kq83ehme","province":"British Columbia","geo_precision":"zip"},"type":"Feature","geometry":{"type":"Point","coordinates":[28.0333333,43.25]}},{"properties":{"city":"Vernon","country":"Canada","geo_score":0.714,"id":"abe9kqecm2z7","province":"British Columbia","geo_precision":"zip"},"type":"Feature","geometry":{"type":"Point","coordinates":[20.6833333,38.8333333]}},{"properties":{"city":"Courtenay","country":"Canada","geo_score":0.714,"id":"abe9kql8tkxt","province":"British Columbia","geo_precision":"zip"},"type":"Feature","geometry":{"type":"Point","coordinates":[13.3333333,48.25]}},{"properties":{"city":"Penticton","country":"Canada","geo_score":0.714,"id":"abe9kqkty2ub","province":"British Columbia","geo_precision":"zip"},"type":"Feature","geometry":{"type":"Point","coordinates":[-39.6666667,-12.7166667]}},{"properties":{"city":"Campbell River","country":"Canada","geo_score":0.857,"id":"abe9kqnkcvbl","province":"British Columbia","geo_precision":"zip"},"type":"Feature","geometry":{"type":"Point","coordinates":[177.9166667,-51.0]}},{"properties":{"city":"Walnut Grove","country":"Canada","geo_score":0.714,"id":"abe9kqazktv5","province":"British Columbia","geo_precision":"zip"},"type":"Feature","geometry":{"type":"Point","coordinates":[-45.9333333,-1.3666667]}},{"properties":{"city":"Duncan","country":"Canada","geo_score":0.714,"id":"abe9kqfdxnha","province":"British Columbia","geo_precision":"zip"},"type":"Feature","geometry":{"type":"Point","coordinates":[-1.4841667,12.0616667]}},{"properties":{"city":"Parksville","country":"Canada","geo_score":0.714,"id":"abe9kq8j8jc0","province":"British Columbia","geo_precision":"zip"},"type":"Feature","geometry":{"type":"Point","coordinates":[-124.319450891,49.332925594]}},{"properties":{"city":"Port Alberni","country":"Canada","geo_score":0.857,"id":"abe9kqk5cbdk","province":"British Columbia","geo_precision":"zip"},"type":"Feature","geometry":{"type":"Point","coordinates":[-3.0,35.666667]}},{"properties":{"city":"Cranbrook","country":"Canada","geo_score":0.714,"id":"abe9kqiixz9j","province":"British Columbia","geo_precision":"zip"},"type":"Feature","geometry":{"type":"Point","coordinates":[-127.153200507,59.666310404]}},{"properties":{"city":"Fort St. John","country":"Canada","geo_score":0.714,"id":"abe9kqlnndu5","province":"British Columbia","geo_precision":"zip"},"type":"Feature","geometry":{"type":"Point","coordinates":[118.218537,27.002969]}},{"properties":{"city":"Terrace","country":"Canada","geo_score":0.714,"id":"abe9kqdrlsb7","province":"British Columbia","geo_precision":"zip"},"type":"Feature","geometry":{"type":"Point","coordinates":[3.25,47.75]}},{"properties":{"city":"Squamish","country":"Canada","geo_score":0.714,"id":"abe9kqdpvwx9","province":"British Columbia","geo_precision":"zip"},"type":"Feature","geometry":{"type":"Point","coordinates":[140.0833333,37.8333333]}},{"properties":{"city":"Quesnel","country":"Canada","geo_score":0.714,"id":"abe9kqje4hqg","province":"British Columbia","geo_precision":"zip"},"type":"Feature","geometry":{"type":"Point","coordinates":[46.6405556,52.2780556]}},{"properties":{"city":"Powell River","country":"Canada","geo_score":0.714,"id":"abe9kqod7vlm","province":"British Columbia","geo_precision":"zip"},"type":"Feature","geometry":{"type":"Point","coordinates":[123.2833333,13.5166667]}},{"properties":{"city":"Aldergrove","country":"Canada","geo_score":0.714,"id":"abe9kqh9iite","province":"British Columbia","geo_precision":"zip"},"type":"Feature","geometry":{"type":"Point","coordinates":[-90.9098238,33.1937322]}},{"properties":{"city":"Williams Lake","country":"Canada","geo_score":0.714,"id":"abe9kqeyxu5q","province":"British Columbia","geo_precision":"zip"},"type":"Feature","geometry":{"type":"Point","coordinates":[-72.65,22.3166667]}},{"properties":{"city":"Prince Rupert","country":"Canada","geo_score":0.714,"id":"abe9kqatuc6e","province":"British Columbia","geo_precision":"zip"},"type":"Feature","geometry":{"type":"Point","coordinates":[17.1461111,43.5269444]}},{"properties":{"city":"Salmon Arm","country":"Canada","geo_score":0.714,"id":"abe9kq8ym8y9","province":"British Columbia","geo_precision":"zip"},"type":"Feature","geometry":{"type":"Point","coordinates":[-99.0666667,21.55]}},{"properties":{"city":"Dawson Creek","country":"Canada","geo_score":0.714,"id":"abe9kqmqji9o","province":"British Columbia","geo_precision":"zip"},"type":"Feature","geometry":{"type":"Point","coordinates":[30.465,-3.2447222]}},{"properties":{"city":"Nelson","country":"Canada","geo_score":0.714,"id":"abe9kqn1scp7","province":"British Columbia","geo_precision":"zip"},"type":"Feature","geometry":{"type":"Point","coordinates":[-79.832929904,43.383408316]}},{"properties":{"city":"Trail","country":"Canada","geo_score":0.714,"id":"abe9kqn7yw72","province":"British Columbia","geo_precision":"zip"},"type":"Feature","geometry":{"type":"Point","coordinates":[-14.6333333,14.4166667]}},{"properties":{"city":"Castlegar","country":"Canada","geo_score":0.714,"id":"abe9kqjf5a27","province":"British Columbia","geo_precision":"zip"},"type":"Feature","geometry":{"type":"Point","coordinates":[14.2117542781285,49.4998845670696]}},{"properties":{"city":"Ladysmith","country":"Canada","geo_score":0.714,"id":"abe9kqjeyybb","province":"British Columbia","geo_precision":"zip"},"type":"Feature","geometry":{"type":"Point","coordinates":[-2.2097222,49.7172222]}},{"properties":{"city":"Gibsons","country":"Canada","geo_score":0.857,"id":"abe9kqfp75qt","province":"British Columbia","geo_precision":"zip"},"type":"Feature","geometry":{"type":"Point","coordinates":[-148.6666667,52.0]}},{"properties":{"city":"Whistler","country":"Canada","geo_score":0.714,"id":"abe9kqo5by3i","province":"British Columbia","geo_precision":"zip"},"type":"Feature","geometry":{"type":"Point","coordinates":[-126.270334235,56.385873994]}},{"properties":{"city":"Sechelt","country":"Canada","geo_score":0.714,"id":"abe9kqa3a5tg","province":"British Columbia","geo_precision":"zip"},"type":"Feature","geometry":{"type":"Point","coordinates":[6.48333,50.0667]}},{"properties":{"city":"Merritt","country":"Canada","geo_score":0.714,"id":"abe9kqkooayr","province":"British Columbia","geo_precision":"zip"},"type":"Feature","geometry":{"type":"Point","coordinates":[-68.1666667,-11.65]}},{"properties":{"city":"Sooke","country":"Canada","geo_score":0.714,"id":"abe9kqloegv1","province":"British Columbia","geo_precision":"zip"},"type":"Feature","geometry":{"type":"Point","coordinates":[16.8333333,47.2166667]}},{"properties":{"city":"Kitimat","country":"Canada","geo_score":0.714,"id":"abe9kqljpgk1","province":"British Columbia","geo_precision":"zip"},"type":"Feature","geometry":{"type":"Point","coordinates":[139.556645,36.027694]}},{"properties":{"city":"Revelstoke","country":"Canada","geo_score":0.714,"id":"abe9kqlfhcox","province":"British Columbia","geo_precision":"zip"},"type":"Feature","geometry":{"type":"Point","coordinates":[168.560087675,-46.328411757]}},{"properties":{"city":"Kimberley","country":"Canada","geo_score":0.714,"id":"abe9kq8z2dnz","province":"British Columbia","geo_precision":"zip"},"type":"Feature","geometry":{"type":"Point","coordinates":[-116.8056488,40.413805]}},{"properties":{"city":"Summerland","country":"Canada","geo_score":0.714,"id":"abe9kqliv4j0","province":"British Columbia","geo_precision":"zip"},"type":"Feature","geometry":{"type":"Point","coordinates":[-119.669109538,49.599768944]}},{"properties":{"city":"Duck Lake","country":"Canada","geo_score":0.714,"id":"abe9kqlhb6oc","province":"British Columbia","geo_precision":"zip"},"type":"Feature","geometry":{"type":"Point","coordinates":[-6.1436111,8.1122222]}},{"properties":{"city":"Smithers","country":"Canada","geo_score":0.714,"id":"abe9kqkqmexm","province":"British Columbia","geo_precision":"zip"},"type":"Feature","geometry":{"type":"Point","coordinates":[-129.070064186,52.766290098]}},{"properties":{"city":"Creston","country":"Canada","geo_score":0.857,"id":"abe9kqo3xrhd","province":"British Columbia","geo_precision":"zip"},"type":"Feature","geometry":{"type":"Point","coordinates":[8.36125016,46.597917]}},{"properties":{"city":"Oliver","country":"Canada","geo_score":0.714,"id":"abe9kqhra418","province":"British Columbia","geo_precision":"zip"},"type":"Feature","geometry":{"type":"Point","coordinates":[-60.2833333,-36.9]}},{"properties":{"city":"Osoyoos","country":"Canada","geo_score":0.714,"id":"abe9kqnvw4x6","province":"British Columbia","geo_precision":"zip"},"type":"Feature","geometry":{"type":"Point","coordinates":[-119.452372681,49.033060475]}},{"properties":{"city":"Armstrong","country":"Canada","geo_score":0.714,"id":"abe9kqe3d4zd","province":"British Columbia","geo_precision":"zip"},"type":"Feature","geometry":{"type":"Point","coordinates":[-83.8240696,36.0036954]}},{"properties":{"city":"Fernie","country":"Canada","geo_score":0.714,"id":"abe9kqkhuprj","province":"British Columbia","geo_precision":"zip"},"type":"Feature","geometry":{"type":"Point","coordinates":[3.4166667,49.4166667]}},{"properties":{"city":"Dallas","country":"Canada","geo_score":0.714,"id":"abe9kqj92v3q","province":"British Columbia","geo_precision":"zip"},"type":"Feature","geometry":{"type":"Point","coordinates":[-74.95,7.5166667]}},{"properties":{"city":"Grand Forks","country":"Canada","geo_score":0.714,"id":"abe9kqk0esrx","province":"British Columbia","geo_precision":"zip"},"type":"Feature","geometry":{"type":"Point","coordinates":[4.6106,43.6932]}},{"properties":{"city":"Hope","country":"Canada","geo_score":0.714,"id":"abe9kqkasz6q","province":"British Columbia","geo_precision":"zip"},"type":"Feature","geometry":{"type":"Point","coordinates":[119.25,26.75]}},{"properties":{"city":"Fort Nelson","country":"Canada","geo_score":0.714,"id":"abe9kqbdcmhs","province":"British Columbia","geo_precision":"zip"},"type":"Feature","geometry":{"type":"Point","coordinates":[-5.62,35.83]}},{"properties":{"city":"Golden","country":"Canada","geo_score":0.714,"id":"abe9kqicoi4a","province":"British Columbia","geo_precision":"zip"},"type":"Feature","geometry":{"type":"Point","coordinates":[-4.4833333,55.4333333]}},{"properties":{"city":"Fruitvale","country":"Canada","geo_score":0.714,"id":"abe9kqid9i6h","province":"British Columbia","geo_precision":"zip"},"type":"Feature","geometry":{"type":"Point","coordinates":[-74.1683333,5.6961111]}},{"properties":{"city":"Shawnigan","country":"Canada","geo_score":0.714,"id":"abe9kqlhcook","province":"British Columbia","geo_precision":"zip"},"type":"Feature","geometry":{"type":"Point","coordinates":[33.9372222,-22.6261111]}},{"properties":{"city":"Port Hardy","country":"Canada","geo_score":0.714,"id":"abe9kqgqjrou","province":"British Columbia","geo_precision":"zip"},"type":"Feature","geometry":{"type":"Point","coordinates":[22.2,49.8666667]}},{"properties":{"city":"Rossland","country":"Canada","geo_score":0.857,"id":"abe9kqfqqkhz","province":"British Columbia","geo_precision":"zip"},"type":"Feature","geometry":{"type":"Point","coordinates":[-80.85,16.3333333]}},{"properties":{"city":"Sparwood","country":"Canada","geo_score":0.714,"id":"abe9kq99ty4p","province":"British Columbia","geo_precision":"zip"},"type":"Feature","geometry":{"type":"Point","coordinates":[115.7833333,-32.1]}},{"properties":{"city":"Cumberland","country":"Canada","geo_score":0.714,"id":"abe9kqe9xk0b","province":"British Columbia","geo_precision":"zip"},"type":"Feature","geometry":{"type":"Point","coordinates":[-116.8056488,40.413805]}},{"properties":{"city":"Mackenzie","country":"Canada","geo_score":0.714,"id":"abe9kqgdu576","province":"British Columbia","geo_precision":"zip"},"type":"Feature","geometry":{"type":"Point","coordinates":[11.6,-2.2]}},{"properties":{"city":"Kent","country":"Canada","geo_score":0.714,"id":"abe9kq8cfgl2","province":"British Columbia","geo_precision":"zip"},"type":"Feature","geometry":{"type":"Point","coordinates":[80.2333333,8.7666667]}},{"properties":{"city":"Lake Cowichan","country":"Canada","geo_score":0.714,"id":"abe9kq9q33yj","province":"British Columbia","geo_precision":"zip"},"type":"Feature","geometry":{"type":"Point","coordinates":[-72.65,22.3166667]}},{"properties":{"city":"Chemainus","country":"Canada","geo_score":0.714,"id":"abe9kqjmbyew","province":"British Columbia","geo_precision":"zip"},"type":"Feature","geometry":{"type":"Point","coordinates":[34.4144444,-22.6727778]}},{"properties":{"city":"Invermere","country":"Canada","geo_score":0.714,"id":"abe9kq9tf0xb","province":"British Columbia","geo_precision":"zip"},"type":"Feature","geometry":{"type":"Point","coordinates":[-103.08427717,51.74998911]}},{"properties":{"city":"Enderby","country":"Canada","geo_score":0.857,"id":"abe9kqn0yvlh","province":"British Columbia","geo_precision":"zip"},"type":"Feature","geometry":{"type":"Point","coordinates":[149.1166667,7.3833333]}},{"properties":{"city":"Princeton","country":"Canada","geo_score":0.857,"id":"abe9kqblau2t","province":"British Columbia","geo_precision":"zip"},"type":"Feature","geometry":{"type":"Point","coordinates":[35.0,-46.0]}},{"properties":{"city":"Tumbler Ridge","country":"Canada","geo_score":0.857,"id":"abe9kqe3oum8","province":"British Columbia","geo_precision":"zip"},"type":"Feature","geometry":{"type":"Point","coordinates":[-91.3666667,27.4833333]}},{"properties":{"city":"Elkford","country":"Canada","geo_score":0.714,"id":"abe9kqlq8bsj","province":"British Columbia","geo_precision":"zip"},"type":"Feature","geometry":{"type":"Point","coordinates":[33.3333333,15.0]}},{"properties":{"city":"Port McNeill","country":"Canada","geo_score":0.857,"id":"abe9kqdzct6q","province":"British Columbia","geo_precision":"zip"},"type":"Feature","geometry":{"type":"Point","coordinates":[-8.5,36.9166667]}},{"properties":{"city":"Chase","country":"Canada","geo_score":0.714,"id":"abe9kqasa5hm","province":"British Columbia","geo_precision":"zip"},"type":"Feature","geometry":{"type":"Point","coordinates":[120.775,32.7969444]}},{"properties":{"city":"Sicamous","country":"Canada","geo_score":0.714,"id":"abe9kqak6lh3","province":"British Columbia","geo_precision":"zip"},"type":"Feature","geometry":{"type":"Point","coordinates":[14.625,-4.5591667]}},{"properties":{"city":"Burns Lake","country":"Canada","geo_score":0.714,"id":"abe9kqgfiwa6","province":"British Columbia","geo_precision":"zip"},"type":"Feature","geometry":{"type":"Point","coordinates":[-113.085170695,50.000019555]}},{"properties":{"city":"Pemberton","country":"Canada","geo_score":0.714,"id":"abe9kqj3crh6","province":"British Columbia","geo_precision":"zip"},"type":"Feature","geometry":{"type":"Point","coordinates":[-129.586691616,52.949568081]}},{"properties":{"city":"Fort St. James","country":"Canada","geo_score":0.714,"id":"abe9kqe828hv","province":"British Columbia","geo_precision":"zip"},"type":"Feature","geometry":{"type":"Point","coordinates":[118.218537,27.002969]}},{"properties":{"city":"Chetwynd","country":"Canada","geo_score":0.714,"id":"abe9kq9cii9v","province":"British Columbia","geo_precision":"zip"},"type":"Feature","geometry":{"type":"Point","coordinates":[14.3,-11.6333333]}},{"properties":{"city":"Houston","country":"Canada","geo_score":0.714,"id":"abe9kqlsemm3","province":"British Columbia","geo_precision":"zip"},"type":"Feature","geometry":{"type":"Point","coordinates":[-126.670081692,54.399761785]}},{"properties":{"city":"Aldergrove East","country":"Canada","geo_score":0.714,"id":"abe9kqmemmu0","province":"British Columbia","geo_precision":"zip"},"type":"Feature","geometry":{"type":"Point","coordinates":[-90.9098238,33.1937322]}},{"properties":{"city":"Lillooet","country":"Canada","geo_score":0.714,"id":"abe9kqk54wha","province":"British Columbia","geo_precision":"zip"},"type":"Feature","geometry":{"type":"Point","coordinates":[-64.2666667,-30.2833333]}},{"properties":{"city":"Logan Lake","country":"Canada","geo_score":0.714,"id":"abe9kqo57rbh","province":"British Columbia","geo_precision":"zip"},"type":"Feature","geometry":{"type":"Point","coordinates":[-6.1436111,8.1122222]}},{"properties":{"city":"Blind Bay","country":"Canada","geo_score":0.714,"id":"abe9kqd242qg","province":"British Columbia","geo_precision":"zip"},"type":"Feature","geometry":{"type":"Point","coordinates":[14.1872222,-0.1738889]}},{"properties":{"city":"Lumby","country":"Canada","geo_score":0.714,"id":"abe9kqa0aaa6","province":"British Columbia","geo_precision":"zip"},"type":"Feature","geometry":{"type":"Point","coordinates":[19.1166667,4.0333333]}},{"properties":{"city":"One Hundred Mile House","country":"Canada","geo_score":0.714,"id":"abe9kqe0byad","province":"British Columbia","geo_precision":"zip"},"type":"Feature","geometry":{"type":"Point","coordinates":[2.4643,14.0645]}},{"properties":{"city":"Ashcroft","country":"Canada","geo_score":0.714,"id":"abe9kqgyrxwh","province":"British Columbia","geo_precision":"zip"},"type":"Feature","geometry":{"type":"Point","coordinates":[-8.2283333,53.0402778]}},{"properties":{"city":"Ucluelet","country":"Canada","geo_score":0.714,"id":"abe9kqmizlik","province":"British Columbia","geo_precision":"zip"},"type":"Feature","geometry":{"type":"Point","coordinates":[-125.536129091,48.949606934]}},{"properties":{"city":"Nakusp","country":"Canada","geo_score":0.714,"id":"abe9kqcn20eo","province":"British Columbia","geo_precision":"zip"},"type":"Feature","geometry":{"type":"Point","coordinates":[11.0333333,3.05]}},{"properties":{"city":"Mill Bay","country":"Canada","geo_score":0.714,"id":"abe9kqepn2y2","province":"British Columbia","geo_precision":"zip"},"type":"Feature","geometry":{"type":"Point","coordinates":[2.4643,14.0645]}},{"properties":{"city":"Roberts Creek","country":"Canada","geo_score":0.857,"id":"abe9kqdr3oyo","province":"British Columbia","geo_precision":"zip"},"type":"Feature","geometry":{"type":"Point","coordinates":[179.35,52.45]}},{"properties":{"city":"Harrison Hot Springs","country":"Canada","geo_score":0.857,"id":"abe9kqcc49h1","province":"British Columbia","geo_precision":"zip"},"type":"Feature","geometry":{"type":"Point","coordinates":[-130.2,48.0666667]}},{"properties":{"city":"Cowichan Bay","country":"Canada","geo_score":0.714,"id":"abe9kqa6ozul","province":"British Columbia","geo_precision":"zip"},"type":"Feature","geometry":{"type":"Point","coordinates":[148.3166667,-28.4]}},{"properties":{"city":"Vanderhoof","country":"Canada","geo_score":0.714,"id":"abe9kqayn275","province":"British Columbia","geo_precision":"zip"},"type":"Feature","geometry":{"type":"Point","coordinates":[-79.9378659,32.7965652]}},{"properties":{"city":"Lions Bay","country":"Canada","geo_score":0.714,"id":"abe9kq9unc3q","province":"British Columbia","geo_precision":"zip"},"type":"Feature","geometry":{"type":"Point","coordinates":[14.1872222,-0.1738889]}},{"properties":{"city":"Gold River","country":"Canada","geo_score":0.714,"id":"abe9kq9m1jpb","province":"British Columbia","geo_precision":"zip"},"type":"Feature","geometry":{"type":"Point","coordinates":[21.8641667,60.1594444]}},{"properties":{"city":"Fraser Lake","country":"Canada","geo_score":0.714,"id":"abe9kq9w2ogq","province":"British Columbia","geo_precision":"zip"},"type":"Feature","geometry":{"type":"Point","coordinates":[-72.65,22.3166667]}},{"properties":{"city":"Salmo","country":"Canada","geo_score":0.714,"id":"abe9kqde41wf","province":"British Columbia","geo_precision":"zip"},"type":"Feature","geometry":{"type":"Point","coordinates":[42.9666667,12.0166667]}},{"properties":{"city":"Miller's Landing","country":"Canada","geo_score":0.714,"id":"abe9kqdlqcue","province":"British Columbia","geo_precision":"zip"},"type":"Feature","geometry":{"type":"Point","coordinates":[-7.2666667,43.0833333]}},{"properties":{"city":"Cultus Lake","country":"Canada","geo_score":0.714,"id":"abe9kqehbrtw","province":"British Columbia","geo_precision":"zip"},"type":"Feature","geometry":{"type":"Point","coordinates":[-72.5,-42.3666667]}},{"properties":{"city":"Welcome Beach","country":"Canada","geo_score":0.714,"id":"abe9kqgjvccg","province":"British Columbia","geo_precision":"zip"},"type":"Feature","geometry":{"type":"Point","coordinates":[28.7,51.0166667]}},{"properties":{"city":"Crofton","country":"Canada","geo_score":0.714,"id":"abe9kqeahtaz","province":"British Columbia","geo_precision":"zip"},"type":"Feature","geometry":{"type":"Point","coordinates":[-105.0802561,40.5858157]}},{"properties":{"city":"Deep Cove","country":"Canada","geo_score":0.714,"id":"abe9kqn38e9u","province":"British Columbia","geo_precision":"zip"},"type":"Feature","geometry":{"type":"Point","coordinates":[-16.5,14.8333333]}},{"properties":{"city":"Cache Creek","country":"Canada","geo_score":0.714,"id":"abe9kqi3b74v","province":"British Columbia","geo_precision":"zip"},"type":"Feature","geometry":{"type":"Point","coordinates":[30.465,-3.2447222]}}],"is_temporal":false,"author":{"url":"","metadata":"","contact_name":"","contact_address":"","source":"","contact_phone":""},"source":"","pagination":{"sort":null,"start":0,"total":100,"limit":1000000},"state":"complete","tags":"","published":"2014-08-16T13:45:09-04:00","id":310581}