{"type":"FeatureCollection","data_type":"Dataset","url_type":null,"permissions":[{"permissions":{"download":true,"view":true},"group_id":"everyone"}],"classification":null,"title":"Avnehiem","count":333,"stream_id":310557,"contributor":{"url":"http://geocommons.com/users/58913","name":"xfeng33"},"data_attributes":null,"calculation_params":null,"icon_link":null,"link":"http://geocommons.com/overlays/310557.json","extent":[-168.022,13.4443,144.786,43.7352],"geometry_types":["point"],"unique_name":null,"name":"Avnehiem","feature_count":333,"description":"","next_feature":null,"is_raster":false,"short_classification":"Y","stats":{},"features":[{"properties":{"zip":"90631","cus no":"022724","geo_score":0.714,"id":"abe2u09zk4ob","geo_precision":"zip"},"type":"Feature","geometry":{"type":"Point","coordinates":[-117.950619,33.960846]}},{"properties":{"zip":"80223","cus no":"100129","geo_score":0.714,"id":"abe2u0inqpo7","geo_precision":"zip"},"type":"Feature","geometry":{"type":"Point","coordinates":[-105.008762,39.707186]}},{"properties":{"zip":"91411","cus no":"100130","geo_score":0.714,"id":"abe2u0e4ngk8","geo_precision":"zip"},"type":"Feature","geometry":{"type":"Point","coordinates":[-118.298662,33.786594]}},{"properties":{"zip":"93955","cus no":"100177","geo_score":0.714,"id":"abe2u0458psk","geo_precision":"zip"},"type":"Feature","geometry":{"type":"Point","coordinates":[-121.848286,36.617182]}},{"properties":{"zip":"85284","cus no":"100180","geo_score":0.714,"id":"abe2u0fmepb8","geo_precision":"zip"},"type":"Feature","geometry":{"type":"Point","coordinates":[-111.914127,33.343546]}},{"properties":{"zip":"90031","cus no":"100365","geo_score":0.714,"id":"abe2u0gui5y6","geo_precision":"zip"},"type":"Feature","geometry":{"type":"Point","coordinates":[-118.205073,34.070566]}},{"properties":{"zip":"85040","cus no":"100605","geo_score":0.714,"id":"abe2u0h5oxhd","geo_precision":"zip"},"type":"Feature","geometry":{"type":"Point","coordinates":[-112.066878,33.367267]}},{"properties":{"zip":"80216","cus no":"100695","geo_score":0.714,"id":"abe2u0g82jue","geo_precision":"zip"},"type":"Feature","geometry":{"type":"Point","coordinates":[-104.942034,39.777036]}},{"properties":{"zip":"91702","cus no":"100745","geo_score":0.714,"id":"abe2u09u9akx","geo_precision":"zip"},"type":"Feature","geometry":{"type":"Point","coordinates":[-118.298662,33.786594]}},{"properties":{"zip":"92677","cus no":"100899","geo_score":0.714,"id":"abe2u0403k8s","geo_precision":"zip"},"type":"Feature","geometry":{"type":"Point","coordinates":[-117.74311,33.500583]}},{"properties":{"zip":"93422","cus no":"101203","geo_score":0.714,"id":"abe2u09a7prv","geo_precision":"zip"},"type":"Feature","geometry":{"type":"Point","coordinates":[-120.712459,35.464793]}},{"properties":{"zip":"90023","cus no":"101291","geo_score":0.714,"id":"abe2u0h92pii","geo_precision":"zip"},"type":"Feature","geometry":{"type":"Point","coordinates":[-118.196055,34.008262]}},{"properties":{"zip":"80012","cus no":"101666","geo_score":0.714,"id":"abe2u0ei53b5","geo_precision":"zip"},"type":"Feature","geometry":{"type":"Point","coordinates":[-104.80973,39.681201]}},{"properties":{"zip":"80031","cus no":"101667","geo_score":0.714,"id":"abe2u0i3gc2k","geo_precision":"zip"},"type":"Feature","geometry":{"type":"Point","coordinates":[-105.034487,39.87529]}},{"properties":{"zip":"93612","cus no":"101711","geo_score":0.714,"id":"abe2u0fg55ak","geo_precision":"zip"},"type":"Feature","geometry":{"type":"Point","coordinates":[-119.700975,36.808561]}},{"properties":{"zip":"93277","cus no":"101713","geo_score":0.714,"id":"abe2u0jaueg4","geo_precision":"zip"},"type":"Feature","geometry":{"type":"Point","coordinates":[-119.355559,36.13188]}},{"properties":{"zip":"84101","cus no":"102336","geo_score":0.714,"id":"abe2u0cruq8v","geo_precision":"zip"},"type":"Feature","geometry":{"type":"Point","coordinates":[-111.900719,40.756095]}},{"properties":{"zip":"92211","cus no":"103295","geo_score":0.714,"id":"abe2u06psy7j","geo_precision":"zip"},"type":"Feature","geometry":{"type":"Point","coordinates":[-116.339766,33.76437]}},{"properties":{"zip":"80123","cus no":"106003","geo_score":0.714,"id":"abe2u0bct8wc","geo_precision":"zip"},"type":"Feature","geometry":{"type":"Point","coordinates":[-105.032206,39.601099]}},{"properties":{"zip":"92887","cus no":"108038","geo_score":0.714,"id":"abe2u0f6ebmh","geo_precision":"zip"},"type":"Feature","geometry":{"type":"Point","coordinates":[-117.769442,33.640302]}},{"properties":{"zip":"96797","cus no":"108998","geo_score":0.714,"id":"abe2u0hfxon0","geo_precision":"zip"},"type":"Feature","geometry":{"type":"Point","coordinates":[-157.999444,21.408889]}},{"properties":{"zip":"91932","cus no":"109397","geo_score":0.714,"id":"abe2u0bws931","geo_precision":"zip"},"type":"Feature","geometry":{"type":"Point","coordinates":[-117.117351,32.578991]}},{"properties":{"zip":"93928","cus no":"109457","geo_score":0.714,"id":"abe2u0dp38ut","geo_precision":"zip"},"type":"Feature","geometry":{"type":"Point","coordinates":[-121.21385,36.023549]}},{"properties":{"zip":"92243","cus no":"109459","geo_score":0.714,"id":"abe2u0gt9y3j","geo_precision":"zip"},"type":"Feature","geometry":{"type":"Point","coordinates":[-115.503842,32.900509]}},{"properties":{"zip":"96797","cus no":"109465","geo_score":0.714,"id":"abe2u0fp01at","geo_precision":"zip"},"type":"Feature","geometry":{"type":"Point","coordinates":[-157.999444,21.408889]}},{"properties":{"zip":"92243","cus no":"111328","geo_score":0.714,"id":"abe2u082zkz1","geo_precision":"zip"},"type":"Feature","geometry":{"type":"Point","coordinates":[-115.503842,32.900509]}},{"properties":{"zip":"91387","cus no":"111836","geo_score":0.714,"id":"abe2u0i4gh0j","geo_precision":"zip"},"type":"Feature","geometry":{"type":"Point","coordinates":[-118.39882,34.401969]}},{"properties":{"zip":"92782","cus no":"114201","geo_score":0.714,"id":"abe2u0b0gluv","geo_precision":"zip"},"type":"Feature","geometry":{"type":"Point","coordinates":[-117.816189,33.705787]}},{"properties":{"zip":"92553","cus no":"114220","geo_score":0.714,"id":"abe2u07uy5nt","geo_precision":"zip"},"type":"Feature","geometry":{"type":"Point","coordinates":[-116.505017,32.679501]}},{"properties":{"zip":"92618","cus no":"114222","geo_score":0.714,"id":"abe2u061p81j","geo_precision":"zip"},"type":"Feature","geometry":{"type":"Point","coordinates":[-117.73269,33.641579]}},{"properties":{"zip":"92011","cus no":"114246","geo_score":0.714,"id":"abe2u0jgqeki","geo_precision":"zip"},"type":"Feature","geometry":{"type":"Point","coordinates":[-117.067528,32.610333]}},{"properties":{"zip":"92128","cus no":"114547","geo_score":0.714,"id":"abe2u0dnp9cp","geo_precision":"zip"},"type":"Feature","geometry":{"type":"Point","coordinates":[-117.07483,32.995484]}},{"properties":{"zip":"92124","cus no":"116719","geo_score":0.714,"id":"abe2u0gmdyg7","geo_precision":"zip"},"type":"Feature","geometry":{"type":"Point","coordinates":[-117.082387,32.818733]}},{"properties":{"zip":"89032","cus no":"116728","geo_score":0.714,"id":"abe2u0gwlzfl","geo_precision":"zip"},"type":"Feature","geometry":{"type":"Point","coordinates":[-115.170919,36.217968]}},{"properties":{"zip":"85353","cus no":"117717","geo_score":0.714,"id":"abe2u0buzh19","geo_precision":"zip"},"type":"Feature","geometry":{"type":"Point","coordinates":[-112.18717,33.276539]}},{"properties":{"zip":"96814","cus no":"118264","geo_score":0.714,"id":"abe2u06ab9cm","geo_precision":"zip"},"type":"Feature","geometry":{"type":"Point","coordinates":[-168.021815,24.859832]}},{"properties":{"zip":"90640","cus no":"118292","geo_score":0.714,"id":"abe2u0dmloov","geo_precision":"zip"},"type":"Feature","geometry":{"type":"Point","coordinates":[-118.298662,33.786594]}},{"properties":{"zip":"92081","cus no":"118341","geo_score":0.0,"id":"abe2u0bc4jkb","geo_precision":"unmatched"},"type":"Feature","geometry":null},{"properties":{"zip":"92363","cus no":"118658","geo_score":0.714,"id":"abe2u0jtg4c2","geo_precision":"zip"},"type":"Feature","geometry":{"type":"Point","coordinates":[-114.413847,34.482234]}},{"properties":{"zip":"91910","cus no":"118804","geo_score":0.714,"id":"abe2u03g2inc","geo_precision":"zip"},"type":"Feature","geometry":{"type":"Point","coordinates":[-117.050072,32.636922]}},{"properties":{"zip":"91745","cus no":"119660","geo_score":0.714,"id":"abe2u0ekd3og","geo_precision":"zip"},"type":"Feature","geometry":{"type":"Point","coordinates":[-117.981631,33.976114]}},{"properties":{"zip":"92843","cus no":"120264","geo_score":0.714,"id":"abe2u0cc3dm3","geo_precision":"zip"},"type":"Feature","geometry":{"type":"Point","coordinates":[-117.769442,33.640302]}},{"properties":{"zip":"85206","cus no":"120451","geo_score":0.714,"id":"abe2u06tk4cc","geo_precision":"zip"},"type":"Feature","geometry":{"type":"Point","coordinates":[-111.717968,33.390148]}},{"properties":{"zip":"90745","cus no":"120475","geo_score":0.714,"id":"abe2u04efnjf","geo_precision":"zip"},"type":"Feature","geometry":{"type":"Point","coordinates":[-118.261154,33.813317]}},{"properties":{"zip":"85008","cus no":"120538","geo_score":0.714,"id":"abe2u0d1oafg","geo_precision":"zip"},"type":"Feature","geometry":{"type":"Point","coordinates":[-111.953512,33.446797]}},{"properties":{"zip":"93274","cus no":"122943","geo_score":0.714,"id":"abe2u03buwjy","geo_precision":"zip"},"type":"Feature","geometry":{"type":"Point","coordinates":[-119.299856,36.133527]}},{"properties":{"zip":"92277","cus no":"122979","geo_score":0.714,"id":"abe2u0e1wkwx","geo_precision":"zip"},"type":"Feature","geometry":{"type":"Point","coordinates":[-116.235073,34.234411]}},{"properties":{"zip":"92507","cus no":"123475","geo_score":0.714,"id":"abe2u0aaif6d","geo_precision":"zip"},"type":"Feature","geometry":{"type":"Point","coordinates":[-117.296431,33.946683]}},{"properties":{"zip":"86301","cus no":"123927","geo_score":0.714,"id":"abe2u05a3m2f","geo_precision":"zip"},"type":"Feature","geometry":{"type":"Point","coordinates":[-112.495726,34.56558]}},{"properties":{"zip":"84115","cus no":"123974","geo_score":0.714,"id":"abe2u071a7g1","geo_precision":"zip"},"type":"Feature","geometry":{"type":"Point","coordinates":[-111.907992,40.713835]}},{"properties":{"zip":"93065","cus no":"123998","geo_score":0.714,"id":"abe2u0i2nqgc","geo_precision":"zip"},"type":"Feature","geometry":{"type":"Point","coordinates":[-118.737592,34.26917]}},{"properties":{"zip":"91362","cus no":"124100","geo_score":0.714,"id":"abe2u07ncegu","geo_precision":"zip"},"type":"Feature","geometry":{"type":"Point","coordinates":[-118.823177,34.194756]}},{"properties":{"zip":"93454","cus no":"124170","geo_score":0.714,"id":"abe2u09zqnsh","geo_precision":"zip"},"type":"Feature","geometry":{"type":"Point","coordinates":[-120.291546,34.864702]}},{"properties":{"zip":"91761","cus no":"124171","geo_score":0.714,"id":"abe2u0isbvsc","geo_precision":"zip"},"type":"Feature","geometry":{"type":"Point","coordinates":[-115.967051,34.839964]}},{"properties":{"zip":"90670","cus no":"124425","geo_score":0.714,"id":"abe2u0fhrhew","geo_precision":"zip"},"type":"Feature","geometry":{"type":"Point","coordinates":[-118.063698,33.927063]}},{"properties":{"zip":"90039","cus no":"124483","geo_score":0.714,"id":"abe2u0fo29ro","geo_precision":"zip"},"type":"Feature","geometry":{"type":"Point","coordinates":[-118.298662,33.786594]}},{"properties":{"zip":"91942","cus no":"124656","geo_score":0.714,"id":"abe2u0g1hfr8","geo_precision":"zip"},"type":"Feature","geometry":{"type":"Point","coordinates":[-116.988361,32.778384]}},{"properties":{"zip":"63146","cus no":"124924","geo_score":0.714,"id":"abe2u082v62p","geo_precision":"zip"},"type":"Feature","geometry":{"type":"Point","coordinates":[-90.461818,38.703251]}},{"properties":{"zip":"60517","cus no":"124925","geo_score":0.714,"id":"abe2u0bo3ayz","geo_precision":"zip"},"type":"Feature","geometry":{"type":"Point","coordinates":[-88.041731,41.736788]}},{"properties":{"zip":"42003","cus no":"124926","geo_score":0.714,"id":"abe2u0ggqf3z","geo_precision":"zip"},"type":"Feature","geometry":{"type":"Point","coordinates":[-88.581289,37.015159]}},{"properties":{"zip":"92806","cus no":"124927","geo_score":0.714,"id":"abe2u0cvd8fy","geo_precision":"zip"},"type":"Feature","geometry":{"type":"Point","coordinates":[-117.769442,33.640302]}},{"properties":{"zip":"84104","cus no":"124928","geo_score":0.714,"id":"abe2u09lgxfs","geo_precision":"zip"},"type":"Feature","geometry":{"type":"Point","coordinates":[-111.9841,40.747845]}},{"properties":{"zip":"33619","cus no":"124931","geo_score":0.714,"id":"abe2u0gej5mc","geo_precision":"zip"},"type":"Feature","geometry":{"type":"Point","coordinates":[-82.364537,27.900302]}},{"properties":{"zip":"21076","cus no":"126030","geo_score":0.714,"id":"abe2u0592z5e","geo_precision":"zip"},"type":"Feature","geometry":{"type":"Point","coordinates":[-76.724137,39.192885]}},{"properties":{"zip":"93907","cus no":"126041","geo_score":0.714,"id":"abe2u0bdpmf8","geo_precision":"zip"},"type":"Feature","geometry":{"type":"Point","coordinates":[-121.67031,36.756306]}},{"properties":{"zip":"90057","cus no":"126108","geo_score":0.714,"id":"abe2u0c0dpdd","geo_precision":"zip"},"type":"Feature","geometry":{"type":"Point","coordinates":[-118.298662,33.786594]}},{"properties":{"zip":"91709","cus no":"126162","geo_score":0.714,"id":"abe2u0562dbh","geo_precision":"zip"},"type":"Feature","geometry":{"type":"Point","coordinates":[-115.967051,34.839964]}},{"properties":{"zip":"80124","cus no":"126363","geo_score":0.714,"id":"abe2u0bserfc","geo_precision":"zip"},"type":"Feature","geometry":{"type":"Point","coordinates":[-104.861962,39.531381]}},{"properties":{"zip":"93401","cus no":"126680","geo_score":0.714,"id":"abe2u09ibxj3","geo_precision":"zip"},"type":"Feature","geometry":{"type":"Point","coordinates":[-120.846846,35.318308]}},{"properties":{"zip":"90670","cus no":"127029","geo_score":0.714,"id":"abe2u0eemfhm","geo_precision":"zip"},"type":"Feature","geometry":{"type":"Point","coordinates":[-118.063698,33.927063]}},{"properties":{"zip":"96912","cus no":"127597","geo_score":0.714,"id":"abe2u0ii8zn4","geo_precision":"zip"},"type":"Feature","geometry":{"type":"Point","coordinates":[144.786297,13.444257]}},{"properties":{"zip":"92508","cus no":"127683","geo_score":0.714,"id":"abe2u05eo7n6","geo_precision":"zip"},"type":"Feature","geometry":{"type":"Point","coordinates":[-117.278652,33.920295]}},{"properties":{"zip":"90505","cus no":"127876","geo_score":0.714,"id":"abe2u0jb0rd2","geo_precision":"zip"},"type":"Feature","geometry":{"type":"Point","coordinates":[-118.298662,33.786594]}},{"properties":{"zip":"93117","cus no":"128134","geo_score":0.714,"id":"abe2u0agiiyr","geo_precision":"zip"},"type":"Feature","geometry":{"type":"Point","coordinates":[-120.214872,34.471656]}},{"properties":{"zip":"91752","cus no":"128655","geo_score":0.714,"id":"abe2u0adsdh1","geo_precision":"zip"},"type":"Feature","geometry":{"type":"Point","coordinates":[-116.055617,33.752886]}},{"properties":{"zip":"80027","cus no":"128664","geo_score":0.714,"id":"abe2u0dw3y1n","geo_precision":"zip"},"type":"Feature","geometry":{"type":"Point","coordinates":[-105.168598,39.952763]}},{"properties":{"zip":"90292","cus no":"128886","geo_score":0.714,"id":"abe2u06npnfx","geo_precision":"zip"},"type":"Feature","geometry":{"type":"Point","coordinates":[-118.298662,33.786594]}},{"properties":{"zip":"85233","cus no":"128894","geo_score":0.714,"id":"abe2u055jqvr","geo_precision":"zip"},"type":"Feature","geometry":{"type":"Point","coordinates":[-111.337072,33.259499]}},{"properties":{"zip":"89109","cus no":"129231","geo_score":0.714,"id":"abe2u0jdqpv1","geo_precision":"zip"},"type":"Feature","geometry":{"type":"Point","coordinates":[-115.146665,36.097195]}},{"properties":{"zip":"92867","cus no":"129248","geo_score":0.714,"id":"abe2u079nl87","geo_precision":"zip"},"type":"Feature","geometry":{"type":"Point","coordinates":[-117.769442,33.640302]}},{"properties":{"zip":"89109","cus no":"129332","geo_score":0.714,"id":"abe2u07c4ozd","geo_precision":"zip"},"type":"Feature","geometry":{"type":"Point","coordinates":[-115.146665,36.097195]}},{"properties":{"zip":"80011","cus no":"129352","geo_score":0.714,"id":"abe2u0ac9a8b","geo_precision":"zip"},"type":"Feature","geometry":{"type":"Point","coordinates":[-104.822765,39.788286]}},{"properties":{"zip":"64153","cus no":"129424","geo_score":0.714,"id":"abe2u0cgbsax","geo_precision":"zip"},"type":"Feature","geometry":{"type":"Point","coordinates":[-94.741617,39.270474]}},{"properties":{"zip":"84097","cus no":"129434","geo_score":0.714,"id":"abe2u09c617c","geo_precision":"zip"},"type":"Feature","geometry":{"type":"Point","coordinates":[-111.670519,40.297153]}},{"properties":{"zip":"92324","cus no":"129675","geo_score":0.714,"id":"abe2u055uclg","geo_precision":"zip"},"type":"Feature","geometry":{"type":"Point","coordinates":[-117.313654,34.033903]}},{"properties":{"zip":"80011","cus no":"129697","geo_score":0.714,"id":"abe2u0dju3st","geo_precision":"zip"},"type":"Feature","geometry":{"type":"Point","coordinates":[-104.822765,39.788286]}},{"properties":{"zip":"85043","cus no":"129866","geo_score":0.714,"id":"abe2u05aff4p","geo_precision":"zip"},"type":"Feature","geometry":{"type":"Point","coordinates":[-112.18717,33.276539]}},{"properties":{"zip":"84070","cus no":"129910","geo_score":0.714,"id":"abe2u0gx5iaq","geo_precision":"zip"},"type":"Feature","geometry":{"type":"Point","coordinates":[-111.806043,40.573004]}},{"properties":{"zip":"92108","cus no":"129964","geo_score":0.714,"id":"abe2u0hwaopa","geo_precision":"zip"},"type":"Feature","geometry":{"type":"Point","coordinates":[-117.148616,32.774699]}},{"properties":{"zip":"85027","cus no":"129965","geo_score":0.714,"id":"abe2u049d390","geo_precision":"zip"},"type":"Feature","geometry":{"type":"Point","coordinates":[-112.18717,33.276539]}},{"properties":{"zip":"92591","cus no":"130114","geo_score":0.714,"id":"abe2u0c95k6o","geo_precision":"zip"},"type":"Feature","geometry":{"type":"Point","coordinates":[-116.055617,33.752886]}},{"properties":{"zip":"91710","cus no":"130160","geo_score":0.714,"id":"abe2u0fsgq4m","geo_precision":"zip"},"type":"Feature","geometry":{"type":"Point","coordinates":[-117.778668,33.947792]}},{"properties":{"zip":"96913","cus no":"130216","geo_score":0.714,"id":"abe2u05j62oh","geo_precision":"zip"},"type":"Feature","geometry":{"type":"Point","coordinates":[144.786297,13.444257]}},{"properties":{"zip":"84790","cus no":"130222","geo_score":0.714,"id":"abe2u0hfkbf4","geo_precision":"zip"},"type":"Feature","geometry":{"type":"Point","coordinates":[-113.558068,37.083098]}},{"properties":{"zip":"91730","cus no":"130234","geo_score":0.714,"id":"abe2u068rhov","geo_precision":"zip"},"type":"Feature","geometry":{"type":"Point","coordinates":[-115.967051,34.839964]}},{"properties":{"zip":"89705","cus no":"130240","geo_score":0.714,"id":"abe2u0bfw6c9","geo_precision":"zip"},"type":"Feature","geometry":{"type":"Point","coordinates":[-119.805916,39.055424]}},{"properties":{"zip":"85015","cus no":"130254","geo_score":0.714,"id":"abe2u0ai1ywn","geo_precision":"zip"},"type":"Feature","geometry":{"type":"Point","coordinates":[-112.115805,33.478293]}},{"properties":{"zip":"90250","cus no":"130256","geo_score":0.714,"id":"abe2u0jao32g","geo_precision":"zip"},"type":"Feature","geometry":{"type":"Point","coordinates":[-118.298662,33.786594]}},{"properties":{"zip":"92260","cus no":"130278","geo_score":0.714,"id":"abe2u0f22sjm","geo_precision":"zip"},"type":"Feature","geometry":{"type":"Point","coordinates":[-116.402695,33.680623]}},{"properties":{"zip":"84307","cus no":"130348","geo_score":0.714,"id":"abe2u0fnig55","geo_precision":"zip"},"type":"Feature","geometry":{"type":"Point","coordinates":[-112.390322,41.454713]}},{"properties":{"zip":"84404","cus no":"130852","geo_score":0.714,"id":"abe2u04t1g4c","geo_precision":"zip"},"type":"Feature","geometry":{"type":"Point","coordinates":[-112.152441,41.250222]}},{"properties":{"zip":"77032","cus no":"130859","geo_score":0.714,"id":"abe2u0aek7o8","geo_precision":"zip"},"type":"Feature","geometry":{"type":"Point","coordinates":[-95.434241,29.83399]}},{"properties":{"zip":"48242","cus no":"130864","geo_score":0.714,"id":"abe2u0akmem7","geo_precision":"zip"},"type":"Feature","geometry":{"type":"Point","coordinates":[-83.35324,42.216575]}},{"properties":{"zip":"90045","cus no":"130886","geo_score":0.714,"id":"abe2u05lkxp1","geo_precision":"zip"},"type":"Feature","geometry":{"type":"Point","coordinates":[-118.400632,33.959735]}},{"properties":{"zip":"90021","cus no":"130907","geo_score":0.714,"id":"abe2u04tv97v","geo_precision":"zip"},"type":"Feature","geometry":{"type":"Point","coordinates":[-118.298662,33.786594]}},{"properties":{"zip":"91761","cus no":"131093","geo_score":0.714,"id":"abe2u0h5umcx","geo_precision":"zip"},"type":"Feature","geometry":{"type":"Point","coordinates":[-115.967051,34.839964]}},{"properties":{"zip":"80216","cus no":"131103","geo_score":0.714,"id":"abe2u04dng04","geo_precision":"zip"},"type":"Feature","geometry":{"type":"Point","coordinates":[-104.942034,39.777036]}},{"properties":{"zip":"93309","cus no":"131190","geo_score":0.714,"id":"abe2u0hgms8d","geo_precision":"zip"},"type":"Feature","geometry":{"type":"Point","coordinates":[-118.905173,35.294405]}},{"properties":{"zip":"85308","cus no":"131351","geo_score":0.714,"id":"abe2u0891xz8","geo_precision":"zip"},"type":"Feature","geometry":{"type":"Point","coordinates":[-112.18717,33.276539]}},{"properties":{"zip":"89014","cus no":"131352","geo_score":0.714,"id":"abe2u0gdsqzn","geo_precision":"zip"},"type":"Feature","geometry":{"type":"Point","coordinates":[-114.804393,36.283135]}},{"properties":{"zip":"80002","cus no":"131440","geo_score":0.714,"id":"abe2u08t9p1t","geo_precision":"zip"},"type":"Feature","geometry":{"type":"Point","coordinates":[-105.109236,39.827818]}},{"properties":{"zip":"89144","cus no":"131458","geo_score":0.714,"id":"abe2u0e7bw7h","geo_precision":"zip"},"type":"Feature","geometry":{"type":"Point","coordinates":[-115.31835,36.178088]}},{"properties":{"zip":"91506","cus no":"131459","geo_score":0.714,"id":"abe2u06fapnl","geo_precision":"zip"},"type":"Feature","geometry":{"type":"Point","coordinates":[-118.298662,33.786594]}},{"properties":{"zip":"91748","cus no":"131527","geo_score":0.714,"id":"abe2u0ewxczb","geo_precision":"zip"},"type":"Feature","geometry":{"type":"Point","coordinates":[-117.884784,33.987513]}},{"properties":{"zip":"91763","cus no":"131594","geo_score":0.714,"id":"abe2u0exaorm","geo_precision":"zip"},"type":"Feature","geometry":{"type":"Point","coordinates":[-115.967051,34.839964]}},{"properties":{"zip":"85017","cus no":"131603","geo_score":0.714,"id":"abe2u0vahpew","geo_precision":"zip"},"type":"Feature","geometry":{"type":"Point","coordinates":[-112.18717,33.276539]}},{"properties":{"zip":"92833","cus no":"131628","geo_score":0.714,"id":"abe2u0v18hqt","geo_precision":"zip"},"type":"Feature","geometry":{"type":"Point","coordinates":[-117.769442,33.640302]}},{"properties":{"zip":"96858","cus no":"131761","geo_score":0.714,"id":"abe2u0oicr7e","geo_precision":"zip"},"type":"Feature","geometry":{"type":"Point","coordinates":[-168.021815,24.859832]}},{"properties":{"zip":"90744","cus no":"131811","geo_score":0.714,"id":"abe2u0xfzahs","geo_precision":"zip"},"type":"Feature","geometry":{"type":"Point","coordinates":[-118.253853,33.779417]}},{"properties":{"zip":"92509","cus no":"131848","geo_score":0.714,"id":"abe2u0pkrq1q","geo_precision":"zip"},"type":"Feature","geometry":{"type":"Point","coordinates":[-117.405602,33.996126]}},{"properties":{"zip":"91730","cus no":"131905","geo_score":0.714,"id":"abe2u0wrb9rc","geo_precision":"zip"},"type":"Feature","geometry":{"type":"Point","coordinates":[-115.967051,34.839964]}},{"properties":{"zip":"92677","cus no":"131910","geo_score":0.714,"id":"abe2u0vju06y","geo_precision":"zip"},"type":"Feature","geometry":{"type":"Point","coordinates":[-117.74311,33.500583]}},{"properties":{"zip":"90023","cus no":"131981","geo_score":0.714,"id":"abe2u0ptfdna","geo_precision":"zip"},"type":"Feature","geometry":{"type":"Point","coordinates":[-118.196055,34.008262]}},{"properties":{"zip":"93635","cus no":"132215","geo_score":0.714,"id":"abe2u0vrca9c","geo_precision":"zip"},"type":"Feature","geometry":{"type":"Point","coordinates":[-120.847479,37.103768]}},{"properties":{"zip":"93308","cus no":"132256","geo_score":0.714,"id":"abe2u0z8flj2","geo_precision":"zip"},"type":"Feature","geometry":{"type":"Point","coordinates":[-118.892932,35.567657]}},{"properties":{"zip":"92801","cus no":"132271","geo_score":0.714,"id":"abe2u0lxpsts","geo_precision":"zip"},"type":"Feature","geometry":{"type":"Point","coordinates":[-117.769442,33.640302]}},{"properties":{"zip":"92614","cus no":"134944","geo_score":0.714,"id":"abe2u0p5tk13","geo_precision":"zip"},"type":"Feature","geometry":{"type":"Point","coordinates":[-117.827913,33.685319]}},{"properties":{"zip":"80014","cus no":"134947","geo_score":0.714,"id":"abe2u0uc2cg6","geo_precision":"zip"},"type":"Feature","geometry":{"type":"Point","coordinates":[-104.82933,39.660437]}},{"properties":{"zip":"85323","cus no":"134984","geo_score":0.714,"id":"abe2u0ystqug","geo_precision":"zip"},"type":"Feature","geometry":{"type":"Point","coordinates":[-112.18717,33.276539]}},{"properties":{"zip":"85353","cus no":"134994","geo_score":0.714,"id":"abe2u0yyjow8","geo_precision":"zip"},"type":"Feature","geometry":{"type":"Point","coordinates":[-112.18717,33.276539]}},{"properties":{"zip":"93720","cus no":"135278","geo_score":0.714,"id":"abe2u0z7bmea","geo_precision":"zip"},"type":"Feature","geometry":{"type":"Point","coordinates":[-119.802227,36.850729]}},{"properties":{"zip":"90040","cus no":"135414","geo_score":0.714,"id":"abe2u0ujaxjt","geo_precision":"zip"},"type":"Feature","geometry":{"type":"Point","coordinates":[-118.153153,33.990863]}},{"properties":{"zip":"92805","cus no":"135441","geo_score":0.714,"id":"abe2u0uanvpm","geo_precision":"zip"},"type":"Feature","geometry":{"type":"Point","coordinates":[-117.769442,33.640302]}},{"properties":{"zip":"93905","cus no":"135468","geo_score":0.714,"id":"abe2u0oj1sck","geo_precision":"zip"},"type":"Feature","geometry":{"type":"Point","coordinates":[-121.612105,36.682888]}},{"properties":{"zip":"93534","cus no":"135650","geo_score":0.714,"id":"abe2u0kvjbkz","geo_precision":"zip"},"type":"Feature","geometry":{"type":"Point","coordinates":[-118.424803,34.734705]}},{"properties":{"zip":"91324","cus no":"135680","geo_score":0.714,"id":"abe2u0qslfs6","geo_precision":"zip"},"type":"Feature","geometry":{"type":"Point","coordinates":[-118.298662,33.786594]}},{"properties":{"zip":"85222","cus no":"136530","geo_score":0.714,"id":"abe2u0ztvyyh","geo_precision":"zip"},"type":"Feature","geometry":{"type":"Point","coordinates":[-111.567069,32.879506]}},{"properties":{"zip":"93446","cus no":"137117","geo_score":0.714,"id":"abe2u0o774w2","geo_precision":"zip"},"type":"Feature","geometry":{"type":"Point","coordinates":[-120.891571,35.625248]}},{"properties":{"zip":"96707","cus no":"137220","geo_score":0.714,"id":"abe2u0pheb37","geo_precision":"zip"},"type":"Feature","geometry":{"type":"Point","coordinates":[-158.091383,21.341784]}},{"properties":{"zip":"96707","cus no":"137228","geo_score":0.714,"id":"abe2u0tm14ae","geo_precision":"zip"},"type":"Feature","geometry":{"type":"Point","coordinates":[-158.091383,21.341784]}},{"properties":{"zip":"93725","cus no":"137229","geo_score":0.714,"id":"abe2u0u4nb8l","geo_precision":"zip"},"type":"Feature","geometry":{"type":"Point","coordinates":[-119.740138,36.566061]}},{"properties":{"zip":"96707","cus no":"137252","geo_score":0.714,"id":"abe2u0w40lra","geo_precision":"zip"},"type":"Feature","geometry":{"type":"Point","coordinates":[-158.091383,21.341784]}},{"properties":{"zip":"30354","cus no":"137718","geo_score":0.714,"id":"abe2u0qrx4kv","geo_precision":"zip"},"type":"Feature","geometry":{"type":"Point","coordinates":[-84.410205,33.660109]}},{"properties":{"zip":"60163","cus no":"137745","geo_score":0.714,"id":"abe2u0wrxugc","geo_precision":"zip"},"type":"Feature","geometry":{"type":"Point","coordinates":[-87.68732,41.811929]}},{"properties":{"zip":"90810","cus no":"137746","geo_score":0.714,"id":"abe2u0szo7o8","geo_precision":"zip"},"type":"Feature","geometry":{"type":"Point","coordinates":[-118.232453,33.819266]}},{"properties":{"zip":"33172","cus no":"137747","geo_score":0.714,"id":"abe2u0pgljny","geo_precision":"zip"},"type":"Feature","geometry":{"type":"Point","coordinates":[-80.359727,25.786922]}},{"properties":{"zip":"11788","cus no":"137748","geo_score":0.714,"id":"abe2u0zby90v","geo_precision":"zip"},"type":"Feature","geometry":{"type":"Point","coordinates":[-73.200669,40.855931]}},{"properties":{"zip":"30349","cus no":"137749","geo_score":0.714,"id":"abe2u10btsex","geo_precision":"zip"},"type":"Feature","geometry":{"type":"Point","coordinates":[-84.550147,33.61806]}},{"properties":{"zip":"80537","cus no":"137752","geo_score":0.714,"id":"abe2u0pyokq0","geo_precision":"zip"},"type":"Feature","geometry":{"type":"Point","coordinates":[-104.950809,40.406649]}},{"properties":{"zip":"60163","cus no":"137768","geo_score":0.714,"id":"abe2u0sdoqi0","geo_precision":"zip"},"type":"Feature","geometry":{"type":"Point","coordinates":[-87.68732,41.811929]}},{"properties":{"zip":"90810","cus no":"137769","geo_score":0.714,"id":"abe2u0obsuty","geo_precision":"zip"},"type":"Feature","geometry":{"type":"Point","coordinates":[-118.232453,33.819266]}},{"properties":{"zip":"30349","cus no":"137771","geo_score":0.714,"id":"abe2u0q93i91","geo_precision":"zip"},"type":"Feature","geometry":{"type":"Point","coordinates":[-84.550147,33.61806]}},{"properties":{"zip":"77023","cus no":"137863","geo_score":0.714,"id":"abe2u0r4m616","geo_precision":"zip"},"type":"Feature","geometry":{"type":"Point","coordinates":[-95.434241,29.83399]}},{"properties":{"zip":"92154","cus no":"137937","geo_score":0.714,"id":"abe2u0tj116a","geo_precision":"zip"},"type":"Feature","geometry":{"type":"Point","coordinates":[-117.035225,32.628038]}},{"properties":{"zip":"75051","cus no":"138032","geo_score":0.714,"id":"abe2u0lsdy1c","geo_precision":"zip"},"type":"Feature","geometry":{"type":"Point","coordinates":[-96.777626,32.767268]}},{"properties":{"zip":"60191","cus no":"138034","geo_score":0.714,"id":"abe2u0tnqczx","geo_precision":"zip"},"type":"Feature","geometry":{"type":"Point","coordinates":[-88.088716,41.839679]}},{"properties":{"zip":"90620","cus no":"138210","geo_score":0.714,"id":"abe2u0us39gm","geo_precision":"zip"},"type":"Feature","geometry":{"type":"Point","coordinates":[-117.769442,33.640302]}},{"properties":{"zip":"30297","cus no":"138419","geo_score":0.714,"id":"abe2u0q9fr23","geo_precision":"zip"},"type":"Feature","geometry":{"type":"Point","coordinates":[-84.374496,33.611509]}},{"properties":{"zip":"33142","cus no":"138421","geo_score":0.714,"id":"abe2u0upxgha","geo_precision":"zip"},"type":"Feature","geometry":{"type":"Point","coordinates":[-80.193659,25.774266]}},{"properties":{"zip":"90045","cus no":"138423","geo_score":0.714,"id":"abe2u0simf7l","geo_precision":"zip"},"type":"Feature","geometry":{"type":"Point","coordinates":[-118.400632,33.959735]}},{"properties":{"zip":"92154","cus no":"138683","geo_score":0.714,"id":"abe2u0zpuf7m","geo_precision":"zip"},"type":"Feature","geometry":{"type":"Point","coordinates":[-117.035225,32.628038]}},{"properties":{"zip":"92509","cus no":"138893","geo_score":0.714,"id":"abe2u0wicb1e","geo_precision":"zip"},"type":"Feature","geometry":{"type":"Point","coordinates":[-117.405602,33.996126]}},{"properties":{"zip":"92677","cus no":"141291","geo_score":0.714,"id":"abe2u0to0phy","geo_precision":"zip"},"type":"Feature","geometry":{"type":"Point","coordinates":[-117.74311,33.500583]}},{"properties":{"zip":"92154","cus no":"141764","geo_score":0.714,"id":"abe2u0n786tb","geo_precision":"zip"},"type":"Feature","geometry":{"type":"Point","coordinates":[-117.035225,32.628038]}},{"properties":{"zip":"92154","cus no":"142433","geo_score":0.714,"id":"abe2u0swp2lb","geo_precision":"zip"},"type":"Feature","geometry":{"type":"Point","coordinates":[-117.035225,32.628038]}},{"properties":{"zip":"92821","cus no":"142449","geo_score":0.714,"id":"abe2u0y5wr2y","geo_precision":"zip"},"type":"Feature","geometry":{"type":"Point","coordinates":[-117.769442,33.640302]}},{"properties":{"zip":"85009","cus no":"142875","geo_score":0.714,"id":"abe2u0mej5ry","geo_precision":"zip"},"type":"Feature","geometry":{"type":"Point","coordinates":[-111.96942,33.447489]}},{"properties":{"zip":"90023","cus no":"145300","geo_score":0.714,"id":"abe2u0ls84v6","geo_precision":"zip"},"type":"Feature","geometry":{"type":"Point","coordinates":[-118.196055,34.008262]}},{"properties":{"zip":"08110","cus no":"145429","geo_score":0.714,"id":"abe2u0uwg328","geo_precision":"zip"},"type":"Feature","geometry":{"type":"Point","coordinates":[-75.044339,39.987335]}},{"properties":{"zip":"92553","cus no":"145897","geo_score":0.714,"id":"abe2u0rw0e1n","geo_precision":"zip"},"type":"Feature","geometry":{"type":"Point","coordinates":[-116.505017,32.679501]}},{"properties":{"zip":"18051","cus no":"146117","geo_score":0.714,"id":"abe2u0n9xtsl","geo_precision":"zip"},"type":"Feature","geometry":{"type":"Point","coordinates":[-75.663187,40.599843]}},{"properties":{"zip":"89434","cus no":"146675","geo_score":0.714,"id":"abe2u0jyqa7j","geo_precision":"zip"},"type":"Feature","geometry":{"type":"Point","coordinates":[-119.716747,39.591728]}},{"properties":{"zip":"80011","cus no":"146718","geo_score":0.714,"id":"abe2u0l4y6cn","geo_precision":"zip"},"type":"Feature","geometry":{"type":"Point","coordinates":[-104.822765,39.788286]}},{"properties":{"zip":"90040","cus no":"307544","geo_score":0.714,"id":"abe2u0ln11vd","geo_precision":"zip"},"type":"Feature","geometry":{"type":"Point","coordinates":[-118.153153,33.990863]}},{"properties":{"zip":"92707","cus no":"309641","geo_score":0.714,"id":"abe2u0xeyjx8","geo_precision":"zip"},"type":"Feature","geometry":{"type":"Point","coordinates":[-117.895613,33.65252]}},{"properties":{"zip":"92618","cus no":"310407","geo_score":0.714,"id":"abe2u0lefjo5","geo_precision":"zip"},"type":"Feature","geometry":{"type":"Point","coordinates":[-117.73269,33.641579]}},{"properties":{"zip":"92503","cus no":"310436","geo_score":0.714,"id":"abe2u0kp64td","geo_precision":"zip"},"type":"Feature","geometry":{"type":"Point","coordinates":[-116.055617,33.752886]}},{"properties":{"zip":"90670","cus no":"310461","geo_score":0.714,"id":"abe2u0kz5sdg","geo_precision":"zip"},"type":"Feature","geometry":{"type":"Point","coordinates":[-118.063698,33.927063]}},{"properties":{"zip":"92071","cus no":"310594","geo_score":0.714,"id":"abe2u0mppvdq","geo_precision":"zip"},"type":"Feature","geometry":{"type":"Point","coordinates":[-116.994511,32.843956]}},{"properties":{"zip":"91911","cus no":"310595","geo_score":0.714,"id":"abe2u0uqfc2j","geo_precision":"zip"},"type":"Feature","geometry":{"type":"Point","coordinates":[-117.034012,32.615983]}},{"properties":{"zip":"85712","cus no":"310640","geo_score":0.714,"id":"abe2u0tdmvxp","geo_precision":"zip"},"type":"Feature","geometry":{"type":"Point","coordinates":[-110.883744,32.253714]}},{"properties":{"zip":"81505","cus no":"579904","geo_score":0.714,"id":"abe2u0pcozv7","geo_precision":"zip"},"type":"Feature","geometry":{"type":"Point","coordinates":[-108.608151,39.120814]}},{"properties":{"zip":"92408","cus no":"689951","geo_score":0.714,"id":"abe2u0mdyl20","geo_precision":"zip"},"type":"Feature","geometry":{"type":"Point","coordinates":[-115.967051,34.839964]}},{"properties":{"zip":"93257","cus no":"727590","geo_score":0.714,"id":"abe2u0x5w4g2","geo_precision":"zip"},"type":"Feature","geometry":{"type":"Point","coordinates":[-118.975655,36.057452]}},{"properties":{"zip":"91731","cus no":"751232","geo_score":0.714,"id":"abe2u0uae8xr","geo_precision":"zip"},"type":"Feature","geometry":{"type":"Point","coordinates":[-118.298662,33.786594]}},{"properties":{"zip":"80524","cus no":"A01239","geo_score":0.714,"id":"abe2u0m1zzxq","geo_precision":"zip"},"type":"Feature","geometry":{"type":"Point","coordinates":[-105.252751,40.59889]}},{"properties":{"zip":"80238","cus no":"A01736","geo_score":0.714,"id":"abe2u0shzdaz","geo_precision":"zip"},"type":"Feature","geometry":{"type":"Point","coordinates":[-104.408349,39.738752]}},{"properties":{"zip":"80022","cus no":"A20168","geo_score":0.714,"id":"abe2u0r32481","geo_precision":"zip"},"type":"Feature","geometry":{"type":"Point","coordinates":[-104.918589,39.83943]}},{"properties":{"zip":"84104","cus no":"A20187","geo_score":0.714,"id":"abe2u0t6do5m","geo_precision":"zip"},"type":"Feature","geometry":{"type":"Point","coordinates":[-111.9841,40.747845]}},{"properties":{"zip":"90810","cus no":"B00490","geo_score":0.714,"id":"abe2u0slrjup","geo_precision":"zip"},"type":"Feature","geometry":{"type":"Point","coordinates":[-118.232453,33.819266]}},{"properties":{"zip":"90638","cus no":"B01282","geo_score":0.714,"id":"abe2u0tn7tur","geo_precision":"zip"},"type":"Feature","geometry":{"type":"Point","coordinates":[-118.007297,33.900863]}},{"properties":{"zip":"91789","cus no":"B01289","geo_score":0.714,"id":"abe2u0lx8hgy","geo_precision":"zip"},"type":"Feature","geometry":{"type":"Point","coordinates":[-118.298662,33.786594]}},{"properties":{"zip":"85009","cus no":"B01347","geo_score":0.714,"id":"abe2u0lwjpcj","geo_precision":"zip"},"type":"Feature","geometry":{"type":"Point","coordinates":[-111.96942,33.447489]}},{"properties":{"zip":"85043","cus no":"B01749","geo_score":0.714,"id":"abe2u0u85t1q","geo_precision":"zip"},"type":"Feature","geometry":{"type":"Point","coordinates":[-112.18717,33.276539]}},{"properties":{"zip":"84401","cus no":"B01758","geo_score":0.714,"id":"abe2u0qmb616","geo_precision":"zip"},"type":"Feature","geometry":{"type":"Point","coordinates":[-112.007998,41.286055]}},{"properties":{"zip":"92408","cus no":"B02295","geo_score":0.714,"id":"abe2u0rhfs7u","geo_precision":"zip"},"type":"Feature","geometry":{"type":"Point","coordinates":[-115.967051,34.839964]}},{"properties":{"zip":"85260","cus no":"B02330","geo_score":0.714,"id":"abe2u0tsmxaf","geo_precision":"zip"},"type":"Feature","geometry":{"type":"Point","coordinates":[-112.18717,33.276539]}},{"properties":{"zip":"94128","cus no":"D00024","geo_score":0.714,"id":"abe2u0xobz66","geo_precision":"zip"},"type":"Feature","geometry":{"type":"Point","coordinates":[-122.384472,37.620378]}},{"properties":{"zip":"91768","cus no":"D00103","geo_score":0.714,"id":"abe2u0yekfoz","geo_precision":"zip"},"type":"Feature","geometry":{"type":"Point","coordinates":[-118.298662,33.786594]}},{"properties":{"zip":"92064","cus no":"D00499","geo_score":0.714,"id":"abe2u0ss44xa","geo_precision":"zip"},"type":"Feature","geometry":{"type":"Point","coordinates":[-117.030299,32.994097]}},{"properties":{"zip":"89119","cus no":"D00548","geo_score":0.714,"id":"abe2u10bpac6","geo_precision":"zip"},"type":"Feature","geometry":{"type":"Point","coordinates":[-115.148313,36.089022]}},{"properties":{"zip":"80011","cus no":"D00630","geo_score":0.714,"id":"abe2u0kg5m9v","geo_precision":"zip"},"type":"Feature","geometry":{"type":"Point","coordinates":[-104.822765,39.788286]}},{"properties":{"zip":"91761","cus no":"D00829","geo_score":0.714,"id":"abe2u0mrkxa6","geo_precision":"zip"},"type":"Feature","geometry":{"type":"Point","coordinates":[-115.967051,34.839964]}},{"properties":{"zip":"85043","cus no":"D00917","geo_score":0.714,"id":"abe2u0s7kaya","geo_precision":"zip"},"type":"Feature","geometry":{"type":"Point","coordinates":[-112.18717,33.276539]}},{"properties":{"zip":"90023","cus no":"D01044","geo_score":0.714,"id":"abe2u0xhqwhc","geo_precision":"zip"},"type":"Feature","geometry":{"type":"Point","coordinates":[-118.196055,34.008262]}},{"properties":{"zip":"90040","cus no":"D01075","geo_score":0.714,"id":"abe2u0ru4fev","geo_precision":"zip"},"type":"Feature","geometry":{"type":"Point","coordinates":[-118.153153,33.990863]}},{"properties":{"zip":"90011","cus no":"D02704","geo_score":0.714,"id":"abe2u0sa7i1x","geo_precision":"zip"},"type":"Feature","geometry":{"type":"Point","coordinates":[-118.250056,33.989264]}},{"properties":{"zip":"93309","cus no":"D03080","geo_score":0.714,"id":"abe2u0uig3as","geo_precision":"zip"},"type":"Feature","geometry":{"type":"Point","coordinates":[-118.905173,35.294405]}},{"properties":{"zip":"93306","cus no":"D03082","geo_score":0.714,"id":"abe2u0mrbmqf","geo_precision":"zip"},"type":"Feature","geometry":{"type":"Point","coordinates":[-118.867478,35.413048]}},{"properties":{"zip":"91710","cus no":"D03248","geo_score":0.714,"id":"abe2u0kse7oo","geo_precision":"zip"},"type":"Feature","geometry":{"type":"Point","coordinates":[-117.778668,33.947792]}},{"properties":{"zip":"91710","cus no":"D03344","geo_score":0.714,"id":"abe2u0pmgcv8","geo_precision":"zip"},"type":"Feature","geometry":{"type":"Point","coordinates":[-117.778668,33.947792]}},{"properties":{"zip":"18106","cus no":"D03370","geo_score":0.714,"id":"abe2u0zrkcju","geo_precision":"zip"},"type":"Feature","geometry":{"type":"Point","coordinates":[-75.552963,40.566764]}},{"properties":{"zip":"92553","cus no":"D03587","geo_score":0.714,"id":"abe2u0rnwirs","geo_precision":"zip"},"type":"Feature","geometry":{"type":"Point","coordinates":[-116.505017,32.679501]}},{"properties":{"zip":"84054","cus no":"D04256","geo_score":0.714,"id":"abe2u0rx2l52","geo_precision":"zip"},"type":"Feature","geometry":{"type":"Point","coordinates":[-111.919115,40.844595]}},{"properties":{"zip":"92203","cus no":"D05197","geo_score":0.714,"id":"abe2u0sgqdd7","geo_precision":"zip"},"type":"Feature","geometry":{"type":"Point","coordinates":[-116.26764,33.75317]}},{"properties":{"zip":"85043","cus no":"D05462","geo_score":0.714,"id":"abe2u0w5iaap","geo_precision":"zip"},"type":"Feature","geometry":{"type":"Point","coordinates":[-112.18717,33.276539]}},{"properties":{"zip":"77061","cus no":"D05710","geo_score":0.714,"id":"abe2u0nc2fly","geo_precision":"zip"},"type":"Feature","geometry":{"type":"Point","coordinates":[-95.28316,29.65688]}},{"properties":{"zip":"92821","cus no":"D05757","geo_score":0.714,"id":"abe2u0w1n0w2","geo_precision":"zip"},"type":"Feature","geometry":{"type":"Point","coordinates":[-117.769442,33.640302]}},{"properties":{"zip":"92618","cus no":"D05763","geo_score":0.714,"id":"abe2u0put07k","geo_precision":"zip"},"type":"Feature","geometry":{"type":"Point","coordinates":[-117.73269,33.641579]}},{"properties":{"zip":"90670","cus no":"D06126","geo_score":0.714,"id":"abe2u0mis2ch","geo_precision":"zip"},"type":"Feature","geometry":{"type":"Point","coordinates":[-118.063698,33.927063]}},{"properties":{"zip":"91342","cus no":"D06183","geo_score":0.714,"id":"abe2u0xcr735","geo_precision":"zip"},"type":"Feature","geometry":{"type":"Point","coordinates":[-118.298662,33.786594]}},{"properties":{"zip":"91761","cus no":"D06228","geo_score":0.714,"id":"abe2u0m07zix","geo_precision":"zip"},"type":"Feature","geometry":{"type":"Point","coordinates":[-115.967051,34.839964]}},{"properties":{"zip":"85009","cus no":"D06232","geo_score":0.714,"id":"abe2u0oghnxp","geo_precision":"zip"},"type":"Feature","geometry":{"type":"Point","coordinates":[-111.96942,33.447489]}},{"properties":{"zip":"83716","cus no":"D06400","geo_score":0.714,"id":"abe2u0ro7s90","geo_precision":"zip"},"type":"Feature","geometry":{"type":"Point","coordinates":[-116.079142,43.441445]}},{"properties":{"zip":"83716","cus no":"D06695","geo_score":0.714,"id":"abe2u0x5gl8q","geo_precision":"zip"},"type":"Feature","geometry":{"type":"Point","coordinates":[-116.079142,43.441445]}},{"properties":{"zip":"90723","cus no":"D06791","geo_score":0.714,"id":"abe2u0vpzhnx","geo_precision":"zip"},"type":"Feature","geometry":{"type":"Point","coordinates":[-118.165152,33.899015]}},{"properties":{"zip":"96707","cus no":"D07142","geo_score":0.714,"id":"abe2u10bio2f","geo_precision":"zip"},"type":"Feature","geometry":{"type":"Point","coordinates":[-158.091383,21.341784]}},{"properties":{"zip":"96707","cus no":"D07143","geo_score":0.714,"id":"abe2u0xr1vaw","geo_precision":"zip"},"type":"Feature","geometry":{"type":"Point","coordinates":[-158.091383,21.341784]}},{"properties":{"zip":"83616","cus no":"D07303","geo_score":0.714,"id":"abe2u0tstbo1","geo_precision":"zip"},"type":"Feature","geometry":{"type":"Point","coordinates":[-116.41033,43.735179]}},{"properties":{"zip":"84047","cus no":"D07404","geo_score":0.714,"id":"abe2u0uubqk2","geo_precision":"zip"},"type":"Feature","geometry":{"type":"Point","coordinates":[-111.885868,40.608972]}},{"properties":{"zip":"90058","cus no":"D07494","geo_score":0.714,"id":"abe2u0u9824z","geo_precision":"zip"},"type":"Feature","geometry":{"type":"Point","coordinates":[-118.230073,34.003903]}},{"properties":{"zip":"60525","cus no":"D07559","geo_score":0.714,"id":"abe2u0xxhrw9","geo_precision":"zip"},"type":"Feature","geometry":{"type":"Point","coordinates":[-87.68732,41.811929]}},{"properties":{"zip":"85043","cus no":"D07774","geo_score":0.714,"id":"abe2u0oxaehd","geo_precision":"zip"},"type":"Feature","geometry":{"type":"Point","coordinates":[-112.18717,33.276539]}},{"properties":{"zip":"90670","cus no":"D07817","geo_score":0.714,"id":"abe2u0rlivoo","geo_precision":"zip"},"type":"Feature","geometry":{"type":"Point","coordinates":[-118.063698,33.927063]}},{"properties":{"zip":"90058","cus no":"D07835","geo_score":0.714,"id":"abe2u0nddsb8","geo_precision":"zip"},"type":"Feature","geometry":{"type":"Point","coordinates":[-118.230073,34.003903]}},{"properties":{"zip":"92518","cus no":"D08162","geo_score":0.714,"id":"abe2u0w7ng2m","geo_precision":"zip"},"type":"Feature","geometry":{"type":"Point","coordinates":[-116.055617,33.752886]}},{"properties":{"zip":"92335","cus no":"D08338","geo_score":0.714,"id":"abe2u0yxbaow","geo_precision":"zip"},"type":"Feature","geometry":{"type":"Point","coordinates":[-117.488939,34.06279]}},{"properties":{"zip":"85353","cus no":"D08456","geo_score":0.714,"id":"abe2u0m5e7om","geo_precision":"zip"},"type":"Feature","geometry":{"type":"Point","coordinates":[-112.18717,33.276539]}},{"properties":{"zip":"92801","cus no":"D08592","geo_score":0.714,"id":"abe2u0mol7lh","geo_precision":"zip"},"type":"Feature","geometry":{"type":"Point","coordinates":[-117.769442,33.640302]}},{"properties":{"zip":"90040","cus no":"D08643","geo_score":0.714,"id":"abe2u0ox540w","geo_precision":"zip"},"type":"Feature","geometry":{"type":"Point","coordinates":[-118.153153,33.990863]}},{"properties":{"zip":"96819","cus no":"D08698","geo_score":0.714,"id":"abe2u0om90wk","geo_precision":"zip"},"type":"Feature","geometry":{"type":"Point","coordinates":[-157.901979,21.373179]}},{"properties":{"zip":"91761","cus no":"D08872","geo_score":0.714,"id":"abe2u0taklt7","geo_precision":"zip"},"type":"Feature","geometry":{"type":"Point","coordinates":[-115.967051,34.839964]}},{"properties":{"zip":"92507","cus no":"D09093","geo_score":0.714,"id":"abe2u0pvw4nc","geo_precision":"zip"},"type":"Feature","geometry":{"type":"Point","coordinates":[-117.296431,33.946683]}},{"properties":{"zip":"90670","cus no":"D09147","geo_score":0.714,"id":"abe2u0v30054","geo_precision":"zip"},"type":"Feature","geometry":{"type":"Point","coordinates":[-118.063698,33.927063]}},{"properties":{"zip":"91761","cus no":"D09434","geo_score":0.714,"id":"abe2u0klezq7","geo_precision":"zip"},"type":"Feature","geometry":{"type":"Point","coordinates":[-115.967051,34.839964]}},{"properties":{"zip":"92509","cus no":"D09685","geo_score":0.714,"id":"abe2u0v6q6ri","geo_precision":"zip"},"type":"Feature","geometry":{"type":"Point","coordinates":[-117.405602,33.996126]}},{"properties":{"zip":"90058","cus no":"D09688","geo_score":0.714,"id":"abe2u0qsqlsn","geo_precision":"zip"},"type":"Feature","geometry":{"type":"Point","coordinates":[-118.230073,34.003903]}},{"properties":{"zip":"93727","cus no":"D09843","geo_score":0.714,"id":"abe2u0o94ha5","geo_precision":"zip"},"type":"Feature","geometry":{"type":"Point","coordinates":[-119.700696,36.787728]}},{"properties":{"zip":"93534","cus no":"D09972","geo_score":0.714,"id":"abe2u0sayj02","geo_precision":"zip"},"type":"Feature","geometry":{"type":"Point","coordinates":[-118.424803,34.734705]}},{"properties":{"zip":"92394","cus no":"D09984","geo_score":0.714,"id":"abe2u0rf5gkw","geo_precision":"zip"},"type":"Feature","geometry":{"type":"Point","coordinates":[-115.172471,34.527103]}},{"properties":{"zip":"92545","cus no":"D09985","geo_score":0.714,"id":"abe2u0wbhrlt","geo_precision":"zip"},"type":"Feature","geometry":{"type":"Point","coordinates":[-116.055617,33.752886]}},{"properties":{"zip":"84119","cus no":"D09988","geo_score":0.714,"id":"abe2u0meb8fd","geo_precision":"zip"},"type":"Feature","geometry":{"type":"Point","coordinates":[-111.939104,40.71328]}},{"properties":{"zip":"84057","cus no":"D09989","geo_score":0.714,"id":"abe2u0yffqiu","geo_precision":"zip"},"type":"Feature","geometry":{"type":"Point","coordinates":[-111.746702,40.297037]}},{"properties":{"zip":"84067","cus no":"D09990","geo_score":0.714,"id":"abe2u0wrke6b","geo_precision":"zip"},"type":"Feature","geometry":{"type":"Point","coordinates":[-112.052525,41.178743]}},{"properties":{"zip":"84404","cus no":"D09991","geo_score":0.714,"id":"abe2u0t9ybxt","geo_precision":"zip"},"type":"Feature","geometry":{"type":"Point","coordinates":[-112.152441,41.250222]}},{"properties":{"zip":"90805","cus no":"D09995","geo_score":0.714,"id":"abe2u0x0xsog","geo_precision":"zip"},"type":"Feature","geometry":{"type":"Point","coordinates":[-118.1576,33.838815]}},{"properties":{"zip":"92570","cus no":"D09996","geo_score":0.714,"id":"abe2u0tdjz97","geo_precision":"zip"},"type":"Feature","geometry":{"type":"Point","coordinates":[-116.055617,33.752886]}},{"properties":{"zip":"85023","cus no":"D10004","geo_score":0.714,"id":"abe2u0le4shh","geo_precision":"zip"},"type":"Feature","geometry":{"type":"Point","coordinates":[-112.18717,33.276539]}},{"properties":{"zip":"85308","cus no":"D10005","geo_score":0.714,"id":"abe2u0t6hkkm","geo_precision":"zip"},"type":"Feature","geometry":{"type":"Point","coordinates":[-112.18717,33.276539]}},{"properties":{"zip":"91710","cus no":"D10102","geo_score":0.714,"id":"abe2u0zzs2oy","geo_precision":"zip"},"type":"Feature","geometry":{"type":"Point","coordinates":[-117.778668,33.947792]}},{"properties":{"zip":"93307","cus no":"D10187","geo_score":0.714,"id":"abe2u0sj503w","geo_precision":"zip"},"type":"Feature","geometry":{"type":"Point","coordinates":[-118.716613,35.105383]}},{"properties":{"zip":"92879","cus no":"D10188","geo_score":0.714,"id":"abe2u0pvq00y","geo_precision":"zip"},"type":"Feature","geometry":{"type":"Point","coordinates":[-116.055617,33.752886]}},{"properties":{"zip":"89103","cus no":"D10191","geo_score":0.714,"id":"abe2u0ncmk5h","geo_precision":"zip"},"type":"Feature","geometry":{"type":"Point","coordinates":[-114.891987,36.33689]}},{"properties":{"zip":"90058","cus no":"D10192","geo_score":0.714,"id":"abe2u0p8xzfy","geo_precision":"zip"},"type":"Feature","geometry":{"type":"Point","coordinates":[-118.230073,34.003903]}},{"properties":{"zip":"84111","cus no":"D10202","geo_score":0.714,"id":"abe2u0qov4tb","geo_precision":"zip"},"type":"Feature","geometry":{"type":"Point","coordinates":[-111.883718,40.755596]}},{"properties":{"zip":"85338","cus no":"D10255","geo_score":0.714,"id":"abe2u0sfm8d4","geo_precision":"zip"},"type":"Feature","geometry":{"type":"Point","coordinates":[-112.18717,33.276539]}},{"properties":{"zip":"91342","cus no":"D10743","geo_score":0.714,"id":"abe2u0m0483x","geo_precision":"zip"},"type":"Feature","geometry":{"type":"Point","coordinates":[-118.298662,33.786594]}},{"properties":{"zip":"96853","cus no":"G00490","geo_score":0.714,"id":"abe2u0x1y9vj","geo_precision":"zip"},"type":"Feature","geometry":{"type":"Point","coordinates":[-168.021815,24.859832]}},{"properties":{"zip":"96857","cus no":"G00494","geo_score":0.714,"id":"abe2u0skw3zb","geo_precision":"zip"},"type":"Feature","geometry":{"type":"Point","coordinates":[-168.021815,24.859832]}},{"properties":{"zip":"96860","cus no":"G00652","geo_score":0.0,"id":"abe2u0p7w4dn","geo_precision":"unmatched"},"type":"Feature","geometry":null},{"properties":{"zip":"96744","cus no":"G00698","geo_score":0.714,"id":"abe2u0lxbq2c","geo_precision":"zip"},"type":"Feature","geometry":{"type":"Point","coordinates":[-157.93955,21.66875]}},{"properties":{"zip":"92310","cus no":"G00932","geo_score":0.714,"id":"abe2u0wyytwe","geo_precision":"zip"},"type":"Feature","geometry":{"type":"Point","coordinates":[-116.696561,35.262453]}},{"properties":{"zip":"92278","cus no":"G01361","geo_score":0.714,"id":"abe2u0uucwrd","geo_precision":"zip"},"type":"Feature","geometry":{"type":"Point","coordinates":[-115.277758,34.311015]}},{"properties":{"zip":"85613","cus no":"G01365","geo_score":0.714,"id":"abe2u0ljaoxl","geo_precision":"zip"},"type":"Feature","geometry":{"type":"Point","coordinates":[-110.36258,31.55815]}},{"properties":{"zip":"85707","cus no":"G01380","geo_score":0.714,"id":"abe2u0o8vzg7","geo_precision":"zip"},"type":"Feature","geometry":{"type":"Point","coordinates":[-110.875093,32.169577]}},{"properties":{"zip":"93043","cus no":"G01423","geo_score":0.0,"id":"abe2u0tcac2z","geo_precision":"unmatched"},"type":"Feature","geometry":null},{"properties":{"zip":"90245","cus no":"G01661","geo_score":0.714,"id":"abe2u0k7y4aw","geo_precision":"zip"},"type":"Feature","geometry":{"type":"Point","coordinates":[-118.378687,33.922236]}},{"properties":{"zip":"84401","cus no":"G01751","geo_score":0.714,"id":"abe2u0mxpj1h","geo_precision":"zip"},"type":"Feature","geometry":{"type":"Point","coordinates":[-112.007998,41.286055]}},{"properties":{"zip":"83648","cus no":"G01941","geo_score":0.714,"id":"abe2u0kbqysx","geo_precision":"zip"},"type":"Feature","geometry":{"type":"Point","coordinates":[-115.86561,43.049628]}},{"properties":{"zip":"92518","cus no":"G02406","geo_score":0.714,"id":"abe2u0yk4c1q","geo_precision":"zip"},"type":"Feature","geometry":{"type":"Point","coordinates":[-116.055617,33.752886]}},{"properties":{"zip":"93437","cus no":"G03247","geo_score":0.714,"id":"abe2u0on7uwr","geo_precision":"zip"},"type":"Feature","geometry":{"type":"Point","coordinates":[-120.611004,34.754426]}},{"properties":{"zip":"89191","cus no":"G03324","geo_score":0.714,"id":"abe2u0vod3qf","geo_precision":"zip"},"type":"Feature","geometry":{"type":"Point","coordinates":[-114.972061,35.927901]}},{"properties":{"zip":"92311","cus no":"G03351","geo_score":0.714,"id":"abe2u10advjg","geo_precision":"zip"},"type":"Feature","geometry":{"type":"Point","coordinates":[-117.103931,34.87665]}},{"properties":{"zip":"85365","cus no":"G04001","geo_score":0.714,"id":"abe2u0zo3rcu","geo_precision":"zip"},"type":"Feature","geometry":{"type":"Point","coordinates":[-114.490471,32.709332]}},{"properties":{"zip":"93523","cus no":"G10457","geo_score":0.714,"id":"abe2u0n3pi40","geo_precision":"zip"},"type":"Feature","geometry":{"type":"Point","coordinates":[-117.92945,34.904487]}},{"properties":{"zip":"85309","cus no":"G10726","geo_score":0.714,"id":"abe2u0tf7stv","geo_precision":"zip"},"type":"Feature","geometry":{"type":"Point","coordinates":[-112.18717,33.276539]}},{"properties":{"zip":"85369","cus no":"G11139","geo_score":0.714,"id":"abe2u0rmzi0z","geo_precision":"zip"},"type":"Feature","geometry":{"type":"Point","coordinates":[-114.485504,32.818933]}},{"properties":{"zip":"93940","cus no":"G11812","geo_score":0.714,"id":"abe2u0lcafj1","geo_precision":"zip"},"type":"Feature","geometry":{"type":"Point","coordinates":[-121.688623,36.521811]}},{"properties":{"zip":"92055","cus no":"G13100","geo_score":0.714,"id":"abe2u0qe9arm","geo_precision":"zip"},"type":"Feature","geometry":{"type":"Point","coordinates":[-117.420873,33.251145]}},{"properties":{"zip":"84022","cus no":"G13333","geo_score":0.714,"id":"abe2u0tvec2m","geo_precision":"zip"},"type":"Feature","geometry":{"type":"Point","coordinates":[-112.626627,40.321332]}},{"properties":{"zip":"93555","cus no":"G14072","geo_score":0.714,"id":"abe2u0vhddgy","geo_precision":"zip"},"type":"Feature","geometry":{"type":"Point","coordinates":[-117.794007,35.540458]}},{"properties":{"zip":"96744","cus no":"G14482","geo_score":0.714,"id":"abe2u0l606k6","geo_precision":"zip"},"type":"Feature","geometry":{"type":"Point","coordinates":[-157.93955,21.66875]}},{"properties":{"zip":"93246","cus no":"G15075","geo_score":0.714,"id":"abe2u0q14efh","geo_precision":"zip"},"type":"Feature","geometry":{"type":"Point","coordinates":[-119.894727,36.138861]}},{"properties":{"zip":"92055","cus no":"G26062","geo_score":0.714,"id":"abe2u0k2nkyd","geo_precision":"zip"},"type":"Feature","geometry":{"type":"Point","coordinates":[-117.420873,33.251145]}},{"properties":{"zip":"92123","cus no":"G26122","geo_score":0.714,"id":"abe2u0rdckm3","geo_precision":"zip"},"type":"Feature","geometry":{"type":"Point","coordinates":[-117.138366,32.802827]}},{"properties":{"zip":"92135","cus no":"G35760","geo_score":0.714,"id":"abe2u0x0plq9","geo_precision":"zip"},"type":"Feature","geometry":{"type":"Point","coordinates":[-116.846046,33.016928]}},{"properties":{"zip":"92145","cus no":"G35763","geo_score":0.714,"id":"abe2u0uau3xj","geo_precision":"zip"},"type":"Feature","geometry":{"type":"Point","coordinates":[-117.100486,32.889139]}},{"properties":{"zip":"92136","cus no":"G35765","geo_score":0.714,"id":"abe2u0ssprtp","geo_precision":"zip"},"type":"Feature","geometry":{"type":"Point","coordinates":[-117.121913,32.68342]}},{"properties":{"zip":"85226","cus no":"M10374","geo_score":0.714,"id":"abe2u0pl510i","geo_precision":"zip"},"type":"Feature","geometry":{"type":"Point","coordinates":[-111.932892,33.303777]}},{"properties":{"zip":"90058","cus no":"M11447","geo_score":0.714,"id":"abe2u0uz8f3c","geo_precision":"zip"},"type":"Feature","geometry":{"type":"Point","coordinates":[-118.230073,34.003903]}},{"properties":{"zip":"92821","cus no":"M15175","geo_score":0.714,"id":"abe2u0yh9zle","geo_precision":"zip"},"type":"Feature","geometry":{"type":"Point","coordinates":[-117.769442,33.640302]}},{"properties":{"zip":"84041","cus no":"M50224","geo_score":0.714,"id":"abe2u0mdk5xs","geo_precision":"zip"},"type":"Feature","geometry":{"type":"Point","coordinates":[-111.998831,41.060222]}},{"properties":{"zip":"84054","cus no":"M51026","geo_score":0.714,"id":"abe2u0zbegg6","geo_precision":"zip"},"type":"Feature","geometry":{"type":"Point","coordinates":[-111.919115,40.844595]}},{"properties":{"zip":"92117","cus no":"M52095","geo_score":0.714,"id":"abe2u0l6ugjq","geo_precision":"zip"},"type":"Feature","geometry":{"type":"Point","coordinates":[-117.197168,32.818398]}},{"properties":{"zip":"92708","cus no":"M52128","geo_score":0.714,"id":"abe2u0x57mvm","geo_precision":"zip"},"type":"Feature","geometry":{"type":"Point","coordinates":[-117.769442,33.640302]}},{"properties":{"zip":"92069","cus no":"M52257","geo_score":0.714,"id":"abe2u0ouzzz8","geo_precision":"zip"},"type":"Feature","geometry":{"type":"Point","coordinates":[-117.154756,33.185315]}},{"properties":{"zip":"92832","cus no":"M52261","geo_score":0.714,"id":"abe2u0mrwzfa","geo_precision":"zip"},"type":"Feature","geometry":{"type":"Point","coordinates":[-117.769442,33.640302]}},{"properties":{"zip":"85282","cus no":"M52278","geo_score":0.714,"id":"abe2u0un4yn0","geo_precision":"zip"},"type":"Feature","geometry":{"type":"Point","coordinates":[-111.929253,33.396736]}},{"properties":{"zip":"90303","cus no":"M52303","geo_score":0.714,"id":"abe2u0kvga9o","geo_precision":"zip"},"type":"Feature","geometry":{"type":"Point","coordinates":[-118.298662,33.786594]}},{"properties":{"zip":"93036","cus no":"M52344","geo_score":0.714,"id":"abe2u0l10dtv","geo_precision":"zip"},"type":"Feature","geometry":{"type":"Point","coordinates":[-119.21216,34.199838]}},{"properties":{"zip":"93722","cus no":"M52394","geo_score":0.714,"id":"abe2u0oszt70","geo_precision":"zip"},"type":"Feature","geometry":{"type":"Point","coordinates":[-119.931132,36.793291]}},{"properties":{"zip":"89106","cus no":"M52513","geo_score":0.714,"id":"abe2u0u6mpin","geo_precision":"zip"},"type":"Feature","geometry":{"type":"Point","coordinates":[-115.167635,36.181169]}},{"properties":{"zip":"90755","cus no":"M52526","geo_score":0.714,"id":"abe2u0vyi7p7","geo_precision":"zip"},"type":"Feature","geometry":{"type":"Point","coordinates":[-118.167423,33.777152]}},{"properties":{"zip":"90650","cus no":"M52527","geo_score":0.714,"id":"abe2u0t4abjf","geo_precision":"zip"},"type":"Feature","geometry":{"type":"Point","coordinates":[-118.076549,33.906763]}},{"properties":{"zip":"91304","cus no":"M52572","geo_score":0.714,"id":"abe2u0lwb3jr","geo_precision":"zip"},"type":"Feature","geometry":{"type":"Point","coordinates":[-118.298662,33.786594]}},{"properties":{"zip":"80011","cus no":"M52590","geo_score":0.714,"id":"abe2u0nsbqht","geo_precision":"zip"},"type":"Feature","geometry":{"type":"Point","coordinates":[-104.822765,39.788286]}},{"properties":{"zip":"91803","cus no":"M52706","geo_score":0.714,"id":"abe2u108nm2a","geo_precision":"zip"},"type":"Feature","geometry":{"type":"Point","coordinates":[-118.298662,33.786594]}},{"properties":{"zip":"92675","cus no":"M52996","geo_score":0.714,"id":"abe2u0mpfvh3","geo_precision":"zip"},"type":"Feature","geometry":{"type":"Point","coordinates":[-117.618932,33.530631]}},{"properties":{"zip":"93454","cus no":"M53113","geo_score":0.714,"id":"abe2u0wjlpgh","geo_precision":"zip"},"type":"Feature","geometry":{"type":"Point","coordinates":[-120.291546,34.864702]}},{"properties":{"zip":"92395","cus no":"M53134","geo_score":0.0,"id":"abe2u0zt61c9","geo_precision":"unmatched"},"type":"Feature","geometry":null},{"properties":{"zip":"92879","cus no":"M53146","geo_score":0.714,"id":"abe2u0x2xrv0","geo_precision":"zip"},"type":"Feature","geometry":{"type":"Point","coordinates":[-116.055617,33.752886]}},{"properties":{"zip":"93454","cus no":"M53151","geo_score":0.714,"id":"abe2u0lod57y","geo_precision":"zip"},"type":"Feature","geometry":{"type":"Point","coordinates":[-120.291546,34.864702]}},{"properties":{"zip":"89502","cus no":"M53152","geo_score":0.714,"id":"abe2u0qy1kx5","geo_precision":"zip"},"type":"Feature","geometry":{"type":"Point","coordinates":[-119.717965,39.491856]}},{"properties":{"zip":"91731","cus no":"M53224","geo_score":0.714,"id":"abe2u0mgk27l","geo_precision":"zip"},"type":"Feature","geometry":{"type":"Point","coordinates":[-118.298662,33.786594]}},{"properties":{"zip":"85741","cus no":"M53260","geo_score":0.714,"id":"abe2u0uv2alp","geo_precision":"zip"},"type":"Feature","geometry":{"type":"Point","coordinates":[-111.058754,32.340073]}},{"properties":{"zip":"92102","cus no":"M53323","geo_score":0.714,"id":"abe2u0ows08v","geo_precision":"zip"},"type":"Feature","geometry":{"type":"Point","coordinates":[-117.157533,32.747828]}},{"properties":{"zip":"91324","cus no":"M53351","geo_score":0.714,"id":"abe2u0y8yrqx","geo_precision":"zip"},"type":"Feature","geometry":{"type":"Point","coordinates":[-118.298662,33.786594]}},{"properties":{"zip":"92324","cus no":"M53356","geo_score":0.714,"id":"abe2u0xp5kqj","geo_precision":"zip"},"type":"Feature","geometry":{"type":"Point","coordinates":[-117.313654,34.033903]}},{"properties":{"zip":"90220","cus no":"M78290","geo_score":0.714,"id":"abe2u0tl2vzn","geo_precision":"zip"},"type":"Feature","geometry":{"type":"Point","coordinates":[-118.240208,33.874815]}},{"properties":{"zip":"80537","cus no":"R03070","geo_score":0.714,"id":"abe2u0osiloc","geo_precision":"zip"},"type":"Feature","geometry":{"type":"Point","coordinates":[-104.950809,40.406649]}},{"properties":{"zip":"11572","cus no":"R03155","geo_score":0.714,"id":"abe2u0kqc9ck","geo_precision":"zip"},"type":"Feature","geometry":{"type":"Point","coordinates":[-73.636923,40.635252]}},{"properties":{"zip":"60191","cus no":"R03455","geo_score":0.714,"id":"abe2u0za640f","geo_precision":"zip"},"type":"Feature","geometry":{"type":"Point","coordinates":[-88.088716,41.839679]}},{"properties":{"zip":"07114","cus no":"R04232","geo_score":0.714,"id":"abe2u0klerz6","geo_precision":"zip"},"type":"Feature","geometry":{"type":"Point","coordinates":[-74.169538,40.705401]}}],"is_temporal":false,"author":{"url":"","metadata":null,"contact_name":null,"contact_address":null,"source":null,"contact_phone":null},"source":"","pagination":{"sort":null,"start":0,"total":333,"limit":1000000},"state":"complete","tags":"","published":"2014-08-16T13:44:22-04:00","id":310557}