{"type":"FeatureCollection","data_type":"Dataset","url_type":null,"permissions":[{"permissions":{"download":true,"view":true},"group_id":"everyone"}],"classification":null,"title":"ranking","count":20,"stream_id":310993,"contributor":{"url":"http://geocommons.com/users/59070","name":"suvirb"},"data_attributes":null,"calculation_params":null,"icon_link":null,"link":"http://geocommons.com/overlays/310993.json","extent":[-128.833,-22.1333,121.043,62.1167],"geometry_types":["point"],"unique_name":null,"name":"ranking","feature_count":20,"description":"","next_feature":null,"is_raster":false,"short_classification":"Y","stats":{"total ranking":{"max":20,"mean":10.5,"variance":35.0,"stdev":5.91607978309962,"median":11,"min":1}},"features":[{"properties":{"city":"Silicon Valley","total ranking":1,"geo_score":0.857,"id":"abffsv2w4qdy","geo_precision":"zip"},"type":"Feature","geometry":{"type":"Point","coordinates":[-70.2166667,42.5333333]}},{"properties":{"city":"Tel Aviv","total ranking":2,"geo_score":0.714,"id":"abffsvejsxku","geo_precision":"zip"},"type":"Feature","geometry":{"type":"Point","coordinates":[120.1597,-5.1695]}},{"properties":{"city":"Los Angeles","total ranking":3,"geo_score":0.714,"id":"abffsvdf4k64","geo_precision":"zip"},"type":"Feature","geometry":{"type":"Point","coordinates":[4.556944,52.26]}},{"properties":{"city":"Seattle","total ranking":4,"geo_score":0.714,"id":"abffsv5isxbw","geo_precision":"zip"},"type":"Feature","geometry":{"type":"Point","coordinates":[18.2383333,44.8408333]}},{"properties":{"city":"New  York City","total ranking":5,"geo_score":0.714,"id":"abffsv3uwmg9","geo_precision":"zip"},"type":"Feature","geometry":{"type":"Point","coordinates":[118.218537,27.002969]}},{"properties":{"city":"Boston","total ranking":6,"geo_score":0.857,"id":"abffsv7mk97v","geo_precision":"zip"},"type":"Feature","geometry":{"type":"Point","coordinates":[1.51779406,42.5766438]}},{"properties":{"city":"London","total ranking":7,"geo_score":0.714,"id":"abffsvexl8hu","geo_precision":"zip"},"type":"Feature","geometry":{"type":"Point","coordinates":[-80.75,8.5833333]}},{"properties":{"city":"Toronto","total ranking":8,"geo_score":0.714,"id":"abffsvgnxttg","geo_precision":"zip"},"type":"Feature","geometry":{"type":"Point","coordinates":[119.9252778,-2.8819444]}},{"properties":{"city":"Vancouver","total ranking":9,"geo_score":0.857,"id":"abffsv8u6pbk","geo_precision":"zip"},"type":"Feature","geometry":{"type":"Point","coordinates":[-128.8333333,49.8333333]}},{"properties":{"city":"Chicago","total ranking":10,"geo_score":0.714,"id":"abffsvegpr0f","geo_precision":"zip"},"type":"Feature","geometry":{"type":"Point","coordinates":[-77.6108333,-11.0652778]}},{"properties":{"city":"Paris","total ranking":11,"geo_score":0.714,"id":"abffsvg2rtly","geo_precision":"zip"},"type":"Feature","geometry":{"type":"Point","coordinates":[121.0427778,15.7544444]}},{"properties":{"city":"Sydney","total ranking":12,"geo_score":0.714,"id":"abffsvfqhv7k","geo_precision":"zip"},"type":"Feature","geometry":{"type":"Point","coordinates":[-7.0,62.1166667]}},{"properties":{"city":"Sao Paulo","total ranking":13,"geo_score":0.714,"id":"abffsv6tm108","geo_precision":"zip"},"type":"Feature","geometry":{"type":"Point","coordinates":[106.0551,-6.1113]}},{"properties":{"city":"Moscow","total ranking":14,"geo_score":0.714,"id":"abffsve8z2ws","geo_precision":"zip"},"type":"Feature","geometry":{"type":"Point","coordinates":[17.3025,44.3027778]}},{"properties":{"city":"Berlin","total ranking":15,"geo_score":0.714,"id":"abffsv6ry6fl","geo_precision":"zip"},"type":"Feature","geometry":{"type":"Point","coordinates":[6.491667,53.1325]}},{"properties":{"city":"Waterloo","total ranking":16,"geo_score":0.714,"id":"abffsv3tv77p","geo_precision":"zip"},"type":"Feature","geometry":{"type":"Point","coordinates":[18.35,-22.1333333]}},{"properties":{"city":"Singapore","total ranking":17,"geo_score":0.857,"id":"abffsv2g3mzs","geo_precision":"zip"},"type":"Feature","geometry":{"type":"Point","coordinates":[104.0,1.25]}},{"properties":{"city":"Melbourne","total ranking":18,"geo_score":0.714,"id":"abffsvdzm84h","geo_precision":"zip"},"type":"Feature","geometry":{"type":"Point","coordinates":[80.1833333,6.8666667]}},{"properties":{"city":"Bangalore","total ranking":19,"geo_score":0.714,"id":"abffsv3q9ea2","geo_precision":"zip"},"type":"Feature","geometry":{"type":"Point","coordinates":[77.6032912731171,12.9762266976805]}},{"properties":{"city":"Santiago","total ranking":20,"geo_score":0.714,"id":"abffsv67p7qi","geo_precision":"zip"},"type":"Feature","geometry":{"type":"Point","coordinates":[-23.5333333,15.1333333]}}],"is_temporal":false,"author":{"url":"","metadata":"","contact_name":"","contact_address":"","source":"","contact_phone":""},"source":"","pagination":{"sort":null,"start":0,"total":20,"limit":1000000},"state":"complete","tags":"","published":"2014-08-16T14:12:49-04:00","id":310993}