{"type":"FeatureCollection","data_type":"Dataset","url_type":null,"permissions":[{"permissions":{"download":true,"view":true},"group_id":"everyone"}],"classification":null,"title":"sales addrss","count":790,"stream_id":311854,"contributor":{"url":"http://geocommons.com/users/59270","name":"dmuller24"},"data_attributes":null,"calculation_params":null,"icon_link":null,"link":"http://geocommons.com/overlays/311854.json","extent":[0.0,0.0,0.0,0.0],"geometry_types":[],"unique_name":null,"name":"sales addrss","feature_count":790,"description":"","next_feature":null,"is_raster":false,"short_classification":"Y","stats":{"sold price":{},"zip/postal code":{"max":43201,"mean":33242.7670886076,"variance":153874.81260368,"stdev":392.268801466138,"median":33183,"min":32905}},"features":[{"properties":{"city":"Hallandale Beach","geo_score":0.0,"sold price":"$2,000.00","id":"abih04opg49c","address":"2500 Parkview Drive","zip/postal code":33009,"geo_precision":"unmatched"},"type":"Feature","geometry":null},{"properties":{"city":"Miami","geo_score":0.0,"sold price":"$7,000.00","id":"abih04k4za5j","address":"5340 Sw 153rd Court","zip/postal code":33185,"geo_precision":"unmatched"},"type":"Feature","geometry":null},{"properties":{"city":"Margate","geo_score":0.0,"sold price":"$17,000.00","id":"abih04qagc89","address":"7785 Highlands Circle","zip/postal code":33063,"geo_precision":"unmatched"},"type":"Feature","geometry":null},{"properties":{"city":"Coral Springs","geo_score":0.0,"sold price":"$10,360.00","id":"abih04ofr46w","address":"7360 Nw 18th Street","zip/postal code":33063,"geo_precision":"unmatched"},"type":"Feature","geometry":null},{"properties":{"city":"Miami","geo_score":0.0,"sold price":"$10,411.00","id":"abih04ghb8br","address":"7880 Sw 86th Street","zip/postal code":33156,"geo_precision":"unmatched"},"type":"Feature","geometry":null},{"properties":{"city":"Miami","geo_score":0.0,"sold price":"$16,450.00","id":"abih04mlgnx4","address":"10765 SW 135th Terrace","zip/postal code":33176,"geo_precision":"unmatched"},"type":"Feature","geometry":null},{"properties":{"city":"Miami","geo_score":0.0,"sold price":"$3,400.00","id":"abih04hvo0mo","address":"5077 Nw 7th Street,","zip/postal code":33126,"geo_precision":"unmatched"},"type":"Feature","geometry":null},{"properties":{"city":"Hallandale","geo_score":0.0,"sold price":"$7,638.00","id":"abih04jbi47b","address":"1000 Ne 12th Avenue","zip/postal code":33009,"geo_precision":"unmatched"},"type":"Feature","geometry":null},{"properties":{"city":"Miramar","geo_score":0.0,"sold price":"$12,300.00","id":"abih04sdffex","address":"13650 Sw 18th Street","zip/postal code":33027,"geo_precision":"unmatched"},"type":"Feature","geometry":null},{"properties":{"city":"Pembroke Pines","geo_score":0.0,"sold price":"$5,000.00","id":"abih04mpnfhj","address":"301 Sw 86th Ave.","zip/postal code":33025,"geo_precision":"unmatched"},"type":"Feature","geometry":null},{"properties":{"city":"Jupiter","geo_score":0.0,"sold price":"$2,500.00","id":"abih04k5cjqd","address":"1605 S Us Hgwy 1","zip/postal code":33477,"geo_precision":"unmatched"},"type":"Feature","geometry":null},{"properties":{"city":"Miami Lakes","geo_score":0.0,"sold price":"$1,850.00","id":"abih04rmox7w","address":"18800 Nw 27th Ave","zip/postal code":33056,"geo_precision":"unmatched"},"type":"Feature","geometry":null},{"properties":{"city":"Miami","geo_score":0.0,"sold price":"$4,500.00","id":"abih04jkycjh","address":"35 Ne 40th Street","zip/postal code":33137,"geo_precision":"unmatched"},"type":"Feature","geometry":null},{"properties":{"city":"Pembroke Pines","geo_score":0.0,"sold price":"$14,720.00","id":"abih04jrn2xn","address":"1601 Lacosta Drive E","zip/postal code":33037,"geo_precision":"unmatched"},"type":"Feature","geometry":null},{"properties":{"city":"Homestead","geo_score":0.0,"sold price":"$8,080.00","id":"abih04nbj9er","address":"562 Se 18th Drive","zip/postal code":33033,"geo_precision":"unmatched"},"type":"Feature","geometry":null},{"properties":{"city":"Miami","geo_score":0.0,"sold price":"$12,500.00","id":"abih04uzbg3h","address":"2418 Sw 18th Avenue","zip/postal code":33145,"geo_precision":"unmatched"},"type":"Feature","geometry":null},{"properties":{"city":"Coral Gables","geo_score":0.0,"sold price":"$19,200.00","id":"abih04hkctb0","address":"1205 Mariposa Avenue","zip/postal code":33146,"geo_precision":"unmatched"},"type":"Feature","geometry":null},{"properties":{"city":"Miami","geo_score":0.0,"sold price":"$3,900.00","id":"abih04n1knyu","address":"4740 Nw 169th Street","zip/postal code":33055,"geo_precision":"unmatched"},"type":"Feature","geometry":null},{"properties":{"city":"Miami","geo_score":0.0,"sold price":"$13,750.00","id":"abih04kvyc9j","address":"14141 Sw 149th Avenue","zip/postal code":33196,"geo_precision":"unmatched"},"type":"Feature","geometry":null},{"properties":{"city":"Miami","geo_score":0.0,"sold price":"$8,990.00","id":"abih04tohmiw","address":"1040 Sw 72nd Court","zip/postal code":33144,"geo_precision":"unmatched"},"type":"Feature","geometry":null},{"properties":{"city":"Plantation","geo_score":0.0,"sold price":"$11,310.00","id":"abih04nqe08a","address":"6755 W Broward Blvd","zip/postal code":33317,"geo_precision":"unmatched"},"type":"Feature","geometry":null},{"properties":{"city":"Cooper City","geo_score":0.0,"sold price":"$2,500.00","id":"abih04jem60b","address":"2513 Baccarat Drive","zip/postal code":33026,"geo_precision":"unmatched"},"type":"Feature","geometry":null},{"properties":{"city":"Miami","geo_score":0.0,"sold price":"$20,980.00","id":"abih04jgmifg","address":"1299 Sw 191st Terrace","zip/postal code":33177,"geo_precision":"unmatched"},"type":"Feature","geometry":null},{"properties":{"city":"Wilton Manors","geo_score":0.0,"sold price":"$17,750.00","id":"abih04op8kv5","address":"1730 Ne 28th Drive","zip/postal code":33334,"geo_precision":"unmatched"},"type":"Feature","geometry":null},{"properties":{"city":"Pembroke Pines","geo_score":0.0,"sold price":"$6,400.00","id":"abih04lz8csh","address":"7490 Nw 21st Place","zip/postal code":33024,"geo_precision":"unmatched"},"type":"Feature","geometry":null},{"properties":{"city":"Boynton Beach","geo_score":0.0,"sold price":"$22,840.00","id":"abih04knysza","address":"8833 VIa Tuscany Drive","zip/postal code":33472,"geo_precision":"unmatched"},"type":"Feature","geometry":null},{"properties":{"city":"Highland Beach","geo_score":0.0,"sold price":"$9,850.00","id":"abih04r0j67j","address":"4750 S Ocean Blvd","zip/postal code":33487,"geo_precision":"unmatched"},"type":"Feature","geometry":null},{"properties":{"city":"Pembroke Pines","geo_score":0.0,"sold price":"$4,150.00","id":"abih04t68apr","address":"1419 Nw 113th Way","zip/postal code":33026,"geo_precision":"unmatched"},"type":"Feature","geometry":null},{"properties":{"city":"Coconut Creek","geo_score":0.0,"sold price":"$5,350.00","id":"abih04mgoed8","address":"3801 Cocoa Plum Circle","zip/postal code":33063,"geo_precision":"unmatched"},"type":"Feature","geometry":null},{"properties":{"city":"Miami","geo_score":0.0,"sold price":"$6,800.00","id":"abih04j2hlqv","address":"1401 Sw 22 St","zip/postal code":33145,"geo_precision":"unmatched"},"type":"Feature","geometry":null},{"properties":{"city":"Miami","geo_score":0.0,"sold price":"$9,500.00","id":"abih04nb2h7x","address":"4790 Sw 141st Avenue","zip/postal code":33175,"geo_precision":"unmatched"},"type":"Feature","geometry":null},{"properties":{"city":"Tamarac","geo_score":0.0,"sold price":"$15,865.00","id":"abih04r31cus","address":"7403 N Devon Drive","zip/postal code":33321,"geo_precision":"unmatched"},"type":"Feature","geometry":null},{"properties":{"city":"Weston","geo_score":0.0,"sold price":"$6,745.00","id":"abih04u1fnjw","address":"2452 Provence Court","zip/postal code":33327,"geo_precision":"unmatched"},"type":"Feature","geometry":null},{"properties":{"city":"Plantation","geo_score":0.0,"sold price":"$11,500.00","id":"abih04myjoj1","address":"9528 Nw 9th Court","zip/postal code":33324,"geo_precision":"unmatched"},"type":"Feature","geometry":null},{"properties":{"city":"Tamarac","geo_score":0.0,"sold price":"$6,400.00","id":"abih04mx2oec","address":"7204 Nw 68th Street","zip/postal code":33321,"geo_precision":"unmatched"},"type":"Feature","geometry":null},{"properties":{"city":"Pompano Beach","geo_score":0.0,"sold price":"$12,530.00","id":"abih04jly2p7","address":"2212 S Cypress Bend Dr.","zip/postal code":33069,"geo_precision":"unmatched"},"type":"Feature","geometry":null},{"properties":{"city":"Weston","geo_score":0.0,"sold price":"$14,220.00","id":"abih04uu1tx5","address":"829 Azalea Place","zip/postal code":33327,"geo_precision":"unmatched"},"type":"Feature","geometry":null},{"properties":{"city":"Aventura","geo_score":0.0,"sold price":"$10,750.00","id":"abih04kn1bds","address":"19355 Turn Berry Way","zip/postal code":33180,"geo_precision":"unmatched"},"type":"Feature","geometry":null},{"properties":{"city":"Miramar","geo_score":0.0,"sold price":"$8,210.00","id":"abih04hmmdir","address":"3410 Foxcroft Road","zip/postal code":33025,"geo_precision":"unmatched"},"type":"Feature","geometry":null},{"properties":{"city":"Lake Park","geo_score":0.0,"sold price":"$250.00","id":"abih04gezxiy","address":"516 Teak Drive","zip/postal code":33403,"geo_precision":"unmatched"},"type":"Feature","geometry":null},{"properties":{"city":"Miami Beach","geo_score":0.0,"sold price":"$7,739.00","id":"abih04hzkmmq","address":"7620 Carlyle Avenue","zip/postal code":33141,"geo_precision":"unmatched"},"type":"Feature","geometry":null},{"properties":{"city":"Miami","geo_score":0.0,"sold price":"$7,225.00","id":"abih04pquroa","address":"19900 E Country Club Drive,","zip/postal code":33180,"geo_precision":"unmatched"},"type":"Feature","geometry":null},{"properties":{"city":"Delray Beach","geo_score":0.0,"sold price":"$3,800.00","id":"abih04puko9c","address":"16769 Oakhill Trail","zip/postal code":33484,"geo_precision":"unmatched"},"type":"Feature","geometry":null},{"properties":{"city":"Davie","geo_score":0.0,"sold price":"$8,134.00","id":"abih04ppen8d","address":"9001 Southern Orchard Road","zip/postal code":33328,"geo_precision":"unmatched"},"type":"Feature","geometry":null},{"properties":{"city":"Fort Lauderdale","geo_score":0.0,"sold price":"$6,597.00","id":"abih04i3cdhe","address":"5811 Ne 22nd Avenue","zip/postal code":33308,"geo_precision":"unmatched"},"type":"Feature","geometry":null},{"properties":{"city":"Weston","geo_score":0.0,"sold price":"$8,841.00","id":"abih04ivz80z","address":"1050 Bayside Lane","zip/postal code":33326,"geo_precision":"unmatched"},"type":"Feature","geometry":null},{"properties":{"city":"Miramar","geo_score":0.0,"sold price":"$11,000.00","id":"abih04hok8fa","address":"9040 Sw 20th Street","zip/postal code":33025,"geo_precision":"unmatched"},"type":"Feature","geometry":null},{"properties":{"city":"Boca Raton","geo_score":0.0,"sold price":"$9,000.00","id":"abih04hmj5y0","address":"9676 A Boca Gardens Circle N","zip/postal code":33496,"geo_precision":"unmatched"},"type":"Feature","geometry":null},{"properties":{"city":"Miramar","geo_score":0.0,"sold price":"$15,500.00","id":"abih04hlxs3l","address":"19311 Sw 31st Court","zip/postal code":33029,"geo_precision":"unmatched"},"type":"Feature","geometry":null},{"properties":{"city":"West Palm Beach","geo_score":0.0,"sold price":"$26,500.00","id":"abih04jalvfp","address":"263 Barcelona Road","zip/postal code":33401,"geo_precision":"unmatched"},"type":"Feature","geometry":null},{"properties":{"city":"Sunrise","geo_score":0.0,"sold price":"$7,500.00","id":"abih04g96erf","address":"6441 Nw 29th Court","zip/postal code":33313,"geo_precision":"unmatched"},"type":"Feature","geometry":null},{"properties":{"city":"Miami","geo_score":0.0,"sold price":"$10,508.00","id":"abih04gjpz20","address":"5340 Sw 153rd Court","zip/postal code":33185,"geo_precision":"unmatched"},"type":"Feature","geometry":null},{"properties":{"city":"Plantation","geo_score":0.0,"sold price":"$9,500.00","id":"abih04jwrrk8","address":"1028 Nw 99th Avenue","zip/postal code":33322,"geo_precision":"unmatched"},"type":"Feature","geometry":null},{"properties":{"city":"Hollywood","geo_score":0.0,"sold price":"$444.00","id":"abih04ltdam8","address":"6651 Forrest Street","zip/postal code":33024,"geo_precision":"unmatched"},"type":"Feature","geometry":null},{"properties":{"city":"Miramar","geo_score":0.0,"sold price":"$9,650.00","id":"abih04jbf5ci","address":"6440 Sw 25th Street","zip/postal code":33023,"geo_precision":"unmatched"},"type":"Feature","geometry":null},{"properties":{"city":"Aventura","geo_score":0.0,"sold price":"$17,591.43","id":"abih04u8w7cv","address":"19195 Mystic Pointe Drive","zip/postal code":33180,"geo_precision":"unmatched"},"type":"Feature","geometry":null},{"properties":{"city":"Sunrise","geo_score":0.0,"sold price":"$14,839.00","id":"abih04jts7mj","address":"7191 Nw 24th Court","zip/postal code":33313,"geo_precision":"unmatched"},"type":"Feature","geometry":null},{"properties":{"city":"Wilton Manors","geo_score":0.0,"sold price":"$8,200.00","id":"abih04nv41a9","address":"2909 Nw 12th Avenue","zip/postal code":33311,"geo_precision":"unmatched"},"type":"Feature","geometry":null},{"properties":{"city":"Weston","geo_score":0.0,"sold price":"$29,536.00","id":"abih04raus8a","address":"2690 Riveria Court","zip/postal code":33332,"geo_precision":"unmatched"},"type":"Feature","geometry":null},{"properties":{"city":"Sunrise","geo_score":0.0,"sold price":"$7,895.00","id":"abih04ik6fa6","address":"13233 Nw 12th Court","zip/postal code":33323,"geo_precision":"unmatched"},"type":"Feature","geometry":null},{"properties":{"city":"Boynton Beach","geo_score":0.0,"sold price":"$19,000.00","id":"abih04w2ubb0","address":"12529 Imperial Isle Drive","zip/postal code":33437,"geo_precision":"unmatched"},"type":"Feature","geometry":null},{"properties":{"city":"Miami","geo_score":0.0,"sold price":"$19,275.00","id":"abih04lw2vzc","address":"10020 Sw 147th Court","zip/postal code":33196,"geo_precision":"unmatched"},"type":"Feature","geometry":null},{"properties":{"city":"North Lauderdale","geo_score":0.0,"sold price":"$8,200.00","id":"abih04lptk94","address":"7955 Sw 5th Street","zip/postal code":33068,"geo_precision":"unmatched"},"type":"Feature","geometry":null},{"properties":{"city":"Miami","geo_score":0.0,"sold price":"$6,225.00","id":"abih04jpj4p6","address":"5077 Nw 7th Street","zip/postal code":33126,"geo_precision":"unmatched"},"type":"Feature","geometry":null},{"properties":{"city":"Fort Lauderdale","geo_score":0.0,"sold price":"$4,575.00","id":"abih04v21h69","address":"8745 Sw 57th Place","zip/postal code":33328,"geo_precision":"unmatched"},"type":"Feature","geometry":null},{"properties":{"city":"Pompano Beach","geo_score":0.0,"sold price":"$16,780.00","id":"abih04hbebc8","address":"2951 NW 1st Drive","zip/postal code":33064,"geo_precision":"unmatched"},"type":"Feature","geometry":null},{"properties":{"city":"Boca Raton","geo_score":0.0,"sold price":"$1,650.00","id":"abih04itpf00","address":"6662 Villa Sonrisa Drive","zip/postal code":33433,"geo_precision":"unmatched"},"type":"Feature","geometry":null},{"properties":{"city":"Fort Lauderdale","geo_score":0.0,"sold price":"$10,993.00","id":"abih04h8ns2w","address":"5202 Sw 90th Terrace","zip/postal code":33328,"geo_precision":"unmatched"},"type":"Feature","geometry":null},{"properties":{"city":"Miami Lakes","geo_score":0.0,"sold price":"$10,328.05","id":"abih04rqpeoq","address":"20061 Nw 66th Place","zip/postal code":33015,"geo_precision":"unmatched"},"type":"Feature","geometry":null},{"properties":{"city":"Miami Beach","geo_score":0.0,"sold price":"$5,450.00","id":"abih04hiy8tj","address":"3131 N Bay Road","zip/postal code":33140,"geo_precision":"unmatched"},"type":"Feature","geometry":null},{"properties":{"city":"Delray Beach","geo_score":0.0,"sold price":"$21,000.00","id":"abih04lwk4h8","address":"950 Flanders T","zip/postal code":33484,"geo_precision":"unmatched"},"type":"Feature","geometry":null},{"properties":{"city":"Sunny Isles Beach","geo_score":0.0,"sold price":"$11,160.00","id":"abih04rhsh3q","address":"400 Kings Point Drive","zip/postal code":33160,"geo_precision":"unmatched"},"type":"Feature","geometry":null},{"properties":{"city":"Oakland Park","geo_score":0.0,"sold price":"$8,700.00","id":"abih04k17boe","address":"711 Ne 60th Street","zip/postal code":33334,"geo_precision":"unmatched"},"type":"Feature","geometry":null},{"properties":{"city":"Weston","geo_score":0.0,"sold price":"$6,100.00","id":"abih04lbu09v","address":"2546 Jardin Drive","zip/postal code":33327,"geo_precision":"unmatched"},"type":"Feature","geometry":null},{"properties":{"city":"Miami","geo_score":0.0,"sold price":"$500.00","id":"abih04k8e7im","address":"3521 Sw 117th Court","zip/postal code":33175,"geo_precision":"unmatched"},"type":"Feature","geometry":null},{"properties":{"city":"West Palm Beach","geo_score":0.0,"sold price":"$4,490.00","id":"abih04ugv4ry","address":"11090 81st Court N","zip/postal code":33412,"geo_precision":"unmatched"},"type":"Feature","geometry":null},{"properties":{"city":"Hollywood","geo_score":0.0,"sold price":"$12,770.00","id":"abih04nus35z","address":"1720 Jefferson Street","zip/postal code":33020,"geo_precision":"unmatched"},"type":"Feature","geometry":null},{"properties":{"city":"Coconut Creek","geo_score":0.0,"sold price":"$15,000.00","id":"abih04omdisp","address":"711 Lyons Road","zip/postal code":33063,"geo_precision":"unmatched"},"type":"Feature","geometry":null},{"properties":{"city":"Miami","geo_score":0.0,"sold price":"$8,350.00","id":"abih04qlitd2","address":"10645 Sw 113th Place","zip/postal code":33176,"geo_precision":"unmatched"},"type":"Feature","geometry":null},{"properties":{"city":"West Palm Beach","geo_score":0.0,"sold price":"$6,450.00","id":"abih04hz379o","address":"432 34th Street","zip/postal code":33407,"geo_precision":"unmatched"},"type":"Feature","geometry":null},{"properties":{"city":"Miami Lakes","geo_score":0.0,"sold price":"$14,758.00","id":"abih04tzoo2g","address":"8326 Dundee Terrace","zip/postal code":33016,"geo_precision":"unmatched"},"type":"Feature","geometry":null},{"properties":{"city":"Davie","geo_score":0.0,"sold price":"$23,456.00","id":"abih04hoikip","address":"14421 Bedford Court","zip/postal code":33325,"geo_precision":"unmatched"},"type":"Feature","geometry":null},{"properties":{"city":"Delray Beach","geo_score":0.0,"sold price":"$12,992.00","id":"abih04n7yq0o","address":"6064 Petunia Road","zip/postal code":33484,"geo_precision":"unmatched"},"type":"Feature","geometry":null},{"properties":{"city":"Pembroke Pines","geo_score":0.0,"sold price":"$18,750.00","id":"abih04oktgfh","address":"2480 Nw 193rd Avenue","zip/postal code":33029,"geo_precision":"unmatched"},"type":"Feature","geometry":null},{"properties":{"city":"Aventura","geo_score":0.0,"sold price":"$8,300.00","id":"abih04iei4zx","address":"19195 Mystic Point Drive","zip/postal code":33180,"geo_precision":"unmatched"},"type":"Feature","geometry":null},{"properties":{"city":"Fort Lauderdale","geo_score":0.0,"sold price":"$17,338.90","id":"abih04t5o9ns","address":"4010 Galt Ocean Drive","zip/postal code":33308,"geo_precision":"unmatched"},"type":"Feature","geometry":null},{"properties":{"city":"Deerfield Beach","geo_score":0.0,"sold price":"$24,350.00","id":"abih04qir9h3","address":"2015 Newport G","zip/postal code":33442,"geo_precision":"unmatched"},"type":"Feature","geometry":null},{"properties":{"city":"Palm Beach Gardens","geo_score":0.0,"sold price":"$4,500.00","id":"abih04ihoa7i","address":"10313 Daphne Avenue","zip/postal code":33410,"geo_precision":"unmatched"},"type":"Feature","geometry":null},{"properties":{"city":"Miami","geo_score":0.0,"sold price":"$7,991.00","id":"abih04ujpqe1","address":"11750 Sw 18th Street","zip/postal code":33175,"geo_precision":"unmatched"},"type":"Feature","geometry":null},{"properties":{"city":"Loxahatchee","geo_score":0.0,"sold price":"$17,600.00","id":"abih04l73x2j","address":"17646 88th Road N","zip/postal code":33470,"geo_precision":"unmatched"},"type":"Feature","geometry":null},{"properties":{"city":"Davie","geo_score":0.0,"sold price":"$11,000.00","id":"abih04pqudm8","address":"12770 Sw 34th Place","zip/postal code":33330,"geo_precision":"unmatched"},"type":"Feature","geometry":null},{"properties":{"city":"Miami","geo_score":0.0,"sold price":"$6,760.00","id":"abih04l3guhn","address":"14335 Sw 162nd Street","zip/postal code":33157,"geo_precision":"unmatched"},"type":"Feature","geometry":null},{"properties":{"city":"Jupiter","geo_score":0.0,"sold price":"$8,046.00","id":"abih04tgzlf0","address":"126 N River Drive W","zip/postal code":33458,"geo_precision":"unmatched"},"type":"Feature","geometry":null},{"properties":{"city":"Pembroke Pines","geo_score":0.0,"sold price":"$14,000.00","id":"abih04pxzvnp","address":"801 Sw 149th Terrace","zip/postal code":33027,"geo_precision":"unmatched"},"type":"Feature","geometry":null},{"properties":{"city":"Hollywood","geo_score":0.0,"sold price":"$19,580.00","id":"abih04ivjp28","address":"3920 Hayes Street","zip/postal code":33021,"geo_precision":"unmatched"},"type":"Feature","geometry":null},{"properties":{"city":"Coral Springs","geo_score":0.0,"sold price":"$6,400.00","id":"abih04qjsbtz","address":"4756 Nw 115th Terrace","zip/postal code":33076,"geo_precision":"unmatched"},"type":"Feature","geometry":null},{"properties":{"city":"Fort Lauderdale","geo_score":0.0,"sold price":"$20,900.00","id":"abih04q0xgys","address":"5821 Ne 21st Avenue","zip/postal code":33308,"geo_precision":"unmatched"},"type":"Feature","geometry":null},{"properties":{"city":"Hollywood","geo_score":0.0,"sold price":"$5,850.00","id":"abih04n6gb41","address":"815 N Golf Drive","zip/postal code":33021,"geo_precision":"unmatched"},"type":"Feature","geometry":null},{"properties":{"city":"Hialeah","geo_score":0.0,"sold price":"$7,965.00","id":"abih04shckbq","address":"1074 W 79th Street","zip/postal code":33014,"geo_precision":"unmatched"},"type":"Feature","geometry":null},{"properties":{"city":"Jupiter","geo_score":0.0,"sold price":"$13,625.00","id":"abih04u732zs","address":"825 Center Street","zip/postal code":33458,"geo_precision":"unmatched"},"type":"Feature","geometry":null},{"properties":{"city":"Fort Lauderdale","geo_score":0.0,"sold price":"$7,250.00","id":"abih04njd9qm","address":"850 NE 59th Court","zip/postal code":33334,"geo_precision":"unmatched"},"type":"Feature","geometry":null},{"properties":{"city":"Sunny Isles Beach","geo_score":0.0,"sold price":"$9,800.00","id":"abih04u40fgq","address":"17021 N Bay Road","zip/postal code":33160,"geo_precision":"unmatched"},"type":"Feature","geometry":null},{"properties":{"city":"Miami","geo_score":0.0,"sold price":"$8,000.00","id":"abih04qbg55i","address":"9801 Sw 195th Street","zip/postal code":33157,"geo_precision":"unmatched"},"type":"Feature","geometry":null},{"properties":{"city":"Miami","geo_score":0.0,"sold price":"$12,800.00","id":"abih04ie15o3","address":"20220 Sw 85th Court","zip/postal code":33189,"geo_precision":"unmatched"},"type":"Feature","geometry":null},{"properties":{"city":"Boca Raton","geo_score":0.0,"sold price":"$8,000.00","id":"abih04lm1s6b","address":"9589 Tropical Park Place","zip/postal code":33428,"geo_precision":"unmatched"},"type":"Feature","geometry":null},{"properties":{"city":"Pembroke Pines","geo_score":0.0,"sold price":"$25,000.00","id":"abih04kn6e3k","address":"12839 Nw 23rd Street","zip/postal code":33028,"geo_precision":"unmatched"},"type":"Feature","geometry":null},{"properties":{"city":"West Palm Beach","geo_score":0.0,"sold price":"$7,800.00","id":"abih04pg17oq","address":"2305 Bermuda Drive","zip/postal code":33406,"geo_precision":"unmatched"},"type":"Feature","geometry":null},{"properties":{"city":"Hallandale","geo_score":0.0,"sold price":"$8,815.00","id":"abih04i109kc","address":"137 Golden Isles Drive","zip/postal code":33009,"geo_precision":"unmatched"},"type":"Feature","geometry":null},{"properties":{"city":"Davie","geo_score":0.0,"sold price":"$13,898.10","id":"abih04si5hss","address":"8300 Sw 55th Court","zip/postal code":33328,"geo_precision":"unmatched"},"type":"Feature","geometry":null},{"properties":{"city":"Weston","geo_score":0.0,"sold price":"$9,154.00","id":"abih04o792ub","address":"16200 Golf Club Road","zip/postal code":33326,"geo_precision":"unmatched"},"type":"Feature","geometry":null},{"properties":{"city":"Hialeah","geo_score":0.0,"sold price":"$-","id":"abih04t62inv","address":"3559 W 71st Terrace","zip/postal code":33018,"geo_precision":"unmatched"},"type":"Feature","geometry":null},{"properties":{"city":"Fort Lauderdale","geo_score":0.0,"sold price":"$-","id":"abih04k7puvh","address":"4800 Bayview Drive","zip/postal code":33308,"geo_precision":"unmatched"},"type":"Feature","geometry":null},{"properties":{"city":"Lake Worth","geo_score":0.0,"sold price":"$-","id":"abih04vwbqdd","address":"4731 Poseidon Place","zip/postal code":33463,"geo_precision":"unmatched"},"type":"Feature","geometry":null},{"properties":{"city":"Hollywood","geo_score":0.0,"sold price":"$-","id":"abih04lezi0y","address":"338 Roosevelt Drive","zip/postal code":33019,"geo_precision":"unmatched"},"type":"Feature","geometry":null},{"properties":{"city":"Columbus","geo_score":0.0,"sold price":"$-","id":"abih04rxumds","address":"40 West 1st Ave","zip/postal code":43201,"geo_precision":"unmatched"},"type":"Feature","geometry":null},{"properties":{"city":"Cooper City","geo_score":0.0,"sold price":"$-","id":"abih04obmg2y","address":"10240 Port Of Spain Street","zip/postal code":33026,"geo_precision":"unmatched"},"type":"Feature","geometry":null},{"properties":{"city":"Aventura","geo_score":0.0,"sold price":"$-","id":"abih04t0wwpc","address":"3375 N Country Club Drive","zip/postal code":33180,"geo_precision":"unmatched"},"type":"Feature","geometry":null},{"properties":{"city":"Plantation","geo_score":0.0,"sold price":"$-","id":"abih04tze76r","address":"10170 Nw 10th Street","zip/postal code":33322,"geo_precision":"unmatched"},"type":"Feature","geometry":null},{"properties":{"city":"Homestead","geo_score":0.0,"sold price":"$-","id":"abih04sc176w","address":"15971 Sw 154th Street","zip/postal code":33031,"geo_precision":"unmatched"},"type":"Feature","geometry":null},{"properties":{"city":"Jupiter","geo_score":0.0,"sold price":"$-","id":"abih04nf6ods","address":"506 N Dover Road","zip/postal code":33469,"geo_precision":"unmatched"},"type":"Feature","geometry":null},{"properties":{"city":"Miami","geo_score":0.0,"sold price":"$-","id":"abih04i4lahj","address":"80 Ne 94th Street","zip/postal code":33138,"geo_precision":"unmatched"},"type":"Feature","geometry":null},{"properties":{"city":"Plantation","geo_score":0.0,"sold price":"$-","id":"abih04hpgb61","address":"140 Royal Palm Court","zip/postal code":33311,"geo_precision":"unmatched"},"type":"Feature","geometry":null},{"properties":{"city":"Miami Beach","geo_score":0.0,"sold price":"$-","id":"abih04mwfyph","address":"200 Alton Road","zip/postal code":33139,"geo_precision":"unmatched"},"type":"Feature","geometry":null},{"properties":{"city":"Miami","geo_score":0.0,"sold price":"$-","id":"abih04qi5svo","address":"15247 Sw 109th Street","zip/postal code":33196,"geo_precision":"unmatched"},"type":"Feature","geometry":null},{"properties":{"city":"Fort Lauderdale","geo_score":0.0,"sold price":"$-","id":"abih04k9tixy","address":"2504 Sw 34th Ave","zip/postal code":33312,"geo_precision":"unmatched"},"type":"Feature","geometry":null},{"properties":{"city":"Weston","geo_score":0.0,"sold price":"$-","id":"abih04htbaot","address":"4011 Turquoise Trail","zip/postal code":33331,"geo_precision":"unmatched"},"type":"Feature","geometry":null},{"properties":{"city":"Fort Lauderdale","geo_score":0.0,"sold price":"$-","id":"abih04nkynkt","address":"2930 Nw 24th Avenue","zip/postal code":33311,"geo_precision":"unmatched"},"type":"Feature","geometry":null},{"properties":{"city":"Boca Raton","geo_score":0.0,"sold price":"$-","id":"abih04kuk8iu","address":"13 Royal Palm","zip/postal code":33432,"geo_precision":"unmatched"},"type":"Feature","geometry":null},{"properties":{"city":"Pembroke Pines","geo_score":0.0,"sold price":"$-","id":"abih04vmjxeg","address":"1366 Sw 106th Avenue","zip/postal code":33025,"geo_precision":"unmatched"},"type":"Feature","geometry":null},{"properties":{"city":"Coconut Grove","geo_score":0.0,"sold price":"$-","id":"abih04lu6jou","address":"2325 Sw 27th Lane","zip/postal code":33133,"geo_precision":"unmatched"},"type":"Feature","geometry":null},{"properties":{"city":"Sunrise","geo_score":0.0,"sold price":"$-","id":"abih04tzx3ie","address":"4010 Nw 88th Avenue","zip/postal code":33331,"geo_precision":"unmatched"},"type":"Feature","geometry":null},{"properties":{"city":"Coral Springs","geo_score":0.0,"sold price":"$-","id":"abih04gvt0ej","address":"11050 Cypress Run Drive","zip/postal code":33071,"geo_precision":"unmatched"},"type":"Feature","geometry":null},{"properties":{"city":"Miami","geo_score":0.0,"sold price":"$-","id":"abih04tur5z3","address":"14335 Sw 162nd Street","zip/postal code":33157,"geo_precision":"unmatched"},"type":"Feature","geometry":null},{"properties":{"city":"Miami","geo_score":0.0,"sold price":"$-","id":"abih04hkarrv","address":"9463 SW 220th Street","zip/postal code":33190,"geo_precision":"unmatched"},"type":"Feature","geometry":null},{"properties":{"city":"Hollywood","geo_score":0.0,"sold price":"$-","id":"abih04jrffym","address":"2965 Dove Drive","zip/postal code":33026,"geo_precision":"unmatched"},"type":"Feature","geometry":null},{"properties":{"city":"Boca Raton","geo_score":0.0,"sold price":"$-","id":"abih04gj0hsw","address":"6875 Willow Wood Drive","zip/postal code":33434,"geo_precision":"unmatched"},"type":"Feature","geometry":null},{"properties":{"city":"Miami","geo_score":0.0,"sold price":"$-","id":"abih04fy8o73","address":"14525 Sw 92nd Court","zip/postal code":33176,"geo_precision":"unmatched"},"type":"Feature","geometry":null},{"properties":{"city":"Aventura","geo_score":0.0,"sold price":"$-","id":"abih04v6y5zc","address":"3115 Ne 184th Street","zip/postal code":33160,"geo_precision":"unmatched"},"type":"Feature","geometry":null},{"properties":{"city":"Weston","geo_score":0.0,"sold price":"$-","id":"abih04lorqbh","address":"16091 Blatt Blvd 204","zip/postal code":33326,"geo_precision":"unmatched"},"type":"Feature","geometry":null},{"properties":{"city":"Boca Raton","geo_score":0.0,"sold price":"$-","id":"abih04jhxc50","address":"3034 Ainslie C","zip/postal code":33434,"geo_precision":"unmatched"},"type":"Feature","geometry":null},{"properties":{"city":"Hollywood","geo_score":0.0,"sold price":"$-","id":"abih04txigy6","address":"4217 Monroe Street","zip/postal code":33021,"geo_precision":"unmatched"},"type":"Feature","geometry":null},{"properties":{"city":"Plantation","geo_score":0.0,"sold price":"$-","id":"abih04t8p6iy","address":"100 Nw 76th Avenue","zip/postal code":33324,"geo_precision":"unmatched"},"type":"Feature","geometry":null},{"properties":{"city":"Highland Beach","geo_score":0.0,"sold price":"$-","id":"abih04snoqn2","address":"4511 S Ocean Blvd","zip/postal code":33487,"geo_precision":"unmatched"},"type":"Feature","geometry":null},{"properties":{"city":"Miami Beach","geo_score":0.0,"sold price":"$-","id":"abih04owxqf9","address":"5701 Collins Avenue","zip/postal code":33140,"geo_precision":"unmatched"},"type":"Feature","geometry":null},{"properties":{"city":"Plantation","geo_score":0.0,"sold price":"$-","id":"abih04ld43u4","address":"504 NW 103rd Avenue","zip/postal code":33324,"geo_precision":"unmatched"},"type":"Feature","geometry":null},{"properties":{"city":"Davie","geo_score":0.0,"sold price":"$-","id":"abih04ibaj9l","address":"9480 Poinciana Place","zip/postal code":33324,"geo_precision":"unmatched"},"type":"Feature","geometry":null},{"properties":{"city":"Coral Springs","geo_score":0.0,"sold price":"$-","id":"abih04prj2vr","address":"4756 Nw 115th Terrace","zip/postal code":33076,"geo_precision":"unmatched"},"type":"Feature","geometry":null},{"properties":{"city":"Boca Raton","geo_score":0.0,"sold price":"$-","id":"abih04hw378r","address":"1078 Wolverton D","zip/postal code":33434,"geo_precision":"unmatched"},"type":"Feature","geometry":null},{"properties":{"city":"Hollywood","geo_score":0.0,"sold price":"$-","id":"abih04n1edt0","address":"2415 Jackson Street","zip/postal code":33020,"geo_precision":"unmatched"},"type":"Feature","geometry":null},{"properties":{"city":"Hollywood","geo_score":0.0,"sold price":"$-","id":"abih04pv9teb","address":"2945 Sw 133 Avenue","zip/postal code":33027,"geo_precision":"unmatched"},"type":"Feature","geometry":null},{"properties":{"city":"Pembroke Pines","geo_score":0.0,"sold price":"$-","id":"abih04oqlz4n","address":"1520 Nw 140th Manor","zip/postal code":33028,"geo_precision":"unmatched"},"type":"Feature","geometry":null},{"properties":{"city":"Miami","geo_score":0.0,"sold price":"$-","id":"abih04nyk6do","address":"13198 Sw 91st","zip/postal code":33176,"geo_precision":"unmatched"},"type":"Feature","geometry":null},{"properties":{"city":"Miami","geo_score":0.0,"sold price":"$-","id":"abih04fmw6y1","address":"12745 Sw 71 Avenue","zip/postal code":33156,"geo_precision":"unmatched"},"type":"Feature","geometry":null},{"properties":{"city":"Jupiter","geo_score":0.0,"sold price":"$-","id":"abih04n4fiet","address":"6280 Longleaf Pine Drive","zip/postal code":33458,"geo_precision":"unmatched"},"type":"Feature","geometry":null},{"properties":{"city":"Davie","geo_score":0.0,"sold price":"$-","id":"abih04qwc31b","address":"9001 Southern Orchard Road","zip/postal code":33328,"geo_precision":"unmatched"},"type":"Feature","geometry":null},{"properties":{"city":"Sunrise","geo_score":0.0,"sold price":"$-","id":"abih04tbguup","address":"15893 E Wind Circle","zip/postal code":33326,"geo_precision":"unmatched"},"type":"Feature","geometry":null},{"properties":{"city":"Pembroke Pines","geo_score":0.0,"sold price":"$-","id":"abih04ky6ag0","address":"12839 Nw 23rd Street","zip/postal code":33028,"geo_precision":"unmatched"},"type":"Feature","geometry":null},{"properties":{"city":"Lake Worth","geo_score":0.0,"sold price":"$-","id":"abih04nmn194","address":"8431 Linden Way","zip/postal code":33467,"geo_precision":"unmatched"},"type":"Feature","geometry":null},{"properties":{"city":"Miami","geo_score":0.0,"sold price":"$-","id":"abih04j41zft","address":"5035 Orduna Drive","zip/postal code":33131,"geo_precision":"unmatched"},"type":"Feature","geometry":null},{"properties":{"city":"Fort Lauderdale","geo_score":0.0,"sold price":"$-","id":"abih04v6i4mx","address":"5811 Ne 22nd Avenue","zip/postal code":33308,"geo_precision":"unmatched"},"type":"Feature","geometry":null},{"properties":{"city":"Davie","geo_score":0.0,"sold price":"$-","id":"abih04rcxzuf","address":"1710 Whitehall Drive","zip/postal code":33324,"geo_precision":"unmatched"},"type":"Feature","geometry":null},{"properties":{"city":"Davie","geo_score":0.0,"sold price":"$-","id":"abih04gewa4y","address":"931 Richwood Terrace","zip/postal code":33325,"geo_precision":"unmatched"},"type":"Feature","geometry":null},{"properties":{"city":"Plantation","geo_score":0.0,"sold price":"$-","id":"abih04ox8s0g","address":"9815 Nw 3rd Street","zip/postal code":33324,"geo_precision":"unmatched"},"type":"Feature","geometry":null},{"properties":{"city":"Weston","geo_score":0.0,"sold price":"$-","id":"abih04pdzhkq","address":"1109 Hidden Valley Way","zip/postal code":33327,"geo_precision":"unmatched"},"type":"Feature","geometry":null},{"properties":{"city":"Palm Beach","geo_score":0.0,"sold price":"$-","id":"abih04hdp7mt","address":"80 Middle Road","zip/postal code":33480,"geo_precision":"unmatched"},"type":"Feature","geometry":null},{"properties":{"city":"West Palm Beach","geo_score":0.0,"sold price":"$-","id":"abih04jl89br","address":"88 Satinwood Lane","zip/postal code":33410,"geo_precision":"unmatched"},"type":"Feature","geometry":null},{"properties":{"city":"Boynton Beach","geo_score":0.0,"sold price":"$-","id":"abih04nyibq2","address":"8833 VIa Tuscany Drive","zip/postal code":33472,"geo_precision":"unmatched"},"type":"Feature","geometry":null},{"properties":{"city":"Pembroke Pines","geo_score":0.0,"sold price":"$-","id":"abih04rci8ab","address":"19063 Nw 23rd Place","zip/postal code":33029,"geo_precision":"unmatched"},"type":"Feature","geometry":null},{"properties":{"city":"West Palm Beach","geo_score":0.0,"sold price":"$-","id":"abih04pubqzv","address":"1056 W 27th Street","zip/postal code":33404,"geo_precision":"unmatched"},"type":"Feature","geometry":null},{"properties":{"city":"Fort Lauderdale","geo_score":0.0,"sold price":"$-","id":"abih04hf2jzl","address":"4120 Staghorn Ln","zip/postal code":33331,"geo_precision":"unmatched"},"type":"Feature","geometry":null},{"properties":{"city":"Cooper City","geo_score":0.0,"sold price":"$-","id":"abih04lmslr9","address":"13180 Parkside Terrace","zip/postal code":33330,"geo_precision":"unmatched"},"type":"Feature","geometry":null},{"properties":{"city":"Coral Gables","geo_score":0.0,"sold price":"$-","id":"abih04sohzl5","address":"1529 Palermo Avenue","zip/postal code":33134,"geo_precision":"unmatched"},"type":"Feature","geometry":null},{"properties":{"city":"Miami","geo_score":0.0,"sold price":"$-","id":"abih04uit7n1","address":"12500 Sw 90th Avenue","zip/postal code":33176,"geo_precision":"unmatched"},"type":"Feature","geometry":null},{"properties":{"city":"Weston","geo_score":0.0,"sold price":"$-","id":"abih04l0756j","address":"808 Stanton Drive","zip/postal code":33326,"geo_precision":"unmatched"},"type":"Feature","geometry":null},{"properties":{"city":"Plantation","geo_score":0.0,"sold price":"$-","id":"abih04u3xhtc","address":"1410 Nw 90th Way","zip/postal code":33322,"geo_precision":"unmatched"},"type":"Feature","geometry":null},{"properties":{"city":"West Palm Beach","geo_score":0.0,"sold price":"$-","id":"abih04i5j891","address":"4207 Hyacinth Circle N","zip/postal code":33410,"geo_precision":"unmatched"},"type":"Feature","geometry":null},{"properties":{"city":"Fort Lauderdale","geo_score":0.0,"sold price":"$-","id":"abih04g2lo3n","address":"3604 Sw 21st Court","zip/postal code":33312,"geo_precision":"unmatched"},"type":"Feature","geometry":null},{"properties":{"city":"Coconut Creek","geo_score":0.0,"sold price":"$-","id":"abih04u870rj","address":"2373 Nw 34th Road","zip/postal code":33066,"geo_precision":"unmatched"},"type":"Feature","geometry":null},{"properties":{"city":"Davie","geo_score":0.0,"sold price":"$-","id":"abih04j6i8dz","address":"4271 Sw 106th Terrace","zip/postal code":33328,"geo_precision":"unmatched"},"type":"Feature","geometry":null},{"properties":{"city":"Hollywood","geo_score":0.0,"sold price":"$-","id":"abih04vwihxi","address":"2742 Adams Street","zip/postal code":33021,"geo_precision":"unmatched"},"type":"Feature","geometry":null},{"properties":{"city":"Margate","geo_score":0.0,"sold price":"$-","id":"abih04oegybg","address":"3066 W. Buenavista Dr","zip/postal code":33322,"geo_precision":"unmatched"},"type":"Feature","geometry":null},{"properties":{"city":"Pembroke Pines","geo_score":0.0,"sold price":"$-","id":"abih04vs4nfz","address":"16090 NW 21st Street","zip/postal code":33028,"geo_precision":"unmatched"},"type":"Feature","geometry":null},{"properties":{"city":"Miami","geo_score":0.0,"sold price":"$-","id":"abih04hp2ug4","address":"50 Ne 119th Street","zip/postal code":33161,"geo_precision":"unmatched"},"type":"Feature","geometry":null},{"properties":{"city":"Miami","geo_score":0.0,"sold price":"$-","id":"abih04s58f15","address":"16543 Sw 97th Street","zip/postal code":33196,"geo_precision":"unmatched"},"type":"Feature","geometry":null},{"properties":{"city":"Coconut Creek","geo_score":0.0,"sold price":"$-","id":"abih04lorqus","address":"4930 Nw 56th Street","zip/postal code":33073,"geo_precision":"unmatched"},"type":"Feature","geometry":null},{"properties":{"city":"Plantation","geo_score":0.0,"sold price":"$-","id":"abih04gnsa7v","address":"867 Nw 81st Terrace","zip/postal code":33324,"geo_precision":"unmatched"},"type":"Feature","geometry":null},{"properties":{"city":"Fort Lauderdale","geo_score":0.0,"sold price":"$-","id":"abih04nkanq2","address":"2421 SW 28th Avenue","zip/postal code":33312,"geo_precision":"unmatched"},"type":"Feature","geometry":null},{"properties":{"city":"Pompano Beach","geo_score":0.0,"sold price":"$-","id":"abih04hjs3i3","address":"4000 Cypress Grove Way","zip/postal code":33069,"geo_precision":"unmatched"},"type":"Feature","geometry":null},{"properties":{"city":"Weston","geo_score":0.0,"sold price":"$-","id":"abih04rqng43","address":"604 Stanton Drive","zip/postal code":33326,"geo_precision":"unmatched"},"type":"Feature","geometry":null},{"properties":{"city":"Miami","geo_score":0.0,"sold price":"$-","id":"abih04fkc3zu","address":"10423 N Kendall Drive","zip/postal code":33176,"geo_precision":"unmatched"},"type":"Feature","geometry":null},{"properties":{"city":"Pembroke Pines","geo_score":0.0,"sold price":"$-","id":"abih04o7baxq","address":"9601 Johnson Street","zip/postal code":33024,"geo_precision":"unmatched"},"type":"Feature","geometry":null},{"properties":{"city":"Fort Lauderdale","geo_score":0.0,"sold price":"$-","id":"abih04n7v4mf","address":"5050 Bayview Drive","zip/postal code":33308,"geo_precision":"unmatched"},"type":"Feature","geometry":null},{"properties":{"city":"Miami","geo_score":0.0,"sold price":"$-","id":"abih04gnugqj","address":"7830 Camino Real K","zip/postal code":33143,"geo_precision":"unmatched"},"type":"Feature","geometry":null},{"properties":{"city":"Miami","geo_score":0.0,"sold price":"$-","id":"abih04mxiprx","address":"3148 NW 196th Street","zip/postal code":33056,"geo_precision":"unmatched"},"type":"Feature","geometry":null},{"properties":{"city":"Miramar","geo_score":0.0,"sold price":"$-","id":"abih04vzo6ru","address":"3672 Sw 163rd Avenue","zip/postal code":33027,"geo_precision":"unmatched"},"type":"Feature","geometry":null},{"properties":{"city":"Aventura","geo_score":0.0,"sold price":"$-","id":"abih04rg66g8","address":"3000 Maros Drive","zip/postal code":33160,"geo_precision":"unmatched"},"type":"Feature","geometry":null},{"properties":{"city":"Davie","geo_score":0.0,"sold price":"$-","id":"abih04obu3xr","address":"6548 Hidden Cove Drive","zip/postal code":33314,"geo_precision":"unmatched"},"type":"Feature","geometry":null},{"properties":{"city":"Hallandale","geo_score":0.0,"sold price":"$-","id":"abih04v9g9ud","address":"460 Paradise Isle Blvd","zip/postal code":33009,"geo_precision":"unmatched"},"type":"Feature","geometry":null},{"properties":{"city":"Miami Beach","geo_score":0.0,"sold price":"$-","id":"abih04nuswke","address":"2655 Collins Avenue","zip/postal code":33140,"geo_precision":"unmatched"},"type":"Feature","geometry":null},{"properties":{"city":"Miramar","geo_score":0.0,"sold price":"$-","id":"abih04gli6pv","address":"13650 Sw 18th Street","zip/postal code":33027,"geo_precision":"unmatched"},"type":"Feature","geometry":null},{"properties":{"city":"Miami Gardens","geo_score":0.0,"sold price":"$-","id":"abih04o5wbjk","address":"6980 NW 186th Street","zip/postal code":33015,"geo_precision":"unmatched"},"type":"Feature","geometry":null},{"properties":{"city":"Coral Springs","geo_score":0.0,"sold price":"$-","id":"abih04fkk5ga","address":"12131 Nw 32nd Court","zip/postal code":33065,"geo_precision":"unmatched"},"type":"Feature","geometry":null},{"properties":{"city":"Miramar","geo_score":0.0,"sold price":"$-","id":"abih04ok0ha9","address":"2094 SW 149th Avenue","zip/postal code":33027,"geo_precision":"unmatched"},"type":"Feature","geometry":null},{"properties":{"city":"Miami","geo_score":0.0,"sold price":"$-","id":"abih04jkfiiz","address":"2000 Towerside Terrace","zip/postal code":33138,"geo_precision":"unmatched"},"type":"Feature","geometry":null},{"properties":{"city":"Wilton Manors","geo_score":0.0,"sold price":"$-","id":"abih04kfiv5h","address":"9 Ne 19th Street","zip/postal code":33305,"geo_precision":"unmatched"},"type":"Feature","geometry":null},{"properties":{"city":"Margate","geo_score":0.0,"sold price":"$-","id":"abih04ij1783","address":"885 SW 50th Avenue","zip/postal code":33068,"geo_precision":"unmatched"},"type":"Feature","geometry":null},{"properties":{"city":"Miami","geo_score":0.0,"sold price":"$-","id":"abih04pffqsh","address":"87 Ne 168th Street","zip/postal code":33162,"geo_precision":"unmatched"},"type":"Feature","geometry":null},{"properties":{"city":"Miami","geo_score":0.0,"sold price":"$-","id":"abih04hazey0","address":"5551 Nw 188th Street","zip/postal code":33055,"geo_precision":"unmatched"},"type":"Feature","geometry":null},{"properties":{"city":"Parkland","geo_score":0.0,"sold price":"$-","id":"abih04ik2hhq","address":"8011 Falls Lane","zip/postal code":33067,"geo_precision":"unmatched"},"type":"Feature","geometry":null},{"properties":{"city":"Hialeah","geo_score":0.0,"sold price":"$-","id":"abih04thuc7z","address":"601 E 44th Stret","zip/postal code":33013,"geo_precision":"unmatched"},"type":"Feature","geometry":null},{"properties":{"city":"Hialeah","geo_score":0.0,"sold price":"$-","id":"abih04o68lzn","address":"601 E 44th Stret","zip/postal code":33013,"geo_precision":"unmatched"},"type":"Feature","geometry":null},{"properties":{"city":"Miami","geo_score":0.0,"sold price":"$-","id":"abih04oeh9s7","address":"540 Brickell Key Drive","zip/postal code":33131,"geo_precision":"unmatched"},"type":"Feature","geometry":null},{"properties":{"city":"Miami","geo_score":0.0,"sold price":"$-","id":"abih04gq6jz1","address":"285 Nw 128th Street","zip/postal code":33168,"geo_precision":"unmatched"},"type":"Feature","geometry":null},{"properties":{"city":"Greenacres","geo_score":0.0,"sold price":"$-","id":"abih04iitp66","address":"715 Sunny Pineway","zip/postal code":33415,"geo_precision":"unmatched"},"type":"Feature","geometry":null},{"properties":{"city":"Plantation","geo_score":0.0,"sold price":"$-","id":"abih04lubl07","address":"770 Nw 98th Way","zip/postal code":33324,"geo_precision":"unmatched"},"type":"Feature","geometry":null},{"properties":{"city":"Miami","geo_score":0.0,"sold price":"$-","id":"abih04gmokod","address":"14501 Sw 136th Place","zip/postal code":33186,"geo_precision":"unmatched"},"type":"Feature","geometry":null},{"properties":{"city":"Cooper City","geo_score":0.0,"sold price":"$-","id":"abih04nvrnm0","address":"11260 Sunview Way","zip/postal code":33026,"geo_precision":"unmatched"},"type":"Feature","geometry":null},{"properties":{"city":"Miami Gardens","geo_score":0.0,"sold price":"$-","id":"abih04v0yyii","address":"2007 Nw 175th Street","zip/postal code":33055,"geo_precision":"unmatched"},"type":"Feature","geometry":null},{"properties":{"city":"Boynton Beach","geo_score":0.0,"sold price":"$-","id":"abih04sm4mjx","address":"2300 Ne 1st Lane","zip/postal code":33426,"geo_precision":"unmatched"},"type":"Feature","geometry":null},{"properties":{"city":"Boca Raton","geo_score":0.0,"sold price":"$-","id":"abih04n1nzv8","address":"13 Royal Palm","zip/postal code":33432,"geo_precision":"unmatched"},"type":"Feature","geometry":null},{"properties":{"city":"Plantation","geo_score":0.0,"sold price":"$-","id":"abih04kmdj14","address":"364 Nw 95th Avenue","zip/postal code":33324,"geo_precision":"unmatched"},"type":"Feature","geometry":null},{"properties":{"city":"Boca Raton","geo_score":0.0,"sold price":"$-","id":"abih04pawnss","address":"9100 Red Oak Lane","zip/postal code":33428,"geo_precision":"unmatched"},"type":"Feature","geometry":null},{"properties":{"city":"Jupiter","geo_score":0.0,"sold price":"$-","id":"abih04qnxsd0","address":"19800 Sandpointe Bay Drive","zip/postal code":33469,"geo_precision":"unmatched"},"type":"Feature","geometry":null},{"properties":{"city":"Weston","geo_score":0.0,"sold price":"$-","id":"abih04jjt3i0","address":"2553 Jardin Terrace","zip/postal code":33327,"geo_precision":"unmatched"},"type":"Feature","geometry":null},{"properties":{"city":"Coral Springs","geo_score":0.0,"sold price":"$-","id":"abih04h0q9o0","address":"11704 NW 47th Drive","zip/postal code":33076,"geo_precision":"unmatched"},"type":"Feature","geometry":null},{"properties":{"city":"Jupiter","geo_score":0.0,"sold price":"$-","id":"abih04qcf867","address":"104 Palomino Drive","zip/postal code":33458,"geo_precision":"unmatched"},"type":"Feature","geometry":null},{"properties":{"city":"Deerfield Beach","geo_score":0.0,"sold price":"$-","id":"abih04hsorki","address":"540 SE 15th Avenue","zip/postal code":33441,"geo_precision":"unmatched"},"type":"Feature","geometry":null},{"properties":{"city":"Jupiter","geo_score":0.0,"sold price":"$-","id":"abih04qw8mq4","address":"1776 W Community Drive","zip/postal code":33458,"geo_precision":"unmatched"},"type":"Feature","geometry":null},{"properties":{"city":"Pembroke Pines","geo_score":0.0,"sold price":"$-","id":"abih04i5wvrw","address":"828 SW 173rd Avenue","zip/postal code":33029,"geo_precision":"unmatched"},"type":"Feature","geometry":null},{"properties":{"city":"Pembroke Pines","geo_score":0.0,"sold price":"$-","id":"abih04t1mnb0","address":"1520 Nw 140th Manor","zip/postal code":33028,"geo_precision":"unmatched"},"type":"Feature","geometry":null},{"properties":{"city":"Davie","geo_score":0.0,"sold price":"$-","id":"abih04jkg1jz","address":"5242 Sw 35th Street","zip/postal code":33314,"geo_precision":"unmatched"},"type":"Feature","geometry":null},{"properties":{"city":"Hallandale","geo_score":0.0,"sold price":"$-","id":"abih04p67wk1","address":"200 Diplomat Parkway","zip/postal code":33009,"geo_precision":"unmatched"},"type":"Feature","geometry":null},{"properties":{"city":"Miami Beach","geo_score":0.0,"sold price":"$-","id":"abih04rmfms9","address":"4444 N Michigan Avenue","zip/postal code":33140,"geo_precision":"unmatched"},"type":"Feature","geometry":null},{"properties":{"city":"Miami","geo_score":0.0,"sold price":"$-","id":"abih04nk0gjo","address":"9040 Sw 140th Street","zip/postal code":33176,"geo_precision":"unmatched"},"type":"Feature","geometry":null},{"properties":{"city":"Davie","geo_score":0.0,"sold price":"$-","id":"abih04kklbxa","address":"1111 Scarorough Drive","zip/postal code":33324,"geo_precision":"unmatched"},"type":"Feature","geometry":null},{"properties":{"city":"Tamarac","geo_score":0.0,"sold price":"$-","id":"abih04ggsk71","address":"10653 W Clairmont Circle","zip/postal code":33321,"geo_precision":"unmatched"},"type":"Feature","geometry":null},{"properties":{"city":"Tamarac","geo_score":0.0,"sold price":"$-","id":"abih04r8tm7n","address":"10814 W Clairmont Circle","zip/postal code":33321,"geo_precision":"unmatched"},"type":"Feature","geometry":null},{"properties":{"city":"Weston","geo_score":0.0,"sold price":"$-","id":"abih04mjo9rb","address":"852 Waterview Drive","zip/postal code":33326,"geo_precision":"unmatched"},"type":"Feature","geometry":null},{"properties":{"city":"Palm Bay","geo_score":0.0,"sold price":"$-","id":"abih04onsieb","address":"1283 Cimarron Circle NE","zip/postal code":32905,"geo_precision":"unmatched"},"type":"Feature","geometry":null},{"properties":{"city":"Plantation","geo_score":0.0,"sold price":"$-","id":"abih04txfwz3","address":"10170 Nw 10th Street","zip/postal code":33322,"geo_precision":"unmatched"},"type":"Feature","geometry":null},{"properties":{"city":"Pembroke Pines","geo_score":0.0,"sold price":"$-","id":"abih04vn6oak","address":"17921 Nw 10th Street","zip/postal code":33029,"geo_precision":"unmatched"},"type":"Feature","geometry":null},{"properties":{"city":"Miami Gardens","geo_score":0.0,"sold price":"$-","id":"abih04s3siyp","address":"20610 Nw 29th Avenue","zip/postal code":33056,"geo_precision":"unmatched"},"type":"Feature","geometry":null},{"properties":{"city":"Delray Beach","geo_score":0.0,"sold price":"$-","id":"abih04v8ahag","address":"4440 Brandon Drive","zip/postal code":33445,"geo_precision":"unmatched"},"type":"Feature","geometry":null},{"properties":{"city":"Davie","geo_score":0.0,"sold price":"$-","id":"abih04rcouze","address":"4271 Sw 106th Terrace","zip/postal code":33328,"geo_precision":"unmatched"},"type":"Feature","geometry":null},{"properties":{"city":"Miami Gardens","geo_score":0.0,"sold price":"$-","id":"abih04tw79x1","address":"20610 Nw 29th Avenue","zip/postal code":33056,"geo_precision":"unmatched"},"type":"Feature","geometry":null},{"properties":{"city":"Weston","geo_score":0.0,"sold price":"$-","id":"abih04h3s65i","address":"934 Opal Terrace","zip/postal code":33326,"geo_precision":"unmatched"},"type":"Feature","geometry":null},{"properties":{"city":"Plantation","geo_score":0.0,"sold price":"$-","id":"abih04lkbgxg","address":"11780 Nw 19th Street","zip/postal code":33323,"geo_precision":"unmatched"},"type":"Feature","geometry":null},{"properties":{"city":"Miami","geo_score":0.0,"sold price":"$-","id":"abih04gx6iiq","address":"9770 SW 77th Terrace","zip/postal code":33173,"geo_precision":"unmatched"},"type":"Feature","geometry":null},{"properties":{"city":"Aventura","geo_score":0.0,"sold price":"$-","id":"abih04o6hfxu","address":"3300 Ne 191st Street","zip/postal code":33180,"geo_precision":"unmatched"},"type":"Feature","geometry":null},{"properties":{"city":"Coral Gables","geo_score":0.0,"sold price":"$-","id":"abih04lsk0rq","address":"146 Ponce De Leon Blvd","zip/postal code":33134,"geo_precision":"unmatched"},"type":"Feature","geometry":null},{"properties":{"city":"Miami","geo_score":0.0,"sold price":"$-","id":"abih04i2jwuk","address":"1710 Ne 191st Street","zip/postal code":33179,"geo_precision":"unmatched"},"type":"Feature","geometry":null},{"properties":{"city":"Miami","geo_score":0.0,"sold price":"$-","id":"abih04t3zgt7","address":"701 Brickell Key Blvd","zip/postal code":33131,"geo_precision":"unmatched"},"type":"Feature","geometry":null},{"properties":{"city":"Plantation","geo_score":0.0,"sold price":"$-","id":"abih04gh38ag","address":"9221 Chelsea Drive N","zip/postal code":33324,"geo_precision":"unmatched"},"type":"Feature","geometry":null},{"properties":{"city":"Pompano Beach","geo_score":0.0,"sold price":"$-","id":"abih04ij5dh4","address":"1301 SE 9th Avenue","zip/postal code":33060,"geo_precision":"unmatched"},"type":"Feature","geometry":null},{"properties":{"city":"Delray Beach","geo_score":0.0,"sold price":"$-","id":"abih04vocct7","address":"950 Flanders T","zip/postal code":33484,"geo_precision":"unmatched"},"type":"Feature","geometry":null},{"properties":{"city":"Delray Beach","geo_score":0.0,"sold price":"$-","id":"abih04g5twdn","address":"4440 Brandon Drive","zip/postal code":33445,"geo_precision":"unmatched"},"type":"Feature","geometry":null},{"properties":{"city":"Davie","geo_score":0.0,"sold price":"$-","id":"abih04ko9tyl","address":"9218 Magnolia Court","zip/postal code":33328,"geo_precision":"unmatched"},"type":"Feature","geometry":null},{"properties":{"city":"Boca Raton","geo_score":0.0,"sold price":"$-","id":"abih04sikf1j","address":"21331 Millbrook Court","zip/postal code":33498,"geo_precision":"unmatched"},"type":"Feature","geometry":null},{"properties":{"city":"Davie","geo_score":0.0,"sold price":"$-","id":"abih04u7fahw","address":"13021 Sw 40th Street","zip/postal code":33330,"geo_precision":"unmatched"},"type":"Feature","geometry":null},{"properties":{"city":"Hialeah","geo_score":0.0,"sold price":"$-","id":"abih04tu3dkx","address":"5890 W 25th Court","zip/postal code":33016,"geo_precision":"unmatched"},"type":"Feature","geometry":null},{"properties":{"city":"Jupiter","geo_score":0.0,"sold price":"$-","id":"abih04if0zes","address":"126 N River Drive W","zip/postal code":33458,"geo_precision":"unmatched"},"type":"Feature","geometry":null},{"properties":{"city":"Coral Springs","geo_score":0.0,"sold price":"$-","id":"abih04tshoh5","address":"11050 Cypress Run Drive","zip/postal code":33071,"geo_precision":"unmatched"},"type":"Feature","geometry":null},{"properties":{"city":"Aventura","geo_score":0.0,"sold price":"$-","id":"abih04gxdz69","address":"20505 E Country Club Drive","zip/postal code":33180,"geo_precision":"unmatched"},"type":"Feature","geometry":null},{"properties":{"city":"Miami","geo_score":0.0,"sold price":"$-","id":"abih04hleixt","address":"9456 Sw 77th Avenue","zip/postal code":33156,"geo_precision":"unmatched"},"type":"Feature","geometry":null},{"properties":{"city":"Dania Beach","geo_score":0.0,"sold price":"$-","id":"abih04tdppjg","address":"5941 SW 36th Terrace","zip/postal code":33312,"geo_precision":"unmatched"},"type":"Feature","geometry":null},{"properties":{"city":"Hallandale Beach","geo_score":0.0,"sold price":"$-","id":"abih04uk995c","address":"1965 S Ocean Drive","zip/postal code":33025,"geo_precision":"unmatched"},"type":"Feature","geometry":null},{"properties":{"city":"Miami","geo_score":0.0,"sold price":"$-","id":"abih04mhg3q4","address":"8101 Sw 128th Street","zip/postal code":33156,"geo_precision":"unmatched"},"type":"Feature","geometry":null},{"properties":{"city":"Tamarac","geo_score":0.0,"sold price":"$-","id":"abih04k8hyrl","address":"7614 Nw 72nd Terrace","zip/postal code":33321,"geo_precision":"unmatched"},"type":"Feature","geometry":null},{"properties":{"city":"Pembroke Pines","geo_score":0.0,"sold price":"$-","id":"abih04jkpx81","address":"639 SW 168th Lane","zip/postal code":33027,"geo_precision":"unmatched"},"type":"Feature","geometry":null},{"properties":{"city":"Pembroke Pines","geo_score":0.0,"sold price":"$-","id":"abih04i3y6aw","address":"801 Sw 149th Terrace","zip/postal code":33027,"geo_precision":"unmatched"},"type":"Feature","geometry":null},{"properties":{"city":"North Miami Beach","geo_score":0.0,"sold price":"$-","id":"abih04uytwud","address":"2780 Ne 183st","zip/postal code":33160,"geo_precision":"unmatched"},"type":"Feature","geometry":null},{"properties":{"city":"Lake Worth","geo_score":0.0,"sold price":"$-","id":"abih04ti9ii6","address":"4355 Trevi Court","zip/postal code":33467,"geo_precision":"unmatched"},"type":"Feature","geometry":null},{"properties":{"city":"Parkland","geo_score":0.0,"sold price":"$-","id":"abih04pn6sf0","address":"6390 NW 80th Drive","zip/postal code":33067,"geo_precision":"unmatched"},"type":"Feature","geometry":null},{"properties":{"city":"Plantation","geo_score":0.0,"sold price":"$-","id":"abih04l0tfzt","address":"6237 Pine Terrace","zip/postal code":33317,"geo_precision":"unmatched"},"type":"Feature","geometry":null},{"properties":{"city":"Fort Lauderdale","geo_score":0.0,"sold price":"$-","id":"abih04v6ald8","address":"3608 Sw 23rd Ct","zip/postal code":33312,"geo_precision":"unmatched"},"type":"Feature","geometry":null},{"properties":{"city":"Fort Lauderdale","geo_score":0.0,"sold price":"$-","id":"abih04ihbi3e","address":"610 Se 14th Court","zip/postal code":33316,"geo_precision":"unmatched"},"type":"Feature","geometry":null},{"properties":{"city":"Coconut Creek","geo_score":0.0,"sold price":"$-","id":"abih04q1ssw3","address":"4364 Carambola Cir","zip/postal code":33066,"geo_precision":"unmatched"},"type":"Feature","geometry":null},{"properties":{"city":"Sunrise","geo_score":0.0,"sold price":"$-","id":"abih04lx3lpl","address":"8421 Sunset Strip","zip/postal code":33322,"geo_precision":"unmatched"},"type":"Feature","geometry":null},{"properties":{"city":"Miramar","geo_score":0.0,"sold price":"$-","id":"abih04gbgok3","address":"15342 Sw 20th St","zip/postal code":33027,"geo_precision":"unmatched"},"type":"Feature","geometry":null},{"properties":{"city":"Sunrise","geo_score":0.0,"sold price":"$-","id":"abih04piwe97","address":"1257 Sw 149th Lane","zip/postal code":33326,"geo_precision":"unmatched"},"type":"Feature","geometry":null},{"properties":{"city":"Fort Lauderdale","geo_score":0.0,"sold price":"$-","id":"abih04l0q4md","address":"3015 N Ocean Blvd Berkely South","zip/postal code":33311,"geo_precision":"unmatched"},"type":"Feature","geometry":null},{"properties":{"city":"Fort Lauderdale","geo_score":0.0,"sold price":"$-","id":"abih04veokpb","address":"5932 Ne 14th Rd","zip/postal code":33334,"geo_precision":"unmatched"},"type":"Feature","geometry":null},{"properties":{"city":"Coral Springs","geo_score":0.0,"sold price":"$-","id":"abih04hadvzc","address":"9830 Nw 1st Manor","zip/postal code":33071,"geo_precision":"unmatched"},"type":"Feature","geometry":null},{"properties":{"city":"Pompano Beach","geo_score":0.0,"sold price":"$-","id":"abih04sb3ehg","address":"525 N Ocean Blvd","zip/postal code":33062,"geo_precision":"unmatched"},"type":"Feature","geometry":null},{"properties":{"city":"Miami Beach","geo_score":0.0,"sold price":"$-","id":"abih04s5sn6z","address":"1521 Nw 64th Street","zip/postal code":33141,"geo_precision":"unmatched"},"type":"Feature","geometry":null},{"properties":{"city":"Miami","geo_score":0.0,"sold price":"$-","id":"abih04ggd4kc","address":"11031 Sw 156th Street","zip/postal code":33157,"geo_precision":"unmatched"},"type":"Feature","geometry":null},{"properties":{"city":"Miami","geo_score":0.0,"sold price":"$-","id":"abih04ps1xsp","address":"14052 Sw 167th Terrace","zip/postal code":33177,"geo_precision":"unmatched"},"type":"Feature","geometry":null},{"properties":{"city":"Hialeah","geo_score":0.0,"sold price":"$-","id":"abih04oohg59","address":"771 East 30th Street","zip/postal code":33013,"geo_precision":"unmatched"},"type":"Feature","geometry":null},{"properties":{"city":"Aventura","geo_score":0.0,"sold price":"$-","id":"abih04onduzr","address":"2750 Ne 183rd Street","zip/postal code":33160,"geo_precision":"unmatched"},"type":"Feature","geometry":null},{"properties":{"city":"Pembroke Pines","geo_score":0.0,"sold price":"$-","id":"abih04solldq","address":"1231 Nw 193rd Avenue","zip/postal code":33029,"geo_precision":"unmatched"},"type":"Feature","geometry":null},{"properties":{"city":"Miami","geo_score":0.0,"sold price":"$-","id":"abih04mdq2ym","address":"16335 Sw 81st Street","zip/postal code":33193,"geo_precision":"unmatched"},"type":"Feature","geometry":null},{"properties":{"city":"Juno Beach","geo_score":0.0,"sold price":"$-","id":"abih04v0b74s","address":"530 Ocean Drive","zip/postal code":33408,"geo_precision":"unmatched"},"type":"Feature","geometry":null},{"properties":{"city":"Hollywood","geo_score":0.0,"sold price":"$-","id":"abih04ftix45","address":"2751 S Ocean Drive","zip/postal code":33019,"geo_precision":"unmatched"},"type":"Feature","geometry":null},{"properties":{"city":"Pompano Beach","geo_score":0.0,"sold price":"$-","id":"abih04rt0mtd","address":"3100 N Palm Aire Drive","zip/postal code":33069,"geo_precision":"unmatched"},"type":"Feature","geometry":null},{"properties":{"city":"Boca Raton","geo_score":0.0,"sold price":"$-","id":"abih04jwa499","address":"7178 Melbourne Lane","zip/postal code":33434,"geo_precision":"unmatched"},"type":"Feature","geometry":null},{"properties":{"city":"Hialeah","geo_score":0.0,"sold price":"$-","id":"abih04lilc6h","address":"740 E 38th Street","zip/postal code":33013,"geo_precision":"unmatched"},"type":"Feature","geometry":null},{"properties":{"city":"Fort Lauderdale","geo_score":0.0,"sold price":"$-","id":"abih04uimtb1","address":"530 Sw 28th Avenue","zip/postal code":33312,"geo_precision":"unmatched"},"type":"Feature","geometry":null},{"properties":{"city":"Deerfield Beach","geo_score":0.0,"sold price":"$-","id":"abih04qc0do7","address":"75 Centennial Court","zip/postal code":33442,"geo_precision":"unmatched"},"type":"Feature","geometry":null},{"properties":{"city":"Boca Raton","geo_score":0.0,"sold price":"$-","id":"abih04im4rmz","address":"1301 SW 20th Street","zip/postal code":33486,"geo_precision":"unmatched"},"type":"Feature","geometry":null},{"properties":{"city":"Hollywood","geo_score":0.0,"sold price":"$-","id":"abih04he5nef","address":"4105 E Sailboat Drive","zip/postal code":33026,"geo_precision":"unmatched"},"type":"Feature","geometry":null},{"properties":{"city":"West Palm Beach","geo_score":0.0,"sold price":"$-","id":"abih04j3lg7u","address":"2800 N Ocean Drive","zip/postal code":33404,"geo_precision":"unmatched"},"type":"Feature","geometry":null},{"properties":{"city":"Miami","geo_score":0.0,"sold price":"$-","id":"abih04izr24s","address":"3920 Crawford Avenue","zip/postal code":33133,"geo_precision":"unmatched"},"type":"Feature","geometry":null},{"properties":{"city":"Weston","geo_score":0.0,"sold price":"$-","id":"abih04sbdrcv","address":"3909 Hawks Court","zip/postal code":33331,"geo_precision":"unmatched"},"type":"Feature","geometry":null},{"properties":{"city":"Miami","geo_score":0.0,"sold price":"$-","id":"abih04uzntvk","address":"1925 Brickell Avenue","zip/postal code":33129,"geo_precision":"unmatched"},"type":"Feature","geometry":null},{"properties":{"city":"Miami","geo_score":0.0,"sold price":"$-","id":"abih04ilcfpe","address":"9013 Sw 138th Street","zip/postal code":33176,"geo_precision":"unmatched"},"type":"Feature","geometry":null},{"properties":{"city":"North Palm Beach","geo_score":0.0,"sold price":"$-","id":"abih04q9m1g9","address":"336 Golfview Road","zip/postal code":33408,"geo_precision":"unmatched"},"type":"Feature","geometry":null},{"properties":{"city":"Sw Ranches","geo_score":0.0,"sold price":"$-","id":"abih04i9j55w","address":"7010 Hancock Road","zip/postal code":33330,"geo_precision":"unmatched"},"type":"Feature","geometry":null},{"properties":{"city":"Hollywood","geo_score":0.0,"sold price":"$-","id":"abih04vpmlbv","address":"5312 Garfield Street","zip/postal code":33021,"geo_precision":"unmatched"},"type":"Feature","geometry":null},{"properties":{"city":"Plantation","geo_score":0.0,"sold price":"$-","id":"abih04hgan4k","address":"9889 Nw 2nd Street","zip/postal code":33324,"geo_precision":"unmatched"},"type":"Feature","geometry":null},{"properties":{"city":"West Palm Beach","geo_score":0.0,"sold price":"$-","id":"abih04jymydi","address":"8923 Sunset Drive","zip/postal code":33410,"geo_precision":"unmatched"},"type":"Feature","geometry":null},{"properties":{"city":"Miami","geo_score":0.0,"sold price":"$-","id":"abih04nf7cs5","address":"8250 Sw 118th Terrace","zip/postal code":33156,"geo_precision":"unmatched"},"type":"Feature","geometry":null},{"properties":{"city":"Hollywood","geo_score":0.0,"sold price":"$-","id":"abih04kq099y","address":"3800 Hillcrest Drive","zip/postal code":33021,"geo_precision":"unmatched"},"type":"Feature","geometry":null},{"properties":{"city":"Coral Springs","geo_score":0.0,"sold price":"$-","id":"abih04jv2s2l","address":"250 NW 123rd Way","zip/postal code":33071,"geo_precision":"unmatched"},"type":"Feature","geometry":null},{"properties":{"city":"Pompano Beach","geo_score":0.0,"sold price":"$-","id":"abih04ghcay0","address":"3204 Leigh Road","zip/postal code":33062,"geo_precision":"unmatched"},"type":"Feature","geometry":null},{"properties":{"city":"Miami","geo_score":0.0,"sold price":"$-","id":"abih04lz38oc","address":"9373 Sw 155th Avenue","zip/postal code":33196,"geo_precision":"unmatched"},"type":"Feature","geometry":null},{"properties":{"city":"Aventura","geo_score":0.0,"sold price":"$-","id":"abih04npjtz8","address":"20191 E Country Club Drive","zip/postal code":33180,"geo_precision":"unmatched"},"type":"Feature","geometry":null},{"properties":{"city":"Coral Springs","geo_score":0.0,"sold price":"$-","id":"abih04pmcapx","address":"5673 NW 109th Lane","zip/postal code":33076,"geo_precision":"unmatched"},"type":"Feature","geometry":null},{"properties":{"city":"Miami","geo_score":0.0,"sold price":"$-","id":"abih04sqqfvg","address":"651 Plover Avenue","zip/postal code":33166,"geo_precision":"unmatched"},"type":"Feature","geometry":null},{"properties":{"city":"Palm Beach","geo_score":0.0,"sold price":"$-","id":"abih04lmnlkq","address":"3540 S Ocean Blvd","zip/postal code":33480,"geo_precision":"unmatched"},"type":"Feature","geometry":null},{"properties":{"city":"Jupiter","geo_score":0.0,"sold price":"$-","id":"abih04t6t1w4","address":"146 Stonebriar Blvd","zip/postal code":33458,"geo_precision":"unmatched"},"type":"Feature","geometry":null},{"properties":{"city":"Coral Springs","geo_score":0.0,"sold price":"$-","id":"abih04uvubca","address":"4751 NW 88th Terrace","zip/postal code":33067,"geo_precision":"unmatched"},"type":"Feature","geometry":null},{"properties":{"city":"Fort Lauderdale","geo_score":0.0,"sold price":"$-","id":"abih04o7gsag","address":"1430 Nw 20th Court","zip/postal code":33311,"geo_precision":"unmatched"},"type":"Feature","geometry":null},{"properties":{"city":"Fort Lauderdale","geo_score":0.0,"sold price":"$-","id":"abih04vvtihc","address":"6111 Ne 19th Avenue","zip/postal code":33308,"geo_precision":"unmatched"},"type":"Feature","geometry":null},{"properties":{"city":"Miami","geo_score":0.0,"sold price":"$-","id":"abih04h8bktq","address":"4280 Sw 137th Court","zip/postal code":33175,"geo_precision":"unmatched"},"type":"Feature","geometry":null},{"properties":{"city":"Miami","geo_score":0.0,"sold price":"$-","id":"abih04i6r7j7","address":"13824 Sw 22nd Terrace","zip/postal code":33175,"geo_precision":"unmatched"},"type":"Feature","geometry":null},{"properties":{"city":"Aventura","geo_score":0.0,"sold price":"$-","id":"abih04v53ci7","address":"3625 N Country Club Drive","zip/postal code":33180,"geo_precision":"unmatched"},"type":"Feature","geometry":null},{"properties":{"city":"Pembroke Pines","geo_score":0.0,"sold price":"$-","id":"abih04r3fxcj","address":"1633 Fairway Road","zip/postal code":33026,"geo_precision":"unmatched"},"type":"Feature","geometry":null},{"properties":{"city":"Plantation","geo_score":0.0,"sold price":"$-","id":"abih04ukk0ot","address":"11401 Nw 24th Street","zip/postal code":33323,"geo_precision":"unmatched"},"type":"Feature","geometry":null},{"properties":{"city":"Weston","geo_score":0.0,"sold price":"$-","id":"abih04jd404z","address":"2527 Eagle","zip/postal code":33327,"geo_precision":"unmatched"},"type":"Feature","geometry":null},{"properties":{"city":"Fort Lauderdale","geo_score":0.0,"sold price":"$-","id":"abih04jluogg","address":"5811 Ne 22nd Avenue","zip/postal code":33308,"geo_precision":"unmatched"},"type":"Feature","geometry":null},{"properties":{"city":"West Palm Beach","geo_score":0.0,"sold price":"$-","id":"abih04r94etv","address":"13715 75th Lane North","zip/postal code":33412,"geo_precision":"unmatched"},"type":"Feature","geometry":null},{"properties":{"city":"Miami","geo_score":0.0,"sold price":"$-","id":"abih04vgh2h4","address":"17725 Sw 176 Street","zip/postal code":33187,"geo_precision":"unmatched"},"type":"Feature","geometry":null},{"properties":{"city":"Coral Gables","geo_score":0.0,"sold price":"$-","id":"abih04j0q3ps","address":"1529 Palermo Avenue","zip/postal code":33134,"geo_precision":"unmatched"},"type":"Feature","geometry":null},{"properties":{"city":"Miami","geo_score":0.0,"sold price":"$-","id":"abih04m1m143","address":"15650 Sw 46th Terrace","zip/postal code":33185,"geo_precision":"unmatched"},"type":"Feature","geometry":null},{"properties":{"city":"Sunrise","geo_score":0.0,"sold price":"$-","id":"abih04lyvckl","address":"13796 Nw 22nd Street","zip/postal code":33323,"geo_precision":"unmatched"},"type":"Feature","geometry":null},{"properties":{"city":"Miami","geo_score":0.0,"sold price":"$-","id":"abih04l10sim","address":"14301 Sw 88th Street","zip/postal code":33183,"geo_precision":"unmatched"},"type":"Feature","geometry":null},{"properties":{"city":"Lake Worth","geo_score":0.0,"sold price":"$-","id":"abih04jfyffa","address":"1213 North B Street","zip/postal code":33460,"geo_precision":"unmatched"},"type":"Feature","geometry":null},{"properties":{"city":"Miami","geo_score":0.0,"sold price":"$-","id":"abih04kthidn","address":"20220 Sw 85th Court","zip/postal code":33189,"geo_precision":"unmatched"},"type":"Feature","geometry":null},{"properties":{"city":"Hallandale","geo_score":0.0,"sold price":"$-","id":"abih04p46ym5","address":"111 Golden Isle Drive","zip/postal code":33009,"geo_precision":"unmatched"},"type":"Feature","geometry":null},{"properties":{"city":"Pembroke Pines","geo_score":0.0,"sold price":"$-","id":"abih04liqdc6","address":"16453 Nw 22nd Street","zip/postal code":33028,"geo_precision":"unmatched"},"type":"Feature","geometry":null},{"properties":{"city":"Oakland Park","geo_score":0.0,"sold price":"$-","id":"abih04vm8i01","address":"2912 NE 8th Terrace","zip/postal code":33334,"geo_precision":"unmatched"},"type":"Feature","geometry":null},{"properties":{"city":"Miami","geo_score":0.0,"sold price":"$-","id":"abih04jvy1o3","address":"4790 Sw 141st Avenue","zip/postal code":33175,"geo_precision":"unmatched"},"type":"Feature","geometry":null},{"properties":{"city":"Miami","geo_score":0.0,"sold price":"$-","id":"abih04pl0xaw","address":"130 Ne 202nd Terrace","zip/postal code":33179,"geo_precision":"unmatched"},"type":"Feature","geometry":null},{"properties":{"city":"Miami","geo_score":0.0,"sold price":"$-","id":"abih04lhksc9","address":"11111 Biscayne Blvd","zip/postal code":33181,"geo_precision":"unmatched"},"type":"Feature","geometry":null},{"properties":{"city":"Deerfield Beach","geo_score":0.0,"sold price":"$-","id":"abih04ol7e0a","address":"2015 Newport G","zip/postal code":33442,"geo_precision":"unmatched"},"type":"Feature","geometry":null},{"properties":{"city":"Sw Ranches","geo_score":0.0,"sold price":"$-","id":"abih04v6whc3","address":"7010 Hancock Road","zip/postal code":33330,"geo_precision":"unmatched"},"type":"Feature","geometry":null},{"properties":{"city":"Margate","geo_score":0.0,"sold price":"$-","id":"abih04sbo5x3","address":"1910 Nw 80th Avenue","zip/postal code":33063,"geo_precision":"unmatched"},"type":"Feature","geometry":null},{"properties":{"city":"Miami","geo_score":0.0,"sold price":"$-","id":"abih04md2g1r","address":"8780 Sw 160th Street","zip/postal code":33157,"geo_precision":"unmatched"},"type":"Feature","geometry":null},{"properties":{"city":"Weston","geo_score":0.0,"sold price":"$-","id":"abih04u4sqrn","address":"4289 Pine Ridge Court","zip/postal code":33331,"geo_precision":"unmatched"},"type":"Feature","geometry":null},{"properties":{"city":"Fort Lauderdale","geo_score":0.0,"sold price":"$-","id":"abih04mcq8nf","address":"2504 Sw 34th Ave","zip/postal code":33312,"geo_precision":"unmatched"},"type":"Feature","geometry":null},{"properties":{"city":"Miami","geo_score":0.0,"sold price":"$-","id":"abih04n5porn","address":"905 Ne 199th Street","zip/postal code":33179,"geo_precision":"unmatched"},"type":"Feature","geometry":null},{"properties":{"city":"Fort Lauderdale","geo_score":0.0,"sold price":"$-","id":"abih04qm5ddw","address":"2100 S Ocean Drive","zip/postal code":33316,"geo_precision":"unmatched"},"type":"Feature","geometry":null},{"properties":{"city":"Margate","geo_score":0.0,"sold price":"$-","id":"abih04tlul2n","address":"7205 Nw 57th Place","zip/postal code":33063,"geo_precision":"unmatched"},"type":"Feature","geometry":null},{"properties":{"city":"Hialeah","geo_score":0.0,"sold price":"$-","id":"abih04laqkv1","address":"6121 W 24th Avenue","zip/postal code":33016,"geo_precision":"unmatched"},"type":"Feature","geometry":null},{"properties":{"city":"Fort Lauderdale","geo_score":0.0,"sold price":"$-","id":"abih04nij21j","address":"5202 Sw 90th Terrace","zip/postal code":33328,"geo_precision":"unmatched"},"type":"Feature","geometry":null},{"properties":{"city":"Miami Gardens","geo_score":0.0,"sold price":"$-","id":"abih04qg0isd","address":"18557 Nw 55th Avenue","zip/postal code":33055,"geo_precision":"unmatched"},"type":"Feature","geometry":null},{"properties":{"city":"Sunny Isles Beach","geo_score":0.0,"sold price":"$-","id":"abih04py1mmy","address":"400 Kings Point Drive","zip/postal code":33160,"geo_precision":"unmatched"},"type":"Feature","geometry":null},{"properties":{"city":"Fort Lauderdale","geo_score":0.0,"sold price":"$-","id":"abih04ho0tkw","address":"3145 Peachtree Way, Davie","zip/postal code":33328,"geo_precision":"unmatched"},"type":"Feature","geometry":null},{"properties":{"city":"Miami","geo_score":0.0,"sold price":"$-","id":"abih04kffnay","address":"7720 Sw 59th Court","zip/postal code":33143,"geo_precision":"unmatched"},"type":"Feature","geometry":null},{"properties":{"city":"Davie","geo_score":0.0,"sold price":"$-","id":"abih04q9m8qp","address":"1710 Whitehall Drive","zip/postal code":33324,"geo_precision":"unmatched"},"type":"Feature","geometry":null},{"properties":{"city":"Jupiter","geo_score":0.0,"sold price":"$-","id":"abih04o5dznp","address":"302 Hammock Point N","zip/postal code":33458,"geo_precision":"unmatched"},"type":"Feature","geometry":null},{"properties":{"city":"Deerfield","geo_score":0.0,"sold price":"$-","id":"abih04sbd4xi","address":"1374 Sw 28th Ave.","zip/postal code":33342,"geo_precision":"unmatched"},"type":"Feature","geometry":null},{"properties":{"city":"Coral Springs","geo_score":0.0,"sold price":"$-","id":"abih04naxl0j","address":"364 Nw 113th Avenue","zip/postal code":33071,"geo_precision":"unmatched"},"type":"Feature","geometry":null},{"properties":{"city":"Boynton Beach","geo_score":0.0,"sold price":"$-","id":"abih04h4ueh8","address":"5631 Fairway Park Drive","zip/postal code":33437,"geo_precision":"unmatched"},"type":"Feature","geometry":null},{"properties":{"city":"Weston","geo_score":0.0,"sold price":"$-","id":"abih04i5oiz4","address":"2458 Poinciana Court","zip/postal code":33327,"geo_precision":"unmatched"},"type":"Feature","geometry":null},{"properties":{"city":"Fort Lauderdale","geo_score":0.0,"sold price":"$-","id":"abih04ltg9lx","address":"3300 Ne 36th Street","zip/postal code":33308,"geo_precision":"unmatched"},"type":"Feature","geometry":null},{"properties":{"city":"Boca Raton","geo_score":0.0,"sold price":"$-","id":"abih04t73ccu","address":"22222 Martella Avenue","zip/postal code":33433,"geo_precision":"unmatched"},"type":"Feature","geometry":null},{"properties":{"city":"Miami","geo_score":0.0,"sold price":"$-","id":"abih04j611ul","address":"19320 Royal Birkdale Dr.","zip/postal code":33015,"geo_precision":"unmatched"},"type":"Feature","geometry":null},{"properties":{"city":"Homestead","geo_score":0.0,"sold price":"$-","id":"abih04kptcat","address":"2320 Se 5th Court","zip/postal code":33033,"geo_precision":"unmatched"},"type":"Feature","geometry":null},{"properties":{"city":"Miami","geo_score":0.0,"sold price":"$-","id":"abih04kcda2n","address":"1315 Sw 78th Pl","zip/postal code":33144,"geo_precision":"unmatched"},"type":"Feature","geometry":null},{"properties":{"city":"Miami","geo_score":0.0,"sold price":"$-","id":"abih04ok8usk","address":"11405 Sw 123rd Terrace","zip/postal code":33176,"geo_precision":"unmatched"},"type":"Feature","geometry":null},{"properties":{"city":"Miami","geo_score":0.0,"sold price":"$-","id":"abih04rtg5qh","address":"9456 Sw 77th Avenue","zip/postal code":33156,"geo_precision":"unmatched"},"type":"Feature","geometry":null},{"properties":{"city":"West Park","geo_score":0.0,"sold price":"$-","id":"abih04lmdnpn","address":"3810 Sw 32nd Avenue","zip/postal code":33023,"geo_precision":"unmatched"},"type":"Feature","geometry":null},{"properties":{"city":"Miami","geo_score":0.0,"sold price":"$-","id":"abih04i8erh3","address":"3221 Sw 68th Avenue","zip/postal code":33155,"geo_precision":"unmatched"},"type":"Feature","geometry":null},{"properties":{"city":"Boynton Beach","geo_score":0.0,"sold price":"$-","id":"abih04owtktj","address":"12529 Imperial Isle Drive","zip/postal code":33437,"geo_precision":"unmatched"},"type":"Feature","geometry":null},{"properties":{"city":"Redland","geo_score":0.0,"sold price":"$-","id":"abih04pd46wu","address":"26801 Sw 197th Avenue","zip/postal code":33031,"geo_precision":"unmatched"},"type":"Feature","geometry":null},{"properties":{"city":"Fort Lauderdale","geo_score":0.0,"sold price":"$-","id":"abih04tb66ci","address":"2000 S Ocean Lane","zip/postal code":33316,"geo_precision":"unmatched"},"type":"Feature","geometry":null},{"properties":{"city":"Sunny Isles Beach","geo_score":0.0,"sold price":"$-","id":"abih04rajfg7","address":"400 Kings Point Drive","zip/postal code":33160,"geo_precision":"unmatched"},"type":"Feature","geometry":null},{"properties":{"city":"North Palm Beach","geo_score":0.0,"sold price":"$-","id":"abih04ug93n2","address":"805 Buttonwood Road","zip/postal code":33408,"geo_precision":"unmatched"},"type":"Feature","geometry":null},{"properties":{"city":"Coconut Creek","geo_score":0.0,"sold price":"$-","id":"abih04ok9ez4","address":"3326 NW 64th Court","zip/postal code":33073,"geo_precision":"unmatched"},"type":"Feature","geometry":null},{"properties":{"city":"Jupiter","geo_score":0.0,"sold price":"$-","id":"abih04ps9bef","address":"164 Turtle Creek Drive","zip/postal code":33469,"geo_precision":"unmatched"},"type":"Feature","geometry":null},{"properties":{"city":"Sunny Isles","geo_score":0.0,"sold price":"$-","id":"abih04lof0aj","address":"230 174th Street","zip/postal code":33160,"geo_precision":"unmatched"},"type":"Feature","geometry":null},{"properties":{"city":"Hialeah","geo_score":0.0,"sold price":"$-","id":"abih04o4ofx2","address":"2313 W 60th Court Apt","zip/postal code":33016,"geo_precision":"unmatched"},"type":"Feature","geometry":null},{"properties":{"city":"Palm Beach","geo_score":0.0,"sold price":"$-","id":"abih04l6pfeg","address":"2840 S Ocean Blvd","zip/postal code":33480,"geo_precision":"unmatched"},"type":"Feature","geometry":null},{"properties":{"city":"Miami","geo_score":0.0,"sold price":"$-","id":"abih04hy41bu","address":"7355 Sw 154th Terrace","zip/postal code":33157,"geo_precision":"unmatched"},"type":"Feature","geometry":null},{"properties":{"city":"Coconut Creek","geo_score":0.0,"sold price":"$-","id":"abih04roblth","address":"5140 Stagecoach Drive","zip/postal code":33073,"geo_precision":"unmatched"},"type":"Feature","geometry":null},{"properties":{"city":"Sunrise","geo_score":0.0,"sold price":"$-","id":"abih04l1a9l6","address":"3840 Nw 120th Way","zip/postal code":33323,"geo_precision":"unmatched"},"type":"Feature","geometry":null},{"properties":{"city":"Plantation","geo_score":0.0,"sold price":"$-","id":"abih04mm33ak","address":"1100 Nw 100th Way","zip/postal code":33322,"geo_precision":"unmatched"},"type":"Feature","geometry":null},{"properties":{"city":"Miami","geo_score":0.0,"sold price":"$-","id":"abih04gc5r7j","address":"13580 Sw 99th Street","zip/postal code":33186,"geo_precision":"unmatched"},"type":"Feature","geometry":null},{"properties":{"city":"Miami","geo_score":0.0,"sold price":"$-","id":"abih04koe6tq","address":"11309 Sw 109th Road","zip/postal code":33176,"geo_precision":"unmatched"},"type":"Feature","geometry":null},{"properties":{"city":"Lauderdale Lakes","geo_score":0.0,"sold price":"$-","id":"abih04lokodp","address":"4480 Nw 41st Terrace","zip/postal code":33319,"geo_precision":"unmatched"},"type":"Feature","geometry":null},{"properties":{"city":"Pembroke Pines","geo_score":0.0,"sold price":"$-","id":"abih04mm26hy","address":"336 Nw 106th Terrace","zip/postal code":33026,"geo_precision":"unmatched"},"type":"Feature","geometry":null},{"properties":{"city":"Highland Beach","geo_score":0.0,"sold price":"$-","id":"abih04npi9ul","address":"4750 S Ocean Blvd","zip/postal code":33487,"geo_precision":"unmatched"},"type":"Feature","geometry":null},{"properties":{"city":"Miami","geo_score":0.0,"sold price":"$-","id":"abih04vxhjsv","address":"1299 Sw 191st Terrace","zip/postal code":33177,"geo_precision":"unmatched"},"type":"Feature","geometry":null},{"properties":{"city":"Pembroke Pines","geo_score":0.0,"sold price":"$-","id":"abih04uufvv8","address":"7490 Nw 21st Place","zip/postal code":33024,"geo_precision":"unmatched"},"type":"Feature","geometry":null},{"properties":{"city":"Davie","geo_score":0.0,"sold price":"$-","id":"abih04mut32f","address":"14421 Bedford Court","zip/postal code":33325,"geo_precision":"unmatched"},"type":"Feature","geometry":null},{"properties":{"city":"Weston","geo_score":0.0,"sold price":"$-","id":"abih04njpkhi","address":"380 Mallard Drive","zip/postal code":33327,"geo_precision":"unmatched"},"type":"Feature","geometry":null},{"properties":{"city":"Tamarac","geo_score":0.0,"sold price":"$-","id":"abih04vkp966","address":"5705 Mulberry Road","zip/postal code":33319,"geo_precision":"unmatched"},"type":"Feature","geometry":null},{"properties":{"city":"Miramar","geo_score":0.0,"sold price":"$-","id":"abih04k7igtr","address":"15755 Sw 20th Street","zip/postal code":33027,"geo_precision":"unmatched"},"type":"Feature","geometry":null},{"properties":{"city":"Hallandale","geo_score":0.0,"sold price":"$-","id":"abih04pjppey","address":"250 Layne Blvd","zip/postal code":33009,"geo_precision":"unmatched"},"type":"Feature","geometry":null},{"properties":{"city":"Boca Raton","geo_score":0.0,"sold price":"$-","id":"abih04toku8d","address":"21306 Raindance Terrace","zip/postal code":33428,"geo_precision":"unmatched"},"type":"Feature","geometry":null},{"properties":{"city":"Hialeah","geo_score":0.0,"sold price":"$-","id":"abih04gqi6yr","address":"601 E 44th Stret","zip/postal code":33013,"geo_precision":"unmatched"},"type":"Feature","geometry":null},{"properties":{"city":"Fort Lauderdale","geo_score":0.0,"sold price":"$-","id":"abih04hpd9mv","address":"817 Se 2nd Street","zip/postal code":33301,"geo_precision":"unmatched"},"type":"Feature","geometry":null},{"properties":{"city":"Hallandale Beach","geo_score":0.0,"sold price":"$-","id":"abih04g49m6m","address":"201 Atlantic Shores Blvd","zip/postal code":33009,"geo_precision":"unmatched"},"type":"Feature","geometry":null},{"properties":{"city":"Pompano Beach","geo_score":0.0,"sold price":"$-","id":"abih04npti4h","address":"840 Se 1st Terrace","zip/postal code":33060,"geo_precision":"unmatched"},"type":"Feature","geometry":null},{"properties":{"city":"Miramar","geo_score":0.0,"sold price":"$-","id":"abih04kdd6ln","address":"4405 Sw 160th Avenue","zip/postal code":33027,"geo_precision":"unmatched"},"type":"Feature","geometry":null},{"properties":{"city":"Weston","geo_score":0.0,"sold price":"$-","id":"abih04rwb963","address":"1967 Pisces Terrace","zip/postal code":33327,"geo_precision":"unmatched"},"type":"Feature","geometry":null},{"properties":{"city":"Lake Worth","geo_score":0.0,"sold price":"$-","id":"abih04ji5fn3","address":"8431 Linden Way","zip/postal code":33467,"geo_precision":"unmatched"},"type":"Feature","geometry":null},{"properties":{"city":"Fort Lauderdale","geo_score":0.0,"sold price":"$-","id":"abih04k2ayik","address":"2870 Sw 58th Court","zip/postal code":33312,"geo_precision":"unmatched"},"type":"Feature","geometry":null},{"properties":{"city":"Delray Beach","geo_score":0.0,"sold price":"$-","id":"abih04rhffeb","address":"16075 Sims Road","zip/postal code":33484,"geo_precision":"unmatched"},"type":"Feature","geometry":null},{"properties":{"city":"Cooper City","geo_score":0.0,"sold price":"$-","id":"abih04ngkbuu","address":"12142 Sw 50th Court","zip/postal code":33330,"geo_precision":"unmatched"},"type":"Feature","geometry":null},{"properties":{"city":"West Palm Beach","geo_score":0.0,"sold price":"$-","id":"abih04vqrbon","address":"13124 Silver Fox Lane","zip/postal code":33418,"geo_precision":"unmatched"},"type":"Feature","geometry":null},{"properties":{"city":"Boca Raton","geo_score":0.0,"sold price":"$-","id":"abih04qu9qsg","address":"8607 Via Serena","zip/postal code":33433,"geo_precision":"unmatched"},"type":"Feature","geometry":null},{"properties":{"city":"Loxahatchee","geo_score":0.0,"sold price":"$-","id":"abih04mdq6jf","address":"16087 Gold Cup Drive E","zip/postal code":33470,"geo_precision":"unmatched"},"type":"Feature","geometry":null},{"properties":{"city":"Boynton Beach","geo_score":0.0,"sold price":"$-","id":"abih04kd8mhe","address":"5622 Mirror Lakes Blvd","zip/postal code":33472,"geo_precision":"unmatched"},"type":"Feature","geometry":null},{"properties":{"city":"Deerfield Beach","geo_score":0.0,"sold price":"$-","id":"abih04icy6g3","address":"1112 Se 15th Ave.","zip/postal code":33441,"geo_precision":"unmatched"},"type":"Feature","geometry":null},{"properties":{"city":"Weston","geo_score":0.0,"sold price":"$-","id":"abih04iv37wj","address":"1214 Iris Court","zip/postal code":33326,"geo_precision":"unmatched"},"type":"Feature","geometry":null},{"properties":{"city":"West Palm Beach","geo_score":0.0,"sold price":"$-","id":"abih04pdqom5","address":"12698 Headwater Circle","zip/postal code":33414,"geo_precision":"unmatched"},"type":"Feature","geometry":null},{"properties":{"city":"Hollywood","geo_score":0.0,"sold price":"$-","id":"abih04tl1d68","address":"4500 Buchanann Street","zip/postal code":33021,"geo_precision":"unmatched"},"type":"Feature","geometry":null},{"properties":{"city":"Haverhill","geo_score":0.0,"sold price":"$-","id":"abih04oxqnvq","address":"1061 Pineway Drive","zip/postal code":33417,"geo_precision":"unmatched"},"type":"Feature","geometry":null},{"properties":{"city":"Margate","geo_score":0.0,"sold price":"$-","id":"abih04jssmvh","address":"3066 W. Buenavista Dr","zip/postal code":33322,"geo_precision":"unmatched"},"type":"Feature","geometry":null},{"properties":{"city":"Sunny Isles Beach","geo_score":0.0,"sold price":"$-","id":"abih04ft7otz","address":"18001 Collins Avenue","zip/postal code":33160,"geo_precision":"unmatched"},"type":"Feature","geometry":null},{"properties":{"city":"West Palm Beach","geo_score":0.0,"sold price":"$-","id":"abih04p1twau","address":"8225 Forego Road","zip/postal code":33418,"geo_precision":"unmatched"},"type":"Feature","geometry":null},{"properties":{"city":"Coral Springs","geo_score":0.0,"sold price":"$-","id":"abih04sbe9vx","address":"4732 Nw 100th Terrace","zip/postal code":33076,"geo_precision":"unmatched"},"type":"Feature","geometry":null},{"properties":{"city":"Vero Beach","geo_score":0.0,"sold price":"$-","id":"abih04mzljkn","address":"6500 Oxford Circle","zip/postal code":32966,"geo_precision":"unmatched"},"type":"Feature","geometry":null},{"properties":{"city":"Miramar","geo_score":0.0,"sold price":"$-","id":"abih04fsq6z6","address":"6208 E Forge Road","zip/postal code":33028,"geo_precision":"unmatched"},"type":"Feature","geometry":null},{"properties":{"city":"Palm Beach Gardens","geo_score":0.0,"sold price":"$-","id":"abih04nr47ff","address":"1 Auston Road","zip/postal code":33418,"geo_precision":"unmatched"},"type":"Feature","geometry":null},{"properties":{"city":"Hallandale","geo_score":0.0,"sold price":"$-","id":"abih04tv5582","address":"3113 S Ocean Drive","zip/postal code":33009,"geo_precision":"unmatched"},"type":"Feature","geometry":null},{"properties":{"city":"Weston","geo_score":0.0,"sold price":"$-","id":"abih04hvgfjm","address":"16200 Golf Club Road","zip/postal code":33326,"geo_precision":"unmatched"},"type":"Feature","geometry":null},{"properties":{"city":"Pembroke Pines","geo_score":0.0,"sold price":"$-","id":"abih04sd5lo4","address":"804 Nw 208th Circle","zip/postal code":33029,"geo_precision":"unmatched"},"type":"Feature","geometry":null},{"properties":{"city":"Miami Beach","geo_score":0.0,"sold price":"$-","id":"abih04u4nv10","address":"1446 Ocean Drive","zip/postal code":33139,"geo_precision":"unmatched"},"type":"Feature","geometry":null},{"properties":{"city":"Pembroke Pines","geo_score":0.0,"sold price":"$-","id":"abih04mhxnnt","address":"9501 Nw 24th Street","zip/postal code":33024,"geo_precision":"unmatched"},"type":"Feature","geometry":null},{"properties":{"city":"Boca Raton","geo_score":0.0,"sold price":"$-","id":"abih04s96b06","address":"10941 Lake Front Place","zip/postal code":33498,"geo_precision":"unmatched"},"type":"Feature","geometry":null},{"properties":{"city":"Lake Worth","geo_score":0.0,"sold price":"$-","id":"abih04unmz1a","address":"5830 Cadillac Drive","zip/postal code":33463,"geo_precision":"unmatched"},"type":"Feature","geometry":null},{"properties":{"city":"Miami","geo_score":0.0,"sold price":"$-","id":"abih04uix90b","address":"9373 Sw 155th Avenue","zip/postal code":33196,"geo_precision":"unmatched"},"type":"Feature","geometry":null},{"properties":{"city":"Miami","geo_score":0.0,"sold price":"$-","id":"abih04glgb6m","address":"12525 Sw 72nd Avenue","zip/postal code":33156,"geo_precision":"unmatched"},"type":"Feature","geometry":null},{"properties":{"city":"Hollywood","geo_score":0.0,"sold price":"$-","id":"abih04lycyy2","address":"338 Roosevelt Drive","zip/postal code":33019,"geo_precision":"unmatched"},"type":"Feature","geometry":null},{"properties":{"city":"Miami","geo_score":0.0,"sold price":"$-","id":"abih04liht72","address":"2918 64th Avenue","zip/postal code":33155,"geo_precision":"unmatched"},"type":"Feature","geometry":null},{"properties":{"city":"Boca Raton","geo_score":0.0,"sold price":"$-","id":"abih04iluomy","address":"6562 Boca Del Mar Drive","zip/postal code":33433,"geo_precision":"unmatched"},"type":"Feature","geometry":null},{"properties":{"city":"Palm Beach Gardens","geo_score":0.0,"sold price":"$-","id":"abih04heuzke","address":"910 Mill Creek Drive","zip/postal code":33410,"geo_precision":"unmatched"},"type":"Feature","geometry":null},{"properties":{"city":"Jupiter","geo_score":0.0,"sold price":"$-","id":"abih04r19jmh","address":"1605 S Us Hgwy 1","zip/postal code":33477,"geo_precision":"unmatched"},"type":"Feature","geometry":null},{"properties":{"city":"Deerfield Beach","geo_score":0.0,"sold price":"$-","id":"abih04grm37m","address":"2015 Newport G","zip/postal code":33442,"geo_precision":"unmatched"},"type":"Feature","geometry":null},{"properties":{"city":"Pompano Beach","geo_score":0.0,"sold price":"$-","id":"abih04tvbjdl","address":"5232 NE 18th Avenue","zip/postal code":33064,"geo_precision":"unmatched"},"type":"Feature","geometry":null},{"properties":{"city":"Singer Island","geo_score":0.0,"sold price":"$-","id":"abih04hxns04","address":"340 Inlet Way #16","zip/postal code":33404,"geo_precision":"unmatched"},"type":"Feature","geometry":null},{"properties":{"city":"Pembroke Pines","geo_score":0.0,"sold price":"$-","id":"abih04k58vcm","address":"16120 Sw 11th Street","zip/postal code":33027,"geo_precision":"unmatched"},"type":"Feature","geometry":null},{"properties":{"city":"Boynton Beach","geo_score":0.0,"sold price":"$-","id":"abih04utwuqo","address":"4351 Dovewood Road","zip/postal code":33436,"geo_precision":"unmatched"},"type":"Feature","geometry":null},{"properties":{"city":"Fort Lauderdale","geo_score":0.0,"sold price":"$-","id":"abih04g8lqyq","address":"4800 Bayview Drive","zip/postal code":33308,"geo_precision":"unmatched"},"type":"Feature","geometry":null},{"properties":{"city":"Lauderdale Lakes","geo_score":0.0,"sold price":"$-","id":"abih04hupktd","address":"3941 NW 46th Avenue","zip/postal code":33319,"geo_precision":"unmatched"},"type":"Feature","geometry":null},{"properties":{"city":"Hialeah","geo_score":0.0,"sold price":"$-","id":"abih04h01w1h","address":"7589 Nw 182 Terrace","zip/postal code":33015,"geo_precision":"unmatched"},"type":"Feature","geometry":null},{"properties":{"city":"Palm Beach Gardens","geo_score":0.0,"sold price":"$-","id":"abih04ulk2t3","address":"15173 71st Drive N","zip/postal code":33418,"geo_precision":"unmatched"},"type":"Feature","geometry":null},{"properties":{"city":"Miami","geo_score":0.0,"sold price":"$-","id":"abih04kw0dwn","address":"2475 Brickell Avenue","zip/postal code":33129,"geo_precision":"unmatched"},"type":"Feature","geometry":null},{"properties":{"city":"Coconut Creek","geo_score":0.0,"sold price":"$-","id":"abih04qzyvxv","address":"4421 Nw 68th Street","zip/postal code":33073,"geo_precision":"unmatched"},"type":"Feature","geometry":null},{"properties":{"city":"Boynton Beach","geo_score":0.0,"sold price":"$-","id":"abih04t6iql2","address":"8881 Livingston Way","zip/postal code":33437,"geo_precision":"unmatched"},"type":"Feature","geometry":null},{"properties":{"city":"Miami","geo_score":0.0,"sold price":"$-","id":"abih04rmjhlx","address":"8101 Sw 128th Street","zip/postal code":33156,"geo_precision":"unmatched"},"type":"Feature","geometry":null},{"properties":{"city":"Jupiter","geo_score":0.0,"sold price":"$-","id":"abih04hfb1q7","address":"302 New Haven Blvd","zip/postal code":33458,"geo_precision":"unmatched"},"type":"Feature","geometry":null},{"properties":{"city":"Hallandale","geo_score":0.0,"sold price":"$-","id":"abih04ga30jj","address":"2030 S Ocean Drive","zip/postal code":33009,"geo_precision":"unmatched"},"type":"Feature","geometry":null},{"properties":{"city":"Delray Beach","geo_score":0.0,"sold price":"$-","id":"abih04jv5sm9","address":"13594 Paisley Drive","zip/postal code":33446,"geo_precision":"unmatched"},"type":"Feature","geometry":null},{"properties":{"city":"Miami","geo_score":0.0,"sold price":"$-","id":"abih04kpkva7","address":"8540 Nw 6th Lane","zip/postal code":33126,"geo_precision":"unmatched"},"type":"Feature","geometry":null},{"properties":{"city":"Boca Raton","geo_score":0.0,"sold price":"$-","id":"abih04uar4jj","address":"23355 Mirabella Circle South","zip/postal code":33433,"geo_precision":"unmatched"},"type":"Feature","geometry":null},{"properties":{"city":"Pembroke Pines","geo_score":0.0,"sold price":"$-","id":"abih04isy1i4","address":"21551 NW 3rd Place","zip/postal code":33029,"geo_precision":"unmatched"},"type":"Feature","geometry":null},{"properties":{"city":"Plantation","geo_score":0.0,"sold price":"$-","id":"abih04orvqp9","address":"701 Azalea Court","zip/postal code":33317,"geo_precision":"unmatched"},"type":"Feature","geometry":null},{"properties":{"city":"Florida City","geo_score":0.0,"sold price":"$-","id":"abih04iivrck","address":"974 NW 3rd Street","zip/postal code":33034,"geo_precision":"unmatched"},"type":"Feature","geometry":null},{"properties":{"city":"Miami","geo_score":0.0,"sold price":"$-","id":"abih04iqmn5g","address":"8945 Sw 96th Avenue","zip/postal code":33176,"geo_precision":"unmatched"},"type":"Feature","geometry":null},{"properties":{"city":"Hollywood","geo_score":0.0,"sold price":"$-","id":"abih04ms52dg","address":"2401 S Ocean Drive #2308","zip/postal code":33019,"geo_precision":"unmatched"},"type":"Feature","geometry":null},{"properties":{"city":"Doral","geo_score":0.0,"sold price":"$-","id":"abih04h1yap8","address":"10032 Nw 43rd Terrace","zip/postal code":33178,"geo_precision":"unmatched"},"type":"Feature","geometry":null},{"properties":{"city":"Sunny Isles","geo_score":0.0,"sold price":"$-","id":"abih04nmlm9x","address":"230 174th Street","zip/postal code":33160,"geo_precision":"unmatched"},"type":"Feature","geometry":null},{"properties":{"city":"Fort Lauderdale","geo_score":0.0,"sold price":"$-","id":"abih04jm2t51","address":"936 Intracoastal Drive","zip/postal code":33304,"geo_precision":"unmatched"},"type":"Feature","geometry":null},{"properties":{"city":"Coconut Grove","geo_score":0.0,"sold price":"$-","id":"abih04gu3k3j","address":"3820 Wood Avenue","zip/postal code":33145,"geo_precision":"unmatched"},"type":"Feature","geometry":null},{"properties":{"city":"Lake Park","geo_score":0.0,"sold price":"$-","id":"abih04t84iqw","address":"801 Lakeshore Drive","zip/postal code":33403,"geo_precision":"unmatched"},"type":"Feature","geometry":null},{"properties":{"city":"Weston","geo_score":0.0,"sold price":"$-","id":"abih04hl8ipz","address":"3918 W Hibiscus Street","zip/postal code":33332,"geo_precision":"unmatched"},"type":"Feature","geometry":null},{"properties":{"city":"Miramar","geo_score":0.0,"sold price":"$-","id":"abih04p87njb","address":"11411 Sw 21st Street","zip/postal code":33025,"geo_precision":"unmatched"},"type":"Feature","geometry":null},{"properties":{"city":"Boca Raton","geo_score":0.0,"sold price":"$-","id":"abih04tuz3d8","address":"725 NE 70th Street","zip/postal code":33487,"geo_precision":"unmatched"},"type":"Feature","geometry":null},{"properties":{"city":"Weston","geo_score":0.0,"sold price":"$-","id":"abih04sgala3","address":"2727 Meadowbrook Drive","zip/postal code":33332,"geo_precision":"unmatched"},"type":"Feature","geometry":null},{"properties":{"city":"Pompano Beach","geo_score":0.0,"sold price":"$-","id":"abih04v0thqi","address":"2220 N Cypress Bend Drive","zip/postal code":33069,"geo_precision":"unmatched"},"type":"Feature","geometry":null},{"properties":{"city":"West Palm Beach","geo_score":0.0,"sold price":"$-","id":"abih04lrcr44","address":"259 Russlyn Drive","zip/postal code":33405,"geo_precision":"unmatched"},"type":"Feature","geometry":null},{"properties":{"city":"Miami","geo_score":0.0,"sold price":"$-","id":"abih04pkbzrm","address":"10363 Sw 88th Street","zip/postal code":33176,"geo_precision":"unmatched"},"type":"Feature","geometry":null},{"properties":{"city":"Royal Palm Beach","geo_score":0.0,"sold price":"$-","id":"abih04tezl8r","address":"11328 Okeechobie Blvd","zip/postal code":33414,"geo_precision":"unmatched"},"type":"Feature","geometry":null},{"properties":{"city":"Pompano Beach","geo_score":0.0,"sold price":"$-","id":"abih04ofcefl","address":"5452 Nw 54th Dr","zip/postal code":33073,"geo_precision":"unmatched"},"type":"Feature","geometry":null},{"properties":{"city":"Boca Raton","geo_score":0.0,"sold price":"$-","id":"abih04tts7ek","address":"5747 Golfway Drive","zip/postal code":33433,"geo_precision":"unmatched"},"type":"Feature","geometry":null},{"properties":{"city":"Lake Worth","geo_score":0.0,"sold price":"$-","id":"abih04q6fnww","address":"8431 Linden Way","zip/postal code":33467,"geo_precision":"unmatched"},"type":"Feature","geometry":null},{"properties":{"city":"Weston","geo_score":0.0,"sold price":"$-","id":"abih04qt62dr","address":"780 Verona Lake Drive","zip/postal code":33326,"geo_precision":"unmatched"},"type":"Feature","geometry":null},{"properties":{"city":"Fort Lauderdale","geo_score":0.0,"sold price":"$-","id":"abih04joi9y5","address":"2684 Palmer Place","zip/postal code":33332,"geo_precision":"unmatched"},"type":"Feature","geometry":null},{"properties":{"city":"Miami","geo_score":0.0,"sold price":"$-","id":"abih04stg5x1","address":"13300 Sw 136th Terrace","zip/postal code":33186,"geo_precision":"unmatched"},"type":"Feature","geometry":null},{"properties":{"city":"Davie","geo_score":0.0,"sold price":"$-","id":"abih04k7zaux","address":"12770 Sw 34th Place","zip/postal code":33330,"geo_precision":"unmatched"},"type":"Feature","geometry":null},{"properties":{"city":"Miami","geo_score":0.0,"sold price":"$-","id":"abih04hoccgj","address":"7391 Sw 117th Terrace","zip/postal code":33156,"geo_precision":"unmatched"},"type":"Feature","geometry":null},{"properties":{"city":"Miami","geo_score":0.0,"sold price":"$-","id":"abih04qigz6n","address":"16801 Ne 14th Avenue","zip/postal code":33162,"geo_precision":"unmatched"},"type":"Feature","geometry":null},{"properties":{"city":"Miami","geo_score":0.0,"sold price":"$-","id":"abih04sadwtd","address":"285 Nw 128th Street","zip/postal code":33168,"geo_precision":"unmatched"},"type":"Feature","geometry":null},{"properties":{"city":"Fort Lauderdale","geo_score":0.0,"sold price":"$-","id":"abih04kelx0o","address":"350 SE 2nd Street","zip/postal code":33301,"geo_precision":"unmatched"},"type":"Feature","geometry":null},{"properties":{"city":"Coral Springs","geo_score":0.0,"sold price":"$-","id":"abih04nx0491","address":"5411 Nw 86th Way","zip/postal code":33067,"geo_precision":"unmatched"},"type":"Feature","geometry":null},{"properties":{"city":"Dania","geo_score":0.0,"sold price":"$-","id":"abih04kq0vsx","address":"1025 Se 3rd Avenue","zip/postal code":33004,"geo_precision":"unmatched"},"type":"Feature","geometry":null},{"properties":{"city":"Pompano Beach","geo_score":0.0,"sold price":"$-","id":"abih04vig2cs","address":"1350 Se 6th Terrace","zip/postal code":33060,"geo_precision":"unmatched"},"type":"Feature","geometry":null},{"properties":{"city":"Delray Beach","geo_score":0.0,"sold price":"$-","id":"abih04r9uoer","address":"145 Ne 6th Avenue","zip/postal code":33483,"geo_precision":"unmatched"},"type":"Feature","geometry":null},{"properties":{"city":"West Palm Beach","geo_score":0.0,"sold price":"$-","id":"abih04juu0wo","address":"432 34th Street","zip/postal code":33407,"geo_precision":"unmatched"},"type":"Feature","geometry":null},{"properties":{"city":"Miami","geo_score":0.0,"sold price":"$-","id":"abih04ly4za0","address":"7220 Nw 114th Avenue","zip/postal code":33178,"geo_precision":"unmatched"},"type":"Feature","geometry":null},{"properties":{"city":"Hollywood","geo_score":0.0,"sold price":"$-","id":"abih04pym1x4","address":"2751 S Ocean Drive","zip/postal code":33019,"geo_precision":"unmatched"},"type":"Feature","geometry":null},{"properties":{"city":"Tamarac","geo_score":0.0,"sold price":"$-","id":"abih04vfm5cu","address":"6193 Rock Island Road","zip/postal code":33321,"geo_precision":"unmatched"},"type":"Feature","geometry":null},{"properties":{"city":"Pompano Beach","geo_score":0.0,"sold price":"$-","id":"abih04hgidnj","address":"111 Se 6th Court","zip/postal code":33060,"geo_precision":"unmatched"},"type":"Feature","geometry":null},{"properties":{"city":"Miami","geo_score":0.0,"sold price":"$-","id":"abih04undilk","address":"5085 Nw 7th Street","zip/postal code":33126,"geo_precision":"unmatched"},"type":"Feature","geometry":null},{"properties":{"city":"Fort Lauderdale","geo_score":0.0,"sold price":"$-","id":"abih04ghqwel","address":"4025 N Federal Hwy","zip/postal code":33308,"geo_precision":"unmatched"},"type":"Feature","geometry":null},{"properties":{"city":"Miami","geo_score":0.0,"sold price":"$-","id":"abih04q57czr","address":"1701 Ne 191st Street","zip/postal code":33179,"geo_precision":"unmatched"},"type":"Feature","geometry":null},{"properties":{"city":"Hollywood","geo_score":0.0,"sold price":"$-","id":"abih04nwhcja","address":"4316 Garfield Street","zip/postal code":33021,"geo_precision":"unmatched"},"type":"Feature","geometry":null},{"properties":{"city":"North Palm Beach","geo_score":0.0,"sold price":"$-","id":"abih04mk8xp3","address":"336 Golfview Road","zip/postal code":33408,"geo_precision":"unmatched"},"type":"Feature","geometry":null},{"properties":{"city":"Margate","geo_score":0.0,"sold price":"$-","id":"abih04pjuux3","address":"7785 Highlands Circle","zip/postal code":33063,"geo_precision":"unmatched"},"type":"Feature","geometry":null},{"properties":{"city":"Plantation","geo_score":0.0,"sold price":"$-","id":"abih04vwrzcw","address":"761 Nw 74th Avenue","zip/postal code":33317,"geo_precision":"unmatched"},"type":"Feature","geometry":null},{"properties":{"city":"North Palm Beach","geo_score":0.0,"sold price":"$-","id":"abih04kzypx4","address":"336 Golfview Road","zip/postal code":33408,"geo_precision":"unmatched"},"type":"Feature","geometry":null},{"properties":{"city":"Deerfield Beach","geo_score":0.0,"sold price":"$-","id":"abih04uok439","address":"1548 Se 5th Street","zip/postal code":33441,"geo_precision":"unmatched"},"type":"Feature","geometry":null},{"properties":{"city":"Coral Gables","geo_score":0.0,"sold price":"$-","id":"abih04m8uxqr","address":"341 Aledo Avenue","zip/postal code":33134,"geo_precision":"unmatched"},"type":"Feature","geometry":null},{"properties":{"city":"Fort Lauderdale","geo_score":0.0,"sold price":"$-","id":"abih04soj6jr","address":"2625 Ne 27th Way","zip/postal code":33311,"geo_precision":"unmatched"},"type":"Feature","geometry":null},{"properties":{"city":"Wilton Manors","geo_score":0.0,"sold price":"$-","id":"abih04mgpyj9","address":"1540 Ne 27th Drive","zip/postal code":33334,"geo_precision":"unmatched"},"type":"Feature","geometry":null},{"properties":{"city":"Plantation","geo_score":0.0,"sold price":"$-","id":"abih04j2qhus","address":"11613 Nw 5th Street","zip/postal code":33325,"geo_precision":"unmatched"},"type":"Feature","geometry":null},{"properties":{"city":"Pembroke Pines","geo_score":0.0,"sold price":"$-","id":"abih04rh2ov3","address":"10252 SW 9th Lane","zip/postal code":33025,"geo_precision":"unmatched"},"type":"Feature","geometry":null},{"properties":{"city":"Miami Beach","geo_score":0.0,"sold price":"$-","id":"abih04fxde5e","address":"1446 Ocean Drive #45","zip/postal code":33139,"geo_precision":"unmatched"},"type":"Feature","geometry":null},{"properties":{"city":"Fort Lauderdale","geo_score":0.0,"sold price":"$-","id":"abih04u6c658","address":"4660 Sw 37th Avenue","zip/postal code":33312,"geo_precision":"unmatched"},"type":"Feature","geometry":null},{"properties":{"city":"Aventura","geo_score":0.0,"sold price":"$-","id":"abih04gdnj19","address":"3530 Mystic Point Drive","zip/postal code":33180,"geo_precision":"unmatched"},"type":"Feature","geometry":null},{"properties":{"city":"Weston","geo_score":0.0,"sold price":"$-","id":"abih04pv5myu","address":"852 Waterview Drive","zip/postal code":33326,"geo_precision":"unmatched"},"type":"Feature","geometry":null},{"properties":{"city":"Miami Beach","geo_score":0.0,"sold price":"$-","id":"abih04qgvdgb","address":"9 Island Avenue","zip/postal code":33139,"geo_precision":"unmatched"},"type":"Feature","geometry":null},{"properties":{"city":"Hollywood","geo_score":0.0,"sold price":"$-","id":"abih04lhy9k6","address":"900 W Fairway Road","zip/postal code":33026,"geo_precision":"unmatched"},"type":"Feature","geometry":null},{"properties":{"city":"Singer Island","geo_score":0.0,"sold price":"$-","id":"abih04ln68x4","address":"1261 S Harbor Drive","zip/postal code":33404,"geo_precision":"unmatched"},"type":"Feature","geometry":null},{"properties":{"city":"Hallandale","geo_score":0.0,"sold price":"$-","id":"abih04o10o7h","address":"441 Leslie Drive","zip/postal code":33009,"geo_precision":"unmatched"},"type":"Feature","geometry":null},{"properties":{"city":"Cooper City","geo_score":0.0,"sold price":"$-","id":"abih04jeeywc","address":"5329 SW 117th Avenue","zip/postal code":33330,"geo_precision":"unmatched"},"type":"Feature","geometry":null},{"properties":{"city":"Plantation","geo_score":0.0,"sold price":"$-","id":"abih04tjg5ho","address":"701 NW 108th Avenue","zip/postal code":33324,"geo_precision":"unmatched"},"type":"Feature","geometry":null},{"properties":{"city":"North Lauderdale","geo_score":0.0,"sold price":"$-","id":"abih04mxnnj7","address":"8280 Sw 24th Street","zip/postal code":33068,"geo_precision":"unmatched"},"type":"Feature","geometry":null},{"properties":{"city":"Tamarac","geo_score":0.0,"sold price":"$-","id":"abih04o4qmom","address":"7201 NW 70th Street","zip/postal code":33321,"geo_precision":"unmatched"},"type":"Feature","geometry":null},{"properties":{"city":"Fort Lauderdale","geo_score":0.0,"sold price":"$-","id":"abih04se72z7","address":"14444 Sw 21st Street","zip/postal code":33325,"geo_precision":"unmatched"},"type":"Feature","geometry":null},{"properties":{"city":"Miramar","geo_score":0.0,"sold price":"$-","id":"abih04ju2tao","address":"2308 Sw 177th Avenue","zip/postal code":33029,"geo_precision":"unmatched"},"type":"Feature","geometry":null},{"properties":{"city":"Coral Gables","geo_score":0.0,"sold price":"$-","id":"abih04okegmz","address":"2351 Douglas Road","zip/postal code":33145,"geo_precision":"unmatched"},"type":"Feature","geometry":null},{"properties":{"city":"Highland Beach","geo_score":0.0,"sold price":"$-","id":"abih04q2f6wt","address":"4511 S Ocean Blvd","zip/postal code":33487,"geo_precision":"unmatched"},"type":"Feature","geometry":null},{"properties":{"city":"Boca Raton","geo_score":0.0,"sold price":"$-","id":"abih04rb1ugb","address":"10670 Boca Woods Lane","zip/postal code":33428,"geo_precision":"unmatched"},"type":"Feature","geometry":null},{"properties":{"city":"Boca Raton","geo_score":0.0,"sold price":"$-","id":"abih04jlc9kp","address":"13 Royal Palm","zip/postal code":33432,"geo_precision":"unmatched"},"type":"Feature","geometry":null},{"properties":{"city":"Fort Lauderdale","geo_score":0.0,"sold price":"$-","id":"abih04rljnrj","address":"4800 Bayview Drive","zip/postal code":33308,"geo_precision":"unmatched"},"type":"Feature","geometry":null},{"properties":{"city":"Hialeah","geo_score":0.0,"sold price":"$-","id":"abih04v9mcnj","address":"601 E 44th Stret","zip/postal code":33013,"geo_precision":"unmatched"},"type":"Feature","geometry":null},{"properties":{"city":"Coconut Creek","geo_score":0.0,"sold price":"$-","id":"abih04hslts6","address":"1846 Tamarind Lane","zip/postal code":33063,"geo_precision":"unmatched"},"type":"Feature","geometry":null},{"properties":{"city":"Davie","geo_score":0.0,"sold price":"$-","id":"abih04s643mw","address":"14421 Bedford Court","zip/postal code":33325,"geo_precision":"unmatched"},"type":"Feature","geometry":null},{"properties":{"city":"Key Biscayne","geo_score":0.0,"sold price":"$-","id":"abih04ibhpkw","address":"255 Sunrise Drive","zip/postal code":33149,"geo_precision":"unmatched"},"type":"Feature","geometry":null},{"properties":{"city":"Boca Raton","geo_score":0.0,"sold price":"$-","id":"abih04fkvyw8","address":"120 Se 5th Avenue","zip/postal code":33432,"geo_precision":"unmatched"},"type":"Feature","geometry":null},{"properties":{"city":"Boca Raton","geo_score":0.0,"sold price":"$-","id":"abih04th0wsj","address":"2309 NW 66th Drive","zip/postal code":33496,"geo_precision":"unmatched"},"type":"Feature","geometry":null},{"properties":{"city":"Miami","geo_score":0.0,"sold price":"$-","id":"abih04i8oo5l","address":"3606 Alcantara Avenue","zip/postal code":33178,"geo_precision":"unmatched"},"type":"Feature","geometry":null},{"properties":{"city":"Miami","geo_score":0.0,"sold price":"$-","id":"abih04kar3na","address":"1441 Nw 138th Street","zip/postal code":33167,"geo_precision":"unmatched"},"type":"Feature","geometry":null},{"properties":{"city":"Miami","geo_score":0.0,"sold price":"$-","id":"abih04qlg461","address":"9401 Sw 61st Street","zip/postal code":33173,"geo_precision":"unmatched"},"type":"Feature","geometry":null},{"properties":{"city":"Plantation","geo_score":0.0,"sold price":"$-","id":"abih04kxu1hr","address":"201 Nw 46th Avenue","zip/postal code":33317,"geo_precision":"unmatched"},"type":"Feature","geometry":null},{"properties":{"city":"West Palm Beach","geo_score":0.0,"sold price":"$-","id":"abih04sn2fpf","address":"12698 Headwater Circle","zip/postal code":33414,"geo_precision":"unmatched"},"type":"Feature","geometry":null},{"properties":{"city":"Miramar","geo_score":0.0,"sold price":"$-","id":"abih04rv33sj","address":"13503 Sw 50th Court","zip/postal code":33027,"geo_precision":"unmatched"},"type":"Feature","geometry":null},{"properties":{"city":"West Palm Beach","geo_score":0.0,"sold price":"$-","id":"abih04rfo76b","address":"236 Ponce De Leon Street","zip/postal code":33411,"geo_precision":"unmatched"},"type":"Feature","geometry":null},{"properties":{"city":"Miramar","geo_score":0.0,"sold price":"$-","id":"abih04mypsad","address":"18611 Sw 39th Court","zip/postal code":33029,"geo_precision":"unmatched"},"type":"Feature","geometry":null},{"properties":{"city":"Davie","geo_score":0.0,"sold price":"$-","id":"abih04htouaw","address":"14401 Arlington Place","zip/postal code":33325,"geo_precision":"unmatched"},"type":"Feature","geometry":null},{"properties":{"city":"Weston","geo_score":0.0,"sold price":"$-","id":"abih04u4v08l","address":"622 Bedford Way","zip/postal code":33326,"geo_precision":"unmatched"},"type":"Feature","geometry":null},{"properties":{"city":"Miami","geo_score":0.0,"sold price":"$-","id":"abih04tbuv2k","address":"21085 Ne 34th Avenue","zip/postal code":33180,"geo_precision":"unmatched"},"type":"Feature","geometry":null},{"properties":{"city":"North Bay Village","geo_score":0.0,"sold price":"$-","id":"abih04tkjlov","address":"1880 S Treasure Drive","zip/postal code":33141,"geo_precision":"unmatched"},"type":"Feature","geometry":null},{"properties":{"city":"Deerfield Beach","geo_score":0.0,"sold price":"$-","id":"abih04jtwxq8","address":"3270 Sw 3rd Street","zip/postal code":33442,"geo_precision":"unmatched"},"type":"Feature","geometry":null},{"properties":{"city":"Fort Lauderdale","geo_score":0.0,"sold price":"$-","id":"abih04hnve11","address":"245 Sw 13th Terrace","zip/postal code":33312,"geo_precision":"unmatched"},"type":"Feature","geometry":null},{"properties":{"city":"Homestead","geo_score":0.0,"sold price":"$-","id":"abih04mtr8rd","address":"15895 Sw 242nd Street","zip/postal code":33031,"geo_precision":"unmatched"},"type":"Feature","geometry":null},{"properties":{"city":"Lake Worth","geo_score":0.0,"sold price":"$-","id":"abih04pvdva7","address":"8431 Linden Way","zip/postal code":33467,"geo_precision":"unmatched"},"type":"Feature","geometry":null},{"properties":{"city":"Plantation","geo_score":0.0,"sold price":"$-","id":"abih04p5xr9q","address":"1701 Nw 75th Avenue","zip/postal code":33313,"geo_precision":"unmatched"},"type":"Feature","geometry":null},{"properties":{"city":"Hollywood","geo_score":0.0,"sold price":"$-","id":"abih04oyosi9","address":"1700 Peirce Street","zip/postal code":33020,"geo_precision":"unmatched"},"type":"Feature","geometry":null},{"properties":{"city":"Miami Shores","geo_score":0.0,"sold price":"$-","id":"abih04kmwgdz","address":"102 Nw 100th Street","zip/postal code":33150,"geo_precision":"unmatched"},"type":"Feature","geometry":null},{"properties":{"city":"Aventura","geo_score":0.0,"sold price":"$-","id":"abih04umbx8y","address":"20191 E Country Club Drive","zip/postal code":33180,"geo_precision":"unmatched"},"type":"Feature","geometry":null},{"properties":{"city":"Lake Worth","geo_score":0.0,"sold price":"$-","id":"abih04qakcia","address":"7491 Ridgefield Lane","zip/postal code":33467,"geo_precision":"unmatched"},"type":"Feature","geometry":null},{"properties":{"city":"Homestead","geo_score":0.0,"sold price":"$-","id":"abih04l8r1cc","address":"2604 Augusta Drive","zip/postal code":33035,"geo_precision":"unmatched"},"type":"Feature","geometry":null},{"properties":{"city":"Greenacres","geo_score":0.0,"sold price":"$-","id":"abih04p9yd4l","address":"5702 Channel Drive","zip/postal code":33463,"geo_precision":"unmatched"},"type":"Feature","geometry":null},{"properties":{"city":"Boca Raton","geo_score":0.0,"sold price":"$-","id":"abih04m2ri8h","address":"1124 Sw 21st Lane","zip/postal code":33486,"geo_precision":"unmatched"},"type":"Feature","geometry":null},{"properties":{"city":"Margate","geo_score":0.0,"sold price":"$-","id":"abih04nncpns","address":"1910 Nw 80th Avenue","zip/postal code":33063,"geo_precision":"unmatched"},"type":"Feature","geometry":null},{"properties":{"city":"Coral Gables","geo_score":0.0,"sold price":"$-","id":"abih04j389jq","address":"1205 Mariposa Avenue","zip/postal code":33146,"geo_precision":"unmatched"},"type":"Feature","geometry":null},{"properties":{"city":"Miami","geo_score":0.0,"sold price":"$-","id":"abih04rkuypg","address":"7940 SW 139th Terrace","zip/postal code":33158,"geo_precision":"unmatched"},"type":"Feature","geometry":null},{"properties":{"city":"Miami","geo_score":0.0,"sold price":"$-","id":"abih04hag8hg","address":"20281 E Country Club Drive","zip/postal code":33180,"geo_precision":"unmatched"},"type":"Feature","geometry":null},{"properties":{"city":"North Lauderdale","geo_score":0.0,"sold price":"$-","id":"abih04h6c4q6","address":"942 Sw 68th Avenue","zip/postal code":33068,"geo_precision":"unmatched"},"type":"Feature","geometry":null},{"properties":{"city":"Fort Lauderdale","geo_score":0.0,"sold price":"$-","id":"abih04szrr45","address":"2230 NE 16th Court","zip/postal code":33305,"geo_precision":"unmatched"},"type":"Feature","geometry":null},{"properties":{"city":"Boca Raton","geo_score":0.0,"sold price":"$-","id":"abih04g9qmnz","address":"18313 104th Terrace South","zip/postal code":33498,"geo_precision":"unmatched"},"type":"Feature","geometry":null},{"properties":{"city":"Miami","geo_score":0.0,"sold price":"$-","id":"abih04shogbr","address":"17225 Sw 78th Court","zip/postal code":33157,"geo_precision":"unmatched"},"type":"Feature","geometry":null},{"properties":{"city":"Plantation","geo_score":0.0,"sold price":"$-","id":"abih04j7m3jt","address":"6100 Sw 20th Street","zip/postal code":33317,"geo_precision":"unmatched"},"type":"Feature","geometry":null},{"properties":{"city":"Hollywood","geo_score":0.0,"sold price":"$-","id":"abih04re19ve","address":"5412 Roosevelt Street","zip/postal code":33021,"geo_precision":"unmatched"},"type":"Feature","geometry":null},{"properties":{"city":"Miami","geo_score":0.0,"sold price":"$-","id":"abih04uneqfe","address":"3606 Alcantara Avenue","zip/postal code":33178,"geo_precision":"unmatched"},"type":"Feature","geometry":null},{"properties":{"city":"Palm Beach Gardens","geo_score":0.0,"sold price":"$-","id":"abih04ph7at0","address":"2420 Windsor Road","zip/postal code":33410,"geo_precision":"unmatched"},"type":"Feature","geometry":null},{"properties":{"city":"Pompano Beach","geo_score":0.0,"sold price":"$-","id":"abih04vi3ntb","address":"3204 Leigh Road","zip/postal code":33062,"geo_precision":"unmatched"},"type":"Feature","geometry":null},{"properties":{"city":"Greenacres","geo_score":0.0,"sold price":"$-","id":"abih04mw4fii","address":"6101 Fairfield Circle","zip/postal code":33463,"geo_precision":"unmatched"},"type":"Feature","geometry":null},{"properties":{"city":"West Palm Beach","geo_score":0.0,"sold price":"$-","id":"abih04sevwwz","address":"263 Barcelona Road","zip/postal code":33401,"geo_precision":"unmatched"},"type":"Feature","geometry":null},{"properties":{"city":"Bal Harbour","geo_score":0.0,"sold price":"$-","id":"abih04npznz8","address":"10178 Collins Avenue","zip/postal code":33154,"geo_precision":"unmatched"},"type":"Feature","geometry":null},{"properties":{"city":"Sunrise","geo_score":0.0,"sold price":"$-","id":"abih04o7c3fd","address":"9210 Nw 26th Street","zip/postal code":33322,"geo_precision":"unmatched"},"type":"Feature","geometry":null},{"properties":{"city":"Pembroke Pines","geo_score":0.0,"sold price":"$-","id":"abih04pnxsyu","address":"601 Sw 141st Avenue","zip/postal code":33027,"geo_precision":"unmatched"},"type":"Feature","geometry":null},{"properties":{"city":"Hallandale","geo_score":0.0,"sold price":"$-","id":"abih04t72x1t","address":"137 Golden Isles Drive","zip/postal code":33009,"geo_precision":"unmatched"},"type":"Feature","geometry":null},{"properties":{"city":"Lauderdale Lakes","geo_score":0.0,"sold price":"$-","id":"abih04n22rmh","address":"4480 Nw 41st Terrace","zip/postal code":33319,"geo_precision":"unmatched"},"type":"Feature","geometry":null},{"properties":{"city":"Pembroke Pines","geo_score":0.0,"sold price":"$-","id":"abih04lxenrz","address":"9421 Nw 19th Street","zip/postal code":33024,"geo_precision":"unmatched"},"type":"Feature","geometry":null},{"properties":{"city":"Lake Worth","geo_score":0.0,"sold price":"$-","id":"abih04ft21pk","address":"7685 Springfield Lake Drive","zip/postal code":33467,"geo_precision":"unmatched"},"type":"Feature","geometry":null},{"properties":{"city":"Jupiter","geo_score":0.0,"sold price":"$-","id":"abih04im6mrx","address":"6280 Longleaf Pine Drive","zip/postal code":33458,"geo_precision":"unmatched"},"type":"Feature","geometry":null},{"properties":{"city":"Pembroke Pines","geo_score":0.0,"sold price":"$-","id":"abih04izhgti","address":"270 Nw 161st Avenue","zip/postal code":33028,"geo_precision":"unmatched"},"type":"Feature","geometry":null},{"properties":{"city":"Boca Raton","geo_score":0.0,"sold price":"$-","id":"abih04uls021","address":"20237 Back Nine Drive","zip/postal code":33498,"geo_precision":"unmatched"},"type":"Feature","geometry":null},{"properties":{"city":"Davie","geo_score":0.0,"sold price":"$-","id":"abih04tsh47z","address":"4900 Sw 58th Avenue","zip/postal code":33314,"geo_precision":"unmatched"},"type":"Feature","geometry":null},{"properties":{"city":"Hollywood","geo_score":0.0,"sold price":"$-","id":"abih04rnk8kz","address":"10331 Iris Court","zip/postal code":33026,"geo_precision":"unmatched"},"type":"Feature","geometry":null},{"properties":{"city":"Plantation","geo_score":0.0,"sold price":"$-","id":"abih04ibibdi","address":"100 Nw 76th Avenue","zip/postal code":33324,"geo_precision":"unmatched"},"type":"Feature","geometry":null},{"properties":{"city":"Miami","geo_score":0.0,"sold price":"$-","id":"abih04k4o74g","address":"12500 Sw 90th Avenue","zip/postal code":33176,"geo_precision":"unmatched"},"type":"Feature","geometry":null},{"properties":{"city":"West Palm Beach","geo_score":0.0,"sold price":"$-","id":"abih04gqi57k","address":"833 35th Street","zip/postal code":33407,"geo_precision":"unmatched"},"type":"Feature","geometry":null},{"properties":{"city":"Wilton Manors","geo_score":0.0,"sold price":"$-","id":"abih04vp4b3s","address":"2909 Nw 12th Avenue","zip/postal code":33311,"geo_precision":"unmatched"},"type":"Feature","geometry":null},{"properties":{"city":"Fort Lauderdale","geo_score":0.0,"sold price":"$-","id":"abih04nplb0l","address":"1721 Sw 119th Terrace","zip/postal code":33325,"geo_precision":"unmatched"},"type":"Feature","geometry":null},{"properties":{"city":"Coral Springs","geo_score":0.0,"sold price":"$-","id":"abih04r3u5gi","address":"11629 Nw 47th Drive","zip/postal code":33076,"geo_precision":"unmatched"},"type":"Feature","geometry":null},{"properties":{"city":"Fort Lauderdale","geo_score":0.0,"sold price":"$-","id":"abih04ge94hp","address":"7358 Ashmount Circle","zip/postal code":33321,"geo_precision":"unmatched"},"type":"Feature","geometry":null},{"properties":{"city":"Sunrise","geo_score":0.0,"sold price":"$-","id":"abih04rrrpea","address":"11810 NW 31st Street","zip/postal code":33323,"geo_precision":"unmatched"},"type":"Feature","geometry":null},{"properties":{"city":"Miramar","geo_score":0.0,"sold price":"$-","id":"abih04mmjtzj","address":"17447 SW 20th Court","zip/postal code":33029,"geo_precision":"unmatched"},"type":"Feature","geometry":null},{"properties":{"city":"Pembroke Pines","geo_score":0.0,"sold price":"$-","id":"abih04q89f12","address":"367 SW 188th Terrace","zip/postal code":33029,"geo_precision":"unmatched"},"type":"Feature","geometry":null},{"properties":{"city":"West Palm Beach","geo_score":0.0,"sold price":"$-","id":"abih04fye1z8","address":"10275 Osprey Trace","zip/postal code":33412,"geo_precision":"unmatched"},"type":"Feature","geometry":null},{"properties":{"city":"Hialeah","geo_score":0.0,"sold price":"$-","id":"abih04nqfpwk","address":"18015 Nw 62nd Court","zip/postal code":33015,"geo_precision":"unmatched"},"type":"Feature","geometry":null},{"properties":{"city":"Miami","geo_score":0.0,"sold price":"$-","id":"abih04gx07mj","address":"2418 Sw 18th Avenue","zip/postal code":33145,"geo_precision":"unmatched"},"type":"Feature","geometry":null},{"properties":{"city":"Margate","geo_score":0.0,"sold price":"$-","id":"abih04jczfzs","address":"3066 W. Buenavista Dr","zip/postal code":33322,"geo_precision":"unmatched"},"type":"Feature","geometry":null},{"properties":{"city":"Okeechobee","geo_score":0.0,"sold price":"$-","id":"abih04tw2g8y","address":"1052 Lime Street Buckhead Ridge","zip/postal code":34974,"geo_precision":"unmatched"},"type":"Feature","geometry":null},{"properties":{"city":"Pembroke Pines","geo_score":0.0,"sold price":"$-","id":"abih04mimtp9","address":"1271 Nw 143rd Ave","zip/postal code":33028,"geo_precision":"unmatched"},"type":"Feature","geometry":null},{"properties":{"city":"Juno Beach","geo_score":0.0,"sold price":"$-","id":"abih04ky5hd6","address":"303 Sea Oats Drive","zip/postal code":33408,"geo_precision":"unmatched"},"type":"Feature","geometry":null},{"properties":{"city":"Jupiter","geo_score":0.0,"sold price":"$-","id":"abih04rvk2ed","address":"2510 25th Court","zip/postal code":33477,"geo_precision":"unmatched"},"type":"Feature","geometry":null},{"properties":{"city":"Miami","geo_score":0.0,"sold price":"$-","id":"abih04mfislu","address":"9727 Sw 92nd Terrace","zip/postal code":33176,"geo_precision":"unmatched"},"type":"Feature","geometry":null},{"properties":{"city":"Margate","geo_score":0.0,"sold price":"$-","id":"abih04nvp7n9","address":"1835 Nw 66th Terrace","zip/postal code":33063,"geo_precision":"unmatched"},"type":"Feature","geometry":null},{"properties":{"city":"Miami","geo_score":0.0,"sold price":"$-","id":"abih04uuejai","address":"269 Nw 7th Street","zip/postal code":33136,"geo_precision":"unmatched"},"type":"Feature","geometry":null},{"properties":{"city":"Sw Ranches","geo_score":0.0,"sold price":"$-","id":"abih04mfkbv8","address":"7010 Hancock Road","zip/postal code":33330,"geo_precision":"unmatched"},"type":"Feature","geometry":null},{"properties":{"city":"Lauderhill","geo_score":0.0,"sold price":"$-","id":"abih04lhr8ee","address":"3463 Spring Bluff Place","zip/postal code":33319,"geo_precision":"unmatched"},"type":"Feature","geometry":null},{"properties":{"city":"Miami","geo_score":0.0,"sold price":"$-","id":"abih04ho2pha","address":"3000 Sw 57th Avenue","zip/postal code":33155,"geo_precision":"unmatched"},"type":"Feature","geometry":null},{"properties":{"city":"Miami","geo_score":0.0,"sold price":"$-","id":"abih04u27amj","address":"3120 NW 205th Street","zip/postal code":33056,"geo_precision":"unmatched"},"type":"Feature","geometry":null},{"properties":{"city":"Cooper City","geo_score":0.0,"sold price":"$-","id":"abih04qkpr50","address":"12660 Countryside Terrace","zip/postal code":33330,"geo_precision":"unmatched"},"type":"Feature","geometry":null},{"properties":{"city":"Miami","geo_score":0.0,"sold price":"$-","id":"abih04nqsspu","address":"17000 NW 67th Avenue","zip/postal code":33015,"geo_precision":"unmatched"},"type":"Feature","geometry":null},{"properties":{"city":"Fort Lauderdale","geo_score":0.0,"sold price":"$-","id":"abih04ix8z53","address":"3900 Galt Ocean Drive","zip/postal code":33308,"geo_precision":"unmatched"},"type":"Feature","geometry":null},{"properties":{"city":"Hallandale","geo_score":0.0,"sold price":"$-","id":"abih04ptmb53","address":"1000 Ne 12th Avenue","zip/postal code":33009,"geo_precision":"unmatched"},"type":"Feature","geometry":null},{"properties":{"city":"Miami","geo_score":0.0,"sold price":"$-","id":"abih04jbrjjf","address":"8301 Sw 142 Avenue","zip/postal code":33183,"geo_precision":"unmatched"},"type":"Feature","geometry":null},{"properties":{"city":"Miami","geo_score":0.0,"sold price":"$-","id":"abih04uvtsfh","address":"7380 Sw 114th Street","zip/postal code":33156,"geo_precision":"unmatched"},"type":"Feature","geometry":null},{"properties":{"city":"Margate","geo_score":0.0,"sold price":"$-","id":"abih04jecd5l","address":"6404 Brandywine Drive N","zip/postal code":33063,"geo_precision":"unmatched"},"type":"Feature","geometry":null},{"properties":{"city":"Davie","geo_score":0.0,"sold price":"$-","id":"abih04ja7fb4","address":"9072 Lake Park Circle S","zip/postal code":33328,"geo_precision":"unmatched"},"type":"Feature","geometry":null},{"properties":{"city":"Fort Lauderdale","geo_score":0.0,"sold price":"$-","id":"abih04mvzjmt","address":"1721 NE 17th Avenue","zip/postal code":33305,"geo_precision":"unmatched"},"type":"Feature","geometry":null},{"properties":{"city":"Coconut Grove","geo_score":0.0,"sold price":"$-","id":"abih04kgqc5t","address":"3104 Shipping Ave","zip/postal code":33133,"geo_precision":"unmatched"},"type":"Feature","geometry":null},{"properties":{"city":"Key Biscayne","geo_score":0.0,"sold price":"$-","id":"abih04unf0kz","address":"521 Crandon Blvd","zip/postal code":33149,"geo_precision":"unmatched"},"type":"Feature","geometry":null},{"properties":{"city":"Miami","geo_score":0.0,"sold price":"$-","id":"abih04vtx00d","address":"3640 Yacht Club Drive","zip/postal code":33180,"geo_precision":"unmatched"},"type":"Feature","geometry":null},{"properties":{"city":"Cooper City","geo_score":0.0,"sold price":"$-","id":"abih04k17zhm","address":"13364 Lakeside Terrace","zip/postal code":33330,"geo_precision":"unmatched"},"type":"Feature","geometry":null},{"properties":{"city":"Miami Gardens","geo_score":0.0,"sold price":"$-","id":"abih04h6d63j","address":"3321 Nw 208th Terrace","zip/postal code":33056,"geo_precision":"unmatched"},"type":"Feature","geometry":null},{"properties":{"city":"Cooper City","geo_score":0.0,"sold price":"$-","id":"abih04h8bt6f","address":"12924 Spring Lake Drive","zip/postal code":33330,"geo_precision":"unmatched"},"type":"Feature","geometry":null},{"properties":{"city":"Hialeah","geo_score":0.0,"sold price":"$-","id":"abih04p13udc","address":"19642 Nw 84th Place","zip/postal code":33015,"geo_precision":"unmatched"},"type":"Feature","geometry":null},{"properties":{"city":"Miami","geo_score":0.0,"sold price":"$-","id":"abih04nlddr5","address":"1501 SW 159th Street","zip/postal code":33187,"geo_precision":"unmatched"},"type":"Feature","geometry":null},{"properties":{"city":"West Palm Beach","geo_score":0.0,"sold price":"$-","id":"abih04voc4cm","address":"13124 Silver Fox Lane","zip/postal code":33418,"geo_precision":"unmatched"},"type":"Feature","geometry":null},{"properties":{"city":"Cooper City","geo_score":0.0,"sold price":"$-","id":"abih04nod92l","address":"3335 E Point Drive","zip/postal code":33026,"geo_precision":"unmatched"},"type":"Feature","geometry":null},{"properties":{"city":"West Palm Beach","geo_score":0.0,"sold price":"$-","id":"abih04lbldco","address":"5400 N Ocean Drive","zip/postal code":33404,"geo_precision":"unmatched"},"type":"Feature","geometry":null},{"properties":{"city":"Miami","geo_score":0.0,"sold price":"$-","id":"abih04l535gx","address":"2131 SW 25th Street","zip/postal code":33133,"geo_precision":"unmatched"},"type":"Feature","geometry":null},{"properties":{"city":"Miami","geo_score":0.0,"sold price":"$-","id":"abih04gddydb","address":"540 Brickell Key Drive","zip/postal code":33131,"geo_precision":"unmatched"},"type":"Feature","geometry":null},{"properties":{"city":"Sunny Isles Beach","geo_score":0.0,"sold price":"$-","id":"abih04hag5ee","address":"17021 N Bay Road","zip/postal code":33160,"geo_precision":"unmatched"},"type":"Feature","geometry":null},{"properties":{"city":"South Palm Beach","geo_score":0.0,"sold price":"$-","id":"abih04nh4pez","address":"3580 S Ocean Avenue","zip/postal code":33480,"geo_precision":"unmatched"},"type":"Feature","geometry":null},{"properties":{"city":"Miami","geo_score":0.0,"sold price":"$-","id":"abih04vsyh4s","address":"17301 Sw 149th Court","zip/postal code":33187,"geo_precision":"unmatched"},"type":"Feature","geometry":null},{"properties":{"city":"West Palm Beach","geo_score":0.0,"sold price":"$-","id":"abih04ke87xe","address":"3808 Florida Blvd","zip/postal code":33410,"geo_precision":"unmatched"},"type":"Feature","geometry":null},{"properties":{"city":"Palm Beach","geo_score":0.0,"sold price":"$-","id":"abih04oeq83w","address":"139 Sunrise Avenue","zip/postal code":33480,"geo_precision":"unmatched"},"type":"Feature","geometry":null},{"properties":{"city":"Palm Beach Gardens","geo_score":0.0,"sold price":"$-","id":"abih04mjej2j","address":"1119 11th Lane","zip/postal code":33418,"geo_precision":"unmatched"},"type":"Feature","geometry":null},{"properties":{"city":"Boca Raton","geo_score":0.0,"sold price":"$-","id":"abih04id6fvo","address":"13 Royal Palm","zip/postal code":33432,"geo_precision":"unmatched"},"type":"Feature","geometry":null},{"properties":{"city":"Fort Lauderdale","geo_score":0.0,"sold price":"$-","id":"abih04vop69x","address":"4938 Sw 33rd Avenue","zip/postal code":33312,"geo_precision":"unmatched"},"type":"Feature","geometry":null},{"properties":{"city":"Homestead","geo_score":0.0,"sold price":"$-","id":"abih04uaaq5n","address":"24767 SW 109th Avenue","zip/postal code":33032,"geo_precision":"unmatched"},"type":"Feature","geometry":null},{"properties":{"city":"Pahokee","geo_score":0.0,"sold price":"$-","id":"abih04v3f6ai","address":"1049 E Main Street","zip/postal code":33476,"geo_precision":"unmatched"},"type":"Feature","geometry":null},{"properties":{"city":"Jupiter","geo_score":0.0,"sold price":"$-","id":"abih04qml0tm","address":"309 Circle W","zip/postal code":33458,"geo_precision":"unmatched"},"type":"Feature","geometry":null},{"properties":{"city":"Boca Raton","geo_score":0.0,"sold price":"$-","id":"abih04vzl6bs","address":"23378 Barlake Drive,","zip/postal code":33433,"geo_precision":"unmatched"},"type":"Feature","geometry":null},{"properties":{"city":"Palm Beach Shores","geo_score":0.0,"sold price":"$-","id":"abih04ky4obs","address":"340 Inlet Way","zip/postal code":33404,"geo_precision":"unmatched"},"type":"Feature","geometry":null},{"properties":{"city":"Fort Lauderdale","geo_score":0.0,"sold price":"$-","id":"abih04v67bgg","address":"4100 Galt Ocean Drive","zip/postal code":33308,"geo_precision":"unmatched"},"type":"Feature","geometry":null},{"properties":{"city":"Weston","geo_score":0.0,"sold price":"$-","id":"abih04lwitgb","address":"829 Azalea Place","zip/postal code":33327,"geo_precision":"unmatched"},"type":"Feature","geometry":null},{"properties":{"city":"Miami Lakes","geo_score":0.0,"sold price":"$-","id":"abih04hnsbo1","address":"19543 Cypress Court East","zip/postal code":33015,"geo_precision":"unmatched"},"type":"Feature","geometry":null},{"properties":{"city":"Miami","geo_score":0.0,"sold price":"$-","id":"abih04h22kc0","address":"12905 Cherry Road","zip/postal code":33181,"geo_precision":"unmatched"},"type":"Feature","geometry":null},{"properties":{"city":"Miami","geo_score":0.0,"sold price":"$-","id":"abih04n6m5qh","address":"11308 Griffing Blvd","zip/postal code":33161,"geo_precision":"unmatched"},"type":"Feature","geometry":null},{"properties":{"city":"Highland Beach","geo_score":0.0,"sold price":"$-","id":"abih04ly2v64","address":"3114 S Ocean Blvd","zip/postal code":33487,"geo_precision":"unmatched"},"type":"Feature","geometry":null},{"properties":{"city":"Plantation","geo_score":0.0,"sold price":"$-","id":"abih04vlzzqq","address":"7910 Nw 4th Street","zip/postal code":33324,"geo_precision":"unmatched"},"type":"Feature","geometry":null},{"properties":{"city":"Coconut Creek","geo_score":0.0,"sold price":"$-","id":"abih04l9kp20","address":"3303 Aruba Way #g4","zip/postal code":33066,"geo_precision":"unmatched"},"type":"Feature","geometry":null},{"properties":{"city":"Weston","geo_score":0.0,"sold price":"$-","id":"abih04guqwac","address":"1861 Salerno Circle","zip/postal code":33327,"geo_precision":"unmatched"},"type":"Feature","geometry":null},{"properties":{"city":"Pembroke Pines","geo_score":0.0,"sold price":"$-","id":"abih04hi8l0o","address":"8401 W Cypress Drive","zip/postal code":33025,"geo_precision":"unmatched"},"type":"Feature","geometry":null},{"properties":{"city":"Miami","geo_score":0.0,"sold price":"$-","id":"abih04fllsl8","address":"1631 Sw 32nd Court","zip/postal code":33145,"geo_precision":"unmatched"},"type":"Feature","geometry":null},{"properties":{"city":"Boynton Beach","geo_score":0.0,"sold price":"$-","id":"abih04mxuwv1","address":"3303 Tuscany Way","zip/postal code":33435,"geo_precision":"unmatched"},"type":"Feature","geometry":null},{"properties":{"city":"Weston","geo_score":0.0,"sold price":"$-","id":"abih04o6f6qk","address":"533 Lakeside Circle","zip/postal code":33326,"geo_precision":"unmatched"},"type":"Feature","geometry":null},{"properties":{"city":"Coral Springs","geo_score":0.0,"sold price":"$-","id":"abih04ftauko","address":"9740 Nw 14th Street","zip/postal code":33071,"geo_precision":"unmatched"},"type":"Feature","geometry":null},{"properties":{"city":"Miami","geo_score":0.0,"sold price":"$-","id":"abih04obu3gz","address":"6311 Nw 39th Terrace","zip/postal code":33166,"geo_precision":"unmatched"},"type":"Feature","geometry":null},{"properties":{"city":"Oakland Park","geo_score":0.0,"sold price":"$-","id":"abih04mlmzp5","address":"3251 NW 44th Street","zip/postal code":33309,"geo_precision":"unmatched"},"type":"Feature","geometry":null},{"properties":{"city":"Miami Beach","geo_score":0.0,"sold price":"$-","id":"abih04ljsi5g","address":"1450 Lincoln Road","zip/postal code":33139,"geo_precision":"unmatched"},"type":"Feature","geometry":null},{"properties":{"city":"Coral Springs","geo_score":0.0,"sold price":"$-","id":"abih04k10ehr","address":"4732 Nw 100th Terrace","zip/postal code":33076,"geo_precision":"unmatched"},"type":"Feature","geometry":null},{"properties":{"city":"Miami","geo_score":0.0,"sold price":"$-","id":"abih04l30kfe","address":"87 Ne 168th Street","zip/postal code":33162,"geo_precision":"unmatched"},"type":"Feature","geometry":null},{"properties":{"city":"Hollywood","geo_score":0.0,"sold price":"$-","id":"abih04k8pv4w","address":"7701 Nw 42nd Court","zip/postal code":33024,"geo_precision":"unmatched"},"type":"Feature","geometry":null},{"properties":{"city":"Cooper City","geo_score":0.0,"sold price":"$-","id":"abih04rm5crb","address":"11321 Sw 58th Court","zip/postal code":33330,"geo_precision":"unmatched"},"type":"Feature","geometry":null},{"properties":{"city":"Margate","geo_score":0.0,"sold price":"$-","id":"abih04pjy88u","address":"7611 Nw 18 Court","zip/postal code":33063,"geo_precision":"unmatched"},"type":"Feature","geometry":null},{"properties":{"city":"Davie","geo_score":0.0,"sold price":"$-","id":"abih04r1wf8n","address":"9030 Lake Park Circle N","zip/postal code":33328,"geo_precision":"unmatched"},"type":"Feature","geometry":null},{"properties":{"city":"Miami","geo_score":0.0,"sold price":"$-","id":"abih04hwftqo","address":"12725 Ne 11th Avenue","zip/postal code":33161,"geo_precision":"unmatched"},"type":"Feature","geometry":null},{"properties":{"city":"Hollywood","geo_score":0.0,"sold price":"$-","id":"abih04gcygiz","address":"3800 Hollywood Blvd","zip/postal code":33021,"geo_precision":"unmatched"},"type":"Feature","geometry":null},{"properties":{"city":"Davie","geo_score":0.0,"sold price":"$-","id":"abih04njms6a","address":"10754 Sw 17th Place","zip/postal code":33324,"geo_precision":"unmatched"},"type":"Feature","geometry":null},{"properties":{"city":"Tamarac","geo_score":0.0,"sold price":"$-","id":"abih04w1x846","address":"5503 White Oak Lane","zip/postal code":33319,"geo_precision":"unmatched"},"type":"Feature","geometry":null},{"properties":{"city":"Miami","geo_score":0.0,"sold price":"$-","id":"abih04uvylw1","address":"7201 Sw 5th Street","zip/postal code":33144,"geo_precision":"unmatched"},"type":"Feature","geometry":null},{"properties":{"city":"Miami","geo_score":0.0,"sold price":"$-","id":"abih04gw3089","address":"540 Brickell Key Drive","zip/postal code":33131,"geo_precision":"unmatched"},"type":"Feature","geometry":null},{"properties":{"city":"Palm Beach","geo_score":0.0,"sold price":"$-","id":"abih04h7icv9","address":"245 Oscelea Way","zip/postal code":33480,"geo_precision":"unmatched"},"type":"Feature","geometry":null},{"properties":{"city":"Hollywood","geo_score":0.0,"sold price":"$-","id":"abih04ihk55c","address":"4217 Monroe Street","zip/postal code":33021,"geo_precision":"unmatched"},"type":"Feature","geometry":null},{"properties":{"city":"Hialeah","geo_score":0.0,"sold price":"$-","id":"abih04hfndwe","address":"8019 W 36th Avenue","zip/postal code":33018,"geo_precision":"unmatched"},"type":"Feature","geometry":null},{"properties":{"city":"Fort Lauderdale","geo_score":0.0,"sold price":"$-","id":"abih04t3p831","address":"4050 Ocean Drive N","zip/postal code":33308,"geo_precision":"unmatched"},"type":"Feature","geometry":null},{"properties":{"city":"Sunny Isles Beach","geo_score":0.0,"sold price":"$-","id":"abih04kzb73m","address":"17021 N Bay Road","zip/postal code":33160,"geo_precision":"unmatched"},"type":"Feature","geometry":null},{"properties":{"city":"Coral Gables","geo_score":0.0,"sold price":"$-","id":"abih04l1btr0","address":"151 E Sunrise Avenue","zip/postal code":33145,"geo_precision":"unmatched"},"type":"Feature","geometry":null},{"properties":{"city":"Delray Beach","geo_score":0.0,"sold price":"$-","id":"abih04qsynvz","address":"304 Seville M","zip/postal code":33446,"geo_precision":"unmatched"},"type":"Feature","geometry":null},{"properties":{"city":"Palm Beach","geo_score":0.0,"sold price":"$-","id":"abih04msj822","address":"2840 S Ocean Blvd","zip/postal code":33480,"geo_precision":"unmatched"},"type":"Feature","geometry":null},{"properties":{"city":"Aventura","geo_score":0.0,"sold price":"$-","id":"abih04gk85tt","address":"20355 Ne 34th Court","zip/postal code":33180,"geo_precision":"unmatched"},"type":"Feature","geometry":null},{"properties":{"city":"Miami","geo_score":0.0,"sold price":"$-","id":"abih04i6v5cc","address":"1581 Brickell Avenue","zip/postal code":33129,"geo_precision":"unmatched"},"type":"Feature","geometry":null},{"properties":{"city":"Fort Lauderdale","geo_score":0.0,"sold price":"$-","id":"abih04npyj2r","address":"1209 SE 1st Street","zip/postal code":33301,"geo_precision":"unmatched"},"type":"Feature","geometry":null},{"properties":{"city":"Boynton Beach","geo_score":0.0,"sold price":"$-","id":"abih04o5pgpv","address":"8260 Palm Gate Drive","zip/postal code":33436,"geo_precision":"unmatched"},"type":"Feature","geometry":null},{"properties":{"city":"Fort Lauderdale","geo_score":0.0,"sold price":"$-","id":"abih04if26hh","address":"4560 SW 24th Avenue","zip/postal code":33312,"geo_precision":"unmatched"},"type":"Feature","geometry":null},{"properties":{"city":"Fort Lauderdale","geo_score":0.0,"sold price":"$-","id":"abih04oxny2s","address":"9441 Evergreen Place","zip/postal code":33324,"geo_precision":"unmatched"},"type":"Feature","geometry":null},{"properties":{"city":"Miami","geo_score":0.0,"sold price":"$-","id":"abih04g1a3ur","address":"7555 Sw 79th Avenue","zip/postal code":33143,"geo_precision":"unmatched"},"type":"Feature","geometry":null},{"properties":{"city":"Margate","geo_score":0.0,"sold price":"$-","id":"abih04hginxd","address":"7785 Highlands Circle","zip/postal code":33063,"geo_precision":"unmatched"},"type":"Feature","geometry":null},{"properties":{"city":"Oakland Park","geo_score":0.0,"sold price":"$-","id":"abih04nl1k3p","address":"4180 Nw 12th Terrace","zip/postal code":33309,"geo_precision":"unmatched"},"type":"Feature","geometry":null},{"properties":{"city":"Lauderdale By The Sea","geo_score":0.0,"sold price":"$-","id":"abih04pnnkbj","address":"5100 N Ocean Blvd","zip/postal code":33308,"geo_precision":"unmatched"},"type":"Feature","geometry":null},{"properties":{"city":"Pompano Beach","geo_score":0.0,"sold price":"$-","id":"abih04pr17xf","address":"2212 S Cypress Bend Dr","zip/postal code":33069,"geo_precision":"unmatched"},"type":"Feature","geometry":null},{"properties":{"city":"Lauderdale By The Sea","geo_score":0.0,"sold price":"$-","id":"abih04hm9ucl","address":"239 East Commercial Blvd.","zip/postal code":33308,"geo_precision":"unmatched"},"type":"Feature","geometry":null},{"properties":{"city":"Weston","geo_score":0.0,"sold price":"$-","id":"abih04sx71z5","address":"2690 Riveria Court","zip/postal code":33332,"geo_precision":"unmatched"},"type":"Feature","geometry":null},{"properties":{"city":"Coral Springs","geo_score":0.0,"sold price":"$-","id":"abih04j44j0z","address":"5797 NW 119th Terrace","zip/postal code":33076,"geo_precision":"unmatched"},"type":"Feature","geometry":null},{"properties":{"city":"Fort Lauderdale","geo_score":0.0,"sold price":"$-","id":"abih04v5o7yt","address":"5251 Ne 26th Avenue","zip/postal code":33308,"geo_precision":"unmatched"},"type":"Feature","geometry":null},{"properties":{"city":"Miami","geo_score":0.0,"sold price":"$-","id":"abih04foixib","address":"13000 Sw 92nd Avenue","zip/postal code":33176,"geo_precision":"unmatched"},"type":"Feature","geometry":null},{"properties":{"city":"Palm Beach Gardens","geo_score":0.0,"sold price":"$-","id":"abih04ukafx2","address":"8612 Wakefield Drive","zip/postal code":33410,"geo_precision":"unmatched"},"type":"Feature","geometry":null},{"properties":{"city":"Weston","geo_score":0.0,"sold price":"$-","id":"abih04l4xnxq","address":"780 Verona Lake Drive","zip/postal code":33326,"geo_precision":"unmatched"},"type":"Feature","geometry":null},{"properties":{"city":"Jupiter","geo_score":0.0,"sold price":"$-","id":"abih04op9lgo","address":"208 Sims Creek Drive","zip/postal code":33458,"geo_precision":"unmatched"},"type":"Feature","geometry":null},{"properties":{"city":"Miami Beach","geo_score":0.0,"sold price":"$-","id":"abih04gz6r0j","address":"1881 Washington Avenue","zip/postal code":33139,"geo_precision":"unmatched"},"type":"Feature","geometry":null},{"properties":{"city":"Boca Raton","geo_score":0.0,"sold price":"$-","id":"abih04rz7nd6","address":"4085 Bay Laurel Way","zip/postal code":33487,"geo_precision":"unmatched"},"type":"Feature","geometry":null},{"properties":{"city":"Miramar","geo_score":0.0,"sold price":"$-","id":"abih04gj1f3i","address":"2508 Canal Road","zip/postal code":33025,"geo_precision":"unmatched"},"type":"Feature","geometry":null},{"properties":{"city":"Miami","geo_score":0.0,"sold price":"$-","id":"abih04kcgwqu","address":"52 Nw 99th Street","zip/postal code":33000,"geo_precision":"unmatched"},"type":"Feature","geometry":null},{"properties":{"city":"Palmetto Bay","geo_score":0.0,"sold price":"$-","id":"abih04nrza9b","address":"16820 Sw 87th Court","zip/postal code":33157,"geo_precision":"unmatched"},"type":"Feature","geometry":null},{"properties":{"city":"Weston","geo_score":0.0,"sold price":"$-","id":"abih04fzvxkc","address":"2457 Greenbrier Court","zip/postal code":33327,"geo_precision":"unmatched"},"type":"Feature","geometry":null},{"properties":{"city":"Miami Beach","geo_score":0.0,"sold price":"$-","id":"abih04nmjyhu","address":"1750 James Avenue","zip/postal code":33139,"geo_precision":"unmatched"},"type":"Feature","geometry":null},{"properties":{"city":"Miami","geo_score":0.0,"sold price":"$-","id":"abih04r83pmp","address":"9860 Sw 164th Terrace","zip/postal code":33157,"geo_precision":"unmatched"},"type":"Feature","geometry":null},{"properties":{"city":"Miami","geo_score":0.0,"sold price":"$-","id":"abih04vsh74g","address":"3731 N Country Club Drive","zip/postal code":33180,"geo_precision":"unmatched"},"type":"Feature","geometry":null},{"properties":{"city":"Pembroke Pines","geo_score":0.0,"sold price":"$-","id":"abih04kvw3jh","address":"16316 Nw 8th Drive","zip/postal code":33028,"geo_precision":"unmatched"},"type":"Feature","geometry":null},{"properties":{"city":"West Palm Beach","geo_score":0.0,"sold price":"$-","id":"abih04gn8bc4","address":"3701 S Flagler Drive","zip/postal code":33405,"geo_precision":"unmatched"},"type":"Feature","geometry":null},{"properties":{"city":"Fort Lauderdale","geo_score":0.0,"sold price":"$-","id":"abih04qz5vkv","address":"11050 Sw 57th Street","zip/postal code":33328,"geo_precision":"unmatched"},"type":"Feature","geometry":null},{"properties":{"city":"Hollywood","geo_score":0.0,"sold price":"$-","id":"abih04t86aia","address":"815 N Golf Drive","zip/postal code":33021,"geo_precision":"unmatched"},"type":"Feature","geometry":null},{"properties":{"city":"Miami","geo_score":0.0,"sold price":"$-","id":"abih04oe16t8","address":"285 Nw 128th Street","zip/postal code":33168,"geo_precision":"unmatched"},"type":"Feature","geometry":null},{"properties":{"city":"Miami Beach","geo_score":0.0,"sold price":"$-","id":"abih04gt0d6d","address":"1446 Ocean Drive","zip/postal code":33139,"geo_precision":"unmatched"},"type":"Feature","geometry":null},{"properties":{"city":"Miami","geo_score":0.0,"sold price":"$-","id":"abih04hekreb","address":"6825 Sw 71st Court","zip/postal code":33143,"geo_precision":"unmatched"},"type":"Feature","geometry":null},{"properties":{"city":"West Palm Beach","geo_score":0.0,"sold price":"$-","id":"abih04sptjch","address":"12698 Headwater Circle","zip/postal code":33414,"geo_precision":"unmatched"},"type":"Feature","geometry":null},{"properties":{"city":"Lake Worth","geo_score":0.0,"sold price":"$-","id":"abih04p46ty1","address":"7491 Ridgefield Lane","zip/postal code":33467,"geo_precision":"unmatched"},"type":"Feature","geometry":null},{"properties":{"city":"Boca Raton","geo_score":0.0,"sold price":"$-","id":"abih04uznnui","address":"136 Nw 10th Street","zip/postal code":33432,"geo_precision":"unmatched"},"type":"Feature","geometry":null},{"properties":{"city":"North Bay Village","geo_score":0.0,"sold price":"$-","id":"abih04opyk2j","address":"7601 E Treasure Drive","zip/postal code":33141,"geo_precision":"unmatched"},"type":"Feature","geometry":null},{"properties":{"city":"Hialeah","geo_score":0.0,"sold price":"$-","id":"abih04sm8och","address":"631 E 38th Street","zip/postal code":33013,"geo_precision":"unmatched"},"type":"Feature","geometry":null},{"properties":{"city":"Boca Raton","geo_score":0.0,"sold price":"$-","id":"abih04kvntmj","address":"2799 NW Boca Baton Blvd","zip/postal code":33431,"geo_precision":"unmatched"},"type":"Feature","geometry":null},{"properties":{"city":"Fort Lauderdale","geo_score":0.0,"sold price":"$-","id":"abih04khv2dk","address":"124 Ne 17th Avenue","zip/postal code":33301,"geo_precision":"unmatched"},"type":"Feature","geometry":null},{"properties":{"city":"Miami","geo_score":0.0,"sold price":"$-","id":"abih04j0kyjv","address":"12620 Sw 87th Place","zip/postal code":33176,"geo_precision":"unmatched"},"type":"Feature","geometry":null},{"properties":{"city":"West Palm Beach","geo_score":0.0,"sold price":"$-","id":"abih04kei8jn","address":"1020 10th Way","zip/postal code":33407,"geo_precision":"unmatched"},"type":"Feature","geometry":null},{"properties":{"city":"Palm Beach Gardens","geo_score":0.0,"sold price":"$-","id":"abih04tnt8zl","address":"53 Admirals Court","zip/postal code":33418,"geo_precision":"unmatched"},"type":"Feature","geometry":null},{"properties":{"city":"Pembroke Pines","geo_score":0.0,"sold price":"$-","id":"abih04hqf4ew","address":"1413 Nw 124th Avenue","zip/postal code":33026,"geo_precision":"unmatched"},"type":"Feature","geometry":null},{"properties":{"city":"West Palm Beach","geo_score":0.0,"sold price":"$-","id":"abih04li9h51","address":"1900 Consulate Place","zip/postal code":33401,"geo_precision":"unmatched"},"type":"Feature","geometry":null},{"properties":{"city":"Boca Raton","geo_score":0.0,"sold price":"$-","id":"abih04iuuixt","address":"900 Sw 9th Street Circle","zip/postal code":33486,"geo_precision":"unmatched"},"type":"Feature","geometry":null},{"properties":{"city":"Pembroke Pines","geo_score":0.0,"sold price":"$-","id":"abih04rfru3o","address":"639 SW 168th Lane","zip/postal code":33027,"geo_precision":"unmatched"},"type":"Feature","geometry":null},{"properties":{"city":"Miami","geo_score":0.0,"sold price":"$-","id":"abih04m6x0nl","address":"1701 Ne 115th Street","zip/postal code":33181,"geo_precision":"unmatched"},"type":"Feature","geometry":null},{"properties":{"city":"West Palm Beach","geo_score":0.0,"sold price":"$-","id":"abih04l3q4nd","address":"236 Ponce De Leon Street","zip/postal code":33411,"geo_precision":"unmatched"},"type":"Feature","geometry":null},{"properties":{"city":"Davie","geo_score":0.0,"sold price":"$-","id":"abih04k30lye","address":"3715 Sw 59th Avenue","zip/postal code":33314,"geo_precision":"unmatched"},"type":"Feature","geometry":null},{"properties":{"city":"Weston","geo_score":0.0,"sold price":"$-","id":"abih04nznw52","address":"829 Azalea Place","zip/postal code":33327,"geo_precision":"unmatched"},"type":"Feature","geometry":null},{"properties":{"city":"Delray Beach","geo_score":0.0,"sold price":"$-","id":"abih04pv83jw","address":"304 Seville M","zip/postal code":33446,"geo_precision":"unmatched"},"type":"Feature","geometry":null},{"properties":{"city":"Homestead","geo_score":0.0,"sold price":"$-","id":"abih04ihvjll","address":"2007 Se 26th Lane","zip/postal code":33035,"geo_precision":"unmatched"},"type":"Feature","geometry":null},{"properties":{"city":"Palm Beach Gardens","geo_score":0.0,"sold price":"$-","id":"abih04pwtz7h","address":"4 Lexington Lane E","zip/postal code":33418,"geo_precision":"unmatched"},"type":"Feature","geometry":null},{"properties":{"city":"Hollywood","geo_score":0.0,"sold price":"$-","id":"abih04nmsfj9","address":"4900 Johnson Street","zip/postal code":33021,"geo_precision":"unmatched"},"type":"Feature","geometry":null},{"properties":{"city":"Miami","geo_score":0.0,"sold price":"$-","id":"abih04hrym0r","address":"23140 Sw 124th Court","zip/postal code":33170,"geo_precision":"unmatched"},"type":"Feature","geometry":null},{"properties":{"city":"West Palm Beach","geo_score":0.0,"sold price":"$-","id":"abih04pntuzc","address":"917 39th Court","zip/postal code":33407,"geo_precision":"unmatched"},"type":"Feature","geometry":null},{"properties":{"city":"Lake Worth","geo_score":0.0,"sold price":"$-","id":"abih04j41ofw","address":"4356 Fountains Drive","zip/postal code":33467,"geo_precision":"unmatched"},"type":"Feature","geometry":null},{"properties":{"city":"Hollywood","geo_score":0.0,"sold price":"$-","id":"abih04lzvdke","address":"5630 Garfield Street","zip/postal code":33021,"geo_precision":"unmatched"},"type":"Feature","geometry":null},{"properties":{"city":"West Palm Beach","geo_score":0.0,"sold price":"$-","id":"abih04w3e3ne","address":"13547 73rd Street N","zip/postal code":33412,"geo_precision":"unmatched"},"type":"Feature","geometry":null},{"properties":{"city":"Miami","geo_score":0.0,"sold price":"$-","id":"abih04v4t566","address":"13120 SW 92nd Avenue","zip/postal code":33176,"geo_precision":"unmatched"},"type":"Feature","geometry":null},{"properties":{"city":"Hollywood","geo_score":0.0,"sold price":"$-","id":"abih04nkmfsg","address":"5706 Harrison Street","zip/postal code":33023,"geo_precision":"unmatched"},"type":"Feature","geometry":null},{"properties":{"city":"Miami","geo_score":0.0,"sold price":"$-","id":"abih04nylh0r","address":"285 Nw 128th Street","zip/postal code":33168,"geo_precision":"unmatched"},"type":"Feature","geometry":null},{"properties":{"city":"Hollywood","geo_score":0.0,"sold price":"$-","id":"abih04pwnhea","address":"3561 N 37th Street","zip/postal code":33021,"geo_precision":"unmatched"},"type":"Feature","geometry":null},{"properties":{"city":"Miami","geo_score":0.0,"sold price":"$-","id":"abih04usrdfn","address":"8260 Sw 102nd Street","zip/postal code":33156,"geo_precision":"unmatched"},"type":"Feature","geometry":null},{"properties":{"city":"Boca Raton","geo_score":0.0,"sold price":"$-","id":"abih04t6c6qc","address":"3034 Ainslie C","zip/postal code":33434,"geo_precision":"unmatched"},"type":"Feature","geometry":null},{"properties":{"city":"Miami","geo_score":0.0,"sold price":"$-","id":"abih04uzfbmd","address":"3101 N Country Drive","zip/postal code":33180,"geo_precision":"unmatched"},"type":"Feature","geometry":null},{"properties":{"city":"Fort Lauderdale","geo_score":0.0,"sold price":"$-","id":"abih04g2a30o","address":"4050 Ocean Drive N","zip/postal code":33308,"geo_precision":"unmatched"},"type":"Feature","geometry":null},{"properties":{"city":"Boca Raton","geo_score":0.0,"sold price":"$-","id":"abih04on8qor","address":"20237 Back Nine Drive","zip/postal code":33498,"geo_precision":"unmatched"},"type":"Feature","geometry":null},{"properties":{"city":"West Palm Beach","geo_score":0.0,"sold price":"$-","id":"abih04j8cut4","address":"104 Valencia Street","zip/postal code":33411,"geo_precision":"unmatched"},"type":"Feature","geometry":null},{"properties":{"city":"Sunny Isles Beach","geo_score":0.0,"sold price":"$-","id":"abih04n7bz82","address":"100 Bayview Drive","zip/postal code":33160,"geo_precision":"unmatched"},"type":"Feature","geometry":null},{"properties":{"city":"Wilton Manors","geo_score":0.0,"sold price":"$-","id":"abih04mtlvua","address":"1730 Ne 28th Drive","zip/postal code":33334,"geo_precision":"unmatched"},"type":"Feature","geometry":null},{"properties":{"city":"Pompano Beach","geo_score":0.0,"sold price":"$-","id":"abih04w3d4rw","address":"806 Cypress Grove Lane","zip/postal code":33069,"geo_precision":"unmatched"},"type":"Feature","geometry":null},{"properties":{"city":"Tamarac","geo_score":0.0,"sold price":"$-","id":"abih04k9kkqo","address":"8280 NW 68th Terrace","zip/postal code":33321,"geo_precision":"unmatched"},"type":"Feature","geometry":null},{"properties":{"city":"Jupiter","geo_score":0.0,"sold price":"$-","id":"abih04p6t1nh","address":"109 Mainsail Circle","zip/postal code":33477,"geo_precision":"unmatched"},"type":"Feature","geometry":null},{"properties":{"city":"Pembroke Pines","geo_score":0.0,"sold price":"$-","id":"abih04n86pqe","address":"1122 Nw 171st Terrace","zip/postal code":33028,"geo_precision":"unmatched"},"type":"Feature","geometry":null},{"properties":{"city":"Miami","geo_score":0.0,"sold price":"$-","id":"abih04nrsebh","address":"19320 Royal Birkdale Dr.","zip/postal code":33015,"geo_precision":"unmatched"},"type":"Feature","geometry":null},{"properties":{"city":"Parkland","geo_score":0.0,"sold price":"$-","id":"abih04koiuzx","address":"12162 NW 75th Place","zip/postal code":33076,"geo_precision":"unmatched"},"type":"Feature","geometry":null},{"properties":{"city":"Jupiter","geo_score":0.0,"sold price":"$-","id":"abih04gl39o8","address":"825 Center Street","zip/postal code":33458,"geo_precision":"unmatched"},"type":"Feature","geometry":null},{"properties":{"city":"Lake Worth","geo_score":0.0,"sold price":"$-","id":"abih04nst19s","address":"3980 Summer Chase Court","zip/postal code":33467,"geo_precision":"unmatched"},"type":"Feature","geometry":null},{"properties":{"city":"Fort Lauderdale","geo_score":0.0,"sold price":"$-","id":"abih04pfq78k","address":"1712 Sw 14th Street","zip/postal code":33312,"geo_precision":"unmatched"},"type":"Feature","geometry":null},{"properties":{"city":"Hollywood","geo_score":0.0,"sold price":"$-","id":"abih04t64813","address":"2965 Dove Drive","zip/postal code":33026,"geo_precision":"unmatched"},"type":"Feature","geometry":null},{"properties":{"city":"Pembroke Pines","geo_score":0.0,"sold price":"$-","id":"abih04s5znkh","address":"13055 Sw 15th Court","zip/postal code":33027,"geo_precision":"unmatched"},"type":"Feature","geometry":null},{"properties":{"city":"Weston","geo_score":0.0,"sold price":"$-","id":"abih04ftgcav","address":"16571 Blatt Blvd","zip/postal code":33326,"geo_precision":"unmatched"},"type":"Feature","geometry":null},{"properties":{"city":"Miami","geo_score":0.0,"sold price":"$-","id":"abih04nl4hz3","address":"16255 Sw 55th Terrace","zip/postal code":33185,"geo_precision":"unmatched"},"type":"Feature","geometry":null},{"properties":{"city":"Miami","geo_score":0.0,"sold price":"$-","id":"abih04qbe66c","address":"10551 SW 56th Terrace","zip/postal code":33173,"geo_precision":"unmatched"},"type":"Feature","geometry":null},{"properties":{"city":"Miami","geo_score":0.0,"sold price":"$-","id":"abih04tld2d1","address":"1647 Nw 29th Avenue","zip/postal code":33125,"geo_precision":"unmatched"},"type":"Feature","geometry":null},{"properties":{"city":"Hollywood","geo_score":0.0,"sold price":"$-","id":"abih04pcu0p6","address":"801 Sw 141th Avenue","zip/postal code":33027,"geo_precision":"unmatched"},"type":"Feature","geometry":null},{"properties":{"city":"Tamarac","geo_score":0.0,"sold price":"$-","id":"abih04n284az","address":"7595 Nw 73rd Terrace","zip/postal code":33321,"geo_precision":"unmatched"},"type":"Feature","geometry":null},{"properties":{"city":"Boca Raton","geo_score":0.0,"sold price":"$-","id":"abih04sx6c0i","address":"19759 Diner Key Drive","zip/postal code":33498,"geo_precision":"unmatched"},"type":"Feature","geometry":null},{"properties":{"city":"Miami","geo_score":0.0,"sold price":"$-","id":"abih04nc5yui","address":"11444 Sw 127th Court","zip/postal code":33186,"geo_precision":"unmatched"},"type":"Feature","geometry":null},{"properties":{"city":"North Palm Beach","geo_score":0.0,"sold price":"$-","id":"abih04ife001","address":"327 Southwind Drive","zip/postal code":33408,"geo_precision":"unmatched"},"type":"Feature","geometry":null},{"properties":{"city":"Miami Lakes","geo_score":0.0,"sold price":"$-","id":"abih04rkwm4b","address":"16346 Wood Walk","zip/postal code":33014,"geo_precision":"unmatched"},"type":"Feature","geometry":null},{"properties":{"city":"Miami","geo_score":0.0,"sold price":"$-","id":"abih04u81z5k","address":"525 Ne 138th Street","zip/postal code":33161,"geo_precision":"unmatched"},"type":"Feature","geometry":null},{"properties":{"city":"Oakland Park","geo_score":0.0,"sold price":"$-","id":"abih04hju3cp","address":"669 W Oakland Park Blvd","zip/postal code":33311,"geo_precision":"unmatched"},"type":"Feature","geometry":null},{"properties":{"city":"Weston","geo_score":0.0,"sold price":"$-","id":"abih04jdpht4","address":"700 Heritage Way","zip/postal code":33326,"geo_precision":"unmatched"},"type":"Feature","geometry":null},{"properties":{"city":"Miami","geo_score":0.0,"sold price":"$-","id":"abih04hqfg8x","address":"7300 Sw 114th Street","zip/postal code":33156,"geo_precision":"unmatched"},"type":"Feature","geometry":null},{"properties":{"city":"Miami","geo_score":0.0,"sold price":"$-","id":"abih04gh9oug","address":"20515 E Country Club Drive","zip/postal code":33180,"geo_precision":"unmatched"},"type":"Feature","geometry":null},{"properties":{"city":"Pembroke Pines","geo_score":0.0,"sold price":"$-","id":"abih04ljgh7a","address":"1239 Nw 161st Avenue","zip/postal code":33024,"geo_precision":"unmatched"},"type":"Feature","geometry":null},{"properties":{"city":"Pembroke Pines","geo_score":0.0,"sold price":"$-","id":"abih04pki9za","address":"19063 Nw 23rd Place","zip/postal code":33029,"geo_precision":"unmatched"},"type":"Feature","geometry":null},{"properties":{"city":"Hallandale","geo_score":0.0,"sold price":"$-","id":"abih04kuyt1h","address":"2101 Atlantic Shores Blvd","zip/postal code":33009,"geo_precision":"unmatched"},"type":"Feature","geometry":null},{"properties":{"city":"Miami Gardens","geo_score":0.0,"sold price":"$-","id":"abih04sy3vs8","address":"20111 Nw 42nd Avenue","zip/postal code":33055,"geo_precision":"unmatched"},"type":"Feature","geometry":null},{"properties":{"city":"Miami","geo_score":0.0,"sold price":"$-","id":"abih04qecaij","address":"12808 Sw 146th Terrace","zip/postal code":33186,"geo_precision":"unmatched"},"type":"Feature","geometry":null},{"properties":{"city":"Key Biscayne","geo_score":0.0,"sold price":"$-","id":"abih04vu1f5v","address":"250 Galen Drive","zip/postal code":33149,"geo_precision":"unmatched"},"type":"Feature","geometry":null}],"is_temporal":false,"author":{"url":"","metadata":"","contact_name":"","contact_address":"","source":"","contact_phone":""},"source":"","pagination":{"sort":null,"start":0,"total":790,"limit":1000000},"state":"complete","tags":"","published":"2014-08-16T15:10:19-04:00","id":311854}