{"type":"FeatureCollection","data_type":"Dataset","url_type":null,"permissions":[{"permissions":{"download":true,"view":true},"group_id":"everyone"}],"classification":null,"title":"sales addrss","count":790,"stream_id":311853,"contributor":{"url":"http://geocommons.com/users/59270","name":"dmuller24"},"data_attributes":null,"calculation_params":null,"icon_link":null,"link":"http://geocommons.com/overlays/311853.json","extent":[0.0,0.0,0.0,0.0],"geometry_types":[],"unique_name":null,"name":"sales addrss","feature_count":790,"description":"","next_feature":null,"is_raster":false,"short_classification":"Y","stats":{"zip/postal code":{"max":43201,"variance":153874.81260368,"mean":33242.7670886076,"stdev":392.268801466138,"min":32905,"median":33183}},"features":[{"properties":{"city":"Hallandale Beach","sold price":"$2,000.00","id":"abigzv34vdev","zip/postal code":"33009","address":"2500 Parkview Drive"},"type":"Feature","geometry":null},{"properties":{"city":"Miami","sold price":"$7,000.00","id":"abigzutxt34c","zip/postal code":"33185","address":"5340 Sw 153rd Court"},"type":"Feature","geometry":null},{"properties":{"city":"Margate","sold price":"$17,000.00","id":"abigzuwlbjaj","zip/postal code":"33063","address":"7785 Highlands Circle"},"type":"Feature","geometry":null},{"properties":{"city":"Coral Springs","sold price":"$10,360.00","id":"abigzv8ingce","zip/postal code":"33063","address":"7360 Nw 18th Street"},"type":"Feature","geometry":null},{"properties":{"city":"Miami","sold price":"$10,411.00","id":"abigzv24hped","zip/postal code":"33156","address":"7880 Sw 86th Street"},"type":"Feature","geometry":null},{"properties":{"city":"Miami","sold price":"$16,450.00","id":"abigzut8mkgl","zip/postal code":"33176","address":"10765 SW 135th Terrace"},"type":"Feature","geometry":null},{"properties":{"city":"Miami","sold price":"$3,400.00","id":"abigzuulsm69","zip/postal code":"33126","address":"5077 Nw 7th Street,"},"type":"Feature","geometry":null},{"properties":{"city":"Hallandale","sold price":"$7,638.00","id":"abigzv3a1p68","zip/postal code":"33009","address":"1000 Ne 12th Avenue"},"type":"Feature","geometry":null},{"properties":{"city":"Miramar","sold price":"$12,300.00","id":"abigzv5uis34","zip/postal code":"33027","address":"13650 Sw 18th Street"},"type":"Feature","geometry":null},{"properties":{"city":"Pembroke Pines","sold price":"$5,000.00","id":"abigzuykoanm","zip/postal code":"33025","address":"301 Sw 86th Ave."},"type":"Feature","geometry":null},{"properties":{"city":"Jupiter","sold price":"$2,500.00","id":"abigzuy9wo67","zip/postal code":"33477","address":"1605 S Us Hgwy 1"},"type":"Feature","geometry":null},{"properties":{"city":"Miami Lakes","sold price":"$1,850.00","id":"abigzuwrfcq4","zip/postal code":"33056","address":"18800 Nw 27th Ave"},"type":"Feature","geometry":null},{"properties":{"city":"Miami","sold price":"$4,500.00","id":"abigzv3c9rpb","zip/postal code":"33137","address":"35 Ne 40th Street"},"type":"Feature","geometry":null},{"properties":{"city":"Pembroke Pines","sold price":"$14,720.00","id":"abigzuwwpwit","zip/postal code":"33037","address":"1601 Lacosta Drive E"},"type":"Feature","geometry":null},{"properties":{"city":"Homestead","sold price":"$8,080.00","id":"abigzv73xtda","zip/postal code":"33033","address":"562 Se 18th Drive"},"type":"Feature","geometry":null},{"properties":{"city":"Miami","sold price":"$12,500.00","id":"abigzv83swmg","zip/postal code":"33145","address":"2418 Sw 18th Avenue"},"type":"Feature","geometry":null},{"properties":{"city":"Coral Gables","sold price":"$19,200.00","id":"abigzuxyv1co","zip/postal code":"33146","address":"1205 Mariposa Avenue"},"type":"Feature","geometry":null},{"properties":{"city":"Miami","sold price":"$3,900.00","id":"abigzuvmvlor","zip/postal code":"33055","address":"4740 Nw 169th Street"},"type":"Feature","geometry":null},{"properties":{"city":"Miami","sold price":"$13,750.00","id":"abigzv7fnpab","zip/postal code":"33196","address":"14141 Sw 149th Avenue"},"type":"Feature","geometry":null},{"properties":{"city":"Miami","sold price":"$8,990.00","id":"abigzuubqimg","zip/postal code":"33144","address":"1040 Sw 72nd Court"},"type":"Feature","geometry":null},{"properties":{"city":"Plantation","sold price":"$11,310.00","id":"abigzusf2nc6","zip/postal code":"33317","address":"6755 W Broward Blvd"},"type":"Feature","geometry":null},{"properties":{"city":"Cooper City","sold price":"$2,500.00","id":"abigzuuykxxw","zip/postal code":"33026","address":"2513 Baccarat Drive"},"type":"Feature","geometry":null},{"properties":{"city":"Miami","sold price":"$20,980.00","id":"abigzuyfg93i","zip/postal code":"33177","address":"1299 Sw 191st Terrace"},"type":"Feature","geometry":null},{"properties":{"city":"Wilton Manors","sold price":"$17,750.00","id":"abigzv5v5ylm","zip/postal code":"33334","address":"1730 Ne 28th Drive"},"type":"Feature","geometry":null},{"properties":{"city":"Pembroke Pines","sold price":"$6,400.00","id":"abigzuudtmbo","zip/postal code":"33024","address":"7490 Nw 21st Place"},"type":"Feature","geometry":null},{"properties":{"city":"Boynton Beach","sold price":"$22,840.00","id":"abigzv0h58c0","zip/postal code":"33472","address":"8833 VIa Tuscany Drive"},"type":"Feature","geometry":null},{"properties":{"city":"Highland Beach","sold price":"$9,850.00","id":"abigzutijbb6","zip/postal code":"33487","address":"4750 S Ocean Blvd"},"type":"Feature","geometry":null},{"properties":{"city":"Pembroke Pines","sold price":"$4,150.00","id":"abigzusnkaxy","zip/postal code":"33026","address":"1419 Nw 113th Way"},"type":"Feature","geometry":null},{"properties":{"city":"Coconut Creek","sold price":"$5,350.00","id":"abigzuscb563","zip/postal code":"33063","address":"3801 Cocoa Plum Circle"},"type":"Feature","geometry":null},{"properties":{"city":"Miami","sold price":"$6,800.00","id":"abigzux3hrg7","zip/postal code":"33145","address":"1401 Sw 22 St"},"type":"Feature","geometry":null},{"properties":{"city":"Miami","sold price":"$9,500.00","id":"abigzuvktf5w","zip/postal code":"33175","address":"4790 Sw 141st Avenue"},"type":"Feature","geometry":null},{"properties":{"city":"Tamarac","sold price":"$15,865.00","id":"abigzuwnk0zd","zip/postal code":"33321","address":"7403 N Devon Drive"},"type":"Feature","geometry":null},{"properties":{"city":"Weston","sold price":"$6,745.00","id":"abigzuy90cup","zip/postal code":"33327","address":"2452 Provence Court"},"type":"Feature","geometry":null},{"properties":{"city":"Plantation","sold price":"$11,500.00","id":"abigzv0uu3fg","zip/postal code":"33324","address":"9528 Nw 9th Court"},"type":"Feature","geometry":null},{"properties":{"city":"Tamarac","sold price":"$6,400.00","id":"abigzv8rqfdn","zip/postal code":"33321","address":"7204 Nw 68th Street"},"type":"Feature","geometry":null},{"properties":{"city":"Pompano Beach","sold price":"$12,530.00","id":"abigzv4sulcw","zip/postal code":"33069","address":"2212 S Cypress Bend Dr."},"type":"Feature","geometry":null},{"properties":{"city":"Weston","sold price":"$14,220.00","id":"abigzutjb7nq","zip/postal code":"33327","address":"829 Azalea Place"},"type":"Feature","geometry":null},{"properties":{"city":"Aventura","sold price":"$10,750.00","id":"abigzuvzv9s4","zip/postal code":"33180","address":"19355 Turn Berry Way"},"type":"Feature","geometry":null},{"properties":{"city":"Miramar","sold price":"$8,210.00","id":"abigzusplv8d","zip/postal code":"33025","address":"3410 Foxcroft Road"},"type":"Feature","geometry":null},{"properties":{"city":"Lake Park","sold price":"$250.00","id":"abigzv00wbu9","zip/postal code":"33403","address":"516 Teak Drive"},"type":"Feature","geometry":null},{"properties":{"city":"Miami Beach","sold price":"$7,739.00","id":"abigzv3pr380","zip/postal code":"33141","address":"7620 Carlyle Avenue"},"type":"Feature","geometry":null},{"properties":{"city":"Miami","sold price":"$7,225.00","id":"abigzv1sh0vk","zip/postal code":"33180","address":"19900 E Country Club Drive,"},"type":"Feature","geometry":null},{"properties":{"city":"Delray Beach","sold price":"$3,800.00","id":"abigzut2o59e","zip/postal code":"33484","address":"16769 Oakhill Trail"},"type":"Feature","geometry":null},{"properties":{"city":"Davie","sold price":"$8,134.00","id":"abigzuuamenc","zip/postal code":"33328","address":"9001 Southern Orchard Road"},"type":"Feature","geometry":null},{"properties":{"city":"Fort Lauderdale","sold price":"$6,597.00","id":"abigzv0ekq7c","zip/postal code":"33308","address":"5811 Ne 22nd Avenue"},"type":"Feature","geometry":null},{"properties":{"city":"Weston","sold price":"$8,841.00","id":"abigzv69lk1b","zip/postal code":"33326","address":"1050 Bayside Lane"},"type":"Feature","geometry":null},{"properties":{"city":"Miramar","sold price":"$11,000.00","id":"abigzv6eq1rk","zip/postal code":"33025","address":"9040 Sw 20th Street"},"type":"Feature","geometry":null},{"properties":{"city":"Boca Raton","sold price":"$9,000.00","id":"abigzuur8cqo","zip/postal code":"33496","address":"9676 A Boca Gardens Circle N"},"type":"Feature","geometry":null},{"properties":{"city":"Miramar","sold price":"$15,500.00","id":"abigzv7cnf98","zip/postal code":"33029","address":"19311 Sw 31st Court"},"type":"Feature","geometry":null},{"properties":{"city":"West Palm Beach","sold price":"$26,500.00","id":"abigzv8ot14x","zip/postal code":"33401","address":"263 Barcelona Road"},"type":"Feature","geometry":null},{"properties":{"city":"Sunrise","sold price":"$7,500.00","id":"abigzuv9nnbc","zip/postal code":"33313","address":"6441 Nw 29th Court"},"type":"Feature","geometry":null},{"properties":{"city":"Miami","sold price":"$10,508.00","id":"abigzuyw13h8","zip/postal code":"33185","address":"5340 Sw 153rd Court"},"type":"Feature","geometry":null},{"properties":{"city":"Plantation","sold price":"$9,500.00","id":"abigzuu9uvhq","zip/postal code":"33322","address":"1028 Nw 99th Avenue"},"type":"Feature","geometry":null},{"properties":{"city":"Hollywood","sold price":"$444.00","id":"abigzuxqvjxk","zip/postal code":"33024","address":"6651 Forrest Street"},"type":"Feature","geometry":null},{"properties":{"city":"Miramar","sold price":"$9,650.00","id":"abigzuzry89a","zip/postal code":"33023","address":"6440 Sw 25th Street"},"type":"Feature","geometry":null},{"properties":{"city":"Aventura","sold price":"$17,591.43","id":"abigzv192oky","zip/postal code":"33180","address":"19195 Mystic Pointe Drive"},"type":"Feature","geometry":null},{"properties":{"city":"Sunrise","sold price":"$14,839.00","id":"abigzv0fmohf","zip/postal code":"33313","address":"7191 Nw 24th Court"},"type":"Feature","geometry":null},{"properties":{"city":"Wilton Manors","sold price":"$8,200.00","id":"abigzusdgkgb","zip/postal code":"33311","address":"2909 Nw 12th Avenue"},"type":"Feature","geometry":null},{"properties":{"city":"Weston","sold price":"$29,536.00","id":"abigzuvy1vms","zip/postal code":"33332","address":"2690 Riveria Court"},"type":"Feature","geometry":null},{"properties":{"city":"Sunrise","sold price":"$7,895.00","id":"abigzv6oukpe","zip/postal code":"33323","address":"13233 Nw 12th Court"},"type":"Feature","geometry":null},{"properties":{"city":"Boynton Beach","sold price":"$19,000.00","id":"abigzuvv1ige","zip/postal code":"33437","address":"12529 Imperial Isle Drive"},"type":"Feature","geometry":null},{"properties":{"city":"Miami","sold price":"$19,275.00","id":"abigzv6bnemi","zip/postal code":"33196","address":"10020 Sw 147th Court"},"type":"Feature","geometry":null},{"properties":{"city":"North Lauderdale","sold price":"$8,200.00","id":"abigzutprd3u","zip/postal code":"33068","address":"7955 Sw 5th Street"},"type":"Feature","geometry":null},{"properties":{"city":"Miami","sold price":"$6,225.00","id":"abigzusluxc4","zip/postal code":"33126","address":"5077 Nw 7th Street"},"type":"Feature","geometry":null},{"properties":{"city":"Fort Lauderdale","sold price":"$4,575.00","id":"abigzuyo0mn5","zip/postal code":"33328","address":"8745 Sw 57th Place"},"type":"Feature","geometry":null},{"properties":{"city":"Pompano Beach","sold price":"$16,780.00","id":"abigzuwg5by3","zip/postal code":"33064","address":"2951 NW 1st Drive"},"type":"Feature","geometry":null},{"properties":{"city":"Boca Raton","sold price":"$1,650.00","id":"abigzv10juit","zip/postal code":"33433","address":"6662 Villa Sonrisa Drive"},"type":"Feature","geometry":null},{"properties":{"city":"Fort Lauderdale","sold price":"$10,993.00","id":"abigzv2ghh7m","zip/postal code":"33328","address":"5202 Sw 90th Terrace"},"type":"Feature","geometry":null},{"properties":{"city":"Miami Lakes","sold price":"$10,328.05","id":"abigzutwai1e","zip/postal code":"33015","address":"20061 Nw 66th Place"},"type":"Feature","geometry":null},{"properties":{"city":"Miami Beach","sold price":"$5,450.00","id":"abigzuv0hi1q","zip/postal code":"33140","address":"3131 N Bay Road"},"type":"Feature","geometry":null},{"properties":{"city":"Delray Beach","sold price":"$21,000.00","id":"abigzv2nwx90","zip/postal code":"33484","address":"950 Flanders T"},"type":"Feature","geometry":null},{"properties":{"city":"Sunny Isles Beach","sold price":"$11,160.00","id":"abigzv2mjcsb","zip/postal code":"33160","address":"400 Kings Point Drive"},"type":"Feature","geometry":null},{"properties":{"city":"Oakland Park","sold price":"$8,700.00","id":"abigzv2vob9q","zip/postal code":"33334","address":"711 Ne 60th Street"},"type":"Feature","geometry":null},{"properties":{"city":"Weston","sold price":"$6,100.00","id":"abigzv2wdnge","zip/postal code":"33327","address":"2546 Jardin Drive"},"type":"Feature","geometry":null},{"properties":{"city":"Miami","sold price":"$500.00","id":"abigzutqsc45","zip/postal code":"33175","address":"3521 Sw 117th Court"},"type":"Feature","geometry":null},{"properties":{"city":"West Palm Beach","sold price":"$4,490.00","id":"abigzv6qioqv","zip/postal code":"33412","address":"11090 81st Court N"},"type":"Feature","geometry":null},{"properties":{"city":"Hollywood","sold price":"$12,770.00","id":"abigzv41gy0l","zip/postal code":"33020","address":"1720 Jefferson Street"},"type":"Feature","geometry":null},{"properties":{"city":"Coconut Creek","sold price":"$15,000.00","id":"abigzv8hbc8b","zip/postal code":"33063","address":"711 Lyons Road"},"type":"Feature","geometry":null},{"properties":{"city":"Miami","sold price":"$8,350.00","id":"abigzuzow3jq","zip/postal code":"33176","address":"10645 Sw 113th Place"},"type":"Feature","geometry":null},{"properties":{"city":"West Palm Beach","sold price":"$6,450.00","id":"abigzv14s7bg","zip/postal code":"33407","address":"432 34th Street"},"type":"Feature","geometry":null},{"properties":{"city":"Miami Lakes","sold price":"$14,758.00","id":"abigzv45dvtd","zip/postal code":"33016","address":"8326 Dundee Terrace"},"type":"Feature","geometry":null},{"properties":{"city":"Davie","sold price":"$23,456.00","id":"abigzuws4elu","zip/postal code":"33325","address":"14421 Bedford Court"},"type":"Feature","geometry":null},{"properties":{"city":"Delray Beach","sold price":"$12,992.00","id":"abigzuxt3pi7","zip/postal code":"33484","address":"6064 Petunia Road"},"type":"Feature","geometry":null},{"properties":{"city":"Pembroke Pines","sold price":"$18,750.00","id":"abigzv49af1o","zip/postal code":"33029","address":"2480 Nw 193rd Avenue"},"type":"Feature","geometry":null},{"properties":{"city":"Aventura","sold price":"$8,300.00","id":"abigzuwrvzmi","zip/postal code":"33180","address":"19195 Mystic Point Drive"},"type":"Feature","geometry":null},{"properties":{"city":"Fort Lauderdale","sold price":"$17,338.90","id":"abigzv4524b5","zip/postal code":"33308","address":"4010 Galt Ocean Drive"},"type":"Feature","geometry":null},{"properties":{"city":"Deerfield Beach","sold price":"$24,350.00","id":"abigzv4c8far","zip/postal code":"33442","address":"2015 Newport G"},"type":"Feature","geometry":null},{"properties":{"city":"Palm Beach Gardens","sold price":"$4,500.00","id":"abigzv0ojokp","zip/postal code":"33410","address":"10313 Daphne Avenue"},"type":"Feature","geometry":null},{"properties":{"city":"Miami","sold price":"$7,991.00","id":"abigzuw25okj","zip/postal code":"33175","address":"11750 Sw 18th Street"},"type":"Feature","geometry":null},{"properties":{"city":"Loxahatchee","sold price":"$17,600.00","id":"abigzv0x419g","zip/postal code":"33470","address":"17646 88th Road N"},"type":"Feature","geometry":null},{"properties":{"city":"Davie","sold price":"$11,000.00","id":"abigzv3jd0a6","zip/postal code":"33330","address":"12770 Sw 34th Place"},"type":"Feature","geometry":null},{"properties":{"city":"Miami","sold price":"$6,760.00","id":"abigzv5qpvs6","zip/postal code":"33157","address":"14335 Sw 162nd Street"},"type":"Feature","geometry":null},{"properties":{"city":"Jupiter","sold price":"$8,046.00","id":"abigzuvf8exp","zip/postal code":"33458","address":"126 N River Drive W"},"type":"Feature","geometry":null},{"properties":{"city":"Pembroke Pines","sold price":"$14,000.00","id":"abigzuwavdhd","zip/postal code":"33027","address":"801 Sw 149th Terrace"},"type":"Feature","geometry":null},{"properties":{"city":"Hollywood","sold price":"$19,580.00","id":"abigzuw6igeu","zip/postal code":"33021","address":"3920 Hayes Street"},"type":"Feature","geometry":null},{"properties":{"city":"Coral Springs","sold price":"$6,400.00","id":"abigzv2j15fs","zip/postal code":"33076","address":"4756 Nw 115th Terrace"},"type":"Feature","geometry":null},{"properties":{"city":"Fort Lauderdale","sold price":"$20,900.00","id":"abigzv06bjyk","zip/postal code":"33308","address":"5821 Ne 21st Avenue"},"type":"Feature","geometry":null},{"properties":{"city":"Hollywood","sold price":"$5,850.00","id":"abigzv7ycmiv","zip/postal code":"33021","address":"815 N Golf Drive"},"type":"Feature","geometry":null},{"properties":{"city":"Hialeah","sold price":"$7,965.00","id":"abigzv48tdir","zip/postal code":"33014","address":"1074 W 79th Street"},"type":"Feature","geometry":null},{"properties":{"city":"Jupiter","sold price":"$13,625.00","id":"abigzv2lect1","zip/postal code":"33458","address":"825 Center Street"},"type":"Feature","geometry":null},{"properties":{"city":"Fort Lauderdale","sold price":"$7,250.00","id":"abigzv3zw6xi","zip/postal code":"33334","address":"850 NE 59th Court"},"type":"Feature","geometry":null},{"properties":{"city":"Sunny Isles Beach","sold price":"$9,800.00","id":"abigzv5qezuu","zip/postal code":"33160","address":"17021 N Bay Road"},"type":"Feature","geometry":null},{"properties":{"city":"Miami","sold price":"$8,000.00","id":"abigzuxcodeo","zip/postal code":"33157","address":"9801 Sw 195th Street"},"type":"Feature","geometry":null},{"properties":{"city":"Miami","sold price":"$12,800.00","id":"abigzuxypgzj","zip/postal code":"33189","address":"20220 Sw 85th Court"},"type":"Feature","geometry":null},{"properties":{"city":"Boca Raton","sold price":"$8,000.00","id":"abigzv72wu7o","zip/postal code":"33428","address":"9589 Tropical Park Place"},"type":"Feature","geometry":null},{"properties":{"city":"Pembroke Pines","sold price":"$25,000.00","id":"abigzutuav4e","zip/postal code":"33028","address":"12839 Nw 23rd Street"},"type":"Feature","geometry":null},{"properties":{"city":"West Palm Beach","sold price":"$7,800.00","id":"abigzv2w26v7","zip/postal code":"33406","address":"2305 Bermuda Drive"},"type":"Feature","geometry":null},{"properties":{"city":"Hallandale","sold price":"$8,815.00","id":"abigzuvfm51o","zip/postal code":"33009","address":"137 Golden Isles Drive"},"type":"Feature","geometry":null},{"properties":{"city":"Davie","sold price":"$13,898.10","id":"abigzuww9kzr","zip/postal code":"33328","address":"8300 Sw 55th Court"},"type":"Feature","geometry":null},{"properties":{"city":"Weston","sold price":"$9,154.00","id":"abigzv3posoc","zip/postal code":"33326","address":"16200 Golf Club Road"},"type":"Feature","geometry":null},{"properties":{"city":"Hialeah","sold price":"$-","id":"abigzv8bdxel","zip/postal code":"33018","address":"3559 W 71st Terrace"},"type":"Feature","geometry":null},{"properties":{"city":"Fort Lauderdale","sold price":"$-","id":"abigzv3zx0f0","zip/postal code":"33308","address":"4800 Bayview Drive"},"type":"Feature","geometry":null},{"properties":{"city":"Lake Worth","sold price":"$-","id":"abigzushihdd","zip/postal code":"33463","address":"4731 Poseidon Place"},"type":"Feature","geometry":null},{"properties":{"city":"Hollywood","sold price":"$-","id":"abigzuthnisv","zip/postal code":"33019","address":"338 Roosevelt Drive"},"type":"Feature","geometry":null},{"properties":{"city":"Columbus","sold price":"$-","id":"abigzuu1c6n1","zip/postal code":"43201","address":"40 West 1st Ave"},"type":"Feature","geometry":null},{"properties":{"city":"Cooper City","sold price":"$-","id":"abigzv2up90x","zip/postal code":"33026","address":"10240 Port Of Spain Street"},"type":"Feature","geometry":null},{"properties":{"city":"Aventura","sold price":"$-","id":"abigzv886yo7","zip/postal code":"33180","address":"3375 N Country Club Drive"},"type":"Feature","geometry":null},{"properties":{"city":"Plantation","sold price":"$-","id":"abigzutbdatk","zip/postal code":"33322","address":"10170 Nw 10th Street"},"type":"Feature","geometry":null},{"properties":{"city":"Homestead","sold price":"$-","id":"abigzuvodukw","zip/postal code":"33031","address":"15971 Sw 154th Street"},"type":"Feature","geometry":null},{"properties":{"city":"Jupiter","sold price":"$-","id":"abigzv7ws3me","zip/postal code":"33469","address":"506 N Dover Road"},"type":"Feature","geometry":null},{"properties":{"city":"Miami","sold price":"$-","id":"abigzuuvw6mq","zip/postal code":"33138","address":"80 Ne 94th Street"},"type":"Feature","geometry":null},{"properties":{"city":"Plantation","sold price":"$-","id":"abigzv7i8mlg","zip/postal code":"33311","address":"140 Royal Palm Court"},"type":"Feature","geometry":null},{"properties":{"city":"Miami Beach","sold price":"$-","id":"abigzut0ech9","zip/postal code":"33139","address":"200 Alton Road"},"type":"Feature","geometry":null},{"properties":{"city":"Miami","sold price":"$-","id":"abigzv2121j8","zip/postal code":"33196","address":"15247 Sw 109th Street"},"type":"Feature","geometry":null},{"properties":{"city":"Fort Lauderdale","sold price":"$-","id":"abigzuuc8y66","zip/postal code":"33312","address":"2504 Sw 34th Ave"},"type":"Feature","geometry":null},{"properties":{"city":"Weston","sold price":"$-","id":"abigzv0rknhp","zip/postal code":"33331","address":"4011 Turquoise Trail"},"type":"Feature","geometry":null},{"properties":{"city":"Fort Lauderdale","sold price":"$-","id":"abigzv2zonqn","zip/postal code":"33311","address":"2930 Nw 24th Avenue"},"type":"Feature","geometry":null},{"properties":{"city":"Boca Raton","sold price":"$-","id":"abigzuxq3g9j","zip/postal code":"33432","address":"13 Royal Palm"},"type":"Feature","geometry":null},{"properties":{"city":"Pembroke Pines","sold price":"$-","id":"abigzuxf3gj5","zip/postal code":"33025","address":"1366 Sw 106th Avenue"},"type":"Feature","geometry":null},{"properties":{"city":"Coconut Grove","sold price":"$-","id":"abigzv6uhyck","zip/postal code":"33133","address":"2325 Sw 27th Lane"},"type":"Feature","geometry":null},{"properties":{"city":"Sunrise","sold price":"$-","id":"abigzuwsr60f","zip/postal code":"33331","address":"4010 Nw 88th Avenue"},"type":"Feature","geometry":null},{"properties":{"city":"Coral Springs","sold price":"$-","id":"abigzv4h54xy","zip/postal code":"33071","address":"11050 Cypress Run Drive"},"type":"Feature","geometry":null},{"properties":{"city":"Miami","sold price":"$-","id":"abigzv2rnsgv","zip/postal code":"33157","address":"14335 Sw 162nd Street"},"type":"Feature","geometry":null},{"properties":{"city":"Miami","sold price":"$-","id":"abigzv7uwk3z","zip/postal code":"33190","address":"9463 SW 220th Street"},"type":"Feature","geometry":null},{"properties":{"city":"Hollywood","sold price":"$-","id":"abigzuxf63df","zip/postal code":"33026","address":"2965 Dove Drive"},"type":"Feature","geometry":null},{"properties":{"city":"Boca Raton","sold price":"$-","id":"abigzuyuli00","zip/postal code":"33434","address":"6875 Willow Wood Drive"},"type":"Feature","geometry":null},{"properties":{"city":"Miami","sold price":"$-","id":"abigzv7a6wyj","zip/postal code":"33176","address":"14525 Sw 92nd Court"},"type":"Feature","geometry":null},{"properties":{"city":"Aventura","sold price":"$-","id":"abigzv0x5uc7","zip/postal code":"33160","address":"3115 Ne 184th Street"},"type":"Feature","geometry":null},{"properties":{"city":"Weston","sold price":"$-","id":"abigzv22qmcm","zip/postal code":"33326","address":"16091 Blatt Blvd 204"},"type":"Feature","geometry":null},{"properties":{"city":"Boca Raton","sold price":"$-","id":"abigzv1hdyra","zip/postal code":"33434","address":"3034 Ainslie C"},"type":"Feature","geometry":null},{"properties":{"city":"Hollywood","sold price":"$-","id":"abigzv8gw37x","zip/postal code":"33021","address":"4217 Monroe Street"},"type":"Feature","geometry":null},{"properties":{"city":"Plantation","sold price":"$-","id":"abigzuv66hmx","zip/postal code":"33324","address":"100 Nw 76th Avenue"},"type":"Feature","geometry":null},{"properties":{"city":"Highland Beach","sold price":"$-","id":"abigzuyv21f1","zip/postal code":"33487","address":"4511 S Ocean Blvd"},"type":"Feature","geometry":null},{"properties":{"city":"Miami Beach","sold price":"$-","id":"abigzuy5lgw7","zip/postal code":"33140","address":"5701 Collins Avenue"},"type":"Feature","geometry":null},{"properties":{"city":"Plantation","sold price":"$-","id":"abigzus9zifs","zip/postal code":"33324","address":"504 NW 103rd Avenue"},"type":"Feature","geometry":null},{"properties":{"city":"Davie","sold price":"$-","id":"abigzv4hpcz2","zip/postal code":"33324","address":"9480 Poinciana Place"},"type":"Feature","geometry":null},{"properties":{"city":"Coral Springs","sold price":"$-","id":"abigzuysqdnr","zip/postal code":"33076","address":"4756 Nw 115th Terrace"},"type":"Feature","geometry":null},{"properties":{"city":"Boca Raton","sold price":"$-","id":"abigzv3b87td","zip/postal code":"33434","address":"1078 Wolverton D"},"type":"Feature","geometry":null},{"properties":{"city":"Hollywood","sold price":"$-","id":"abigzut3ihdk","zip/postal code":"33020","address":"2415 Jackson Street"},"type":"Feature","geometry":null},{"properties":{"city":"Hollywood","sold price":"$-","id":"abigzv5j7my4","zip/postal code":"33027","address":"2945 Sw 133 Avenue"},"type":"Feature","geometry":null},{"properties":{"city":"Pembroke Pines","sold price":"$-","id":"abigzv3sczjc","zip/postal code":"33028","address":"1520 Nw 140th Manor"},"type":"Feature","geometry":null},{"properties":{"city":"Miami","sold price":"$-","id":"abigzuu61yfq","zip/postal code":"33176","address":"13198 Sw 91st"},"type":"Feature","geometry":null},{"properties":{"city":"Miami","sold price":"$-","id":"abigzutvr3qv","zip/postal code":"33156","address":"12745 Sw 71 Avenue"},"type":"Feature","geometry":null},{"properties":{"city":"Jupiter","sold price":"$-","id":"abigzuvnz4kp","zip/postal code":"33458","address":"6280 Longleaf Pine Drive"},"type":"Feature","geometry":null},{"properties":{"city":"Davie","sold price":"$-","id":"abigzv0g1ngj","zip/postal code":"33328","address":"9001 Southern Orchard Road"},"type":"Feature","geometry":null},{"properties":{"city":"Sunrise","sold price":"$-","id":"abigzv7h1scv","zip/postal code":"33326","address":"15893 E Wind Circle"},"type":"Feature","geometry":null},{"properties":{"city":"Pembroke Pines","sold price":"$-","id":"abigzv4hilp2","zip/postal code":"33028","address":"12839 Nw 23rd Street"},"type":"Feature","geometry":null},{"properties":{"city":"Lake Worth","sold price":"$-","id":"abigzv72b4qz","zip/postal code":"33467","address":"8431 Linden Way"},"type":"Feature","geometry":null},{"properties":{"city":"Miami","sold price":"$-","id":"abigzv73h5u5","zip/postal code":"33131","address":"5035 Orduna Drive"},"type":"Feature","geometry":null},{"properties":{"city":"Fort Lauderdale","sold price":"$-","id":"abigzv238sg7","zip/postal code":"33308","address":"5811 Ne 22nd Avenue"},"type":"Feature","geometry":null},{"properties":{"city":"Davie","sold price":"$-","id":"abigzv8raoc6","zip/postal code":"33324","address":"1710 Whitehall Drive"},"type":"Feature","geometry":null},{"properties":{"city":"Davie","sold price":"$-","id":"abigzusap60i","zip/postal code":"33325","address":"931 Richwood Terrace"},"type":"Feature","geometry":null},{"properties":{"city":"Plantation","sold price":"$-","id":"abigzuyff0aa","zip/postal code":"33324","address":"9815 Nw 3rd Street"},"type":"Feature","geometry":null},{"properties":{"city":"Weston","sold price":"$-","id":"abigzuzlm8ot","zip/postal code":"33327","address":"1109 Hidden Valley Way"},"type":"Feature","geometry":null},{"properties":{"city":"Palm Beach","sold price":"$-","id":"abigzuu6ss2p","zip/postal code":"33480","address":"80 Middle Road"},"type":"Feature","geometry":null},{"properties":{"city":"West Palm Beach","sold price":"$-","id":"abigzuwmmqvl","zip/postal code":"33410","address":"88 Satinwood Lane"},"type":"Feature","geometry":null},{"properties":{"city":"Boynton Beach","sold price":"$-","id":"abigzv2ae8xa","zip/postal code":"33472","address":"8833 VIa Tuscany Drive"},"type":"Feature","geometry":null},{"properties":{"city":"Pembroke Pines","sold price":"$-","id":"abigzv7cheqx","zip/postal code":"33029","address":"19063 Nw 23rd Place"},"type":"Feature","geometry":null},{"properties":{"city":"West Palm Beach","sold price":"$-","id":"abigzutvo72b","zip/postal code":"33404","address":"1056 W 27th Street"},"type":"Feature","geometry":null},{"properties":{"city":"Fort Lauderdale","sold price":"$-","id":"abigzv0tl6z9","zip/postal code":"33331","address":"4120 Staghorn Ln"},"type":"Feature","geometry":null},{"properties":{"city":"Cooper City","sold price":"$-","id":"abigzv4584nq","zip/postal code":"33330","address":"13180 Parkside Terrace"},"type":"Feature","geometry":null},{"properties":{"city":"Coral Gables","sold price":"$-","id":"abigzuu8lvp4","zip/postal code":"33134","address":"1529 Palermo Avenue"},"type":"Feature","geometry":null},{"properties":{"city":"Miami","sold price":"$-","id":"abigzuu6xsn3","zip/postal code":"33176","address":"12500 Sw 90th Avenue"},"type":"Feature","geometry":null},{"properties":{"city":"Weston","sold price":"$-","id":"abigzuudxnyk","zip/postal code":"33326","address":"808 Stanton Drive"},"type":"Feature","geometry":null},{"properties":{"city":"Plantation","sold price":"$-","id":"abigzv1mfwe9","zip/postal code":"33322","address":"1410 Nw 90th Way"},"type":"Feature","geometry":null},{"properties":{"city":"West Palm Beach","sold price":"$-","id":"abigzv6da5fe","zip/postal code":"33410","address":"4207 Hyacinth Circle N"},"type":"Feature","geometry":null},{"properties":{"city":"Fort Lauderdale","sold price":"$-","id":"abigzv450jek","zip/postal code":"33312","address":"3604 Sw 21st Court"},"type":"Feature","geometry":null},{"properties":{"city":"Coconut Creek","sold price":"$-","id":"abigzv2f1feg","zip/postal code":"33066","address":"2373 Nw 34th Road"},"type":"Feature","geometry":null},{"properties":{"city":"Davie","sold price":"$-","id":"abigzutq7qyb","zip/postal code":"33328","address":"4271 Sw 106th Terrace"},"type":"Feature","geometry":null},{"properties":{"city":"Hollywood","sold price":"$-","id":"abigzv4oviww","zip/postal code":"33021","address":"2742 Adams Street"},"type":"Feature","geometry":null},{"properties":{"city":"Margate","sold price":"$-","id":"abigzux0g1da","zip/postal code":"33322","address":"3066 W. Buenavista Dr"},"type":"Feature","geometry":null},{"properties":{"city":"Pembroke Pines","sold price":"$-","id":"abigzv2vlc2p","zip/postal code":"33028","address":"16090 NW 21st Street"},"type":"Feature","geometry":null},{"properties":{"city":"Miami","sold price":"$-","id":"abigzv56ugwg","zip/postal code":"33161","address":"50 Ne 119th Street"},"type":"Feature","geometry":null},{"properties":{"city":"Miami","sold price":"$-","id":"abigzuxfuthn","zip/postal code":"33196","address":"16543 Sw 97th Street"},"type":"Feature","geometry":null},{"properties":{"city":"Coconut Creek","sold price":"$-","id":"abigzv88mnnf","zip/postal code":"33073","address":"4930 Nw 56th Street"},"type":"Feature","geometry":null},{"properties":{"city":"Plantation","sold price":"$-","id":"abigzutjpr28","zip/postal code":"33324","address":"867 Nw 81st Terrace"},"type":"Feature","geometry":null},{"properties":{"city":"Fort Lauderdale","sold price":"$-","id":"abigzv8rv5vd","zip/postal code":"33312","address":"2421 SW 28th Avenue"},"type":"Feature","geometry":null},{"properties":{"city":"Pompano Beach","sold price":"$-","id":"abigzuufmabe","zip/postal code":"33069","address":"4000 Cypress Grove Way"},"type":"Feature","geometry":null},{"properties":{"city":"Weston","sold price":"$-","id":"abigzv230s2g","zip/postal code":"33326","address":"604 Stanton Drive"},"type":"Feature","geometry":null},{"properties":{"city":"Miami","sold price":"$-","id":"abigzv7dodod","zip/postal code":"33176","address":"10423 N Kendall Drive"},"type":"Feature","geometry":null},{"properties":{"city":"Pembroke Pines","sold price":"$-","id":"abigzusy5bs2","zip/postal code":"33024","address":"9601 Johnson Street"},"type":"Feature","geometry":null},{"properties":{"city":"Fort Lauderdale","sold price":"$-","id":"abigzv5vvxu2","zip/postal code":"33308","address":"5050 Bayview Drive"},"type":"Feature","geometry":null},{"properties":{"city":"Miami","sold price":"$-","id":"abigzv2fc9og","zip/postal code":"33143","address":"7830 Camino Real K"},"type":"Feature","geometry":null},{"properties":{"city":"Miami","sold price":"$-","id":"abigzuws4097","zip/postal code":"33056","address":"3148 NW 196th Street"},"type":"Feature","geometry":null},{"properties":{"city":"Miramar","sold price":"$-","id":"abigzuyxmcba","zip/postal code":"33027","address":"3672 Sw 163rd Avenue"},"type":"Feature","geometry":null},{"properties":{"city":"Aventura","sold price":"$-","id":"abigzv3epn5h","zip/postal code":"33160","address":"3000 Maros Drive"},"type":"Feature","geometry":null},{"properties":{"city":"Davie","sold price":"$-","id":"abigzuwjdgj3","zip/postal code":"33314","address":"6548 Hidden Cove Drive"},"type":"Feature","geometry":null},{"properties":{"city":"Hallandale","sold price":"$-","id":"abigzux85o9m","zip/postal code":"33009","address":"460 Paradise Isle Blvd"},"type":"Feature","geometry":null},{"properties":{"city":"Miami Beach","sold price":"$-","id":"abigzv2wtp1e","zip/postal code":"33140","address":"2655 Collins Avenue"},"type":"Feature","geometry":null},{"properties":{"city":"Miramar","sold price":"$-","id":"abigzv83wytq","zip/postal code":"33027","address":"13650 Sw 18th Street"},"type":"Feature","geometry":null},{"properties":{"city":"Miami Gardens","sold price":"$-","id":"abigzuxpvbh6","zip/postal code":"33015","address":"6980 NW 186th Street"},"type":"Feature","geometry":null},{"properties":{"city":"Coral Springs","sold price":"$-","id":"abigzv0w3g4s","zip/postal code":"33065","address":"12131 Nw 32nd Court"},"type":"Feature","geometry":null},{"properties":{"city":"Miramar","sold price":"$-","id":"abigzv27ry6z","zip/postal code":"33027","address":"2094 SW 149th Avenue"},"type":"Feature","geometry":null},{"properties":{"city":"Miami","sold price":"$-","id":"abigzux4n3tn","zip/postal code":"33138","address":"2000 Towerside Terrace"},"type":"Feature","geometry":null},{"properties":{"city":"Wilton Manors","sold price":"$-","id":"abigzv3et9jd","zip/postal code":"33305","address":"9 Ne 19th Street"},"type":"Feature","geometry":null},{"properties":{"city":"Margate","sold price":"$-","id":"abigzuw1sl7d","zip/postal code":"33068","address":"885 SW 50th Avenue"},"type":"Feature","geometry":null},{"properties":{"city":"Miami","sold price":"$-","id":"abigzuvilnos","zip/postal code":"33162","address":"87 Ne 168th Street"},"type":"Feature","geometry":null},{"properties":{"city":"Miami","sold price":"$-","id":"abigzuz6154h","zip/postal code":"33055","address":"5551 Nw 188th Street"},"type":"Feature","geometry":null},{"properties":{"city":"Parkland","sold price":"$-","id":"abigzuvc3qcm","zip/postal code":"33067","address":"8011 Falls Lane"},"type":"Feature","geometry":null},{"properties":{"city":"Hialeah","sold price":"$-","id":"abigzuvl0yl2","zip/postal code":"33013","address":"601 E 44th Stret"},"type":"Feature","geometry":null},{"properties":{"city":"Hialeah","sold price":"$-","id":"abigzv1nf6f0","zip/postal code":"33013","address":"601 E 44th Stret"},"type":"Feature","geometry":null},{"properties":{"city":"Miami","sold price":"$-","id":"abigzv78y74x","zip/postal code":"33131","address":"540 Brickell Key Drive"},"type":"Feature","geometry":null},{"properties":{"city":"Miami","sold price":"$-","id":"abigzv8s4kr4","zip/postal code":"33168","address":"285 Nw 128th Street"},"type":"Feature","geometry":null},{"properties":{"city":"Greenacres","sold price":"$-","id":"abigzv3w39j9","zip/postal code":"33415","address":"715 Sunny Pineway"},"type":"Feature","geometry":null},{"properties":{"city":"Plantation","sold price":"$-","id":"abigzv0b38d0","zip/postal code":"33324","address":"770 Nw 98th Way"},"type":"Feature","geometry":null},{"properties":{"city":"Miami","sold price":"$-","id":"abigzv33yexp","zip/postal code":"33186","address":"14501 Sw 136th Place"},"type":"Feature","geometry":null},{"properties":{"city":"Cooper City","sold price":"$-","id":"abigzutk8i94","zip/postal code":"33026","address":"11260 Sunview Way"},"type":"Feature","geometry":null},{"properties":{"city":"Miami Gardens","sold price":"$-","id":"abigzv5t2ksk","zip/postal code":"33055","address":"2007 Nw 175th Street"},"type":"Feature","geometry":null},{"properties":{"city":"Boynton Beach","sold price":"$-","id":"abigzv6xpmhj","zip/postal code":"33426","address":"2300 Ne 1st Lane"},"type":"Feature","geometry":null},{"properties":{"city":"Boca Raton","sold price":"$-","id":"abigzutd0r94","zip/postal code":"33432","address":"13 Royal Palm"},"type":"Feature","geometry":null},{"properties":{"city":"Plantation","sold price":"$-","id":"abigzv2v8w2n","zip/postal code":"33324","address":"364 Nw 95th Avenue"},"type":"Feature","geometry":null},{"properties":{"city":"Boca Raton","sold price":"$-","id":"abigzv7n5b15","zip/postal code":"33428","address":"9100 Red Oak Lane"},"type":"Feature","geometry":null},{"properties":{"city":"Jupiter","sold price":"$-","id":"abigzutezigx","zip/postal code":"33469","address":"19800 Sandpointe Bay Drive"},"type":"Feature","geometry":null},{"properties":{"city":"Weston","sold price":"$-","id":"abigzv7v3un9","zip/postal code":"33327","address":"2553 Jardin Terrace"},"type":"Feature","geometry":null},{"properties":{"city":"Coral Springs","sold price":"$-","id":"abigzuy0kc4z","zip/postal code":"33076","address":"11704 NW 47th Drive"},"type":"Feature","geometry":null},{"properties":{"city":"Jupiter","sold price":"$-","id":"abigzuv0sy43","zip/postal code":"33458","address":"104 Palomino Drive"},"type":"Feature","geometry":null},{"properties":{"city":"Deerfield Beach","sold price":"$-","id":"abigzv726z9s","zip/postal code":"33441","address":"540 SE 15th Avenue"},"type":"Feature","geometry":null},{"properties":{"city":"Jupiter","sold price":"$-","id":"abigzv5bcmbg","zip/postal code":"33458","address":"1776 W Community Drive"},"type":"Feature","geometry":null},{"properties":{"city":"Pembroke Pines","sold price":"$-","id":"abigzv1w5zko","zip/postal code":"33029","address":"828 SW 173rd Avenue"},"type":"Feature","geometry":null},{"properties":{"city":"Pembroke Pines","sold price":"$-","id":"abigzv5mi8mg","zip/postal code":"33028","address":"1520 Nw 140th Manor"},"type":"Feature","geometry":null},{"properties":{"city":"Davie","sold price":"$-","id":"abigzv3ictg2","zip/postal code":"33314","address":"5242 Sw 35th Street"},"type":"Feature","geometry":null},{"properties":{"city":"Hallandale","sold price":"$-","id":"abigzv2m0j8e","zip/postal code":"33009","address":"200 Diplomat Parkway"},"type":"Feature","geometry":null},{"properties":{"city":"Miami Beach","sold price":"$-","id":"abigzv6vhrtm","zip/postal code":"33140","address":"4444 N Michigan Avenue"},"type":"Feature","geometry":null},{"properties":{"city":"Miami","sold price":"$-","id":"abigzuxq2vdr","zip/postal code":"33176","address":"9040 Sw 140th Street"},"type":"Feature","geometry":null},{"properties":{"city":"Davie","sold price":"$-","id":"abigzv762ftg","zip/postal code":"33324","address":"1111 Scarorough Drive"},"type":"Feature","geometry":null},{"properties":{"city":"Tamarac","sold price":"$-","id":"abigzusp3vse","zip/postal code":"33321","address":"10653 W Clairmont Circle"},"type":"Feature","geometry":null},{"properties":{"city":"Tamarac","sold price":"$-","id":"abigzuufjt3e","zip/postal code":"33321","address":"10814 W Clairmont Circle"},"type":"Feature","geometry":null},{"properties":{"city":"Weston","sold price":"$-","id":"abigzuso1d1s","zip/postal code":"33326","address":"852 Waterview Drive"},"type":"Feature","geometry":null},{"properties":{"city":"Palm Bay","sold price":"$-","id":"abigzv5jrj4y","zip/postal code":"32905","address":"1283 Cimarron Circle NE"},"type":"Feature","geometry":null},{"properties":{"city":"Plantation","sold price":"$-","id":"abigzuxzqr27","zip/postal code":"33322","address":"10170 Nw 10th Street"},"type":"Feature","geometry":null},{"properties":{"city":"Pembroke Pines","sold price":"$-","id":"abigzuwezydf","zip/postal code":"33029","address":"17921 Nw 10th Street"},"type":"Feature","geometry":null},{"properties":{"city":"Miami Gardens","sold price":"$-","id":"abigzuziq3cn","zip/postal code":"33056","address":"20610 Nw 29th Avenue"},"type":"Feature","geometry":null},{"properties":{"city":"Delray Beach","sold price":"$-","id":"abigzuutm0uo","zip/postal code":"33445","address":"4440 Brandon Drive"},"type":"Feature","geometry":null},{"properties":{"city":"Davie","sold price":"$-","id":"abigzv8m0gwq","zip/postal code":"33328","address":"4271 Sw 106th Terrace"},"type":"Feature","geometry":null},{"properties":{"city":"Miami Gardens","sold price":"$-","id":"abigzv4mq2tf","zip/postal code":"33056","address":"20610 Nw 29th Avenue"},"type":"Feature","geometry":null},{"properties":{"city":"Weston","sold price":"$-","id":"abigzv17s55l","zip/postal code":"33326","address":"934 Opal Terrace"},"type":"Feature","geometry":null},{"properties":{"city":"Plantation","sold price":"$-","id":"abigzv3wfofh","zip/postal code":"33323","address":"11780 Nw 19th Street"},"type":"Feature","geometry":null},{"properties":{"city":"Miami","sold price":"$-","id":"abigzuuc5dut","zip/postal code":"33173","address":"9770 SW 77th Terrace"},"type":"Feature","geometry":null},{"properties":{"city":"Aventura","sold price":"$-","id":"abigzuw9b88q","zip/postal code":"33180","address":"3300 Ne 191st Street"},"type":"Feature","geometry":null},{"properties":{"city":"Coral Gables","sold price":"$-","id":"abigzux7x56q","zip/postal code":"33134","address":"146 Ponce De Leon Blvd"},"type":"Feature","geometry":null},{"properties":{"city":"Miami","sold price":"$-","id":"abigzuvtpen9","zip/postal code":"33179","address":"1710 Ne 191st Street"},"type":"Feature","geometry":null},{"properties":{"city":"Miami","sold price":"$-","id":"abigzuwyfqc8","zip/postal code":"33131","address":"701 Brickell Key Blvd"},"type":"Feature","geometry":null},{"properties":{"city":"Plantation","sold price":"$-","id":"abigzv4bwclg","zip/postal code":"33324","address":"9221 Chelsea Drive N"},"type":"Feature","geometry":null},{"properties":{"city":"Pompano Beach","sold price":"$-","id":"abigzv8jejrr","zip/postal code":"33060","address":"1301 SE 9th Avenue"},"type":"Feature","geometry":null},{"properties":{"city":"Delray Beach","sold price":"$-","id":"abigzuzrx3q2","zip/postal code":"33484","address":"950 Flanders T"},"type":"Feature","geometry":null},{"properties":{"city":"Delray Beach","sold price":"$-","id":"abigzuta49ub","zip/postal code":"33445","address":"4440 Brandon Drive"},"type":"Feature","geometry":null},{"properties":{"city":"Davie","sold price":"$-","id":"abigzv513qgu","zip/postal code":"33328","address":"9218 Magnolia Court"},"type":"Feature","geometry":null},{"properties":{"city":"Boca Raton","sold price":"$-","id":"abigzutnt6x3","zip/postal code":"33498","address":"21331 Millbrook Court"},"type":"Feature","geometry":null},{"properties":{"city":"Davie","sold price":"$-","id":"abigzv5srk0j","zip/postal code":"33330","address":"13021 Sw 40th Street"},"type":"Feature","geometry":null},{"properties":{"city":"Hialeah","sold price":"$-","id":"abigzutt8x57","zip/postal code":"33016","address":"5890 W 25th Court"},"type":"Feature","geometry":null},{"properties":{"city":"Jupiter","sold price":"$-","id":"abigzutnr5lq","zip/postal code":"33458","address":"126 N River Drive W"},"type":"Feature","geometry":null},{"properties":{"city":"Coral Springs","sold price":"$-","id":"abigzv2htwg1","zip/postal code":"33071","address":"11050 Cypress Run Drive"},"type":"Feature","geometry":null},{"properties":{"city":"Aventura","sold price":"$-","id":"abigzv8qrh13","zip/postal code":"33180","address":"20505 E Country Club Drive"},"type":"Feature","geometry":null},{"properties":{"city":"Miami","sold price":"$-","id":"abigzutu7c0h","zip/postal code":"33156","address":"9456 Sw 77th Avenue"},"type":"Feature","geometry":null},{"properties":{"city":"Dania Beach","sold price":"$-","id":"abigzuv51j6n","zip/postal code":"33312","address":"5941 SW 36th Terrace"},"type":"Feature","geometry":null},{"properties":{"city":"Hallandale Beach","sold price":"$-","id":"abigzusphmm7","zip/postal code":"33025","address":"1965 S Ocean Drive"},"type":"Feature","geometry":null},{"properties":{"city":"Miami","sold price":"$-","id":"abigzv86d293","zip/postal code":"33156","address":"8101 Sw 128th Street"},"type":"Feature","geometry":null},{"properties":{"city":"Tamarac","sold price":"$-","id":"abigzv1l57yh","zip/postal code":"33321","address":"7614 Nw 72nd Terrace"},"type":"Feature","geometry":null},{"properties":{"city":"Pembroke Pines","sold price":"$-","id":"abigzv3ab05x","zip/postal code":"33027","address":"639 SW 168th Lane"},"type":"Feature","geometry":null},{"properties":{"city":"Pembroke Pines","sold price":"$-","id":"abigzuuj2ndk","zip/postal code":"33027","address":"801 Sw 149th Terrace"},"type":"Feature","geometry":null},{"properties":{"city":"North Miami Beach","sold price":"$-","id":"abigzuwo9tnv","zip/postal code":"33160","address":"2780 Ne 183st"},"type":"Feature","geometry":null},{"properties":{"city":"Lake Worth","sold price":"$-","id":"abigzv7flvz7","zip/postal code":"33467","address":"4355 Trevi Court"},"type":"Feature","geometry":null},{"properties":{"city":"Parkland","sold price":"$-","id":"abigzuumthzg","zip/postal code":"33067","address":"6390 NW 80th Drive"},"type":"Feature","geometry":null},{"properties":{"city":"Plantation","sold price":"$-","id":"abigzv6yv32m","zip/postal code":"33317","address":"6237 Pine Terrace"},"type":"Feature","geometry":null},{"properties":{"city":"Fort Lauderdale","sold price":"$-","id":"abigzuwtutwd","zip/postal code":"33312","address":"3608 Sw 23rd Ct"},"type":"Feature","geometry":null},{"properties":{"city":"Fort Lauderdale","sold price":"$-","id":"abigzv5rwbmb","zip/postal code":"33316","address":"610 Se 14th Court"},"type":"Feature","geometry":null},{"properties":{"city":"Coconut Creek","sold price":"$-","id":"abigzv7gixrp","zip/postal code":"33066","address":"4364 Carambola Cir"},"type":"Feature","geometry":null},{"properties":{"city":"Sunrise","sold price":"$-","id":"abigzuxj24dk","zip/postal code":"33322","address":"8421 Sunset Strip"},"type":"Feature","geometry":null},{"properties":{"city":"Miramar","sold price":"$-","id":"abigzv1uzb5q","zip/postal code":"33027","address":"15342 Sw 20th St"},"type":"Feature","geometry":null},{"properties":{"city":"Sunrise","sold price":"$-","id":"abigzv8fjtdh","zip/postal code":"33326","address":"1257 Sw 149th Lane"},"type":"Feature","geometry":null},{"properties":{"city":"Fort Lauderdale","sold price":"$-","id":"abigzuvq2q3g","zip/postal code":"33311","address":"3015 N Ocean Blvd Berkely South"},"type":"Feature","geometry":null},{"properties":{"city":"Fort Lauderdale","sold price":"$-","id":"abigzuw7mawp","zip/postal code":"33334","address":"5932 Ne 14th Rd"},"type":"Feature","geometry":null},{"properties":{"city":"Coral Springs","sold price":"$-","id":"abigzusaw0sg","zip/postal code":"33071","address":"9830 Nw 1st Manor"},"type":"Feature","geometry":null},{"properties":{"city":"Pompano Beach","sold price":"$-","id":"abigzv43xby9","zip/postal code":"33062","address":"525 N Ocean Blvd"},"type":"Feature","geometry":null},{"properties":{"city":"Miami Beach","sold price":"$-","id":"abigzv5rkc8u","zip/postal code":"33141","address":"1521 Nw 64th Street"},"type":"Feature","geometry":null},{"properties":{"city":"Miami","sold price":"$-","id":"abigzutgie9m","zip/postal code":"33157","address":"11031 Sw 156th Street"},"type":"Feature","geometry":null},{"properties":{"city":"Miami","sold price":"$-","id":"abigzuudkodg","zip/postal code":"33177","address":"14052 Sw 167th Terrace"},"type":"Feature","geometry":null},{"properties":{"city":"Hialeah","sold price":"$-","id":"abigzuz519tp","zip/postal code":"33013","address":"771 East 30th Street"},"type":"Feature","geometry":null},{"properties":{"city":"Aventura","sold price":"$-","id":"abigzv7ykg2v","zip/postal code":"33160","address":"2750 Ne 183rd Street"},"type":"Feature","geometry":null},{"properties":{"city":"Pembroke Pines","sold price":"$-","id":"abigzutnor56","zip/postal code":"33029","address":"1231 Nw 193rd Avenue"},"type":"Feature","geometry":null},{"properties":{"city":"Miami","sold price":"$-","id":"abigzv0e7hzz","zip/postal code":"33193","address":"16335 Sw 81st Street"},"type":"Feature","geometry":null},{"properties":{"city":"Juno Beach","sold price":"$-","id":"abigzuv71cw9","zip/postal code":"33408","address":"530 Ocean Drive"},"type":"Feature","geometry":null},{"properties":{"city":"Hollywood","sold price":"$-","id":"abigzv8oy3w6","zip/postal code":"33019","address":"2751 S Ocean Drive"},"type":"Feature","geometry":null},{"properties":{"city":"Pompano Beach","sold price":"$-","id":"abigzuthbxsr","zip/postal code":"33069","address":"3100 N Palm Aire Drive"},"type":"Feature","geometry":null},{"properties":{"city":"Boca Raton","sold price":"$-","id":"abigzv7ekgl3","zip/postal code":"33434","address":"7178 Melbourne Lane"},"type":"Feature","geometry":null},{"properties":{"city":"Hialeah","sold price":"$-","id":"abigzuz1zz31","zip/postal code":"33013","address":"740 E 38th Street"},"type":"Feature","geometry":null},{"properties":{"city":"Fort Lauderdale","sold price":"$-","id":"abigzuwx7ima","zip/postal code":"33312","address":"530 Sw 28th Avenue"},"type":"Feature","geometry":null},{"properties":{"city":"Deerfield Beach","sold price":"$-","id":"abigzv6c8ci5","zip/postal code":"33442","address":"75 Centennial Court"},"type":"Feature","geometry":null},{"properties":{"city":"Boca Raton","sold price":"$-","id":"abigzv731vsa","zip/postal code":"33486","address":"1301 SW 20th Street"},"type":"Feature","geometry":null},{"properties":{"city":"Hollywood","sold price":"$-","id":"abigzv1rsuxg","zip/postal code":"33026","address":"4105 E Sailboat Drive"},"type":"Feature","geometry":null},{"properties":{"city":"West Palm Beach","sold price":"$-","id":"abigzuztvpid","zip/postal code":"33404","address":"2800 N Ocean Drive"},"type":"Feature","geometry":null},{"properties":{"city":"Miami","sold price":"$-","id":"abigzusd1uiy","zip/postal code":"33133","address":"3920 Crawford Avenue"},"type":"Feature","geometry":null},{"properties":{"city":"Weston","sold price":"$-","id":"abigzv33rizr","zip/postal code":"33331","address":"3909 Hawks Court"},"type":"Feature","geometry":null},{"properties":{"city":"Miami","sold price":"$-","id":"abigzux6qnel","zip/postal code":"33129","address":"1925 Brickell Avenue"},"type":"Feature","geometry":null},{"properties":{"city":"Miami","sold price":"$-","id":"abigzv7kav2t","zip/postal code":"33176","address":"9013 Sw 138th Street"},"type":"Feature","geometry":null},{"properties":{"city":"North Palm Beach","sold price":"$-","id":"abigzuyadr7z","zip/postal code":"33408","address":"336 Golfview Road"},"type":"Feature","geometry":null},{"properties":{"city":"Sw Ranches","sold price":"$-","id":"abigzuuvyqwb","zip/postal code":"33330","address":"7010 Hancock Road"},"type":"Feature","geometry":null},{"properties":{"city":"Hollywood","sold price":"$-","id":"abigzuw1kbv4","zip/postal code":"33021","address":"5312 Garfield Street"},"type":"Feature","geometry":null},{"properties":{"city":"Plantation","sold price":"$-","id":"abigzutgmhil","zip/postal code":"33324","address":"9889 Nw 2nd Street"},"type":"Feature","geometry":null},{"properties":{"city":"West Palm Beach","sold price":"$-","id":"abigzuxptkwa","zip/postal code":"33410","address":"8923 Sunset Drive"},"type":"Feature","geometry":null},{"properties":{"city":"Miami","sold price":"$-","id":"abigzutw9r9h","zip/postal code":"33156","address":"8250 Sw 118th Terrace"},"type":"Feature","geometry":null},{"properties":{"city":"Hollywood","sold price":"$-","id":"abigzuxf6ubi","zip/postal code":"33021","address":"3800 Hillcrest Drive"},"type":"Feature","geometry":null},{"properties":{"city":"Coral Springs","sold price":"$-","id":"abigzuyq2ocs","zip/postal code":"33071","address":"250 NW 123rd Way"},"type":"Feature","geometry":null},{"properties":{"city":"Pompano Beach","sold price":"$-","id":"abigzuwp5axt","zip/postal code":"33062","address":"3204 Leigh Road"},"type":"Feature","geometry":null},{"properties":{"city":"Miami","sold price":"$-","id":"abigzv7zviu4","zip/postal code":"33196","address":"9373 Sw 155th Avenue"},"type":"Feature","geometry":null},{"properties":{"city":"Aventura","sold price":"$-","id":"abigzuvi3gd1","zip/postal code":"33180","address":"20191 E Country Club Drive"},"type":"Feature","geometry":null},{"properties":{"city":"Coral Springs","sold price":"$-","id":"abigzv4247je","zip/postal code":"33076","address":"5673 NW 109th Lane"},"type":"Feature","geometry":null},{"properties":{"city":"Miami","sold price":"$-","id":"abigzv6mndt2","zip/postal code":"33166","address":"651 Plover Avenue"},"type":"Feature","geometry":null},{"properties":{"city":"Palm Beach","sold price":"$-","id":"abigzv0b6ws7","zip/postal code":"33480","address":"3540 S Ocean Blvd"},"type":"Feature","geometry":null},{"properties":{"city":"Jupiter","sold price":"$-","id":"abigzuzj29r9","zip/postal code":"33458","address":"146 Stonebriar Blvd"},"type":"Feature","geometry":null},{"properties":{"city":"Coral Springs","sold price":"$-","id":"abigzv4huk88","zip/postal code":"33067","address":"4751 NW 88th Terrace"},"type":"Feature","geometry":null},{"properties":{"city":"Fort Lauderdale","sold price":"$-","id":"abigzv87a5cm","zip/postal code":"33311","address":"1430 Nw 20th Court"},"type":"Feature","geometry":null},{"properties":{"city":"Fort Lauderdale","sold price":"$-","id":"abigzv2j97vr","zip/postal code":"33308","address":"6111 Ne 19th Avenue"},"type":"Feature","geometry":null},{"properties":{"city":"Miami","sold price":"$-","id":"abigzux7u1ul","zip/postal code":"33175","address":"4280 Sw 137th Court"},"type":"Feature","geometry":null},{"properties":{"city":"Miami","sold price":"$-","id":"abigzv6fhxvh","zip/postal code":"33175","address":"13824 Sw 22nd Terrace"},"type":"Feature","geometry":null},{"properties":{"city":"Aventura","sold price":"$-","id":"abigzuwy8b7i","zip/postal code":"33180","address":"3625 N Country Club Drive"},"type":"Feature","geometry":null},{"properties":{"city":"Pembroke Pines","sold price":"$-","id":"abigzv5dbup8","zip/postal code":"33026","address":"1633 Fairway Road"},"type":"Feature","geometry":null},{"properties":{"city":"Plantation","sold price":"$-","id":"abigzuxyea64","zip/postal code":"33323","address":"11401 Nw 24th Street"},"type":"Feature","geometry":null},{"properties":{"city":"Weston","sold price":"$-","id":"abigzv39xngc","zip/postal code":"33327","address":"2527 Eagle"},"type":"Feature","geometry":null},{"properties":{"city":"Fort Lauderdale","sold price":"$-","id":"abigzv5wrzyg","zip/postal code":"33308","address":"5811 Ne 22nd Avenue"},"type":"Feature","geometry":null},{"properties":{"city":"West Palm Beach","sold price":"$-","id":"abigzuy04ib2","zip/postal code":"33412","address":"13715 75th Lane North"},"type":"Feature","geometry":null},{"properties":{"city":"Miami","sold price":"$-","id":"abigzuwvlf5p","zip/postal code":"33187","address":"17725 Sw 176 Street"},"type":"Feature","geometry":null},{"properties":{"city":"Coral Gables","sold price":"$-","id":"abigzv8rcddc","zip/postal code":"33134","address":"1529 Palermo Avenue"},"type":"Feature","geometry":null},{"properties":{"city":"Miami","sold price":"$-","id":"abigzusnbgwq","zip/postal code":"33185","address":"15650 Sw 46th Terrace"},"type":"Feature","geometry":null},{"properties":{"city":"Sunrise","sold price":"$-","id":"abigzuu6zpr1","zip/postal code":"33323","address":"13796 Nw 22nd Street"},"type":"Feature","geometry":null},{"properties":{"city":"Miami","sold price":"$-","id":"abigzutfivik","zip/postal code":"33183","address":"14301 Sw 88th Street"},"type":"Feature","geometry":null},{"properties":{"city":"Lake Worth","sold price":"$-","id":"abigzuzmsfd1","zip/postal code":"33460","address":"1213 North B Street"},"type":"Feature","geometry":null},{"properties":{"city":"Miami","sold price":"$-","id":"abigzux8nxkv","zip/postal code":"33189","address":"20220 Sw 85th Court"},"type":"Feature","geometry":null},{"properties":{"city":"Hallandale","sold price":"$-","id":"abigzv2yn2p2","zip/postal code":"33009","address":"111 Golden Isle Drive"},"type":"Feature","geometry":null},{"properties":{"city":"Pembroke Pines","sold price":"$-","id":"abigzv23yhxo","zip/postal code":"33028","address":"16453 Nw 22nd Street"},"type":"Feature","geometry":null},{"properties":{"city":"Oakland Park","sold price":"$-","id":"abigzuzoa2et","zip/postal code":"33334","address":"2912 NE 8th Terrace"},"type":"Feature","geometry":null},{"properties":{"city":"Miami","sold price":"$-","id":"abigzuzeehth","zip/postal code":"33175","address":"4790 Sw 141st Avenue"},"type":"Feature","geometry":null},{"properties":{"city":"Miami","sold price":"$-","id":"abigzv0o1mjf","zip/postal code":"33179","address":"130 Ne 202nd Terrace"},"type":"Feature","geometry":null},{"properties":{"city":"Miami","sold price":"$-","id":"abigzuxwrc5b","zip/postal code":"33181","address":"11111 Biscayne Blvd"},"type":"Feature","geometry":null},{"properties":{"city":"Deerfield Beach","sold price":"$-","id":"abigzv6kzytx","zip/postal code":"33442","address":"2015 Newport G"},"type":"Feature","geometry":null},{"properties":{"city":"Sw Ranches","sold price":"$-","id":"abigzuu2l8hi","zip/postal code":"33330","address":"7010 Hancock Road"},"type":"Feature","geometry":null},{"properties":{"city":"Margate","sold price":"$-","id":"abigzv16z3pt","zip/postal code":"33063","address":"1910 Nw 80th Avenue"},"type":"Feature","geometry":null},{"properties":{"city":"Miami","sold price":"$-","id":"abigzutojfw2","zip/postal code":"33157","address":"8780 Sw 160th Street"},"type":"Feature","geometry":null},{"properties":{"city":"Weston","sold price":"$-","id":"abigzv1nbpwj","zip/postal code":"33331","address":"4289 Pine Ridge Court"},"type":"Feature","geometry":null},{"properties":{"city":"Fort Lauderdale","sold price":"$-","id":"abigzuzlpa1x","zip/postal code":"33312","address":"2504 Sw 34th Ave"},"type":"Feature","geometry":null},{"properties":{"city":"Miami","sold price":"$-","id":"abigzv7be1dt","zip/postal code":"33179","address":"905 Ne 199th Street"},"type":"Feature","geometry":null},{"properties":{"city":"Fort Lauderdale","sold price":"$-","id":"abigzuzw46bg","zip/postal code":"33316","address":"2100 S Ocean Drive"},"type":"Feature","geometry":null},{"properties":{"city":"Margate","sold price":"$-","id":"abigzv72waw8","zip/postal code":"33063","address":"7205 Nw 57th Place"},"type":"Feature","geometry":null},{"properties":{"city":"Hialeah","sold price":"$-","id":"abigzv16gemq","zip/postal code":"33016","address":"6121 W 24th Avenue"},"type":"Feature","geometry":null},{"properties":{"city":"Fort Lauderdale","sold price":"$-","id":"abigzuwvznrn","zip/postal code":"33328","address":"5202 Sw 90th Terrace"},"type":"Feature","geometry":null},{"properties":{"city":"Miami Gardens","sold price":"$-","id":"abigzv89273s","zip/postal code":"33055","address":"18557 Nw 55th Avenue"},"type":"Feature","geometry":null},{"properties":{"city":"Sunny Isles Beach","sold price":"$-","id":"abigzuyk4v1m","zip/postal code":"33160","address":"400 Kings Point Drive"},"type":"Feature","geometry":null},{"properties":{"city":"Fort Lauderdale","sold price":"$-","id":"abigzux4dno2","zip/postal code":"33328","address":"3145 Peachtree Way, Davie"},"type":"Feature","geometry":null},{"properties":{"city":"Miami","sold price":"$-","id":"abigzuzq6uc2","zip/postal code":"33143","address":"7720 Sw 59th Court"},"type":"Feature","geometry":null},{"properties":{"city":"Davie","sold price":"$-","id":"abigzv3txgk6","zip/postal code":"33324","address":"1710 Whitehall Drive"},"type":"Feature","geometry":null},{"properties":{"city":"Jupiter","sold price":"$-","id":"abigzuwa6gyz","zip/postal code":"33458","address":"302 Hammock Point N"},"type":"Feature","geometry":null},{"properties":{"city":"Deerfield","sold price":"$-","id":"abigzv71b23t","zip/postal code":"33342","address":"1374 Sw 28th Ave."},"type":"Feature","geometry":null},{"properties":{"city":"Coral Springs","sold price":"$-","id":"abigzv0spc2b","zip/postal code":"33071","address":"364 Nw 113th Avenue"},"type":"Feature","geometry":null},{"properties":{"city":"Boynton Beach","sold price":"$-","id":"abigzv5ifjxx","zip/postal code":"33437","address":"5631 Fairway Park Drive"},"type":"Feature","geometry":null},{"properties":{"city":"Weston","sold price":"$-","id":"abigzv1x3kz4","zip/postal code":"33327","address":"2458 Poinciana Court"},"type":"Feature","geometry":null},{"properties":{"city":"Fort Lauderdale","sold price":"$-","id":"abigzv6u0ueq","zip/postal code":"33308","address":"3300 Ne 36th Street"},"type":"Feature","geometry":null},{"properties":{"city":"Boca Raton","sold price":"$-","id":"abigzv7eqtg2","zip/postal code":"33433","address":"22222 Martella Avenue"},"type":"Feature","geometry":null},{"properties":{"city":"Miami","sold price":"$-","id":"abigzuuulg5k","zip/postal code":"33015","address":"19320 Royal Birkdale Dr."},"type":"Feature","geometry":null},{"properties":{"city":"Homestead","sold price":"$-","id":"abigzv7z1lns","zip/postal code":"33033","address":"2320 Se 5th Court"},"type":"Feature","geometry":null},{"properties":{"city":"Miami","sold price":"$-","id":"abigzuvigno1","zip/postal code":"33144","address":"1315 Sw 78th Pl"},"type":"Feature","geometry":null},{"properties":{"city":"Miami","sold price":"$-","id":"abigzv73bq6e","zip/postal code":"33176","address":"11405 Sw 123rd Terrace"},"type":"Feature","geometry":null},{"properties":{"city":"Miami","sold price":"$-","id":"abigzv74kuyy","zip/postal code":"33156","address":"9456 Sw 77th Avenue"},"type":"Feature","geometry":null},{"properties":{"city":"West Park","sold price":"$-","id":"abigzv65vwnq","zip/postal code":"33023","address":"3810 Sw 32nd Avenue"},"type":"Feature","geometry":null},{"properties":{"city":"Miami","sold price":"$-","id":"abigzv72hkfr","zip/postal code":"33155","address":"3221 Sw 68th Avenue"},"type":"Feature","geometry":null},{"properties":{"city":"Boynton Beach","sold price":"$-","id":"abigzuw66o2k","zip/postal code":"33437","address":"12529 Imperial Isle Drive"},"type":"Feature","geometry":null},{"properties":{"city":"Redland","sold price":"$-","id":"abigzus9mjws","zip/postal code":"33031","address":"26801 Sw 197th Avenue"},"type":"Feature","geometry":null},{"properties":{"city":"Fort Lauderdale","sold price":"$-","id":"abigzuygaa0r","zip/postal code":"33316","address":"2000 S Ocean Lane"},"type":"Feature","geometry":null},{"properties":{"city":"Sunny Isles Beach","sold price":"$-","id":"abigzuxy6g8z","zip/postal code":"33160","address":"400 Kings Point Drive"},"type":"Feature","geometry":null},{"properties":{"city":"North Palm Beach","sold price":"$-","id":"abigzuzjjvnq","zip/postal code":"33408","address":"805 Buttonwood Road"},"type":"Feature","geometry":null},{"properties":{"city":"Coconut Creek","sold price":"$-","id":"abigzv0dcecy","zip/postal code":"33073","address":"3326 NW 64th Court"},"type":"Feature","geometry":null},{"properties":{"city":"Jupiter","sold price":"$-","id":"abigzuv8z8jn","zip/postal code":"33469","address":"164 Turtle Creek Drive"},"type":"Feature","geometry":null},{"properties":{"city":"Sunny Isles","sold price":"$-","id":"abigzv2y2ovy","zip/postal code":"33160","address":"230 174th Street"},"type":"Feature","geometry":null},{"properties":{"city":"Hialeah","sold price":"$-","id":"abigzv7o323c","zip/postal code":"33016","address":"2313 W 60th Court Apt"},"type":"Feature","geometry":null},{"properties":{"city":"Palm Beach","sold price":"$-","id":"abigzv4wlzay","zip/postal code":"33480","address":"2840 S Ocean Blvd"},"type":"Feature","geometry":null},{"properties":{"city":"Miami","sold price":"$-","id":"abigzv6j4kdz","zip/postal code":"33157","address":"7355 Sw 154th Terrace"},"type":"Feature","geometry":null},{"properties":{"city":"Coconut Creek","sold price":"$-","id":"abigzv24v2l5","zip/postal code":"33073","address":"5140 Stagecoach Drive"},"type":"Feature","geometry":null},{"properties":{"city":"Sunrise","sold price":"$-","id":"abigzuvys1zz","zip/postal code":"33323","address":"3840 Nw 120th Way"},"type":"Feature","geometry":null},{"properties":{"city":"Plantation","sold price":"$-","id":"abigzv3mui35","zip/postal code":"33322","address":"1100 Nw 100th Way"},"type":"Feature","geometry":null},{"properties":{"city":"Miami","sold price":"$-","id":"abigzuv5m99o","zip/postal code":"33186","address":"13580 Sw 99th Street"},"type":"Feature","geometry":null},{"properties":{"city":"Miami","sold price":"$-","id":"abigzuyvge7e","zip/postal code":"33176","address":"11309 Sw 109th Road"},"type":"Feature","geometry":null},{"properties":{"city":"Lauderdale Lakes","sold price":"$-","id":"abigzv7ntc9s","zip/postal code":"33319","address":"4480 Nw 41st Terrace"},"type":"Feature","geometry":null},{"properties":{"city":"Pembroke Pines","sold price":"$-","id":"abigzv1lcvxe","zip/postal code":"33026","address":"336 Nw 106th Terrace"},"type":"Feature","geometry":null},{"properties":{"city":"Highland Beach","sold price":"$-","id":"abigzv2hm892","zip/postal code":"33487","address":"4750 S Ocean Blvd"},"type":"Feature","geometry":null},{"properties":{"city":"Miami","sold price":"$-","id":"abigzv5u86rv","zip/postal code":"33177","address":"1299 Sw 191st Terrace"},"type":"Feature","geometry":null},{"properties":{"city":"Pembroke Pines","sold price":"$-","id":"abigzv0vkutq","zip/postal code":"33024","address":"7490 Nw 21st Place"},"type":"Feature","geometry":null},{"properties":{"city":"Davie","sold price":"$-","id":"abigzv7rdhx3","zip/postal code":"33325","address":"14421 Bedford Court"},"type":"Feature","geometry":null},{"properties":{"city":"Weston","sold price":"$-","id":"abigzuuhm31x","zip/postal code":"33327","address":"380 Mallard Drive"},"type":"Feature","geometry":null},{"properties":{"city":"Tamarac","sold price":"$-","id":"abigzuun2kxo","zip/postal code":"33319","address":"5705 Mulberry Road"},"type":"Feature","geometry":null},{"properties":{"city":"Miramar","sold price":"$-","id":"abigzv0mqwx8","zip/postal code":"33027","address":"15755 Sw 20th Street"},"type":"Feature","geometry":null},{"properties":{"city":"Hallandale","sold price":"$-","id":"abigzv5zsueh","zip/postal code":"33009","address":"250 Layne Blvd"},"type":"Feature","geometry":null},{"properties":{"city":"Boca Raton","sold price":"$-","id":"abigzuzs30yh","zip/postal code":"33428","address":"21306 Raindance Terrace"},"type":"Feature","geometry":null},{"properties":{"city":"Hialeah","sold price":"$-","id":"abigzv5ig7tf","zip/postal code":"33013","address":"601 E 44th Stret"},"type":"Feature","geometry":null},{"properties":{"city":"Fort Lauderdale","sold price":"$-","id":"abigzv2to5ti","zip/postal code":"33301","address":"817 Se 2nd Street"},"type":"Feature","geometry":null},{"properties":{"city":"Hallandale Beach","sold price":"$-","id":"abigzv0qk1ei","zip/postal code":"33009","address":"201 Atlantic Shores Blvd"},"type":"Feature","geometry":null},{"properties":{"city":"Pompano Beach","sold price":"$-","id":"abigzv4cpq7a","zip/postal code":"33060","address":"840 Se 1st Terrace"},"type":"Feature","geometry":null},{"properties":{"city":"Miramar","sold price":"$-","id":"abigzuvha7j4","zip/postal code":"33027","address":"4405 Sw 160th Avenue"},"type":"Feature","geometry":null},{"properties":{"city":"Weston","sold price":"$-","id":"abigzv13cc9r","zip/postal code":"33327","address":"1967 Pisces Terrace"},"type":"Feature","geometry":null},{"properties":{"city":"Lake Worth","sold price":"$-","id":"abigzv80qiu1","zip/postal code":"33467","address":"8431 Linden Way"},"type":"Feature","geometry":null},{"properties":{"city":"Fort Lauderdale","sold price":"$-","id":"abigzuuflets","zip/postal code":"33312","address":"2870 Sw 58th Court"},"type":"Feature","geometry":null},{"properties":{"city":"Delray Beach","sold price":"$-","id":"abigzuvtdwdr","zip/postal code":"33484","address":"16075 Sims Road"},"type":"Feature","geometry":null},{"properties":{"city":"Cooper City","sold price":"$-","id":"abigzuw398ro","zip/postal code":"33330","address":"12142 Sw 50th Court"},"type":"Feature","geometry":null},{"properties":{"city":"West Palm Beach","sold price":"$-","id":"abigzuzv2du9","zip/postal code":"33418","address":"13124 Silver Fox Lane"},"type":"Feature","geometry":null},{"properties":{"city":"Boca Raton","sold price":"$-","id":"abigzuxmwsg2","zip/postal code":"33433","address":"8607 Via Serena"},"type":"Feature","geometry":null},{"properties":{"city":"Loxahatchee","sold price":"$-","id":"abigzv0v40td","zip/postal code":"33470","address":"16087 Gold Cup Drive E"},"type":"Feature","geometry":null},{"properties":{"city":"Boynton Beach","sold price":"$-","id":"abigzusvbhqu","zip/postal code":"33472","address":"5622 Mirror Lakes Blvd"},"type":"Feature","geometry":null},{"properties":{"city":"Deerfield Beach","sold price":"$-","id":"abigzv4cwg9d","zip/postal code":"33441","address":"1112 Se 15th Ave."},"type":"Feature","geometry":null},{"properties":{"city":"Weston","sold price":"$-","id":"abigzv2bt521","zip/postal code":"33326","address":"1214 Iris Court"},"type":"Feature","geometry":null},{"properties":{"city":"West Palm Beach","sold price":"$-","id":"abigzv0w1m92","zip/postal code":"33414","address":"12698 Headwater Circle"},"type":"Feature","geometry":null},{"properties":{"city":"Hollywood","sold price":"$-","id":"abigzv3czi7j","zip/postal code":"33021","address":"4500 Buchanann Street"},"type":"Feature","geometry":null},{"properties":{"city":"Haverhill","sold price":"$-","id":"abigzuzdd3e4","zip/postal code":"33417","address":"1061 Pineway Drive"},"type":"Feature","geometry":null},{"properties":{"city":"Margate","sold price":"$-","id":"abigzv3x1lux","zip/postal code":"33322","address":"3066 W. Buenavista Dr"},"type":"Feature","geometry":null},{"properties":{"city":"Sunny Isles Beach","sold price":"$-","id":"abigzv268fye","zip/postal code":"33160","address":"18001 Collins Avenue"},"type":"Feature","geometry":null},{"properties":{"city":"West Palm Beach","sold price":"$-","id":"abigzv5g407r","zip/postal code":"33418","address":"8225 Forego Road"},"type":"Feature","geometry":null},{"properties":{"city":"Coral Springs","sold price":"$-","id":"abigzv16mw4r","zip/postal code":"33076","address":"4732 Nw 100th Terrace"},"type":"Feature","geometry":null},{"properties":{"city":"Vero Beach","sold price":"$-","id":"abigzv0bww92","zip/postal code":"32966","address":"6500 Oxford Circle"},"type":"Feature","geometry":null},{"properties":{"city":"Miramar","sold price":"$-","id":"abigzv7bu83b","zip/postal code":"33028","address":"6208 E Forge Road"},"type":"Feature","geometry":null},{"properties":{"city":"Palm Beach Gardens","sold price":"$-","id":"abigzv1qpsht","zip/postal code":"33418","address":"1 Auston Road"},"type":"Feature","geometry":null},{"properties":{"city":"Hallandale","sold price":"$-","id":"abigzv6ui0ng","zip/postal code":"33009","address":"3113 S Ocean Drive"},"type":"Feature","geometry":null},{"properties":{"city":"Weston","sold price":"$-","id":"abigzuu1ws4s","zip/postal code":"33326","address":"16200 Golf Club Road"},"type":"Feature","geometry":null},{"properties":{"city":"Pembroke Pines","sold price":"$-","id":"abigzusv79ft","zip/postal code":"33029","address":"804 Nw 208th Circle"},"type":"Feature","geometry":null},{"properties":{"city":"Miami Beach","sold price":"$-","id":"abigzuxh7bp6","zip/postal code":"33139","address":"1446 Ocean Drive"},"type":"Feature","geometry":null},{"properties":{"city":"Pembroke Pines","sold price":"$-","id":"abigzv4kb854","zip/postal code":"33024","address":"9501 Nw 24th Street"},"type":"Feature","geometry":null},{"properties":{"city":"Boca Raton","sold price":"$-","id":"abigzuxsrdvu","zip/postal code":"33498","address":"10941 Lake Front Place"},"type":"Feature","geometry":null},{"properties":{"city":"Lake Worth","sold price":"$-","id":"abigzuut3f24","zip/postal code":"33463","address":"5830 Cadillac Drive"},"type":"Feature","geometry":null},{"properties":{"city":"Miami","sold price":"$-","id":"abigzuw6z9eb","zip/postal code":"33196","address":"9373 Sw 155th Avenue"},"type":"Feature","geometry":null},{"properties":{"city":"Miami","sold price":"$-","id":"abigzv0ztzne","zip/postal code":"33156","address":"12525 Sw 72nd Avenue"},"type":"Feature","geometry":null},{"properties":{"city":"Hollywood","sold price":"$-","id":"abigzut8icid","zip/postal code":"33019","address":"338 Roosevelt Drive"},"type":"Feature","geometry":null},{"properties":{"city":"Miami","sold price":"$-","id":"abigzuskb2u1","zip/postal code":"33155","address":"2918 64th Avenue"},"type":"Feature","geometry":null},{"properties":{"city":"Boca Raton","sold price":"$-","id":"abigzuzvam2i","zip/postal code":"33433","address":"6562 Boca Del Mar Drive"},"type":"Feature","geometry":null},{"properties":{"city":"Palm Beach Gardens","sold price":"$-","id":"abigzv623jkn","zip/postal code":"33410","address":"910 Mill Creek Drive"},"type":"Feature","geometry":null},{"properties":{"city":"Jupiter","sold price":"$-","id":"abigzv0mouzn","zip/postal code":"33477","address":"1605 S Us Hgwy 1"},"type":"Feature","geometry":null},{"properties":{"city":"Deerfield Beach","sold price":"$-","id":"abigzv3zlmuc","zip/postal code":"33442","address":"2015 Newport G"},"type":"Feature","geometry":null},{"properties":{"city":"Pompano Beach","sold price":"$-","id":"abigzuxmn1fi","zip/postal code":"33064","address":"5232 NE 18th Avenue"},"type":"Feature","geometry":null},{"properties":{"city":"Singer Island","sold price":"$-","id":"abigzv833m45","zip/postal code":"33404","address":"340 Inlet Way #16"},"type":"Feature","geometry":null},{"properties":{"city":"Pembroke Pines","sold price":"$-","id":"abigzv761354","zip/postal code":"33027","address":"16120 Sw 11th Street"},"type":"Feature","geometry":null},{"properties":{"city":"Boynton Beach","sold price":"$-","id":"abigzv6l6qi7","zip/postal code":"33436","address":"4351 Dovewood Road"},"type":"Feature","geometry":null},{"properties":{"city":"Fort Lauderdale","sold price":"$-","id":"abigzuugjbza","zip/postal code":"33308","address":"4800 Bayview Drive"},"type":"Feature","geometry":null},{"properties":{"city":"Lauderdale Lakes","sold price":"$-","id":"abigzuskvu1u","zip/postal code":"33319","address":"3941 NW 46th Avenue"},"type":"Feature","geometry":null},{"properties":{"city":"Hialeah","sold price":"$-","id":"abigzv3hdj6o","zip/postal code":"33015","address":"7589 Nw 182 Terrace"},"type":"Feature","geometry":null},{"properties":{"city":"Palm Beach Gardens","sold price":"$-","id":"abigzutbmtta","zip/postal code":"33418","address":"15173 71st Drive N"},"type":"Feature","geometry":null},{"properties":{"city":"Miami","sold price":"$-","id":"abigzv7gl7qa","zip/postal code":"33129","address":"2475 Brickell Avenue"},"type":"Feature","geometry":null},{"properties":{"city":"Coconut Creek","sold price":"$-","id":"abigzuxlwpry","zip/postal code":"33073","address":"4421 Nw 68th Street"},"type":"Feature","geometry":null},{"properties":{"city":"Boynton Beach","sold price":"$-","id":"abigzuwt65qh","zip/postal code":"33437","address":"8881 Livingston Way"},"type":"Feature","geometry":null},{"properties":{"city":"Miami","sold price":"$-","id":"abigzv3hdmdq","zip/postal code":"33156","address":"8101 Sw 128th Street"},"type":"Feature","geometry":null},{"properties":{"city":"Jupiter","sold price":"$-","id":"abigzv35h0qz","zip/postal code":"33458","address":"302 New Haven Blvd"},"type":"Feature","geometry":null},{"properties":{"city":"Hallandale","sold price":"$-","id":"abigzv6nk9qq","zip/postal code":"33009","address":"2030 S Ocean Drive"},"type":"Feature","geometry":null},{"properties":{"city":"Delray Beach","sold price":"$-","id":"abigzutybm37","zip/postal code":"33446","address":"13594 Paisley Drive"},"type":"Feature","geometry":null},{"properties":{"city":"Miami","sold price":"$-","id":"abigzuv4z697","zip/postal code":"33126","address":"8540 Nw 6th Lane"},"type":"Feature","geometry":null},{"properties":{"city":"Boca Raton","sold price":"$-","id":"abigzuuwlm6y","zip/postal code":"33433","address":"23355 Mirabella Circle South"},"type":"Feature","geometry":null},{"properties":{"city":"Pembroke Pines","sold price":"$-","id":"abigzux7hkkh","zip/postal code":"33029","address":"21551 NW 3rd Place"},"type":"Feature","geometry":null},{"properties":{"city":"Plantation","sold price":"$-","id":"abigzut3sn86","zip/postal code":"33317","address":"701 Azalea Court"},"type":"Feature","geometry":null},{"properties":{"city":"Florida City","sold price":"$-","id":"abigzv8gps45","zip/postal code":"33034","address":"974 NW 3rd Street"},"type":"Feature","geometry":null},{"properties":{"city":"Miami","sold price":"$-","id":"abigzuwo6ele","zip/postal code":"33176","address":"8945 Sw 96th Avenue"},"type":"Feature","geometry":null},{"properties":{"city":"Hollywood","sold price":"$-","id":"abigzuws1gl4","zip/postal code":"33019","address":"2401 S Ocean Drive #2308"},"type":"Feature","geometry":null},{"properties":{"city":"Doral","sold price":"$-","id":"abigzv1s2yds","zip/postal code":"33178","address":"10032 Nw 43rd Terrace"},"type":"Feature","geometry":null},{"properties":{"city":"Sunny Isles","sold price":"$-","id":"abigzuxhv703","zip/postal code":"33160","address":"230 174th Street"},"type":"Feature","geometry":null},{"properties":{"city":"Fort Lauderdale","sold price":"$-","id":"abigzv60ngv5","zip/postal code":"33304","address":"936 Intracoastal Drive"},"type":"Feature","geometry":null},{"properties":{"city":"Coconut Grove","sold price":"$-","id":"abigzv1qq528","zip/postal code":"33145","address":"3820 Wood Avenue"},"type":"Feature","geometry":null},{"properties":{"city":"Lake Park","sold price":"$-","id":"abigzutt33i9","zip/postal code":"33403","address":"801 Lakeshore Drive"},"type":"Feature","geometry":null},{"properties":{"city":"Weston","sold price":"$-","id":"abigzv50m0sf","zip/postal code":"33332","address":"3918 W Hibiscus Street"},"type":"Feature","geometry":null},{"properties":{"city":"Miramar","sold price":"$-","id":"abigzuzhuneg","zip/postal code":"33025","address":"11411 Sw 21st Street"},"type":"Feature","geometry":null},{"properties":{"city":"Boca Raton","sold price":"$-","id":"abigzuxw2jr1","zip/postal code":"33487","address":"725 NE 70th Street"},"type":"Feature","geometry":null},{"properties":{"city":"Weston","sold price":"$-","id":"abigzv7v1jce","zip/postal code":"33332","address":"2727 Meadowbrook Drive"},"type":"Feature","geometry":null},{"properties":{"city":"Pompano Beach","sold price":"$-","id":"abigzv2c611h","zip/postal code":"33069","address":"2220 N Cypress Bend Drive"},"type":"Feature","geometry":null},{"properties":{"city":"West Palm Beach","sold price":"$-","id":"abigzuthm4mi","zip/postal code":"33405","address":"259 Russlyn Drive"},"type":"Feature","geometry":null},{"properties":{"city":"Miami","sold price":"$-","id":"abigzuxm1vt0","zip/postal code":"33176","address":"10363 Sw 88th Street"},"type":"Feature","geometry":null},{"properties":{"city":"Royal Palm Beach","sold price":"$-","id":"abigzuwukntb","zip/postal code":"33414","address":"11328 Okeechobie Blvd"},"type":"Feature","geometry":null},{"properties":{"city":"Pompano Beach","sold price":"$-","id":"abigzuxwuh8z","zip/postal code":"33073","address":"5452 Nw 54th Dr"},"type":"Feature","geometry":null},{"properties":{"city":"Boca Raton","sold price":"$-","id":"abigzuwh1iwu","zip/postal code":"33433","address":"5747 Golfway Drive"},"type":"Feature","geometry":null},{"properties":{"city":"Lake Worth","sold price":"$-","id":"abigzuwwd3ht","zip/postal code":"33467","address":"8431 Linden Way"},"type":"Feature","geometry":null},{"properties":{"city":"Weston","sold price":"$-","id":"abigzv7bmqmb","zip/postal code":"33326","address":"780 Verona Lake Drive"},"type":"Feature","geometry":null},{"properties":{"city":"Fort Lauderdale","sold price":"$-","id":"abigzuv2l5gk","zip/postal code":"33332","address":"2684 Palmer Place"},"type":"Feature","geometry":null},{"properties":{"city":"Miami","sold price":"$-","id":"abigzv6wzbsr","zip/postal code":"33186","address":"13300 Sw 136th Terrace"},"type":"Feature","geometry":null},{"properties":{"city":"Davie","sold price":"$-","id":"abigzusv2rfp","zip/postal code":"33330","address":"12770 Sw 34th Place"},"type":"Feature","geometry":null},{"properties":{"city":"Miami","sold price":"$-","id":"abigzv17w3m0","zip/postal code":"33156","address":"7391 Sw 117th Terrace"},"type":"Feature","geometry":null},{"properties":{"city":"Miami","sold price":"$-","id":"abigzv75yqq7","zip/postal code":"33162","address":"16801 Ne 14th Avenue"},"type":"Feature","geometry":null},{"properties":{"city":"Miami","sold price":"$-","id":"abigzuy6lkqz","zip/postal code":"33168","address":"285 Nw 128th Street"},"type":"Feature","geometry":null},{"properties":{"city":"Fort Lauderdale","sold price":"$-","id":"abigzuwj9hp5","zip/postal code":"33301","address":"350 SE 2nd Street"},"type":"Feature","geometry":null},{"properties":{"city":"Coral Springs","sold price":"$-","id":"abigzv4tgwcd","zip/postal code":"33067","address":"5411 Nw 86th Way"},"type":"Feature","geometry":null},{"properties":{"city":"Dania","sold price":"$-","id":"abigzv0y5mho","zip/postal code":"33004","address":"1025 Se 3rd Avenue"},"type":"Feature","geometry":null},{"properties":{"city":"Pompano Beach","sold price":"$-","id":"abigzv899a5k","zip/postal code":"33060","address":"1350 Se 6th Terrace"},"type":"Feature","geometry":null},{"properties":{"city":"Delray Beach","sold price":"$-","id":"abigzv6e61bg","zip/postal code":"33483","address":"145 Ne 6th Avenue"},"type":"Feature","geometry":null},{"properties":{"city":"West Palm Beach","sold price":"$-","id":"abigzv354d6x","zip/postal code":"33407","address":"432 34th Street"},"type":"Feature","geometry":null},{"properties":{"city":"Miami","sold price":"$-","id":"abigzutdnc8p","zip/postal code":"33178","address":"7220 Nw 114th Avenue"},"type":"Feature","geometry":null},{"properties":{"city":"Hollywood","sold price":"$-","id":"abigzv54sced","zip/postal code":"33019","address":"2751 S Ocean Drive"},"type":"Feature","geometry":null},{"properties":{"city":"Tamarac","sold price":"$-","id":"abigzv6vfyxt","zip/postal code":"33321","address":"6193 Rock Island Road"},"type":"Feature","geometry":null},{"properties":{"city":"Pompano Beach","sold price":"$-","id":"abigzuw1qnbn","zip/postal code":"33060","address":"111 Se 6th Court"},"type":"Feature","geometry":null},{"properties":{"city":"Miami","sold price":"$-","id":"abigzux0ey4p","zip/postal code":"33126","address":"5085 Nw 7th Street"},"type":"Feature","geometry":null},{"properties":{"city":"Fort Lauderdale","sold price":"$-","id":"abigzuu01xet","zip/postal code":"33308","address":"4025 N Federal Hwy"},"type":"Feature","geometry":null},{"properties":{"city":"Miami","sold price":"$-","id":"abigzv5uiwha","zip/postal code":"33179","address":"1701 Ne 191st Street"},"type":"Feature","geometry":null},{"properties":{"city":"Hollywood","sold price":"$-","id":"abigzux8brjt","zip/postal code":"33021","address":"4316 Garfield Street"},"type":"Feature","geometry":null},{"properties":{"city":"North Palm Beach","sold price":"$-","id":"abigzv1o4pec","zip/postal code":"33408","address":"336 Golfview Road"},"type":"Feature","geometry":null},{"properties":{"city":"Margate","sold price":"$-","id":"abigzusehll1","zip/postal code":"33063","address":"7785 Highlands Circle"},"type":"Feature","geometry":null},{"properties":{"city":"Plantation","sold price":"$-","id":"abigzv19xlrj","zip/postal code":"33317","address":"761 Nw 74th Avenue"},"type":"Feature","geometry":null},{"properties":{"city":"North Palm Beach","sold price":"$-","id":"abigzut14jgu","zip/postal code":"33408","address":"336 Golfview Road"},"type":"Feature","geometry":null},{"properties":{"city":"Deerfield Beach","sold price":"$-","id":"abigzuza7z51","zip/postal code":"33441","address":"1548 Se 5th Street"},"type":"Feature","geometry":null},{"properties":{"city":"Coral Gables","sold price":"$-","id":"abigzuyxwp9s","zip/postal code":"33134","address":"341 Aledo Avenue"},"type":"Feature","geometry":null},{"properties":{"city":"Fort Lauderdale","sold price":"$-","id":"abigzv3qnr0z","zip/postal code":"33311","address":"2625 Ne 27th Way"},"type":"Feature","geometry":null},{"properties":{"city":"Wilton Manors","sold price":"$-","id":"abigzuuur1g9","zip/postal code":"33334","address":"1540 Ne 27th Drive"},"type":"Feature","geometry":null},{"properties":{"city":"Plantation","sold price":"$-","id":"abigzutt9wum","zip/postal code":"33325","address":"11613 Nw 5th Street"},"type":"Feature","geometry":null},{"properties":{"city":"Pembroke Pines","sold price":"$-","id":"abigzut6t1a3","zip/postal code":"33025","address":"10252 SW 9th Lane"},"type":"Feature","geometry":null},{"properties":{"city":"Miami Beach","sold price":"$-","id":"abigzv0ovmg9","zip/postal code":"33139","address":"1446 Ocean Drive #45"},"type":"Feature","geometry":null},{"properties":{"city":"Fort Lauderdale","sold price":"$-","id":"abigzuu9pg1s","zip/postal code":"33312","address":"4660 Sw 37th Avenue"},"type":"Feature","geometry":null},{"properties":{"city":"Aventura","sold price":"$-","id":"abigzv2mpqe7","zip/postal code":"33180","address":"3530 Mystic Point Drive"},"type":"Feature","geometry":null},{"properties":{"city":"Weston","sold price":"$-","id":"abigzv7aaiq0","zip/postal code":"33326","address":"852 Waterview Drive"},"type":"Feature","geometry":null},{"properties":{"city":"Miami Beach","sold price":"$-","id":"abigzuxtqubi","zip/postal code":"33139","address":"9 Island Avenue"},"type":"Feature","geometry":null},{"properties":{"city":"Hollywood","sold price":"$-","id":"abigzuuy50nn","zip/postal code":"33026","address":"900 W Fairway Road"},"type":"Feature","geometry":null},{"properties":{"city":"Singer Island","sold price":"$-","id":"abigzv1ab7o9","zip/postal code":"33404","address":"1261 S Harbor Drive"},"type":"Feature","geometry":null},{"properties":{"city":"Hallandale","sold price":"$-","id":"abigzv4jx67h","zip/postal code":"33009","address":"441 Leslie Drive"},"type":"Feature","geometry":null},{"properties":{"city":"Cooper City","sold price":"$-","id":"abigzv029ewd","zip/postal code":"33330","address":"5329 SW 117th Avenue"},"type":"Feature","geometry":null},{"properties":{"city":"Plantation","sold price":"$-","id":"abigzv2ddcwt","zip/postal code":"33324","address":"701 NW 108th Avenue"},"type":"Feature","geometry":null},{"properties":{"city":"North Lauderdale","sold price":"$-","id":"abigzv0deqdl","zip/postal code":"33068","address":"8280 Sw 24th Street"},"type":"Feature","geometry":null},{"properties":{"city":"Tamarac","sold price":"$-","id":"abigzv2arest","zip/postal code":"33321","address":"7201 NW 70th Street"},"type":"Feature","geometry":null},{"properties":{"city":"Fort Lauderdale","sold price":"$-","id":"abigzv5kzwsh","zip/postal code":"33325","address":"14444 Sw 21st Street"},"type":"Feature","geometry":null},{"properties":{"city":"Miramar","sold price":"$-","id":"abigzv54x0l2","zip/postal code":"33029","address":"2308 Sw 177th Avenue"},"type":"Feature","geometry":null},{"properties":{"city":"Coral Gables","sold price":"$-","id":"abigzv38cvnc","zip/postal code":"33145","address":"2351 Douglas Road"},"type":"Feature","geometry":null},{"properties":{"city":"Highland Beach","sold price":"$-","id":"abigzv4sov7x","zip/postal code":"33487","address":"4511 S Ocean Blvd"},"type":"Feature","geometry":null},{"properties":{"city":"Boca Raton","sold price":"$-","id":"abigzuxg4loz","zip/postal code":"33428","address":"10670 Boca Woods Lane"},"type":"Feature","geometry":null},{"properties":{"city":"Boca Raton","sold price":"$-","id":"abigzv3yo7dm","zip/postal code":"33432","address":"13 Royal Palm"},"type":"Feature","geometry":null},{"properties":{"city":"Fort Lauderdale","sold price":"$-","id":"abigzuyo8b3n","zip/postal code":"33308","address":"4800 Bayview Drive"},"type":"Feature","geometry":null},{"properties":{"city":"Hialeah","sold price":"$-","id":"abigzuz3b6ry","zip/postal code":"33013","address":"601 E 44th Stret"},"type":"Feature","geometry":null},{"properties":{"city":"Coconut Creek","sold price":"$-","id":"abigzuwedmre","zip/postal code":"33063","address":"1846 Tamarind Lane"},"type":"Feature","geometry":null},{"properties":{"city":"Davie","sold price":"$-","id":"abigzv3c2zo6","zip/postal code":"33325","address":"14421 Bedford Court"},"type":"Feature","geometry":null},{"properties":{"city":"Key Biscayne","sold price":"$-","id":"abigzv1b0get","zip/postal code":"33149","address":"255 Sunrise Drive"},"type":"Feature","geometry":null},{"properties":{"city":"Boca Raton","sold price":"$-","id":"abigzv69cikb","zip/postal code":"33432","address":"120 Se 5th Avenue"},"type":"Feature","geometry":null},{"properties":{"city":"Boca Raton","sold price":"$-","id":"abigzutico94","zip/postal code":"33496","address":"2309 NW 66th Drive"},"type":"Feature","geometry":null},{"properties":{"city":"Miami","sold price":"$-","id":"abigzv6vjwd1","zip/postal code":"33178","address":"3606 Alcantara Avenue"},"type":"Feature","geometry":null},{"properties":{"city":"Miami","sold price":"$-","id":"abigzutlnqxe","zip/postal code":"33167","address":"1441 Nw 138th Street"},"type":"Feature","geometry":null},{"properties":{"city":"Miami","sold price":"$-","id":"abigzuuhkqkr","zip/postal code":"33173","address":"9401 Sw 61st Street"},"type":"Feature","geometry":null},{"properties":{"city":"Plantation","sold price":"$-","id":"abigzv388zxi","zip/postal code":"33317","address":"201 Nw 46th Avenue"},"type":"Feature","geometry":null},{"properties":{"city":"West Palm Beach","sold price":"$-","id":"abigzuzkt4yi","zip/postal code":"33414","address":"12698 Headwater Circle"},"type":"Feature","geometry":null},{"properties":{"city":"Miramar","sold price":"$-","id":"abigzutiqle3","zip/postal code":"33027","address":"13503 Sw 50th Court"},"type":"Feature","geometry":null},{"properties":{"city":"West Palm Beach","sold price":"$-","id":"abigzuuct20s","zip/postal code":"33411","address":"236 Ponce De Leon Street"},"type":"Feature","geometry":null},{"properties":{"city":"Miramar","sold price":"$-","id":"abigzuvw0w92","zip/postal code":"33029","address":"18611 Sw 39th Court"},"type":"Feature","geometry":null},{"properties":{"city":"Davie","sold price":"$-","id":"abigzv23v2zw","zip/postal code":"33325","address":"14401 Arlington Place"},"type":"Feature","geometry":null},{"properties":{"city":"Weston","sold price":"$-","id":"abigzv23wcgo","zip/postal code":"33326","address":"622 Bedford Way"},"type":"Feature","geometry":null},{"properties":{"city":"Miami","sold price":"$-","id":"abigzuuiyrlr","zip/postal code":"33180","address":"21085 Ne 34th Avenue"},"type":"Feature","geometry":null},{"properties":{"city":"North Bay Village","sold price":"$-","id":"abigzutiq75w","zip/postal code":"33141","address":"1880 S Treasure Drive"},"type":"Feature","geometry":null},{"properties":{"city":"Deerfield Beach","sold price":"$-","id":"abigzv7hea12","zip/postal code":"33442","address":"3270 Sw 3rd Street"},"type":"Feature","geometry":null},{"properties":{"city":"Fort Lauderdale","sold price":"$-","id":"abigzuxqoqd5","zip/postal code":"33312","address":"245 Sw 13th Terrace"},"type":"Feature","geometry":null},{"properties":{"city":"Homestead","sold price":"$-","id":"abigzv17q4sy","zip/postal code":"33031","address":"15895 Sw 242nd Street"},"type":"Feature","geometry":null},{"properties":{"city":"Lake Worth","sold price":"$-","id":"abigzuwtffeb","zip/postal code":"33467","address":"8431 Linden Way"},"type":"Feature","geometry":null},{"properties":{"city":"Plantation","sold price":"$-","id":"abigzuy1lmbo","zip/postal code":"33313","address":"1701 Nw 75th Avenue"},"type":"Feature","geometry":null},{"properties":{"city":"Hollywood","sold price":"$-","id":"abigzv7ppuu7","zip/postal code":"33020","address":"1700 Peirce Street"},"type":"Feature","geometry":null},{"properties":{"city":"Miami Shores","sold price":"$-","id":"abigzv0k07b1","zip/postal code":"33150","address":"102 Nw 100th Street"},"type":"Feature","geometry":null},{"properties":{"city":"Aventura","sold price":"$-","id":"abigzv20k7li","zip/postal code":"33180","address":"20191 E Country Club Drive"},"type":"Feature","geometry":null},{"properties":{"city":"Lake Worth","sold price":"$-","id":"abigzuxkvlsd","zip/postal code":"33467","address":"7491 Ridgefield Lane"},"type":"Feature","geometry":null},{"properties":{"city":"Homestead","sold price":"$-","id":"abigzv5od9xp","zip/postal code":"33035","address":"2604 Augusta Drive"},"type":"Feature","geometry":null},{"properties":{"city":"Greenacres","sold price":"$-","id":"abigzuysbzda","zip/postal code":"33463","address":"5702 Channel Drive"},"type":"Feature","geometry":null},{"properties":{"city":"Boca Raton","sold price":"$-","id":"abigzuupf6ac","zip/postal code":"33486","address":"1124 Sw 21st Lane"},"type":"Feature","geometry":null},{"properties":{"city":"Margate","sold price":"$-","id":"abigzuufjuor","zip/postal code":"33063","address":"1910 Nw 80th Avenue"},"type":"Feature","geometry":null},{"properties":{"city":"Coral Gables","sold price":"$-","id":"abigzv52askw","zip/postal code":"33146","address":"1205 Mariposa Avenue"},"type":"Feature","geometry":null},{"properties":{"city":"Miami","sold price":"$-","id":"abigzv57mswn","zip/postal code":"33158","address":"7940 SW 139th Terrace"},"type":"Feature","geometry":null},{"properties":{"city":"Miami","sold price":"$-","id":"abigzv1a0rg7","zip/postal code":"33180","address":"20281 E Country Club Drive"},"type":"Feature","geometry":null},{"properties":{"city":"North Lauderdale","sold price":"$-","id":"abigzv4x20pf","zip/postal code":"33068","address":"942 Sw 68th Avenue"},"type":"Feature","geometry":null},{"properties":{"city":"Fort Lauderdale","sold price":"$-","id":"abigzuysya1y","zip/postal code":"33305","address":"2230 NE 16th Court"},"type":"Feature","geometry":null},{"properties":{"city":"Boca Raton","sold price":"$-","id":"abigzuzfqzuc","zip/postal code":"33498","address":"18313 104th Terrace South"},"type":"Feature","geometry":null},{"properties":{"city":"Miami","sold price":"$-","id":"abigzuuzm4kd","zip/postal code":"33157","address":"17225 Sw 78th Court"},"type":"Feature","geometry":null},{"properties":{"city":"Plantation","sold price":"$-","id":"abigzv7uujzc","zip/postal code":"33317","address":"6100 Sw 20th Street"},"type":"Feature","geometry":null},{"properties":{"city":"Hollywood","sold price":"$-","id":"abigzv1v0ic2","zip/postal code":"33021","address":"5412 Roosevelt Street"},"type":"Feature","geometry":null},{"properties":{"city":"Miami","sold price":"$-","id":"abigzuznaq7s","zip/postal code":"33178","address":"3606 Alcantara Avenue"},"type":"Feature","geometry":null},{"properties":{"city":"Palm Beach Gardens","sold price":"$-","id":"abigzv0jkwii","zip/postal code":"33410","address":"2420 Windsor Road"},"type":"Feature","geometry":null},{"properties":{"city":"Pompano Beach","sold price":"$-","id":"abigzv6ga0zj","zip/postal code":"33062","address":"3204 Leigh Road"},"type":"Feature","geometry":null},{"properties":{"city":"Greenacres","sold price":"$-","id":"abigzuwitk5e","zip/postal code":"33463","address":"6101 Fairfield Circle"},"type":"Feature","geometry":null},{"properties":{"city":"West Palm Beach","sold price":"$-","id":"abigzuxlqtgr","zip/postal code":"33401","address":"263 Barcelona Road"},"type":"Feature","geometry":null},{"properties":{"city":"Bal Harbour","sold price":"$-","id":"abigzuz9vt3f","zip/postal code":"33154","address":"10178 Collins Avenue"},"type":"Feature","geometry":null},{"properties":{"city":"Sunrise","sold price":"$-","id":"abigzuw7vacf","zip/postal code":"33322","address":"9210 Nw 26th Street"},"type":"Feature","geometry":null},{"properties":{"city":"Pembroke Pines","sold price":"$-","id":"abigzv76h2rv","zip/postal code":"33027","address":"601 Sw 141st Avenue"},"type":"Feature","geometry":null},{"properties":{"city":"Hallandale","sold price":"$-","id":"abigzuxp2m0u","zip/postal code":"33009","address":"137 Golden Isles Drive"},"type":"Feature","geometry":null},{"properties":{"city":"Lauderdale Lakes","sold price":"$-","id":"abigzuurfeuj","zip/postal code":"33319","address":"4480 Nw 41st Terrace"},"type":"Feature","geometry":null},{"properties":{"city":"Pembroke Pines","sold price":"$-","id":"abigzuxh5y63","zip/postal code":"33024","address":"9421 Nw 19th Street"},"type":"Feature","geometry":null},{"properties":{"city":"Lake Worth","sold price":"$-","id":"abigzuwn5wtg","zip/postal code":"33467","address":"7685 Springfield Lake Drive"},"type":"Feature","geometry":null},{"properties":{"city":"Jupiter","sold price":"$-","id":"abigzut2uc38","zip/postal code":"33458","address":"6280 Longleaf Pine Drive"},"type":"Feature","geometry":null},{"properties":{"city":"Pembroke Pines","sold price":"$-","id":"abigzv635sxi","zip/postal code":"33028","address":"270 Nw 161st Avenue"},"type":"Feature","geometry":null},{"properties":{"city":"Boca Raton","sold price":"$-","id":"abigzv0j2wdi","zip/postal code":"33498","address":"20237 Back Nine Drive"},"type":"Feature","geometry":null},{"properties":{"city":"Davie","sold price":"$-","id":"abigzv50yrqi","zip/postal code":"33314","address":"4900 Sw 58th Avenue"},"type":"Feature","geometry":null},{"properties":{"city":"Hollywood","sold price":"$-","id":"abigzusydwj3","zip/postal code":"33026","address":"10331 Iris Court"},"type":"Feature","geometry":null},{"properties":{"city":"Plantation","sold price":"$-","id":"abigzv0lkngt","zip/postal code":"33324","address":"100 Nw 76th Avenue"},"type":"Feature","geometry":null},{"properties":{"city":"Miami","sold price":"$-","id":"abigzv3co1oc","zip/postal code":"33176","address":"12500 Sw 90th Avenue"},"type":"Feature","geometry":null},{"properties":{"city":"West Palm Beach","sold price":"$-","id":"abigzuvckgtt","zip/postal code":"33407","address":"833 35th Street"},"type":"Feature","geometry":null},{"properties":{"city":"Wilton Manors","sold price":"$-","id":"abigzv329fi3","zip/postal code":"33311","address":"2909 Nw 12th Avenue"},"type":"Feature","geometry":null},{"properties":{"city":"Fort Lauderdale","sold price":"$-","id":"abigzuzl39gz","zip/postal code":"33325","address":"1721 Sw 119th Terrace"},"type":"Feature","geometry":null},{"properties":{"city":"Coral Springs","sold price":"$-","id":"abigzuxfjcui","zip/postal code":"33076","address":"11629 Nw 47th Drive"},"type":"Feature","geometry":null},{"properties":{"city":"Fort Lauderdale","sold price":"$-","id":"abigzv3cqntm","zip/postal code":"33321","address":"7358 Ashmount Circle"},"type":"Feature","geometry":null},{"properties":{"city":"Sunrise","sold price":"$-","id":"abigzuter1k0","zip/postal code":"33323","address":"11810 NW 31st Street"},"type":"Feature","geometry":null},{"properties":{"city":"Miramar","sold price":"$-","id":"abigzuugceeo","zip/postal code":"33029","address":"17447 SW 20th Court"},"type":"Feature","geometry":null},{"properties":{"city":"Pembroke Pines","sold price":"$-","id":"abigzuy8nvo8","zip/postal code":"33029","address":"367 SW 188th Terrace"},"type":"Feature","geometry":null},{"properties":{"city":"West Palm Beach","sold price":"$-","id":"abigzv2e21s8","zip/postal code":"33412","address":"10275 Osprey Trace"},"type":"Feature","geometry":null},{"properties":{"city":"Hialeah","sold price":"$-","id":"abigzuv46imn","zip/postal code":"33015","address":"18015 Nw 62nd Court"},"type":"Feature","geometry":null},{"properties":{"city":"Miami","sold price":"$-","id":"abigzv8dwc9r","zip/postal code":"33145","address":"2418 Sw 18th Avenue"},"type":"Feature","geometry":null},{"properties":{"city":"Margate","sold price":"$-","id":"abigzv626z3u","zip/postal code":"33322","address":"3066 W. Buenavista Dr"},"type":"Feature","geometry":null},{"properties":{"city":"Okeechobee","sold price":"$-","id":"abigzuu130ey","zip/postal code":"34974","address":"1052 Lime Street Buckhead Ridge"},"type":"Feature","geometry":null},{"properties":{"city":"Pembroke Pines","sold price":"$-","id":"abigzv7loxw4","zip/postal code":"33028","address":"1271 Nw 143rd Ave"},"type":"Feature","geometry":null},{"properties":{"city":"Juno Beach","sold price":"$-","id":"abigzv30e17d","zip/postal code":"33408","address":"303 Sea Oats Drive"},"type":"Feature","geometry":null},{"properties":{"city":"Jupiter","sold price":"$-","id":"abigzuzze666","zip/postal code":"33477","address":"2510 25th Court"},"type":"Feature","geometry":null},{"properties":{"city":"Miami","sold price":"$-","id":"abigzv2tgqpk","zip/postal code":"33176","address":"9727 Sw 92nd Terrace"},"type":"Feature","geometry":null},{"properties":{"city":"Margate","sold price":"$-","id":"abigzuz4c1rf","zip/postal code":"33063","address":"1835 Nw 66th Terrace"},"type":"Feature","geometry":null},{"properties":{"city":"Miami","sold price":"$-","id":"abigzv7g7g39","zip/postal code":"33136","address":"269 Nw 7th Street"},"type":"Feature","geometry":null},{"properties":{"city":"Sw Ranches","sold price":"$-","id":"abigzuwvuiuy","zip/postal code":"33330","address":"7010 Hancock Road"},"type":"Feature","geometry":null},{"properties":{"city":"Lauderhill","sold price":"$-","id":"abigzuzczk96","zip/postal code":"33319","address":"3463 Spring Bluff Place"},"type":"Feature","geometry":null},{"properties":{"city":"Miami","sold price":"$-","id":"abigzv10b3hu","zip/postal code":"33155","address":"3000 Sw 57th Avenue"},"type":"Feature","geometry":null},{"properties":{"city":"Miami","sold price":"$-","id":"abigzv2dd0a4","zip/postal code":"33056","address":"3120 NW 205th Street"},"type":"Feature","geometry":null},{"properties":{"city":"Cooper City","sold price":"$-","id":"abigzus9mm5w","zip/postal code":"33330","address":"12660 Countryside Terrace"},"type":"Feature","geometry":null},{"properties":{"city":"Miami","sold price":"$-","id":"abigzuyh6qf4","zip/postal code":"33015","address":"17000 NW 67th Avenue"},"type":"Feature","geometry":null},{"properties":{"city":"Fort Lauderdale","sold price":"$-","id":"abigzv6d3pha","zip/postal code":"33308","address":"3900 Galt Ocean Drive"},"type":"Feature","geometry":null},{"properties":{"city":"Hallandale","sold price":"$-","id":"abigzv40t79o","zip/postal code":"33009","address":"1000 Ne 12th Avenue"},"type":"Feature","geometry":null},{"properties":{"city":"Miami","sold price":"$-","id":"abigzv5r3n96","zip/postal code":"33183","address":"8301 Sw 142 Avenue"},"type":"Feature","geometry":null},{"properties":{"city":"Miami","sold price":"$-","id":"abigzv45hxhm","zip/postal code":"33156","address":"7380 Sw 114th Street"},"type":"Feature","geometry":null},{"properties":{"city":"Margate","sold price":"$-","id":"abigzuu6ic1t","zip/postal code":"33063","address":"6404 Brandywine Drive N"},"type":"Feature","geometry":null},{"properties":{"city":"Davie","sold price":"$-","id":"abigzut7sfa5","zip/postal code":"33328","address":"9072 Lake Park Circle S"},"type":"Feature","geometry":null},{"properties":{"city":"Fort Lauderdale","sold price":"$-","id":"abigzv4yoc5n","zip/postal code":"33305","address":"1721 NE 17th Avenue"},"type":"Feature","geometry":null},{"properties":{"city":"Coconut Grove","sold price":"$-","id":"abigzv7r5dxi","zip/postal code":"33133","address":"3104 Shipping Ave"},"type":"Feature","geometry":null},{"properties":{"city":"Key Biscayne","sold price":"$-","id":"abigzv5yq3ri","zip/postal code":"33149","address":"521 Crandon Blvd"},"type":"Feature","geometry":null},{"properties":{"city":"Miami","sold price":"$-","id":"abigzux94xyy","zip/postal code":"33180","address":"3640 Yacht Club Drive"},"type":"Feature","geometry":null},{"properties":{"city":"Cooper City","sold price":"$-","id":"abigzv3ucfj6","zip/postal code":"33330","address":"13364 Lakeside Terrace"},"type":"Feature","geometry":null},{"properties":{"city":"Miami Gardens","sold price":"$-","id":"abigzv0py6ge","zip/postal code":"33056","address":"3321 Nw 208th Terrace"},"type":"Feature","geometry":null},{"properties":{"city":"Cooper City","sold price":"$-","id":"abigzv27zipe","zip/postal code":"33330","address":"12924 Spring Lake Drive"},"type":"Feature","geometry":null},{"properties":{"city":"Hialeah","sold price":"$-","id":"abigzv5cmc1k","zip/postal code":"33015","address":"19642 Nw 84th Place"},"type":"Feature","geometry":null},{"properties":{"city":"Miami","sold price":"$-","id":"abigzv69l49i","zip/postal code":"33187","address":"1501 SW 159th Street"},"type":"Feature","geometry":null},{"properties":{"city":"West Palm Beach","sold price":"$-","id":"abigzv5t1lxf","zip/postal code":"33418","address":"13124 Silver Fox Lane"},"type":"Feature","geometry":null},{"properties":{"city":"Cooper City","sold price":"$-","id":"abigzv4lbh1g","zip/postal code":"33026","address":"3335 E Point Drive"},"type":"Feature","geometry":null},{"properties":{"city":"West Palm Beach","sold price":"$-","id":"abigzuvgsh6y","zip/postal code":"33404","address":"5400 N Ocean Drive"},"type":"Feature","geometry":null},{"properties":{"city":"Miami","sold price":"$-","id":"abigzv4t473j","zip/postal code":"33133","address":"2131 SW 25th Street"},"type":"Feature","geometry":null},{"properties":{"city":"Miami","sold price":"$-","id":"abigzv4ij6wj","zip/postal code":"33131","address":"540 Brickell Key Drive"},"type":"Feature","geometry":null},{"properties":{"city":"Sunny Isles Beach","sold price":"$-","id":"abigzuujwkcu","zip/postal code":"33160","address":"17021 N Bay Road"},"type":"Feature","geometry":null},{"properties":{"city":"South Palm Beach","sold price":"$-","id":"abigzv1tklpy","zip/postal code":"33480","address":"3580 S Ocean Avenue"},"type":"Feature","geometry":null},{"properties":{"city":"Miami","sold price":"$-","id":"abigzv3zfetk","zip/postal code":"33187","address":"17301 Sw 149th Court"},"type":"Feature","geometry":null},{"properties":{"city":"West Palm Beach","sold price":"$-","id":"abigzutrm007","zip/postal code":"33410","address":"3808 Florida Blvd"},"type":"Feature","geometry":null},{"properties":{"city":"Palm Beach","sold price":"$-","id":"abigzv3xna8r","zip/postal code":"33480","address":"139 Sunrise Avenue"},"type":"Feature","geometry":null},{"properties":{"city":"Palm Beach Gardens","sold price":"$-","id":"abigzuwgw0s8","zip/postal code":"33418","address":"1119 11th Lane"},"type":"Feature","geometry":null},{"properties":{"city":"Boca Raton","sold price":"$-","id":"abigzuzxtzcz","zip/postal code":"33432","address":"13 Royal Palm"},"type":"Feature","geometry":null},{"properties":{"city":"Fort Lauderdale","sold price":"$-","id":"abigzv2c6awz","zip/postal code":"33312","address":"4938 Sw 33rd Avenue"},"type":"Feature","geometry":null},{"properties":{"city":"Homestead","sold price":"$-","id":"abigzutklygv","zip/postal code":"33032","address":"24767 SW 109th Avenue"},"type":"Feature","geometry":null},{"properties":{"city":"Pahokee","sold price":"$-","id":"abigzv4wy9qr","zip/postal code":"33476","address":"1049 E Main Street"},"type":"Feature","geometry":null},{"properties":{"city":"Jupiter","sold price":"$-","id":"abigzv4nb042","zip/postal code":"33458","address":"309 Circle W"},"type":"Feature","geometry":null},{"properties":{"city":"Boca Raton","sold price":"$-","id":"abigzv720pn4","zip/postal code":"33433","address":"23378 Barlake Drive,"},"type":"Feature","geometry":null},{"properties":{"city":"Palm Beach Shores","sold price":"$-","id":"abigzv7b8cqc","zip/postal code":"33404","address":"340 Inlet Way"},"type":"Feature","geometry":null},{"properties":{"city":"Fort Lauderdale","sold price":"$-","id":"abigzuz3bxdg","zip/postal code":"33308","address":"4100 Galt Ocean Drive"},"type":"Feature","geometry":null},{"properties":{"city":"Weston","sold price":"$-","id":"abigzuydnufu","zip/postal code":"33327","address":"829 Azalea Place"},"type":"Feature","geometry":null},{"properties":{"city":"Miami Lakes","sold price":"$-","id":"abigzv1slk28","zip/postal code":"33015","address":"19543 Cypress Court East"},"type":"Feature","geometry":null},{"properties":{"city":"Miami","sold price":"$-","id":"abigzv6xxhrf","zip/postal code":"33181","address":"12905 Cherry Road"},"type":"Feature","geometry":null},{"properties":{"city":"Miami","sold price":"$-","id":"abigzux236rg","zip/postal code":"33161","address":"11308 Griffing Blvd"},"type":"Feature","geometry":null},{"properties":{"city":"Highland Beach","sold price":"$-","id":"abigzv0516we","zip/postal code":"33487","address":"3114 S Ocean Blvd"},"type":"Feature","geometry":null},{"properties":{"city":"Plantation","sold price":"$-","id":"abigzusinmeo","zip/postal code":"33324","address":"7910 Nw 4th Street"},"type":"Feature","geometry":null},{"properties":{"city":"Coconut Creek","sold price":"$-","id":"abigzv2vrgvz","zip/postal code":"33066","address":"3303 Aruba Way #g4"},"type":"Feature","geometry":null},{"properties":{"city":"Weston","sold price":"$-","id":"abigzutfqmyw","zip/postal code":"33327","address":"1861 Salerno Circle"},"type":"Feature","geometry":null},{"properties":{"city":"Pembroke Pines","sold price":"$-","id":"abigzuwujmtk","zip/postal code":"33025","address":"8401 W Cypress Drive"},"type":"Feature","geometry":null},{"properties":{"city":"Miami","sold price":"$-","id":"abigzusi6ibo","zip/postal code":"33145","address":"1631 Sw 32nd Court"},"type":"Feature","geometry":null},{"properties":{"city":"Boynton Beach","sold price":"$-","id":"abigzuxzr50v","zip/postal code":"33435","address":"3303 Tuscany Way"},"type":"Feature","geometry":null},{"properties":{"city":"Weston","sold price":"$-","id":"abigzuur59fn","zip/postal code":"33326","address":"533 Lakeside Circle"},"type":"Feature","geometry":null},{"properties":{"city":"Coral Springs","sold price":"$-","id":"abigzv8m3ekg","zip/postal code":"33071","address":"9740 Nw 14th Street"},"type":"Feature","geometry":null},{"properties":{"city":"Miami","sold price":"$-","id":"abigzuvkwlke","zip/postal code":"33166","address":"6311 Nw 39th Terrace"},"type":"Feature","geometry":null},{"properties":{"city":"Oakland Park","sold price":"$-","id":"abigzv2racxb","zip/postal code":"33309","address":"3251 NW 44th Street"},"type":"Feature","geometry":null},{"properties":{"city":"Miami Beach","sold price":"$-","id":"abigzv2gg1jd","zip/postal code":"33139","address":"1450 Lincoln Road"},"type":"Feature","geometry":null},{"properties":{"city":"Coral Springs","sold price":"$-","id":"abigzv4yzpou","zip/postal code":"33076","address":"4732 Nw 100th Terrace"},"type":"Feature","geometry":null},{"properties":{"city":"Miami","sold price":"$-","id":"abigzv1hm6g1","zip/postal code":"33162","address":"87 Ne 168th Street"},"type":"Feature","geometry":null},{"properties":{"city":"Hollywood","sold price":"$-","id":"abigzuv4hb80","zip/postal code":"33024","address":"7701 Nw 42nd Court"},"type":"Feature","geometry":null},{"properties":{"city":"Cooper City","sold price":"$-","id":"abigzv8s33rd","zip/postal code":"33330","address":"11321 Sw 58th Court"},"type":"Feature","geometry":null},{"properties":{"city":"Margate","sold price":"$-","id":"abigzv0u051b","zip/postal code":"33063","address":"7611 Nw 18 Court"},"type":"Feature","geometry":null},{"properties":{"city":"Davie","sold price":"$-","id":"abigzv89pzq7","zip/postal code":"33328","address":"9030 Lake Park Circle N"},"type":"Feature","geometry":null},{"properties":{"city":"Miami","sold price":"$-","id":"abigzv7zsqr7","zip/postal code":"33161","address":"12725 Ne 11th Avenue"},"type":"Feature","geometry":null},{"properties":{"city":"Hollywood","sold price":"$-","id":"abigzv28th1x","zip/postal code":"33021","address":"3800 Hollywood Blvd"},"type":"Feature","geometry":null},{"properties":{"city":"Davie","sold price":"$-","id":"abigzv7px111","zip/postal code":"33324","address":"10754 Sw 17th Place"},"type":"Feature","geometry":null},{"properties":{"city":"Tamarac","sold price":"$-","id":"abigzuun7c0q","zip/postal code":"33319","address":"5503 White Oak Lane"},"type":"Feature","geometry":null},{"properties":{"city":"Miami","sold price":"$-","id":"abigzutc2akq","zip/postal code":"33144","address":"7201 Sw 5th Street"},"type":"Feature","geometry":null},{"properties":{"city":"Miami","sold price":"$-","id":"abigzuvrtub8","zip/postal code":"33131","address":"540 Brickell Key Drive"},"type":"Feature","geometry":null},{"properties":{"city":"Palm Beach","sold price":"$-","id":"abigzv4p9wr9","zip/postal code":"33480","address":"245 Oscelea Way"},"type":"Feature","geometry":null},{"properties":{"city":"Hollywood","sold price":"$-","id":"abigzux3e83x","zip/postal code":"33021","address":"4217 Monroe Street"},"type":"Feature","geometry":null},{"properties":{"city":"Hialeah","sold price":"$-","id":"abigzv82bbny","zip/postal code":"33018","address":"8019 W 36th Avenue"},"type":"Feature","geometry":null},{"properties":{"city":"Fort Lauderdale","sold price":"$-","id":"abigzv6p4zmn","zip/postal code":"33308","address":"4050 Ocean Drive N"},"type":"Feature","geometry":null},{"properties":{"city":"Sunny Isles Beach","sold price":"$-","id":"abigzv3v9c4x","zip/postal code":"33160","address":"17021 N Bay Road"},"type":"Feature","geometry":null},{"properties":{"city":"Coral Gables","sold price":"$-","id":"abigzuw2asqa","zip/postal code":"33145","address":"151 E Sunrise Avenue"},"type":"Feature","geometry":null},{"properties":{"city":"Delray Beach","sold price":"$-","id":"abigzuzh024o","zip/postal code":"33446","address":"304 Seville M"},"type":"Feature","geometry":null},{"properties":{"city":"Palm Beach","sold price":"$-","id":"abigzv894zi7","zip/postal code":"33480","address":"2840 S Ocean Blvd"},"type":"Feature","geometry":null},{"properties":{"city":"Aventura","sold price":"$-","id":"abigzuydgbfp","zip/postal code":"33180","address":"20355 Ne 34th Court"},"type":"Feature","geometry":null},{"properties":{"city":"Miami","sold price":"$-","id":"abigzutzoi66","zip/postal code":"33129","address":"1581 Brickell Avenue"},"type":"Feature","geometry":null},{"properties":{"city":"Fort Lauderdale","sold price":"$-","id":"abigzv7768zf","zip/postal code":"33301","address":"1209 SE 1st Street"},"type":"Feature","geometry":null},{"properties":{"city":"Boynton Beach","sold price":"$-","id":"abigzv4cd9oq","zip/postal code":"33436","address":"8260 Palm Gate Drive"},"type":"Feature","geometry":null},{"properties":{"city":"Fort Lauderdale","sold price":"$-","id":"abigzuzh3g42","zip/postal code":"33312","address":"4560 SW 24th Avenue"},"type":"Feature","geometry":null},{"properties":{"city":"Fort Lauderdale","sold price":"$-","id":"abigzuu5nos2","zip/postal code":"33324","address":"9441 Evergreen Place"},"type":"Feature","geometry":null},{"properties":{"city":"Miami","sold price":"$-","id":"abigzv79q5n4","zip/postal code":"33143","address":"7555 Sw 79th Avenue"},"type":"Feature","geometry":null},{"properties":{"city":"Margate","sold price":"$-","id":"abigzuxslzru","zip/postal code":"33063","address":"7785 Highlands Circle"},"type":"Feature","geometry":null},{"properties":{"city":"Oakland Park","sold price":"$-","id":"abigzuwngcse","zip/postal code":"33309","address":"4180 Nw 12th Terrace"},"type":"Feature","geometry":null},{"properties":{"city":"Lauderdale By The Sea","sold price":"$-","id":"abigzuz37dbw","zip/postal code":"33308","address":"5100 N Ocean Blvd"},"type":"Feature","geometry":null},{"properties":{"city":"Pompano Beach","sold price":"$-","id":"abigzusp5t70","zip/postal code":"33069","address":"2212 S Cypress Bend Dr"},"type":"Feature","geometry":null},{"properties":{"city":"Lauderdale By The Sea","sold price":"$-","id":"abigzuwy7ezn","zip/postal code":"33308","address":"239 East Commercial Blvd."},"type":"Feature","geometry":null},{"properties":{"city":"Weston","sold price":"$-","id":"abigzuv1069a","zip/postal code":"33332","address":"2690 Riveria Court"},"type":"Feature","geometry":null},{"properties":{"city":"Coral Springs","sold price":"$-","id":"abigzuty7tdv","zip/postal code":"33076","address":"5797 NW 119th Terrace"},"type":"Feature","geometry":null},{"properties":{"city":"Fort Lauderdale","sold price":"$-","id":"abigzutvlojq","zip/postal code":"33308","address":"5251 Ne 26th Avenue"},"type":"Feature","geometry":null},{"properties":{"city":"Miami","sold price":"$-","id":"abigzusdv6t3","zip/postal code":"33176","address":"13000 Sw 92nd Avenue"},"type":"Feature","geometry":null},{"properties":{"city":"Palm Beach Gardens","sold price":"$-","id":"abigzut07b24","zip/postal code":"33410","address":"8612 Wakefield Drive"},"type":"Feature","geometry":null},{"properties":{"city":"Weston","sold price":"$-","id":"abigzv06e395","zip/postal code":"33326","address":"780 Verona Lake Drive"},"type":"Feature","geometry":null},{"properties":{"city":"Jupiter","sold price":"$-","id":"abigzuwof8q0","zip/postal code":"33458","address":"208 Sims Creek Drive"},"type":"Feature","geometry":null},{"properties":{"city":"Miami Beach","sold price":"$-","id":"abigzv540txa","zip/postal code":"33139","address":"1881 Washington Avenue"},"type":"Feature","geometry":null},{"properties":{"city":"Boca Raton","sold price":"$-","id":"abigzv2rdoid","zip/postal code":"33487","address":"4085 Bay Laurel Way"},"type":"Feature","geometry":null},{"properties":{"city":"Miramar","sold price":"$-","id":"abigzv30pu4q","zip/postal code":"33025","address":"2508 Canal Road"},"type":"Feature","geometry":null},{"properties":{"city":"Miami","sold price":"$-","id":"abigzux2snfp","zip/postal code":"33000","address":"52 Nw 99th Street"},"type":"Feature","geometry":null},{"properties":{"city":"Palmetto Bay","sold price":"$-","id":"abigzv7yduog","zip/postal code":"33157","address":"16820 Sw 87th Court"},"type":"Feature","geometry":null},{"properties":{"city":"Weston","sold price":"$-","id":"abigzv4cdi9t","zip/postal code":"33327","address":"2457 Greenbrier Court"},"type":"Feature","geometry":null},{"properties":{"city":"Miami Beach","sold price":"$-","id":"abigzv13arm7","zip/postal code":"33139","address":"1750 James Avenue"},"type":"Feature","geometry":null},{"properties":{"city":"Miami","sold price":"$-","id":"abigzv68msju","zip/postal code":"33157","address":"9860 Sw 164th Terrace"},"type":"Feature","geometry":null},{"properties":{"city":"Miami","sold price":"$-","id":"abigzv8rfcm2","zip/postal code":"33180","address":"3731 N Country Club Drive"},"type":"Feature","geometry":null},{"properties":{"city":"Pembroke Pines","sold price":"$-","id":"abigzv07d1h6","zip/postal code":"33028","address":"16316 Nw 8th Drive"},"type":"Feature","geometry":null},{"properties":{"city":"West Palm Beach","sold price":"$-","id":"abigzv87lh6v","zip/postal code":"33405","address":"3701 S Flagler Drive"},"type":"Feature","geometry":null},{"properties":{"city":"Fort Lauderdale","sold price":"$-","id":"abigzusm56zu","zip/postal code":"33328","address":"11050 Sw 57th Street"},"type":"Feature","geometry":null},{"properties":{"city":"Hollywood","sold price":"$-","id":"abigzuvq997z","zip/postal code":"33021","address":"815 N Golf Drive"},"type":"Feature","geometry":null},{"properties":{"city":"Miami","sold price":"$-","id":"abigzuslgk3g","zip/postal code":"33168","address":"285 Nw 128th Street"},"type":"Feature","geometry":null},{"properties":{"city":"Miami Beach","sold price":"$-","id":"abigzuu4o422","zip/postal code":"33139","address":"1446 Ocean Drive"},"type":"Feature","geometry":null},{"properties":{"city":"Miami","sold price":"$-","id":"abigzusn92x4","zip/postal code":"33143","address":"6825 Sw 71st Court"},"type":"Feature","geometry":null},{"properties":{"city":"West Palm Beach","sold price":"$-","id":"abigzv1tqa0c","zip/postal code":"33414","address":"12698 Headwater Circle"},"type":"Feature","geometry":null},{"properties":{"city":"Lake Worth","sold price":"$-","id":"abigzuv9vu5f","zip/postal code":"33467","address":"7491 Ridgefield Lane"},"type":"Feature","geometry":null},{"properties":{"city":"Boca Raton","sold price":"$-","id":"abigzuuafz15","zip/postal code":"33432","address":"136 Nw 10th Street"},"type":"Feature","geometry":null},{"properties":{"city":"North Bay Village","sold price":"$-","id":"abigzutpveot","zip/postal code":"33141","address":"7601 E Treasure Drive"},"type":"Feature","geometry":null},{"properties":{"city":"Hialeah","sold price":"$-","id":"abigzuv9hvad","zip/postal code":"33013","address":"631 E 38th Street"},"type":"Feature","geometry":null},{"properties":{"city":"Boca Raton","sold price":"$-","id":"abigzv1u1a45","zip/postal code":"33431","address":"2799 NW Boca Baton Blvd"},"type":"Feature","geometry":null},{"properties":{"city":"Fort Lauderdale","sold price":"$-","id":"abigzv267fu2","zip/postal code":"33301","address":"124 Ne 17th Avenue"},"type":"Feature","geometry":null},{"properties":{"city":"Miami","sold price":"$-","id":"abigzv4w62nr","zip/postal code":"33176","address":"12620 Sw 87th Place"},"type":"Feature","geometry":null},{"properties":{"city":"West Palm Beach","sold price":"$-","id":"abigzuzb2j0z","zip/postal code":"33407","address":"1020 10th Way"},"type":"Feature","geometry":null},{"properties":{"city":"Palm Beach Gardens","sold price":"$-","id":"abigzuz7sgr1","zip/postal code":"33418","address":"53 Admirals Court"},"type":"Feature","geometry":null},{"properties":{"city":"Pembroke Pines","sold price":"$-","id":"abigzuyra2zf","zip/postal code":"33026","address":"1413 Nw 124th Avenue"},"type":"Feature","geometry":null},{"properties":{"city":"West Palm Beach","sold price":"$-","id":"abigzusqn4q0","zip/postal code":"33401","address":"1900 Consulate Place"},"type":"Feature","geometry":null},{"properties":{"city":"Boca Raton","sold price":"$-","id":"abigzv0hxy5f","zip/postal code":"33486","address":"900 Sw 9th Street Circle"},"type":"Feature","geometry":null},{"properties":{"city":"Pembroke Pines","sold price":"$-","id":"abigzv0pbqhy","zip/postal code":"33027","address":"639 SW 168th Lane"},"type":"Feature","geometry":null},{"properties":{"city":"Miami","sold price":"$-","id":"abigzv61mpu8","zip/postal code":"33181","address":"1701 Ne 115th Street"},"type":"Feature","geometry":null},{"properties":{"city":"West Palm Beach","sold price":"$-","id":"abigzv5c4dca","zip/postal code":"33411","address":"236 Ponce De Leon Street"},"type":"Feature","geometry":null},{"properties":{"city":"Davie","sold price":"$-","id":"abigzv7ailkl","zip/postal code":"33314","address":"3715 Sw 59th Avenue"},"type":"Feature","geometry":null},{"properties":{"city":"Weston","sold price":"$-","id":"abigzv86smqw","zip/postal code":"33327","address":"829 Azalea Place"},"type":"Feature","geometry":null},{"properties":{"city":"Delray Beach","sold price":"$-","id":"abigzuvis6m9","zip/postal code":"33446","address":"304 Seville M"},"type":"Feature","geometry":null},{"properties":{"city":"Homestead","sold price":"$-","id":"abigzuwedd7g","zip/postal code":"33035","address":"2007 Se 26th Lane"},"type":"Feature","geometry":null},{"properties":{"city":"Palm Beach Gardens","sold price":"$-","id":"abigzuvkd50l","zip/postal code":"33418","address":"4 Lexington Lane E"},"type":"Feature","geometry":null},{"properties":{"city":"Hollywood","sold price":"$-","id":"abigzv59gdb8","zip/postal code":"33021","address":"4900 Johnson Street"},"type":"Feature","geometry":null},{"properties":{"city":"Miami","sold price":"$-","id":"abigzuxwsld6","zip/postal code":"33170","address":"23140 Sw 124th Court"},"type":"Feature","geometry":null},{"properties":{"city":"West Palm Beach","sold price":"$-","id":"abigzuu4047c","zip/postal code":"33407","address":"917 39th Court"},"type":"Feature","geometry":null},{"properties":{"city":"Lake Worth","sold price":"$-","id":"abigzv76wrho","zip/postal code":"33467","address":"4356 Fountains Drive"},"type":"Feature","geometry":null},{"properties":{"city":"Hollywood","sold price":"$-","id":"abigzux71ust","zip/postal code":"33021","address":"5630 Garfield Street"},"type":"Feature","geometry":null},{"properties":{"city":"West Palm Beach","sold price":"$-","id":"abigzv3jou0f","zip/postal code":"33412","address":"13547 73rd Street N"},"type":"Feature","geometry":null},{"properties":{"city":"Miami","sold price":"$-","id":"abigzv5su5u2","zip/postal code":"33176","address":"13120 SW 92nd Avenue"},"type":"Feature","geometry":null},{"properties":{"city":"Hollywood","sold price":"$-","id":"abigzv74b5zi","zip/postal code":"33023","address":"5706 Harrison Street"},"type":"Feature","geometry":null},{"properties":{"city":"Miami","sold price":"$-","id":"abigzv8iy3s2","zip/postal code":"33168","address":"285 Nw 128th Street"},"type":"Feature","geometry":null},{"properties":{"city":"Hollywood","sold price":"$-","id":"abigzuwyxuzd","zip/postal code":"33021","address":"3561 N 37th Street"},"type":"Feature","geometry":null},{"properties":{"city":"Miami","sold price":"$-","id":"abigzv0dfg6x","zip/postal code":"33156","address":"8260 Sw 102nd Street"},"type":"Feature","geometry":null},{"properties":{"city":"Boca Raton","sold price":"$-","id":"abigzuzltqep","zip/postal code":"33434","address":"3034 Ainslie C"},"type":"Feature","geometry":null},{"properties":{"city":"Miami","sold price":"$-","id":"abigzuyc32zt","zip/postal code":"33180","address":"3101 N Country Drive"},"type":"Feature","geometry":null},{"properties":{"city":"Fort Lauderdale","sold price":"$-","id":"abigzusvoryb","zip/postal code":"33308","address":"4050 Ocean Drive N"},"type":"Feature","geometry":null},{"properties":{"city":"Boca Raton","sold price":"$-","id":"abigzuxvrjqj","zip/postal code":"33498","address":"20237 Back Nine Drive"},"type":"Feature","geometry":null},{"properties":{"city":"West Palm Beach","sold price":"$-","id":"abigzux401tu","zip/postal code":"33411","address":"104 Valencia Street"},"type":"Feature","geometry":null},{"properties":{"city":"Sunny Isles Beach","sold price":"$-","id":"abigzv83ejy6","zip/postal code":"33160","address":"100 Bayview Drive"},"type":"Feature","geometry":null},{"properties":{"city":"Wilton Manors","sold price":"$-","id":"abigzuw7xeaw","zip/postal code":"33334","address":"1730 Ne 28th Drive"},"type":"Feature","geometry":null},{"properties":{"city":"Pompano Beach","sold price":"$-","id":"abigzuypfuxb","zip/postal code":"33069","address":"806 Cypress Grove Lane"},"type":"Feature","geometry":null},{"properties":{"city":"Tamarac","sold price":"$-","id":"abigzv2viavc","zip/postal code":"33321","address":"8280 NW 68th Terrace"},"type":"Feature","geometry":null},{"properties":{"city":"Jupiter","sold price":"$-","id":"abigzv3gk2op","zip/postal code":"33477","address":"109 Mainsail Circle"},"type":"Feature","geometry":null},{"properties":{"city":"Pembroke Pines","sold price":"$-","id":"abigzutq5prg","zip/postal code":"33028","address":"1122 Nw 171st Terrace"},"type":"Feature","geometry":null},{"properties":{"city":"Miami","sold price":"$-","id":"abigzv8mjla0","zip/postal code":"33015","address":"19320 Royal Birkdale Dr."},"type":"Feature","geometry":null},{"properties":{"city":"Parkland","sold price":"$-","id":"abigzuzn77uy","zip/postal code":"33076","address":"12162 NW 75th Place"},"type":"Feature","geometry":null},{"properties":{"city":"Jupiter","sold price":"$-","id":"abigzv43975j","zip/postal code":"33458","address":"825 Center Street"},"type":"Feature","geometry":null},{"properties":{"city":"Lake Worth","sold price":"$-","id":"abigzv58zpy5","zip/postal code":"33467","address":"3980 Summer Chase Court"},"type":"Feature","geometry":null},{"properties":{"city":"Fort Lauderdale","sold price":"$-","id":"abigzv11dugw","zip/postal code":"33312","address":"1712 Sw 14th Street"},"type":"Feature","geometry":null},{"properties":{"city":"Hollywood","sold price":"$-","id":"abigzv5e2t64","zip/postal code":"33026","address":"2965 Dove Drive"},"type":"Feature","geometry":null},{"properties":{"city":"Pembroke Pines","sold price":"$-","id":"abigzv27h6wn","zip/postal code":"33027","address":"13055 Sw 15th Court"},"type":"Feature","geometry":null},{"properties":{"city":"Weston","sold price":"$-","id":"abigzv8dysex","zip/postal code":"33326","address":"16571 Blatt Blvd"},"type":"Feature","geometry":null},{"properties":{"city":"Miami","sold price":"$-","id":"abigzusu3mge","zip/postal code":"33185","address":"16255 Sw 55th Terrace"},"type":"Feature","geometry":null},{"properties":{"city":"Miami","sold price":"$-","id":"abigzusrnf2u","zip/postal code":"33173","address":"10551 SW 56th Terrace"},"type":"Feature","geometry":null},{"properties":{"city":"Miami","sold price":"$-","id":"abigzv45nqla","zip/postal code":"33125","address":"1647 Nw 29th Avenue"},"type":"Feature","geometry":null},{"properties":{"city":"Hollywood","sold price":"$-","id":"abigzv0or7jr","zip/postal code":"33027","address":"801 Sw 141th Avenue"},"type":"Feature","geometry":null},{"properties":{"city":"Tamarac","sold price":"$-","id":"abigzuv4uh2e","zip/postal code":"33321","address":"7595 Nw 73rd Terrace"},"type":"Feature","geometry":null},{"properties":{"city":"Boca Raton","sold price":"$-","id":"abigzv5quedg","zip/postal code":"33498","address":"19759 Diner Key Drive"},"type":"Feature","geometry":null},{"properties":{"city":"Miami","sold price":"$-","id":"abigzuwowio2","zip/postal code":"33186","address":"11444 Sw 127th Court"},"type":"Feature","geometry":null},{"properties":{"city":"North Palm Beach","sold price":"$-","id":"abigzv08h0h0","zip/postal code":"33408","address":"327 Southwind Drive"},"type":"Feature","geometry":null},{"properties":{"city":"Miami Lakes","sold price":"$-","id":"abigzv0w9zem","zip/postal code":"33014","address":"16346 Wood Walk"},"type":"Feature","geometry":null},{"properties":{"city":"Miami","sold price":"$-","id":"abigzuzrf1p4","zip/postal code":"33161","address":"525 Ne 138th Street"},"type":"Feature","geometry":null},{"properties":{"city":"Oakland Park","sold price":"$-","id":"abigzutwxgv0","zip/postal code":"33311","address":"669 W Oakland Park Blvd"},"type":"Feature","geometry":null},{"properties":{"city":"Weston","sold price":"$-","id":"abigzuxbh99w","zip/postal code":"33326","address":"700 Heritage Way"},"type":"Feature","geometry":null},{"properties":{"city":"Miami","sold price":"$-","id":"abigzv7vi2hd","zip/postal code":"33156","address":"7300 Sw 114th Street"},"type":"Feature","geometry":null},{"properties":{"city":"Miami","sold price":"$-","id":"abigzv5zlzbj","zip/postal code":"33180","address":"20515 E Country Club Drive"},"type":"Feature","geometry":null},{"properties":{"city":"Pembroke Pines","sold price":"$-","id":"abigzv61qwru","zip/postal code":"33024","address":"1239 Nw 161st Avenue"},"type":"Feature","geometry":null},{"properties":{"city":"Pembroke Pines","sold price":"$-","id":"abigzv4m87sa","zip/postal code":"33029","address":"19063 Nw 23rd Place"},"type":"Feature","geometry":null},{"properties":{"city":"Hallandale","sold price":"$-","id":"abigzv0uilgv","zip/postal code":"33009","address":"2101 Atlantic Shores Blvd"},"type":"Feature","geometry":null},{"properties":{"city":"Miami Gardens","sold price":"$-","id":"abigzv2au2zl","zip/postal code":"33055","address":"20111 Nw 42nd Avenue"},"type":"Feature","geometry":null},{"properties":{"city":"Miami","sold price":"$-","id":"abigzuw2kl7b","zip/postal code":"33186","address":"12808 Sw 146th Terrace"},"type":"Feature","geometry":null},{"properties":{"city":"Key Biscayne","sold price":"$-","id":"abigzuz0y0qz","zip/postal code":"33149","address":"250 Galen Drive"},"type":"Feature","geometry":null}],"is_temporal":false,"author":{"url":null,"metadata":null,"contact_name":null,"contact_address":null,"source":null,"contact_phone":null},"source":null,"pagination":{"sort":null,"start":0,"total":790,"limit":1000000},"state":"errored","tags":"","published":"2014-08-16T15:10:09-04:00","id":311853}