{"type":"FeatureCollection","data_type":"Dataset","url_type":null,"permissions":[{"permissions":{"download":true,"view":true},"group_id":"everyone"}],"classification":null,"title":"Copy_of_IPTV-Ottoville-Jan-16-2013_-_Copy","count":220,"stream_id":312384,"contributor":{"url":"http://geocommons.com/users/59404","name":"KatieEtgen"},"data_attributes":null,"calculation_params":null,"icon_link":null,"link":"http://geocommons.com/overlays/312384.json","extent":[-84.5215,40.4007,-83.8888,41.0639],"geometry_types":["point"],"unique_name":null,"name":"Copy_of_IPTV-Ottoville-Jan-16-2013_-_Copy","feature_count":220,"description":"","next_feature":null,"is_raster":false,"short_classification":"Y","stats":{"stbs allowed":{"max":20,"mean":5.08181818181818,"variance":1.04350352843504,"stdev":1.0215202046142,"median":5,"min":5},"phone":{"max":4999989197,"mean":4267865261.62727,"variance":5.37047361231022e+16,"stdev":231742823.23969,"median":4194533676,"min":4192862693},"password":{"max":1234,"mean":1234.0,"variance":0.0,"stdev":0.0,"median":1234,"min":1234},"login":{"max":1234,"mean":1234.0,"variance":0.0,"stdev":0.0,"median":1234,"min":1234},"pin":{"max":1234,"mean":1234.0,"variance":0.0,"stdev":0.0,"median":1234,"min":1234}},"features":[{"properties":{"city":"Fort Jennings","status":"Active","ppv":"No","zip":"45844","region":"Ottoville","service packages":"BASIC,EXPANDED BASIC","township":null,"last":"Adam","stbs allowed":5,"geo_score":0.902,"first":"Don","ppv limit":"Unlimited","customer id":null,"phone":4194533594,"whdvr":"No","id":"abjw667aaoff","address":"20422 Wetzel Road","login":1234,"password":1234,"geo_precision":"range","state":"OH","pin":1234},"type":"Feature","geometry":{"type":"Point","coordinates":[-84.427528,40.946543]}},{"properties":{"city":"Ottoville","status":"Active","ppv":"No","zip":"45876","region":"Ottoville","service packages":"BASIC,HD BASIC,EXPANDED BASIC,HD EXP BASIC","township":null,"last":"Altenburger","stbs allowed":5,"geo_score":0.463,"first":"Don","ppv limit":"Unlimited","customer id":null,"phone":4194533748,"whdvr":"Yes","id":"abjw664515c1","address":"390 W 3rd","login":1234,"password":1234,"geo_precision":"street","state":"OH","pin":1234},"type":"Feature","geometry":{"type":"Point","coordinates":[-84.33717,40.932274]}},{"properties":{"city":"Ottoville","status":"Active","ppv":"No","zip":"45876","region":"Ottoville","service packages":"BASIC,EXPANDED BASIC","township":null,"last":"Altenburger","stbs allowed":5,"geo_score":0.47,"first":"Wilbur","ppv limit":"Unlimited","customer id":null,"phone":4194533676,"whdvr":"No","id":"abjw65z30br2","address":"409 W 3rd","login":1234,"password":1234,"geo_precision":"street","state":"OH","pin":1234},"type":"Feature","geometry":{"type":"Point","coordinates":[-84.336949,40.9322]}},{"properties":{"city":"Fort Jennings","status":"Active","ppv":"No","zip":"45844","region":"Ottoville","service packages":"BASIC,HD BASIC,EXPANDED BASIC,HD EXP BASIC","township":null,"last":"Altenburger","stbs allowed":5,"geo_score":0.902,"first":"Matt","ppv limit":"Unlimited","customer id":null,"phone":4999985383,"whdvr":"Yes","id":"abjw662uf0vl","address":"18194 Road 23Q","login":1234,"password":1234,"geo_precision":"range","state":"OH","pin":1234},"type":"Feature","geometry":{"type":"Point","coordinates":[-84.330289,40.913275]}},{"properties":{"city":"Ottoville","status":"Active","ppv":"No","zip":"45876","region":"Ottoville","service packages":"BASIC,HD BASIC,EXPANDED BASIC,HD EXP BASIC","township":null,"last":"Altenburger","stbs allowed":5,"geo_score":0.823,"first":"Randy","ppv limit":"Unlimited","customer id":null,"phone":4194533605,"whdvr":"No","id":"abjw660swept","address":"128 Westwood","login":1234,"password":1234,"geo_precision":"range","state":"OH","pin":1234},"type":"Feature","geometry":{"type":"Point","coordinates":[-84.07811,41.025085]}},{"properties":{"city":"Ottoville","status":"Active","ppv":"No","zip":"45876","region":"Ottoville","service packages":"BASIC,HD BASIC,DIGITAL BASIC,EXPANDED BASIC,HD EXP BASIC,HD DIGITAL BASIC","township":null,"last":"Averesch","stbs allowed":5,"geo_score":0.537,"first":"Jeff","ppv limit":"Unlimited","customer id":null,"phone":4194532529,"whdvr":"No","id":"abjw664aqg5n","address":"309 West Third","login":1234,"password":1234,"geo_precision":"range","state":"OH","pin":1234},"type":"Feature","geometry":{"type":"Point","coordinates":[-84.336493,40.932359]}},{"properties":{"city":"Cloverdale","status":"Active","ppv":"No","zip":"45827","region":"Ottoville","service packages":"BASIC,HD BASIC,EXPANDED BASIC,HD EXP BASIC","township":null,"last":"Barnhart","stbs allowed":5,"geo_score":0.371,"first":"Sue","ppv limit":"Unlimited","customer id":null,"phone":4194882730,"whdvr":"No","id":"abjw6660hdi2","address":"147 Truax Road","login":1234,"password":1234,"geo_precision":"street","state":"OH","pin":1234},"type":"Feature","geometry":{"type":"Point","coordinates":[-84.521508,40.67205]}},{"properties":{"city":"Cloverdale","status":"Active","ppv":"No","zip":"45827","region":"Ottoville","service packages":"BASIC,HD BASIC,EXPANDED BASIC,HD EXP BASIC","township":null,"last":"Barnhart","stbs allowed":5,"geo_score":0.823,"first":"Sharon","ppv limit":"Unlimited","customer id":null,"phone":4194883851,"whdvr":"No","id":"abjw6696h8y3","address":"186 Mahoning","login":1234,"password":1234,"geo_precision":"range","state":"OH","pin":1234},"type":"Feature","geometry":{"type":"Point","coordinates":[-84.304556,41.020528]}},{"properties":{"city":"Fort Jennings","status":"Active","ppv":"No","zip":"45844","region":"Ottoville","service packages":"BASIC,HD BASIC,DIGITAL BASIC,EXPANDED BASIC,HD EXP BASIC,SHOWTIME HD,SHOWTIME,HD DIGITAL BASIC","township":null,"last":"Bartley","stbs allowed":5,"geo_score":0.498,"first":"Randall","ppv limit":"Unlimited","customer id":null,"phone":4194532197,"whdvr":"No","id":"abjw666d9xlp","address":"23898 SR189","login":1234,"password":1234,"geo_precision":"street","state":"OH","pin":1234},"type":"Feature","geometry":{"type":"Point","coordinates":[-83.888798,40.885985]}},{"properties":{"city":"Ottoville","status":"Active","ppv":"No","zip":"45876","region":"Ottoville","service packages":"BASIC,HD BASIC,DIGITAL BASIC,EXPANDED BASIC,HD EXP BASIC,HD DIGITAL BASIC","township":null,"last":"Bearman","stbs allowed":5,"geo_score":0.488,"first":"Les","ppv limit":"Unlimited","customer id":null,"phone":4194532294,"whdvr":"No","id":"abjw666wmwko","address":"155 Evelyn Drive","login":1234,"password":1234,"geo_precision":"zip","state":"OH","pin":1234},"type":"Feature","geometry":{"type":"Point","coordinates":[-84.238754,41.027573]}},{"properties":{"city":"Cloverdale","status":"Active","ppv":"No","zip":"45827","region":"Ottoville","service packages":"BASIC,HD BASIC,DIGITAL BASIC,EXPANDED BASIC,HD EXP BASIC,SHOWTIME HD,SHOWTIME,HD DIGITAL BASIC","township":null,"last":"Becker","stbs allowed":5,"geo_score":0.902,"first":"Dan","ppv limit":"Unlimited","customer id":null,"phone":4194884011,"whdvr":"No","id":"abjw66c4qnju","address":"22779 Road M","login":1234,"password":1234,"geo_precision":"range","state":"OH","pin":1234},"type":"Feature","geometry":{"type":"Point","coordinates":[-84.381207,40.990521]}},{"properties":{"city":"Ottoville","status":"Active","ppv":"No","zip":"45876","region":"Ottoville","service packages":"BASIC,HD BASIC,EXPANDED BASIC,HD EXP BASIC,HBO HD,CINEMAX HD,SHOWTIME HD,SHOWTIME UNLIMITED,HBO/CINEMAX","township":null,"last":"Behrens","stbs allowed":5,"geo_score":0.785,"first":"Charles","ppv limit":"Unlimited","customer id":null,"phone":4194533909,"whdvr":"No","id":"abjw664fpb2y","address":"380 W Canal","login":1234,"password":1234,"geo_precision":"range","state":"OH","pin":1234},"type":"Feature","geometry":{"type":"Point","coordinates":[-84.338331,40.928111]}},{"properties":{"city":"Cloverdale","status":"Active","ppv":"No","zip":"45827","region":"Ottoville","service packages":"BASIC,HD BASIC,EXPANDED BASIC,HD EXP BASIC","township":null,"last":"Beining","stbs allowed":5,"geo_score":0.805,"first":"Larry","ppv limit":"Unlimited","customer id":null,"phone":4194533548,"whdvr":"No","id":"abjw667kqnvb","address":"24638 Road N","login":1234,"password":1234,"geo_precision":"range","state":"OH","pin":1234},"type":"Feature","geometry":{"type":"Point","coordinates":[-84.329841,40.968518]}},{"properties":{"city":"Cloverdale","status":"Active","ppv":"No","zip":"45827","region":"Ottoville","service packages":"BASIC,EXPANDED BASIC","township":null,"last":"Beining","stbs allowed":5,"geo_score":0.902,"first":"Brian","ppv limit":"Unlimited","customer id":null,"phone":4194533058,"whdvr":"No","id":"abjw65x0gvlv","address":"13796 RD 24M","login":1234,"password":1234,"geo_precision":"range","state":"OH","pin":1234},"type":"Feature","geometry":{"type":"Point","coordinates":[-84.330123,40.97709]}},{"properties":{"city":"Ottoville","status":"Active","ppv":"No","zip":"45876","region":"Ottoville","service packages":"BASIC,HD BASIC,EXPANDED BASIC,HD EXP BASIC,SHOWTIME HD,SHOWTIME UNLIMITED,THE MOVIE CHANNEL HD","township":null,"last":"Beining","stbs allowed":5,"geo_score":0.902,"first":"Richard","ppv limit":"Unlimited","customer id":null,"phone":4194533831,"whdvr":"No","id":"abjw668akz2o","address":"138 Westwood Drive","login":1234,"password":1234,"geo_precision":"range","state":"OH","pin":1234},"type":"Feature","geometry":{"type":"Point","coordinates":[-84.342931,40.924675]}},{"properties":{"city":"Ottoville","status":"Active","ppv":"No","zip":"45876","region":"Ottoville","service packages":"BASIC,HD BASIC,DIGITAL BASIC,EXPANDED BASIC,HD EXP BASIC,HD DIGITAL BASIC","township":null,"last":"Bendele","stbs allowed":5,"geo_score":0.476,"first":"Don","ppv limit":"Unlimited","customer id":null,"phone":4194532787,"whdvr":"No","id":"abjw663ywu5c","address":"267 E. Main","login":1234,"password":1234,"geo_precision":"street","state":"OH","pin":1234},"type":"Feature","geometry":{"type":"Point","coordinates":[-84.143942,40.654242]}},{"properties":{"city":"Ottoville","status":"Active","ppv":"No","zip":"45876","region":"Ottoville","service packages":"BASIC,HD BASIC,DIGITAL BASIC,EXPANDED BASIC,HD EXP BASIC,HD DIGITAL BASIC","township":null,"last":"Bendele","stbs allowed":5,"geo_score":0.837,"first":"Terry","ppv limit":"Unlimited","customer id":null,"phone":4194532231,"whdvr":"No","id":"abjw664m8xj2","address":"410 S Otto St.","login":1234,"password":1234,"geo_precision":"range","state":"OH","pin":1234},"type":"Feature","geometry":{"type":"Point","coordinates":[-84.337284,40.928662]}},{"properties":{"city":"Cloverdale","status":"Active","ppv":"No","zip":"45827","region":"Ottoville","service packages":"BASIC,HD BASIC,DIGITAL BASIC,EXPANDED BASIC,HD EXP BASIC,HD DIGITAL BASIC","township":null,"last":"Boecker","stbs allowed":5,"geo_score":0.902,"first":"George","ppv limit":"Unlimited","customer id":null,"phone":4194882981,"whdvr":"No","id":"abjw66cljhjc","address":"24458 Road J","login":1234,"password":1234,"geo_precision":"range","state":"OH","pin":1234},"type":"Feature","geometry":{"type":"Point","coordinates":[-84.33619,41.034556]}},{"properties":{"city":"Ottoville","status":"Active","ppv":"No","zip":"45876","region":"Ottoville","service packages":"BASIC,EXPANDED BASIC","township":null,"last":"Boecker","stbs allowed":5,"geo_score":0.902,"first":"Doug","ppv limit":"Unlimited","customer id":null,"phone":4194532492,"whdvr":"No","id":"abjw66ckv6ni","address":"117 Sunset Drive","login":1234,"password":1234,"geo_precision":"range","state":"OH","pin":1234},"type":"Feature","geometry":{"type":"Point","coordinates":[-83.900614,40.894819]}},{"properties":{"city":"Cloverdale","status":"Active","ppv":"No","zip":"45827","region":"Ottoville","service packages":"BASIC,HD BASIC,EXPANDED BASIC,HD EXP BASIC","township":null,"last":"Boecker","stbs allowed":5,"geo_score":0.823,"first":"Melissa","ppv limit":"Unlimited","customer id":null,"phone":4999985428,"whdvr":"No","id":"abjw6689z5ry","address":"198 Mahoning","login":1234,"password":1234,"geo_precision":"range","state":"OH","pin":1234},"type":"Feature","geometry":{"type":"Point","coordinates":[-84.304492,41.019425]}},{"properties":{"city":"Cloverdale","status":"Active","ppv":"No","zip":"45827","region":"Ottoville","service packages":"BASIC,HD BASIC,EXPANDED BASIC,HD EXP BASIC","township":null,"last":"Bowers","stbs allowed":5,"geo_score":0.902,"first":"Mike","ppv limit":"Unlimited","customer id":null,"phone":4194883043,"whdvr":"No","id":"abjw66056oyh","address":"13228 Road 23M","login":1234,"password":1234,"geo_precision":"range","state":"OH","pin":1234},"type":"Feature","geometry":{"type":"Point","coordinates":[-84.311206,40.987291]}},{"properties":{"city":"Ottoville","status":"Active","ppv":"No","zip":"45876","region":"Ottoville","service packages":"BASIC,HD BASIC,EXPANDED BASIC,HD EXP BASIC","township":null,"last":"Brinkman","stbs allowed":5,"geo_score":0.5,"first":"Kandis","ppv limit":"Unlimited","customer id":null,"phone":4194532642,"whdvr":"Yes","id":"abjw66bpogpz","address":"189 Cherry (4th) St.","login":1234,"password":1234,"geo_precision":"street","state":"OH","pin":1234},"type":"Feature","geometry":{"type":"Point","coordinates":[-84.340012,40.93125]}},{"properties":{"city":"Dupont","status":"Active","ppv":"No","zip":"45837","region":"Ottoville","service packages":"BASIC,HD BASIC,EXPANDED BASIC,HD EXP BASIC,HBO HD,HBO","township":null,"last":"Britsch","stbs allowed":5,"geo_score":0.471,"first":"Tim","ppv limit":"Unlimited","customer id":null,"phone":4195964827,"whdvr":"No","id":"abjw660ljb2a","address":"706 S. River St.","login":1234,"password":1234,"geo_precision":"street","state":"OH","pin":1234},"type":"Feature","geometry":{"type":"Point","coordinates":[-84.30389,41.052744]}},{"properties":{"city":"Cloverdale","status":"Active","ppv":"No","zip":"45827","region":"Ottoville","service packages":"BASIC,HD BASIC,DIGITAL BASIC,EXPANDED BASIC,HD EXP BASIC,STARZ HD,STARZ,HD DIGITAL BASIC","township":null,"last":"Brooks","stbs allowed":5,"geo_score":0.679,"first":"Doug","ppv limit":"Unlimited","customer id":null,"phone":4194882950,"whdvr":"No","id":"abjw664nqxfq","address":"161 Main","login":1234,"password":1234,"geo_precision":"street","state":"OH","pin":1234},"type":"Feature","geometry":{"type":"Point","coordinates":[-84.305587,41.017255]}},{"properties":{"city":"Ottoville","status":"Active","ppv":"No","zip":"45876","region":"Ottoville","service packages":"BASIC,HD BASIC,DIGITAL BASIC,EXPANDED BASIC,HD EXP BASIC,HD DIGITAL BASIC","township":null,"last":"Brown","stbs allowed":5,"geo_score":0.561,"first":"Rhonda","ppv limit":"Unlimited","customer id":null,"phone":4199986406,"whdvr":"No","id":"abjw663oxi1p","address":"387-1 West Third","login":1234,"password":1234,"geo_precision":"range","state":"OH","pin":1234},"type":"Feature","geometry":{"type":"Point","coordinates":[-84.33717,40.932274]}},{"properties":{"city":"Cloverdale","status":"Active","ppv":"No","zip":"45827","region":"Ottoville","service packages":"BASIC,HD BASIC,EXPANDED BASIC,HD EXP BASIC","township":null,"last":"Buettner","stbs allowed":5,"geo_score":0.805,"first":"Kevin","ppv limit":"Unlimited","customer id":null,"phone":4194533985,"whdvr":"No","id":"abjw65wzixs2","address":"24806 Road N24","login":1234,"password":1234,"geo_precision":"range","state":"OH","pin":1234},"type":"Feature","geometry":{"type":"Point","coordinates":[-84.332649,40.968496]}},{"properties":{"city":"Cloverdale","status":"Active","ppv":"No","zip":"45827","region":"Ottoville","service packages":"BASIC,DIGITAL BASIC,EXPANDED BASIC","township":null,"last":"Bullinger","stbs allowed":5,"geo_score":0.805,"first":"Paul","ppv limit":"Unlimited","customer id":null,"phone":4194533818,"whdvr":"No","id":"abjw66cfhebp","address":"1864 Road 197","login":1234,"password":1234,"geo_precision":"street","state":"OH","pin":1234},"type":"Feature","geometry":{"type":"Point","coordinates":[-84.38033,41.00289]}},{"properties":{"city":"Fort Jennings","status":"Active","ppv":"No","zip":"45844","region":"Ottoville","service packages":"BASIC,HD BASIC,DIGITAL BASIC,EXPANDED BASIC,HD EXP BASIC,HD DIGITAL BASIC","township":null,"last":"Burgei","stbs allowed":5,"geo_score":0.498,"first":"Steve","ppv limit":"Unlimited","customer id":null,"phone":4194533375,"whdvr":"No","id":"abjw66b64pxa","address":"24816 SR189","login":1234,"password":1234,"geo_precision":"street","state":"OH","pin":1234},"type":"Feature","geometry":{"type":"Point","coordinates":[-83.888798,40.885985]}},{"properties":{"city":"Fort Jennings","status":"Active","ppv":"No","zip":"45844","region":"Ottoville","service packages":"BASIC,HD BASIC,DIGITAL BASIC,EXPANDED BASIC,HD EXP BASIC,HD DIGITAL BASIC","township":null,"last":"Burgei","stbs allowed":5,"geo_score":0.667,"first":"Nick","ppv limit":"Unlimited","customer id":null,"phone":4194533978,"whdvr":"No","id":"abjw66csq0d7","address":"17390 RD 24Q","login":1234,"password":1234,"geo_precision":"street","state":"OH","pin":1234},"type":"Feature","geometry":{"type":"Point","coordinates":[-84.337734,40.925011]}},{"properties":{"city":"Delphos","status":"Active","ppv":"No","zip":"45833","region":"Ottoville","service packages":"BASIC,HD BASIC,DIGITAL BASIC,EXPANDED BASIC,HD EXP BASIC,HD DIGITAL BASIC","township":null,"last":"Burgei","stbs allowed":5,"geo_score":0.707,"first":"Dave","ppv limit":"Unlimited","customer id":null,"phone":4194533706,"whdvr":"No","id":"abjw66a1tt3u","address":"25785 RD R23","login":1234,"password":1234,"geo_precision":"street","state":"OH","pin":1234},"type":"Feature","geometry":{"type":"Point","coordinates":[-84.395428,40.917767]}},{"properties":{"city":"Delphos","status":"Active","ppv":"No","zip":"45833","region":"Ottoville","service packages":"BASIC,HD BASIC,EXPANDED BASIC,HD EXP BASIC,STARZ HD,STARZ","township":null,"last":"Burgei","stbs allowed":5,"geo_score":0.707,"first":"Norma","ppv limit":"Unlimited","customer id":null,"phone":4194533536,"whdvr":"No","id":"abjw668yr6f4","address":"26181 RD R23","login":1234,"password":1234,"geo_precision":"street","state":"OH","pin":1234},"type":"Feature","geometry":{"type":"Point","coordinates":[-84.395428,40.917767]}},{"properties":{"city":"Cloverdale","status":"Active","ppv":"No","zip":"45827","region":"Ottoville","service packages":"BASIC,EXPANDED BASIC","township":null,"last":"Burgei","stbs allowed":5,"geo_score":0.805,"first":"John","ppv limit":"Unlimited","customer id":null,"phone":4194883990,"whdvr":"No","id":"abjw66ac0fk0","address":"12562 Road 21L","login":1234,"password":1234,"geo_precision":"street","state":"OH","pin":1234},"type":"Feature","geometry":{"type":"Point","coordinates":[-84.273684,40.999215]}},{"properties":{"city":"Fort Jennings","status":"Active","ppv":"No","zip":"45844","region":"Ottoville","service packages":"BASIC,HD BASIC,EXPANDED BASIC,HD EXP BASIC,SHOWTIME HD,SHOWTIME UNLIMITED,THE MOVIE CHANNEL HD","township":null,"last":"Burgei","stbs allowed":5,"geo_score":0.902,"first":"Don","ppv limit":"Unlimited","customer id":null,"phone":4194532264,"whdvr":"No","id":"abjw66bh3xsa","address":"24962 Road P","login":1234,"password":1234,"geo_precision":"range","state":"OH","pin":1234},"type":"Feature","geometry":{"type":"Point","coordinates":[-84.342718,40.947169]}},{"properties":{"city":"Cloverdale","status":"Active","ppv":"No","zip":"45827","region":"Ottoville","service packages":"BASIC,HD BASIC,EXPANDED BASIC,HD EXP BASIC","township":null,"last":"Burkhart","stbs allowed":5,"geo_score":0.777,"first":"Mary","ppv limit":"Unlimited","customer id":null,"phone":4194882415,"whdvr":"No","id":"abjw669akz7a","address":"148 Main","login":1234,"password":1234,"geo_precision":"range","state":"OH","pin":1234},"type":"Feature","geometry":{"type":"Point","coordinates":[-84.305692,41.020779]}},{"properties":{"city":"Cloverdale","status":"Active","ppv":"No","zip":"45827","region":"Ottoville","service packages":"BASIC,DIGITAL BASIC,EXPANDED BASIC","township":null,"last":"Byrne","stbs allowed":5,"geo_score":0.902,"first":"Kent","ppv limit":"Unlimited","customer id":null,"phone":4194533962,"whdvr":"No","id":"abjw66ba0hgf","address":"27912 RD O","login":1234,"password":1234,"geo_precision":"range","state":"OH","pin":1234},"type":"Feature","geometry":{"type":"Point","coordinates":[-84.397042,40.961211]}},{"properties":{"city":"Grover Hill","status":"Active","ppv":"No","zip":"45849","region":"Ottoville","service packages":"BASIC,HD BASIC,EXPANDED BASIC,HD EXP BASIC","township":null,"last":"Byrne","stbs allowed":5,"geo_score":0.709,"first":"Josh","ppv limit":"Unlimited","customer id":null,"phone":4194533181,"whdvr":"No","id":"abjw66cmlykq","address":"14815 Road 28","login":1234,"password":1234,"geo_precision":"street","state":"OH","pin":1234},"type":"Feature","geometry":{"type":"Point","coordinates":[-84.399143,40.966587]}},{"properties":{"city":"Ottoville","status":"Active","ppv":"No","zip":"45876","region":"Ottoville","service packages":"BASIC,HD BASIC,EXPANDED BASIC,HD EXP BASIC","township":null,"last":"Byrne","stbs allowed":5,"geo_score":0.902,"first":"Keith","ppv limit":"Unlimited","customer id":null,"phone":4194533506,"whdvr":"No","id":"abjw665kyjn3","address":"146 Albert Drive","login":1234,"password":1234,"geo_precision":"range","state":"OH","pin":1234},"type":"Feature","geometry":{"type":"Point","coordinates":[-84.333235,40.93165]}},{"properties":{"city":"Cloverdale","status":"Active","ppv":"No","zip":"45827","region":"Ottoville","service packages":"BASIC,HD BASIC,EXPANDED BASIC,HD EXP BASIC","township":null,"last":"Byrne","stbs allowed":5,"geo_score":0.902,"first":"Gene","ppv limit":"Unlimited","customer id":null,"phone":4194533557,"whdvr":"No","id":"abjw660i9ht9","address":"27762 RD O","login":1234,"password":1234,"geo_precision":"range","state":"OH","pin":1234},"type":"Feature","geometry":{"type":"Point","coordinates":[-84.394476,40.961266]}},{"properties":{"city":"Ottoville","status":"Active","ppv":"No","zip":"45876","region":"Ottoville","service packages":"BASIC,EXPANDED BASIC","township":null,"last":"Byrne","stbs allowed":5,"geo_score":0.78,"first":"Kent (Apt)","ppv limit":"Unlimited","customer id":null,"phone":4999980992,"whdvr":"No","id":"abjw665jjoka","address":"192 Church St.","login":1234,"password":1234,"geo_precision":"street","state":"OH","pin":1234},"type":"Feature","geometry":{"type":"Point","coordinates":[-84.340373,40.933543]}},{"properties":{"city":"Cloverdale","status":"Active","ppv":"No","zip":"45827","region":"Ottoville","service packages":"BASIC,HD BASIC,EXPANDED BASIC,HD EXP BASIC,HBO HD,HBO","township":null,"last":"Carey","stbs allowed":5,"geo_score":0.902,"first":"Andrew","ppv limit":"Unlimited","customer id":null,"phone":4194532400,"whdvr":"No","id":"abjw66buht4a","address":"15451 Road 25M","login":1234,"password":1234,"geo_precision":"range","state":"OH","pin":1234},"type":"Feature","geometry":{"type":"Point","coordinates":[-84.338227,40.958628]}},{"properties":{"city":"Grover Hill","status":"Active","ppv":"No","zip":"45849","region":"Ottoville","service packages":"BASIC,HD BASIC,EXPANDED BASIC,HD EXP BASIC,HBO HD,HBO","township":null,"last":"Cavinder","stbs allowed":5,"geo_score":0.745,"first":"Ed","ppv limit":"Unlimited","customer id":null,"phone":4195873991,"whdvr":"No","id":"abjw660cfgfz","address":"19275 SR 114","login":1234,"password":1234,"geo_precision":"range","state":"OH","pin":1234},"type":"Feature","geometry":{"type":"Point","coordinates":[-84.442918,41.01943]}},{"properties":{"city":"Cloverdale","status":"Active","ppv":"No","zip":"45827","region":"Ottoville","service packages":"BASIC,HD BASIC,EXPANDED BASIC,HD EXP BASIC","township":null,"last":"Clementz","stbs allowed":5,"geo_score":0.585,"first":"Pete","ppv limit":"Unlimited","customer id":null,"phone":4194884341,"whdvr":"No","id":"abjw66buw9zw","address":"23859 Road I23","login":1234,"password":1234,"geo_precision":"street","state":"OH","pin":1234},"type":"Feature","geometry":{"type":"Point","coordinates":[-84.276637,41.048879]}},{"properties":{"city":"Cloverdale","status":"Active","ppv":"No","zip":"45827","region":"Ottoville","service packages":"BASIC,EXPANDED BASIC","township":null,"last":"Coble","stbs allowed":5,"geo_score":0.708,"first":"Kelly","ppv limit":"Unlimited","customer id":null,"phone":4194883870,"whdvr":"No","id":"abjw66329z93","address":"22551 RD H22","login":1234,"password":1234,"geo_precision":"street","state":"OH","pin":1234},"type":"Feature","geometry":{"type":"Point","coordinates":[-84.277771,41.06378]}},{"properties":{"city":"Middlepoint","status":"Active","ppv":"No","zip":"45863","region":"Ottoville","service packages":"BASIC,HD BASIC,DIGITAL BASIC,EXPANDED BASIC,HD EXP BASIC,SHOWTIME HD,SHOWTIME UNLIMITED,THE MOVIE CHANNEL HD,HD DIGITAL BASIC","township":null,"last":"Cooper","stbs allowed":5,"geo_score":0.488,"first":"Rod","ppv limit":"Unlimited","customer id":null,"phone":4199682334,"whdvr":"No","id":"abjw664o1vo4","address":"20346","login":1234,"password":1234,"geo_precision":"zip","state":"OH","pin":1234},"type":"Feature","geometry":{"type":"Point","coordinates":[-84.454113,40.899321]}},{"properties":{"city":"Grover Hill","status":"Active","ppv":"No","zip":"45849","region":"Ottoville","service packages":"BASIC,HD BASIC,EXPANDED BASIC,HD EXP BASIC","township":null,"last":"Cooper","stbs allowed":5,"geo_score":0.84,"first":"Joe","ppv limit":"Unlimited","customer id":null,"phone":4195873264,"whdvr":"No","id":"abjw66cc6pi4","address":"103 S Jefferson","login":1234,"password":1234,"geo_precision":"range","state":"OH","pin":1234},"type":"Feature","geometry":{"type":"Point","coordinates":[-84.480224,41.019208]}},{"properties":{"city":"Cloverdale","status":"Active","ppv":"No","zip":"45827","region":"Ottoville","service packages":"BASIC,DIGITAL BASIC,EXPANDED BASIC","township":null,"last":"Cramer","stbs allowed":5,"geo_score":0.902,"first":"Tim","ppv limit":"Unlimited","customer id":null,"phone":4194882555,"whdvr":"No","id":"abjw669brnfx","address":"1315 RD 203","login":1234,"password":1234,"geo_precision":"range","state":"OH","pin":1234},"type":"Feature","geometry":{"type":"Point","coordinates":[-84.343413,40.993147]}},{"properties":{"city":"Cloverdale","status":"Active","ppv":"No","zip":"45827","region":"Ottoville","service packages":"BASIC,HD BASIC,EXPANDED BASIC,HD EXP BASIC","township":null,"last":"Cramer","stbs allowed":5,"geo_score":0.708,"first":"Joseph","ppv limit":"Unlimited","customer id":null,"phone":4194533070,"whdvr":"No","id":"abjw65xk3g9c","address":"24297 Road 12","login":1234,"password":1234,"geo_precision":"street","state":"OH","pin":1234},"type":"Feature","geometry":{"type":"Point","coordinates":[-84.342712,40.990684]}},{"properties":{"city":"Ottoville","status":"Active","ppv":"No","zip":"45876","region":"Ottoville","service packages":"BASIC,HD BASIC,EXPANDED BASIC,HD EXP BASIC","township":null,"last":"Cusumano","stbs allowed":5,"geo_score":0.805,"first":"Jhered","ppv limit":"Unlimited","customer id":null,"phone":4194533549,"whdvr":"No","id":"abjw6683nhmt","address":"337 Walnut","login":1234,"password":1234,"geo_precision":"range","state":"OH","pin":1234},"type":"Feature","geometry":{"type":"Point","coordinates":[-84.340128,40.930155]}},{"properties":{"city":"Cloverdale","status":"Active","ppv":"No","zip":"45827","region":"Ottoville","service packages":"BASIC,EXPANDED BASIC","township":null,"last":"Decker","stbs allowed":5,"geo_score":0.805,"first":"John","ppv limit":"Unlimited","customer id":null,"phone":4194884551,"whdvr":"No","id":"abjw66c40wuw","address":"10998 Road 20","login":1234,"password":1234,"geo_precision":"street","state":"OH","pin":1234},"type":"Feature","geometry":{"type":"Point","coordinates":[-84.245972,41.015708]}},{"properties":{"city":"Delphos","status":"Inactive","ppv":"No","zip":"45833","region":"Ottoville","service packages":"BASIC,HD BASIC,DIGITAL BASIC,EXPANDED BASIC,HD EXP BASIC,HD DIGITAL BASIC","township":null,"last":"Delphos Country Club","stbs allowed":5,"geo_score":0.902,"first":null,"ppv limit":"Unlimited","customer id":null,"phone":4194533812,"whdvr":"No","id":"abjw662whviy","address":"7055 Shenk Rd","login":1234,"password":1234,"geo_precision":"range","state":"OH","pin":1234},"type":"Feature","geometry":{"type":"Point","coordinates":[-84.369707,40.901781]}},{"properties":{"city":"Cloverdale","status":"Active","ppv":"No","zip":"45827","region":"Ottoville","service packages":"BASIC,HD BASIC,DIGITAL BASIC,EXPANDED BASIC,HD EXP BASIC,HD DIGITAL BASIC","township":null,"last":"Dempster","stbs allowed":5,"geo_score":0.902,"first":"Joey","ppv limit":"Unlimited","customer id":null,"phone":4194882776,"whdvr":"No","id":"abjw664r2ko8","address":"169 Plank Road","login":1234,"password":1234,"geo_precision":"range","state":"OH","pin":1234},"type":"Feature","geometry":{"type":"Point","coordinates":[-84.305827,41.016095]}},{"properties":{"city":"Cloverdale","status":"Active","ppv":"No","zip":"45827","region":"Ottoville","service packages":"BASIC,HD BASIC,DIGITAL BASIC,EXPANDED BASIC,HD EXP BASIC,HD DIGITAL BASIC","township":null,"last":"Denison","stbs allowed":5,"geo_score":0.745,"first":"Bruce","ppv limit":"Unlimited","customer id":null,"phone":4194882295,"whdvr":"No","id":"abjw66c5ljue","address":"13670 SR 634","login":1234,"password":1234,"geo_precision":"range","state":"OH","pin":1234},"type":"Feature","geometry":{"type":"Point","coordinates":[-84.292052,40.981692]}},{"properties":{"city":"Fort Jennings","status":"Active","ppv":"No","zip":"45844","region":"Ottoville","service packages":"BASIC,DIGITAL BASIC,EXPANDED BASIC,STARZ","township":null,"last":"Drake","stbs allowed":5,"geo_score":0.902,"first":"Danny","ppv limit":"Unlimited","customer id":null,"phone":4194532584,"whdvr":"No","id":"abjw66an1a8v","address":"20054 Wetzel Road","login":1234,"password":1234,"geo_precision":"range","state":"OH","pin":1234},"type":"Feature","geometry":{"type":"Point","coordinates":[-84.427528,40.946543]}},{"properties":{"city":"Grover Hill","status":"Active","ppv":"No","zip":"45849","region":"Ottoville","service packages":"BASIC,HD BASIC,EXPANDED BASIC,HD EXP BASIC","township":null,"last":"Dunham","stbs allowed":5,"geo_score":0.482,"first":"James","ppv limit":"Unlimited","customer id":null,"phone":4195873068,"whdvr":"No","id":"abjw668sy8r0","address":"203 E. Perry","login":1234,"password":1234,"geo_precision":"street","state":"OH","pin":1234},"type":"Feature","geometry":{"type":"Point","coordinates":[-84.475265,41.02018]}},{"properties":{"city":"Grover Hill","status":"Active","ppv":"No","zip":"45849","region":"Ottoville","service packages":"BASIC,HD BASIC,DIGITAL BASIC,EXPANDED BASIC,HD EXP BASIC,STARZ HD,STARZ,HD DIGITAL BASIC","township":null,"last":"Dysinger","stbs allowed":5,"geo_score":0.902,"first":"Carrie","ppv limit":"Unlimited","customer id":null,"phone":4195873041,"whdvr":"No","id":"abjw6697b4ck","address":"300 Wayne St.","login":1234,"password":1234,"geo_precision":"range","state":"OH","pin":1234},"type":"Feature","geometry":{"type":"Point","coordinates":[-84.474041,41.021119]}},{"properties":{"city":"Ottoville","status":"Active","ppv":"No","zip":"45876","region":"Ottoville","service packages":"BASIC,HD BASIC,EXPANDED BASIC,HD EXP BASIC","township":null,"last":"Eickholt","stbs allowed":5,"geo_score":0.876,"first":"Matt","ppv limit":"Unlimited","customer id":null,"phone":4194533472,"whdvr":"No","id":"abjw662ocz61","address":"130 NE Canal St.","login":1234,"password":1234,"geo_precision":"range","state":"OH","pin":1234},"type":"Feature","geometry":{"type":"Point","coordinates":[-84.338021,40.933404]}},{"properties":{"city":"Cloverdale","status":"Active","ppv":"No","zip":"45827","region":"Ottoville","service packages":"BASIC,HD BASIC,EXPANDED BASIC,HD EXP BASIC","township":null,"last":"Eickholt","stbs allowed":5,"geo_score":0.805,"first":"Jim","ppv limit":"Unlimited","customer id":null,"phone":4194533684,"whdvr":"No","id":"abjw65zq3ob5","address":"24529 Road N24","login":1234,"password":1234,"geo_precision":"range","state":"OH","pin":1234},"type":"Feature","geometry":{"type":"Point","coordinates":[-84.328105,40.968384]}},{"properties":{"city":"Cloverdale","status":"Active","ppv":"No","zip":"45827","region":"Ottoville","service packages":"BASIC,EXPANDED BASIC","township":null,"last":"Eickholt","stbs allowed":5,"geo_score":0.805,"first":"Roman","ppv limit":"Unlimited","customer id":null,"phone":4194533362,"whdvr":"No","id":"abjw6640d5vy","address":"25096 Road N25","login":1234,"password":1234,"geo_precision":"range","state":"OH","pin":1234},"type":"Feature","geometry":{"type":"Point","coordinates":[-84.344523,40.968958]}},{"properties":{"city":"Van Wert","status":"Active","ppv":"No","zip":"45891","region":"Ottoville","service packages":"BASIC,HD BASIC,EXPANDED BASIC,HD EXP BASIC,HBO HD,SHOWTIME HD,HBO,SHOWTIME UNLIMITED,THE MOVIE CHANNEL HD","township":null,"last":"Evans","stbs allowed":5,"geo_score":0.902,"first":"David W","ppv limit":"Unlimited","customer id":null,"phone":4195873298,"whdvr":"No","id":"abjw664cg88l","address":"16727 Wetzel Rd.","login":1234,"password":1234,"geo_precision":"range","state":"OH","pin":1234},"type":"Feature","geometry":{"type":"Point","coordinates":[-84.500206,40.94634]}},{"properties":{"city":"Ottoville","status":"Active","ppv":"No","zip":"45876","region":"Ottoville","service packages":"BASIC,HD BASIC,DIGITAL BASIC,EXPANDED BASIC,HD EXP BASIC,HBO HD,CINEMAX HD,SHOWTIME HD,STARZ HD,STARZ,SHOWTIME UNLIMITED,HBO/CINEMAX,THE MOVIE CHANNEL HD,HD DIGITAL BASIC","township":null,"last":"Fanning","stbs allowed":5,"geo_score":0.614,"first":"David","ppv limit":"Unlimited","customer id":null,"phone":4999984872,"whdvr":"No","id":"abjw6640jh8y","address":"154 Church St.","login":1234,"password":1234,"geo_precision":"street","state":"OH","pin":1234},"type":"Feature","geometry":{"type":"Point","coordinates":[-84.340356,40.934003]}},{"properties":{"city":"Fort Jennings","status":"Active","ppv":"No","zip":"45844","region":"Ottoville","service packages":"BASIC,HD BASIC,EXPANDED BASIC,HD EXP BASIC","township":null,"last":"Fischbach","stbs allowed":5,"geo_score":0.707,"first":"Dave","ppv limit":"Unlimited","customer id":null,"phone":4194533781,"whdvr":"No","id":"abjw661dnulh","address":"24250 Road Q","login":1234,"password":1234,"geo_precision":"street","state":"OH","pin":1234},"type":"Feature","geometry":{"type":"Point","coordinates":[-84.263775,40.932704]}},{"properties":{"city":"Cloverdale","status":"Active","ppv":"No","zip":"45827","region":"Ottoville","service packages":"BASIC,HD BASIC,DIGITAL BASIC,EXPANDED BASIC,HD EXP BASIC,HD DIGITAL BASIC","township":null,"last":"Fortman","stbs allowed":5,"geo_score":0.902,"first":"Doug","ppv limit":"Unlimited","customer id":null,"phone":4194533096,"whdvr":"No","id":"abjw665tt3l3","address":"14286 Road 23N","login":1234,"password":1234,"geo_precision":"range","state":"OH","pin":1234},"type":"Feature","geometry":{"type":"Point","coordinates":[-84.304472,40.975167]}},{"properties":{"city":"Dupont","status":"Active","ppv":"No","zip":"45837","region":"Ottoville","service packages":"BASIC,DIGITAL BASIC,EXPANDED BASIC","township":null,"last":"Frees","stbs allowed":5,"geo_score":0.708,"first":"Nicole","ppv limit":"Unlimited","customer id":null,"phone":4195964225,"whdvr":"No","id":"abjw661vg487","address":"408 Logan St.","login":1234,"password":1234,"geo_precision":"street","state":"OH","pin":1234},"type":"Feature","geometry":{"type":"Point","coordinates":[-84.301523,41.056323]}},{"properties":{"city":"Cloverdale","status":"Active","ppv":"No","zip":"45827","region":"Ottoville","service packages":"BASIC,HD BASIC,DIGITAL BASIC,EXPANDED BASIC,HD EXP BASIC,HD DIGITAL BASIC","township":null,"last":"Gasser","stbs allowed":5,"geo_score":0.902,"first":"Cindy &amp; Jeff","ppv limit":"Unlimited","customer id":null,"phone":4194532163,"whdvr":"No","id":"abjw6686q0vh","address":"24784 Road O","login":1234,"password":1234,"geo_precision":"range","state":"OH","pin":1234},"type":"Feature","geometry":{"type":"Point","coordinates":[-84.334492,40.961239]}},{"properties":{"city":"Fort Jennings","status":"Active","ppv":"No","zip":"45844","region":"Ottoville","service packages":"BASIC,HD BASIC,EXPANDED BASIC,HD EXP BASIC","township":null,"last":"Giesken","stbs allowed":5,"geo_score":0.902,"first":"Dave","ppv limit":"Unlimited","customer id":null,"phone":4194533544,"whdvr":"Yes","id":"abjw66b7x5s3","address":"16355 Road 27","login":1234,"password":1234,"geo_precision":"range","state":"OH","pin":1234},"type":"Feature","geometry":{"type":"Point","coordinates":[-84.379679,40.941724]}},{"properties":{"city":"Grover Hill","status":"Active","ppv":"No","zip":"45849","region":"Ottoville","service packages":"BASIC,HD BASIC,EXPANDED BASIC,HD EXP BASIC","township":null,"last":"Golliver","stbs allowed":5,"geo_score":0.72,"first":"Kathy","ppv limit":"Unlimited","customer id":null,"phone":4195873618,"whdvr":"No","id":"abjw662w6c03","address":"250 N Maple","login":1234,"password":1234,"geo_precision":"range","state":"OH","pin":1234},"type":"Feature","geometry":{"type":"Point","coordinates":[-84.473959,41.02064]}},{"properties":{"city":"Fort Jennings","status":"Active","ppv":"No","zip":"45844","region":"Ottoville","service packages":"BASIC,HD BASIC,EXPANDED BASIC,HD EXP BASIC","township":null,"last":"Gorman","stbs allowed":5,"geo_score":0.488,"first":"Jack","ppv limit":"Unlimited","customer id":null,"phone":4194533474,"whdvr":"No","id":"abjw65wrhtrm","address":"21596 US224","login":1234,"password":1234,"geo_precision":"zip","state":"OH","pin":1234},"type":"Feature","geometry":{"type":"Point","coordinates":[-84.253283,40.874217]}},{"properties":{"city":"Ottoville","status":"Active","ppv":"No","zip":"45876","region":"Ottoville","service packages":"BASIC,HD BASIC,DIGITAL BASIC,EXPANDED BASIC,HD EXP BASIC,HBO HD,HBO,HD DIGITAL BASIC","township":null,"last":"Gudakunst","stbs allowed":5,"geo_score":0.561,"first":"Kerri","ppv limit":"Unlimited","customer id":null,"phone":4194532635,"whdvr":"No","id":"abjw65xfx5cg","address":"180 W Third","login":1234,"password":1234,"geo_precision":"range","state":"OH","pin":1234},"type":"Feature","geometry":{"type":"Point","coordinates":[-84.338713,40.932323]}},{"properties":{"city":"Cloverdale","status":"Active","ppv":"No","zip":"45827","region":"Ottoville","service packages":"BASIC,HD BASIC,EXPANDED BASIC,HD EXP BASIC","township":null,"last":"Guyton","stbs allowed":5,"geo_score":0.498,"first":"Everett","ppv limit":"Unlimited","customer id":null,"phone":4194533792,"whdvr":"No","id":"abjw664fzm9j","address":"1444 SR66","login":1234,"password":1234,"geo_precision":"street","state":"OH","pin":1234},"type":"Feature","geometry":{"type":"Point","coordinates":[-83.888798,40.885985]}},{"properties":{"city":"Ottoville","status":"Active","ppv":"No","zip":"45876","region":"Ottoville","service packages":"BASIC,HD BASIC,DIGITAL BASIC,EXPANDED BASIC,HD EXP BASIC,HD DIGITAL BASIC","township":null,"last":"Hamilton","stbs allowed":5,"geo_score":0.712,"first":"Russell","ppv limit":"Unlimited","customer id":null,"phone":4194532783,"whdvr":"No","id":"abjw664e0bux","address":"103 Clay St","login":1234,"password":1234,"geo_precision":"street","state":"OH","pin":1234},"type":"Feature","geometry":{"type":"Point","coordinates":[-84.340449,40.932219]}},{"properties":{"city":"Grover Hill","status":"Inactive","ppv":"No","zip":"45849","region":"Ottoville","service packages":"BASIC,HD BASIC,EXPANDED BASIC,HD EXP BASIC","township":null,"last":"Harding","stbs allowed":5,"geo_score":0.902,"first":"Kindall","ppv limit":"Unlimited","customer id":null,"phone":4995870001,"whdvr":"No","id":"abjw661z93ep","address":"407 Monroe St.","login":1234,"password":1234,"geo_precision":"range","state":"OH","pin":1234},"type":"Feature","geometry":{"type":"Point","coordinates":[-84.478981,41.015829]}},{"properties":{"city":"Ottoville","status":"Active","ppv":"No","zip":"45876","region":"Ottoville","service packages":"BASIC,HD BASIC,DIGITAL BASIC,EXPANDED BASIC,HD EXP BASIC,HD DIGITAL BASIC","township":null,"last":"Hardware","stbs allowed":5,"geo_score":0.805,"first":"Ottoville","ppv limit":"Unlimited","customer id":null,"phone":4194533338,"whdvr":"No","id":"abjw65y4srq3","address":"145 Third St.","login":1234,"password":1234,"geo_precision":"range","state":"OH","pin":1234},"type":"Feature","geometry":{"type":"Point","coordinates":[-84.338899,40.932168]}},{"properties":{"city":"Ottoville","status":"Active","ppv":"No","zip":"45876","region":"Ottoville","service packages":"BASIC,HD BASIC,EXPANDED BASIC,HD EXP BASIC","township":null,"last":"Heitmeyer","stbs allowed":5,"geo_score":0.902,"first":"Keith","ppv limit":"Unlimited","customer id":null,"phone":4194533523,"whdvr":"Yes","id":"abjw66bl8wtq","address":"114 Sunset Dr.","login":1234,"password":1234,"geo_precision":"range","state":"OH","pin":1234},"type":"Feature","geometry":{"type":"Point","coordinates":[-83.900544,40.894671]}},{"properties":{"city":"Colverdale","status":"Active","ppv":"No","zip":"45827","region":"Ottoville","service packages":"BASIC,EXPANDED BASIC","township":null,"last":"Heitmeyer","stbs allowed":5,"geo_score":0.893,"first":"Jerry","ppv limit":"Unlimited","customer id":null,"phone":4194883685,"whdvr":"No","id":"abjw664gh82k","address":"22623 RD M","login":1234,"password":1234,"geo_precision":"range","state":"OH","pin":1234},"type":"Feature","geometry":{"type":"Point","coordinates":[-84.295902,40.990741]}},{"properties":{"city":"Ottoville","status":"Active","ppv":"No","zip":"45876","region":"Ottoville","service packages":"BASIC,HD BASIC,EXPANDED BASIC,HD EXP BASIC","township":null,"last":"Heitmeyer","stbs allowed":5,"geo_score":0.902,"first":"Mike","ppv limit":"Unlimited","customer id":null,"phone":4194533242,"whdvr":"No","id":"abjw661tczvd","address":"122 Red Maple Ct","login":1234,"password":1234,"geo_precision":"range","state":"OH","pin":1234},"type":"Feature","geometry":{"type":"Point","coordinates":[-84.34368,40.923845]}},{"properties":{"city":"Grover Hill","status":"Active","ppv":"No","zip":"45849","region":"Ottoville","service packages":"BASIC,HD BASIC,DIGITAL BASIC,EXPANDED BASIC,HD EXP BASIC,HD DIGITAL BASIC","township":null,"last":"Hemenway","stbs allowed":5,"geo_score":0.714,"first":"Mary Ann","ppv limit":"Unlimited","customer id":null,"phone":4195873199,"whdvr":"No","id":"abjw66aiupic","address":"303 E. Jackson","login":1234,"password":1234,"geo_precision":"zip","state":"OH","pin":1234},"type":"Feature","geometry":{"type":"Point","coordinates":[-84.419116,41.019494]}},{"properties":{"city":"Fort Jennings","status":"Active","ppv":"No","zip":"45844","region":"Ottoville","service packages":"BASIC,HD BASIC,EXPANDED BASIC,HD EXP BASIC","township":null,"last":"Herman","stbs allowed":5,"geo_score":0.902,"first":"Carl","ppv limit":"Unlimited","customer id":null,"phone":4194533403,"whdvr":"No","id":"abjw668hu7gr","address":"24450 Road P","login":1234,"password":1234,"geo_precision":"range","state":"OH","pin":1234},"type":"Feature","geometry":{"type":"Point","coordinates":[-84.330091,40.946791]}},{"properties":{"city":"Delphos","status":"Active","ppv":"No","zip":"45833","region":"Ottoville","service packages":"BASIC,DIGITAL BASIC,EXPANDED BASIC","township":null,"last":"Hesseling","stbs allowed":5,"geo_score":0.707,"first":"Ken","ppv limit":"Unlimited","customer id":null,"phone":4194533726,"whdvr":"No","id":"abjw668n9l0l","address":"25995 Road R23","login":1234,"password":1234,"geo_precision":"street","state":"OH","pin":1234},"type":"Feature","geometry":{"type":"Point","coordinates":[-84.395428,40.917767]}},{"properties":{"city":"Delphos","status":"Active","ppv":"No","zip":"45833","region":"Ottoville","service packages":"BASIC,HD BASIC,EXPANDED BASIC,HD EXP BASIC","township":null,"last":"Hill","stbs allowed":5,"geo_score":0.707,"first":"Eva","ppv limit":"Unlimited","customer id":null,"phone":4194532133,"whdvr":"No","id":"abjw65ye4ist","address":"25061 Road R23","login":1234,"password":1234,"geo_precision":"street","state":"OH","pin":1234},"type":"Feature","geometry":{"type":"Point","coordinates":[-84.395428,40.917767]}},{"properties":{"city":"Cloverdale","status":"Active","ppv":"No","zip":"45827","region":"Ottoville","service packages":"BASIC,HD BASIC,DIGITAL BASIC,EXPANDED BASIC,HD EXP BASIC,HD DIGITAL BASIC","township":null,"last":"Hill","stbs allowed":5,"geo_score":0.902,"first":"William","ppv limit":"Unlimited","customer id":null,"phone":4194883006,"whdvr":"No","id":"abjw65ws3wts","address":"11288 Road 21","login":1234,"password":1234,"geo_precision":"range","state":"OH","pin":1234},"type":"Feature","geometry":{"type":"Point","coordinates":[-84.26523,41.022586]}},{"properties":{"city":"Fort Jennings","status":"Active","ppv":"No","zip":"45844","region":"Ottoville","service packages":"BASIC,HD BASIC,EXPANDED BASIC,HD EXP BASIC","township":null,"last":"Hilvers","stbs allowed":5,"geo_score":0.902,"first":"Tom","ppv limit":"Unlimited","customer id":null,"phone":4194533165,"whdvr":"No","id":"abjw668kg0d2","address":"26618 RD R","login":1234,"password":1234,"geo_precision":"range","state":"OH","pin":1234},"type":"Feature","geometry":{"type":"Point","coordinates":[-84.372293,40.917996]}},{"properties":{"city":"Fort Jennings","status":"Active","ppv":"No","zip":"45844","region":"Ottoville","service packages":"BASIC,HD BASIC,EXPANDED BASIC,HD EXP BASIC","township":null,"last":"Hilvers","stbs allowed":5,"geo_score":0.902,"first":"Richard","ppv limit":"Unlimited","customer id":null,"phone":4194533347,"whdvr":"No","id":"abjw66cjwd7p","address":"25664 RD R","login":1234,"password":1234,"geo_precision":"range","state":"OH","pin":1234},"type":"Feature","geometry":{"type":"Point","coordinates":[-84.354052,40.918065]}},{"properties":{"city":"Fort Jennings","status":"Active","ppv":"No","zip":"45844","region":"Ottoville","service packages":"BASIC,HD BASIC,DIGITAL BASIC,EXPANDED BASIC,HD EXP BASIC,HD DIGITAL BASIC","township":null,"last":"Hilvers","stbs allowed":5,"geo_score":0.78,"first":"Mike","ppv limit":"Unlimited","customer id":null,"phone":4194532728,"whdvr":"No","id":"abjw66aapw73","address":"17911 Road 27","login":1234,"password":1234,"geo_precision":"range","state":"OH","pin":1234},"type":"Feature","geometry":{"type":"Point","coordinates":[-84.379813,40.924301]}},{"properties":{"city":"Fort Jennings","status":"Active","ppv":"No","zip":"45844","region":"Ottoville","service packages":"BASIC,EXPANDED BASIC","township":null,"last":"Hilvers","stbs allowed":5,"geo_score":0.707,"first":"Mark","ppv limit":"Unlimited","customer id":null,"phone":4194533734,"whdvr":"No","id":"abjw6693lhty","address":"27621 Road Q26","login":1234,"password":1234,"geo_precision":"street","state":"OH","pin":1234},"type":"Feature","geometry":{"type":"Point","coordinates":[-84.263775,40.932704]}},{"properties":{"city":"Cloverdale","status":"Active","ppv":"No","zip":"45827","region":"Ottoville","service packages":"BASIC,EXPANDED BASIC","township":null,"last":"Hoehn","stbs allowed":5,"geo_score":0.498,"first":"Mike","ppv limit":"Unlimited","customer id":null,"phone":4194533863,"whdvr":"No","id":"abjw66b1vxz2","address":"14980 SR66","login":1234,"password":1234,"geo_precision":"street","state":"OH","pin":1234},"type":"Feature","geometry":{"type":"Point","coordinates":[-83.888798,40.885985]}},{"properties":{"city":"Cloverdale","status":"Active","ppv":"No","zip":"45827","region":"Ottoville","service packages":"BASIC,HD BASIC,DIGITAL BASIC,EXPANDED BASIC,HD EXP BASIC,HD DIGITAL BASIC","township":null,"last":"Hoersten","stbs allowed":5,"geo_score":0.707,"first":"Cory","ppv limit":"Unlimited","customer id":null,"phone":4194883952,"whdvr":"No","id":"abjw65zynq7w","address":"24786 Road I22","login":1234,"password":1234,"geo_precision":"street","state":"OH","pin":1234},"type":"Feature","geometry":{"type":"Point","coordinates":[-84.276637,41.048879]}},{"properties":{"city":"Ottoville","status":"Active","ppv":"No","zip":"45876","region":"Ottoville","service packages":"Ottoville test","township":null,"last":"Hoersten","stbs allowed":5,"geo_score":0.823,"first":"Don","ppv limit":"Unlimited","customer id":null,"phone":4194533883,"whdvr":"Yes","id":"abjw667hjno4","address":"133 Westwood","login":1234,"password":1234,"geo_precision":"range","state":"OH","pin":1234},"type":"Feature","geometry":{"type":"Point","coordinates":[-84.078009,41.025226]}},{"properties":{"city":"Fort Jennings","status":"Active","ppv":"No","zip":"45844","region":"Ottoville","service packages":"BASIC,HD BASIC,DIGITAL BASIC,EXPANDED BASIC,HD EXP BASIC,HD DIGITAL BASIC","township":null,"last":"Hoffman","stbs allowed":5,"geo_score":0.902,"first":"Jason","ppv limit":"Unlimited","customer id":null,"phone":4999980084,"whdvr":"No","id":"abjw65xrko0z","address":"25876 RD R","login":1234,"password":1234,"geo_precision":"range","state":"OH","pin":1234},"type":"Feature","geometry":{"type":"Point","coordinates":[-84.357872,40.918028]}},{"properties":{"city":"Fort Jennings","status":"Inactive","ppv":"No","zip":"45844","region":"Ottoville","service packages":"BASIC,HD BASIC,EXPANDED BASIC,HD EXP BASIC","township":null,"last":"Hohlbein","stbs allowed":5,"geo_score":0.805,"first":"Don","ppv limit":"Unlimited","customer id":null,"phone":4194533278,"whdvr":"No","id":"abjw66bqd3ri","address":"23228 Road O22","login":1234,"password":1234,"geo_precision":"range","state":"OH","pin":1234},"type":"Feature","geometry":{"type":"Point","coordinates":[-84.308601,40.954274]}},{"properties":{"city":"Cloverdale","status":"Active","ppv":"No","zip":"45827","region":"Ottoville","service packages":"BASIC,HD BASIC,EXPANDED BASIC,HD EXP BASIC,SHOWTIME HD,SHOWTIME","township":null,"last":"Honigford","stbs allowed":5,"geo_score":0.902,"first":"Don","ppv limit":"Unlimited","customer id":null,"phone":4194533374,"whdvr":"No","id":"abjw65zmb82p","address":"14505 RD 27","login":1234,"password":1234,"geo_precision":"range","state":"OH","pin":1234},"type":"Feature","geometry":{"type":"Point","coordinates":[-84.379986,40.968483]}},{"properties":{"city":"Cloverdale","status":"Active","ppv":"No","zip":"45827","region":"Ottoville","service packages":"BASIC,EXPANDED BASIC","township":null,"last":"Honigford","stbs allowed":5,"geo_score":0.498,"first":"Jim","ppv limit":"Unlimited","customer id":null,"phone":4194533466,"whdvr":"No","id":"abjw6692yh8a","address":"13606 SR66","login":1234,"password":1234,"geo_precision":"street","state":"OH","pin":1234},"type":"Feature","geometry":{"type":"Point","coordinates":[-83.888798,40.885985]}},{"properties":{"city":"Cloverdale","status":"Active","ppv":"No","zip":"45827","region":"Ottoville","service packages":"BASIC,HD BASIC,EXPANDED BASIC,HD EXP BASIC","township":null,"last":"Horstman","stbs allowed":5,"geo_score":0.708,"first":"Brian","ppv limit":"Unlimited","customer id":null,"phone":4194882300,"whdvr":"No","id":"abjw668ptswq","address":"24734 Road L24","login":1234,"password":1234,"geo_precision":"street","state":"OH","pin":1234},"type":"Feature","geometry":{"type":"Point","coordinates":[-84.330156,41.005264]}},{"properties":{"city":"Cloverdale","status":"Active","ppv":"No","zip":"45827","region":"Ottoville","service packages":"BASIC,HD BASIC,EXPANDED BASIC,HD EXP BASIC","township":null,"last":"Horstman","stbs allowed":5,"geo_score":0.902,"first":"Tim","ppv limit":"Unlimited","customer id":null,"phone":4194533273,"whdvr":"No","id":"abjw65wx7k4f","address":"1580 RD 197","login":1234,"password":1234,"geo_precision":"range","state":"OH","pin":1234},"type":"Feature","geometry":{"type":"Point","coordinates":[-84.380292,40.995108]}},{"properties":{"city":"Cloverdale","status":"Active","ppv":"No","zip":"45827","region":"Ottoville","service packages":"BASIC,HD BASIC,EXPANDED BASIC,HD EXP BASIC","township":null,"last":"Horstman","stbs allowed":5,"geo_score":0.745,"first":"Gary","ppv limit":"Unlimited","customer id":null,"phone":4194882761,"whdvr":"No","id":"abjw65xscyxe","address":"22528 SR 114","login":1234,"password":1234,"geo_precision":"range","state":"OH","pin":1234},"type":"Feature","geometry":{"type":"Point","coordinates":[-84.385167,41.019399]}},{"properties":{"city":"Cloverdale","status":"Active","ppv":"No","zip":"45827","region":"Ottoville","service packages":"BASIC,EXPANDED BASIC","township":null,"last":"Horstman","stbs allowed":5,"geo_score":0.708,"first":"Dennis","ppv limit":"Unlimited","customer id":null,"phone":4194883101,"whdvr":"No","id":"abjw660na7i4","address":"24645 Road L24","login":1234,"password":1234,"geo_precision":"street","state":"OH","pin":1234},"type":"Feature","geometry":{"type":"Point","coordinates":[-84.330156,41.005264]}},{"properties":{"city":"Cloverdale","status":"Active","ppv":"No","zip":"45827","region":"Ottoville","service packages":"BASIC,HD BASIC,EXPANDED BASIC,HD EXP BASIC,SHOWTIME HD,SHOWTIME UNLIMITED","township":null,"last":"Horstman","stbs allowed":5,"geo_score":0.902,"first":"Dale","ppv limit":"Unlimited","customer id":null,"phone":4194883211,"whdvr":"No","id":"abjw65zt4g3c","address":"11722 Road 24","login":1234,"password":1234,"geo_precision":"range","state":"OH","pin":1234},"type":"Feature","geometry":{"type":"Point","coordinates":[-84.322918,41.01181]}},{"properties":{"city":"Ottoville","status":"Active","ppv":"No","zip":"45876","region":"Ottoville","service packages":"BASIC,HD BASIC,DIGITAL BASIC,EXPANDED BASIC,HD EXP BASIC,HD DIGITAL BASIC","township":null,"last":"Hunter","stbs allowed":5,"geo_score":0.805,"first":"Bill","ppv limit":"Unlimited","customer id":null,"phone":4194532225,"whdvr":"No","id":"abjw666w59fv","address":"361 Walnut","login":1234,"password":1234,"geo_precision":"range","state":"OH","pin":1234},"type":"Feature","geometry":{"type":"Point","coordinates":[-84.340132,40.929555]}},{"properties":{"city":"Fort Jennings","status":"Active","ppv":"No","zip":"45844","region":"Ottoville","service packages":"BASIC,HD BASIC,EXPANDED BASIC,HD EXP BASIC","township":null,"last":"Kaufman","stbs allowed":5,"geo_score":0.902,"first":"Tim","ppv limit":"Unlimited","customer id":null,"phone":4194533740,"whdvr":"No","id":"abjw6652xkck","address":"24616 Road R","login":1234,"password":1234,"geo_precision":"range","state":"OH","pin":1234},"type":"Feature","geometry":{"type":"Point","coordinates":[-84.333047,40.91792]}},{"properties":{"city":"Fort Jennings","status":"Active","ppv":"No","zip":"45844","region":"Ottoville","service packages":"BASIC,HD BASIC,DIGITAL BASIC,EXPANDED BASIC,HD EXP BASIC,HD DIGITAL BASIC","township":null,"last":"Kayser","stbs allowed":5,"geo_score":0.659,"first":"Shelly","ppv limit":"Unlimited","customer id":null,"phone":4194533398,"whdvr":"Yes","id":"abjw65wspxv1","address":"18161 RD 24R","login":1234,"password":1234,"geo_precision":"street","state":"OH","pin":1234},"type":"Feature","geometry":{"type":"Point","coordinates":[-84.320756,40.907331]}},{"properties":{"city":"Ottoville","status":"Active","ppv":"No","zip":"45876","region":"Ottoville","service packages":"BASIC,HD BASIC,EXPANDED BASIC,HD EXP BASIC,HBO HD,CINEMAX HD,HBO/CINEMAX","township":null,"last":"Kehres","stbs allowed":5,"geo_score":0.902,"first":"Greg","ppv limit":"Unlimited","customer id":null,"phone":4194533986,"whdvr":"No","id":"abjw669wl79t","address":"225 Franklin St.","login":1234,"password":1234,"geo_precision":"range","state":"OH","pin":1234},"type":"Feature","geometry":{"type":"Point","coordinates":[-84.33952,40.931179]}},{"properties":{"city":"Ottoville","status":"Active","ppv":"No","zip":"45876","region":"Ottoville","service packages":"BASIC,HD BASIC,DIGITAL BASIC,EXPANDED BASIC,HD EXP BASIC,SHOWTIME HD,SHOWTIME,HD DIGITAL BASIC","township":null,"last":"Kemper","stbs allowed":5,"geo_score":0.725,"first":"Dan","ppv limit":"Unlimited","customer id":null,"phone":4194532073,"whdvr":"No","id":"abjw664j93mm","address":"320 Auglaize","login":1234,"password":1234,"geo_precision":"range","state":"OH","pin":1234},"type":"Feature","geometry":{"type":"Point","coordinates":[-84.342669,40.929523]}},{"properties":{"city":"Cloverdale","status":"Active","ppv":"No","zip":"45827","region":"Ottoville","service packages":"BASIC,HD BASIC,DIGITAL BASIC,EXPANDED BASIC,HD EXP BASIC,HD DIGITAL BASIC","township":null,"last":"Kemper","stbs allowed":5,"geo_score":0.902,"first":"Roger","ppv limit":"Unlimited","customer id":null,"phone":4194532142,"whdvr":"No","id":"abjw668a7dde","address":"25840 RD P","login":1234,"password":1234,"geo_precision":"range","state":"OH","pin":1234},"type":"Feature","geometry":{"type":"Point","coordinates":[-84.356306,40.947039]}},{"properties":{"city":"Continental","status":"Active","ppv":"No","zip":"45831","region":"Ottoville","service packages":"BASIC,HD BASIC,EXPANDED BASIC,HD EXP BASIC","township":null,"last":"Kesler","stbs allowed":5,"geo_score":0.745,"first":"Claud","ppv limit":"Unlimited","customer id":null,"phone":4195963785,"whdvr":"No","id":"abjw669zx5pc","address":"7965 SR 634","login":1234,"password":1234,"geo_precision":"range","state":"OH","pin":1234},"type":"Feature","geometry":{"type":"Point","coordinates":[-84.303894,41.063694]}},{"properties":{"city":"Grover Hill","status":"Active","ppv":"No","zip":"45849","region":"Ottoville","service packages":"BASIC,HD BASIC,EXPANDED BASIC,HD EXP BASIC","township":null,"last":"Kimmel","stbs allowed":5,"geo_score":0.49,"first":"Ed","ppv limit":"Unlimited","customer id":null,"phone":4195873310,"whdvr":"No","id":"abjw6617x3bk","address":"202 S. Main","login":1234,"password":1234,"geo_precision":"street","state":"OH","pin":1234},"type":"Feature","geometry":{"type":"Point","coordinates":[-84.476576,41.021719]}},{"properties":{"city":"Fort Jennings","status":"Active","ppv":"No","zip":"45844","region":"Ottoville","service packages":"BASIC,HD BASIC,DIGITAL BASIC,EXPANDED BASIC,HD EXP BASIC,HD DIGITAL BASIC","township":null,"last":"Kimmet","stbs allowed":5,"geo_score":0.498,"first":"Dave","ppv limit":"Unlimited","customer id":null,"phone":4194532128,"whdvr":"Yes","id":"abjw66cr8ik0","address":"24935 SR189","login":1234,"password":1234,"geo_precision":"street","state":"OH","pin":1234},"type":"Feature","geometry":{"type":"Point","coordinates":[-83.888798,40.885985]}},{"properties":{"city":"Ottoville","status":"Active","ppv":"No","zip":"45876","region":"Ottoville","service packages":"BASIC,HD BASIC,EXPANDED BASIC,HD EXP BASIC","township":null,"last":"Kimmet","stbs allowed":5,"geo_score":0.902,"first":"Jill","ppv limit":"Unlimited","customer id":null,"phone":4194532268,"whdvr":"No","id":"abjw66c71398","address":"444 Main St.","login":1234,"password":1234,"geo_precision":"range","state":"OH","pin":1234},"type":"Feature","geometry":{"type":"Point","coordinates":[-84.376577,40.400718]}},{"properties":{"city":"Cloverdale","status":"Active","ppv":"No","zip":"45827","region":"Ottoville","service packages":"BASIC,HD BASIC,EXPANDED BASIC,HD EXP BASIC","township":null,"last":"Kline","stbs allowed":5,"geo_score":0.732,"first":"David","ppv limit":"Unlimited","customer id":null,"phone":4194533982,"whdvr":"No","id":"abjw66a4dv60","address":"13260 SR 66","login":1234,"password":1234,"geo_precision":"range","state":"OH","pin":1234},"type":"Feature","geometry":{"type":"Point","coordinates":[-84.361455,40.986987]}},{"properties":{"city":"Delphos","status":"Active","ppv":"No","zip":"45833","region":"Ottoville","service packages":"BASIC,HD BASIC,DIGITAL BASIC,EXPANDED BASIC,HD EXP BASIC,HD DIGITAL BASIC","township":null,"last":"Knippen","stbs allowed":5,"geo_score":0.536,"first":"Bob","ppv limit":"Unlimited","customer id":null,"phone":4194533274,"whdvr":"No","id":"abjw65zngtua","address":"25563 Rd. R23","login":1234,"password":1234,"geo_precision":"street","state":"OH","pin":1234},"type":"Feature","geometry":{"type":"Point","coordinates":[-84.398636,40.917729]}},{"properties":{"city":"Delphos","status":"Active","ppv":"No","zip":"45833","region":"Ottoville","service packages":"BASIC,DIGITAL BASIC,EXPANDED BASIC","township":null,"last":"Knippen","stbs allowed":7,"geo_score":0.707,"first":"Virgil","ppv limit":"Unlimited","customer id":null,"phone":4194533974,"whdvr":"No","id":"abjw66489nmh","address":"25327 Road R23","login":1234,"password":1234,"geo_precision":"street","state":"OH","pin":1234},"type":"Feature","geometry":{"type":"Point","coordinates":[-84.395428,40.917767]}},{"properties":{"city":"Fort Jennings","status":"Active","ppv":"No","zip":"45844","region":"Ottoville","service packages":"BASIC,HD BASIC,DIGITAL BASIC,EXPANDED BASIC,HD EXP BASIC,HD DIGITAL BASIC","township":null,"last":"Knodell","stbs allowed":5,"geo_score":0.498,"first":"Shawn","ppv limit":"Unlimited","customer id":null,"phone":4192863266,"whdvr":"No","id":"abjw665vejl9","address":"15677 SR634","login":1234,"password":1234,"geo_precision":"street","state":"OH","pin":1234},"type":"Feature","geometry":{"type":"Point","coordinates":[-83.888798,40.885985]}},{"properties":{"city":"Ottoville","status":"Active","ppv":"No","zip":"45876","region":"Ottoville","service packages":"BASIC,HD BASIC,EXPANDED BASIC,HD EXP BASIC","township":null,"last":"Koester","stbs allowed":5,"geo_score":0.78,"first":"Paul","ppv limit":"Unlimited","customer id":null,"phone":4194532415,"whdvr":"No","id":"abjw65wuolsj","address":"190 Church St.","login":1234,"password":1234,"geo_precision":"range","state":"OH","pin":1234},"type":"Feature","geometry":{"type":"Point","coordinates":[-84.340437,40.933775]}},{"properties":{"city":"Ottoville","status":"Active","ppv":"No","zip":"45876","region":"Ottoville","service packages":"BASIC,HD BASIC,EXPANDED BASIC,HD EXP BASIC","township":null,"last":"Koester","stbs allowed":5,"geo_score":0.902,"first":"Joe","ppv limit":"Unlimited","customer id":null,"phone":4194533631,"whdvr":"No","id":"abjw6655yzt0","address":"126 Sunset Drive","login":1234,"password":1234,"geo_precision":"range","state":"OH","pin":1234},"type":"Feature","geometry":{"type":"Point","coordinates":[-83.900952,40.894664]}},{"properties":{"city":"Ottoville","status":"Active","ppv":"No","zip":"45876","region":"Ottoville","service packages":"BASIC,HD BASIC,EXPANDED BASIC,HD EXP BASIC","township":null,"last":"Koester","stbs allowed":5,"geo_score":0.537,"first":"Dave","ppv limit":"Unlimited","customer id":null,"phone":4194534531,"whdvr":"No","id":"abjw65zh2t87","address":"325 W 3rd","login":1234,"password":1234,"geo_precision":"range","state":"OH","pin":1234},"type":"Feature","geometry":{"type":"Point","coordinates":[-84.336744,40.932354]}},{"properties":{"city":"Ottoville","status":"Active","ppv":"No","zip":"45876","region":"Ottoville","service packages":"BASIC,HD BASIC,EXPANDED BASIC,HD EXP BASIC","township":null,"last":"Koester","stbs allowed":5,"geo_score":0.785,"first":"Adam","ppv limit":"Unlimited","customer id":null,"phone":4194532306,"whdvr":"No","id":"abjw66bi6csq","address":"172 SE Canal","login":1234,"password":1234,"geo_precision":"range","state":"OH","pin":1234},"type":"Feature","geometry":{"type":"Point","coordinates":[-84.338112,40.932269]}},{"properties":{"city":"Ottoville","status":"Active","ppv":"No","zip":"45876","region":"Ottoville","service packages":"BASIC,HD BASIC,EXPANDED BASIC,HD EXP BASIC,HBO HD,HBO","township":null,"last":"Kortokrax","stbs allowed":5,"geo_score":0.663,"first":"Greg","ppv limit":"Unlimited","customer id":null,"phone":4194532030,"whdvr":"No","id":"abjw663jbr9r","address":"159 West Canal","login":1234,"password":1234,"geo_precision":"range","state":"OH","pin":1234},"type":"Feature","geometry":{"type":"Point","coordinates":[-84.338031,40.932605]}},{"properties":{"city":"Dupont","status":"Active","ppv":"No","zip":"45837","region":"Ottoville","service packages":"BASIC,HD BASIC,DIGITAL BASIC,EXPANDED BASIC,HD EXP BASIC,HD DIGITAL BASIC","township":null,"last":"Kosch","stbs allowed":5,"geo_score":0.562,"first":"Michele","ppv limit":"Unlimited","customer id":null,"phone":4195964383,"whdvr":"No","id":"abjw660b6zp1","address":"204 S River","login":1234,"password":1234,"geo_precision":"street","state":"OH","pin":1234},"type":"Feature","geometry":{"type":"Point","coordinates":[-84.303891,41.053199]}},{"properties":{"city":"Fort Jennings","status":"Active","ppv":"No","zip":"45844","region":"Ottoville","service packages":"BASIC,EXPANDED BASIC","township":null,"last":"Landwehr","stbs allowed":5,"geo_score":0.488,"first":"Richard","ppv limit":"Unlimited","customer id":null,"phone":4194533137,"whdvr":"No","id":"abjw662qfuno","address":"15465","login":1234,"password":1234,"geo_precision":"zip","state":"OH","pin":1234},"type":"Feature","geometry":{"type":"Point","coordinates":[-84.253283,40.874217]}},{"properties":{"city":"Ottoville","status":"Inactive","ppv":"No","zip":"45876","region":"Ottoville","service packages":"BASIC,HD BASIC,DIGITAL BASIC,EXPANDED BASIC,HD EXP BASIC,HD DIGITAL BASIC","township":null,"last":"Lauf","stbs allowed":5,"geo_score":0.612,"first":"Leslie","ppv limit":"Unlimited","customer id":null,"phone":4194532432,"whdvr":"No","id":"abjw65x59jgq","address":"130A Church St.","login":1234,"password":1234,"geo_precision":"street","state":"OH","pin":1234},"type":"Feature","geometry":{"type":"Point","coordinates":[-84.340356,40.934003]}},{"properties":{"city":"Middlepoint","status":"Active","ppv":"No","zip":"45863","region":"Ottoville","service packages":"BASIC,HD BASIC,EXPANDED BASIC,HD EXP BASIC","township":null,"last":"Lautzenheiser","stbs allowed":5,"geo_score":0.902,"first":"Ray","ppv limit":"Unlimited","customer id":null,"phone":4199682175,"whdvr":"No","id":"abjw66579nyu","address":"5021 Dog Creek Road","login":1234,"password":1234,"geo_precision":"range","state":"OH","pin":1234},"type":"Feature","geometry":{"type":"Point","coordinates":[-84.451526,40.931608]}},{"properties":{"city":"Fort Jennings","status":"Active","ppv":"No","zip":"45844","region":"Ottoville","service packages":"BASIC,HD BASIC,DIGITAL BASIC,EXPANDED BASIC,HD EXP BASIC,HD DIGITAL BASIC","township":null,"last":"Lawson","stbs allowed":5,"geo_score":0.488,"first":"Katherine","ppv limit":"Unlimited","customer id":null,"phone":4999986790,"whdvr":"No","id":"abjw66bz0j0a","address":"27826 US224","login":1234,"password":1234,"geo_precision":"zip","state":"OH","pin":1234},"type":"Feature","geometry":{"type":"Point","coordinates":[-84.253283,40.874217]}},{"properties":{"city":"Ottoville","status":"Active","ppv":"No","zip":"45876","region":"Ottoville","service packages":"BASIC,HD BASIC,EXPANDED BASIC,HD EXP BASIC","township":null,"last":"Leach","stbs allowed":5,"geo_score":0.651,"first":"Mike","ppv limit":"Unlimited","customer id":null,"phone":4194532239,"whdvr":"No","id":"abjw667z2u90","address":"116 Douglas Drive","login":1234,"password":1234,"geo_precision":"street","state":"OH","pin":1234},"type":"Feature","geometry":{"type":"Point","coordinates":[-84.332706,40.845068]}},{"properties":{"city":"Delphos","status":"Active","ppv":"No","zip":"45833","region":"Ottoville","service packages":"BASIC,HD BASIC,DIGITAL BASIC,EXPANDED BASIC,HD EXP BASIC,HD DIGITAL BASIC","township":null,"last":"Leis","stbs allowed":5,"geo_score":0.902,"first":"Jeremy","ppv limit":"Unlimited","customer id":null,"phone":4194533870,"whdvr":"No","id":"abjw663av523","address":"18887 RD 28","login":1234,"password":1234,"geo_precision":"range","state":"OH","pin":1234},"type":"Feature","geometry":{"type":"Point","coordinates":[-84.398428,40.904911]}},{"properties":{"city":"Ottoville","status":"Active","ppv":"No","zip":"45876","region":"Ottoville","service packages":"BASIC,HD BASIC,EXPANDED BASIC,HD EXP BASIC,HBO HD,HBO","township":null,"last":"Leis","stbs allowed":5,"geo_score":0.902,"first":"Darren","ppv limit":"Unlimited","customer id":null,"phone":4194532867,"whdvr":"Yes","id":"abjw65x8llk8","address":"134 Sunset Dr.","login":1234,"password":1234,"geo_precision":"range","state":"OH","pin":1234},"type":"Feature","geometry":{"type":"Point","coordinates":[-83.90152,40.89466]}},{"properties":{"city":"Ottoville","status":"Active","ppv":"No","zip":"45876","region":"Ottoville","service packages":"BASIC,HD BASIC,EXPANDED BASIC,HD EXP BASIC","township":null,"last":"Leis","stbs allowed":5,"geo_score":0.707,"first":"Mike","ppv limit":"Unlimited","customer id":null,"phone":4194533867,"whdvr":"No","id":"abjw66ccml5t","address":"233 Auglaize St.","login":1234,"password":1234,"geo_precision":"street","state":"OH","pin":1234},"type":"Feature","geometry":{"type":"Point","coordinates":[-84.342601,40.931191]}},{"properties":{"city":"Grover Hill","status":"Active","ppv":"No","zip":"45849","region":"Ottoville","service packages":"BASIC,HD BASIC,EXPANDED BASIC,HD EXP BASIC","township":null,"last":"Lewis","stbs allowed":5,"geo_score":0.78,"first":"Benjamin","ppv limit":"Unlimited","customer id":null,"phone":4999980671,"whdvr":"No","id":"abjw6672km21","address":"304 S Cleveland","login":1234,"password":1234,"geo_precision":"range","state":"OH","pin":1234},"type":"Feature","geometry":{"type":"Point","coordinates":[-84.475259,41.017292]}},{"properties":{"city":"Ottoville","status":"Active","ppv":"No","zip":"45876","region":"Ottoville","service packages":"BASIC,HD BASIC,DIGITAL BASIC,EXPANDED BASIC,HD EXP BASIC,HBO HD,CINEMAX HD,SHOWTIME HD,SHOWTIME,HBO/CINEMAX,HD DIGITAL BASIC","township":null,"last":"Looser","stbs allowed":5,"geo_score":0.488,"first":"Toby","ppv limit":"Unlimited","customer id":null,"phone":4194532810,"whdvr":"Yes","id":"abjw669jvs7e","address":"106 Evelyn Dr.","login":1234,"password":1234,"geo_precision":"zip","state":"OH","pin":1234},"type":"Feature","geometry":{"type":"Point","coordinates":[-84.238754,41.027573]}},{"properties":{"city":"Fort Jennings","status":"Active","ppv":"No","zip":"45844","region":"Ottoville","service packages":"BASIC,HD BASIC,EXPANDED BASIC,HD EXP BASIC","township":null,"last":"Maag","stbs allowed":5,"geo_score":0.488,"first":"Ron","ppv limit":"Unlimited","customer id":null,"phone":4192862890,"whdvr":"No","id":"abjw662ktr3i","address":"22558 US224","login":1234,"password":1234,"geo_precision":"zip","state":"OH","pin":1234},"type":"Feature","geometry":{"type":"Point","coordinates":[-84.253283,40.874217]}},{"properties":{"city":"Cloverdale","status":"Active","ppv":"No","zip":"45827","region":"Ottoville","service packages":"BASIC,HD BASIC,EXPANDED BASIC,HD EXP BASIC","township":null,"last":"Maenle","stbs allowed":5,"geo_score":0.902,"first":"Steven","ppv limit":"Unlimited","customer id":null,"phone":4194533576,"whdvr":"No","id":"abjw66jhqxgt","address":"27507 Road O","login":1234,"password":1234,"geo_precision":"range","state":"OH","pin":1234},"type":"Feature","geometry":{"type":"Point","coordinates":[-84.389683,40.961195]}},{"properties":{"city":"Ottoville","status":"Active","ppv":"No","zip":"45876","region":"Ottoville","service packages":"BASIC,HD BASIC,EXPANDED BASIC,HD EXP BASIC","township":null,"last":"Martin","stbs allowed":5,"geo_score":0.805,"first":"James","ppv limit":"Unlimited","customer id":null,"phone":4194533683,"whdvr":"No","id":"abjw66if16dj","address":"265 Auglaize St.","login":1234,"password":1234,"geo_precision":"range","state":"OH","pin":1234},"type":"Feature","geometry":{"type":"Point","coordinates":[-84.34268,40.930601]}},{"properties":{"city":"Fort Jennings","status":"Active","ppv":"No","zip":"45844","region":"Ottoville","service packages":"BASIC,HD BASIC,EXPANDED BASIC,HD EXP BASIC","township":null,"last":"Martz","stbs allowed":5,"geo_score":0.902,"first":"Kirt","ppv limit":"Unlimited","customer id":null,"phone":4194532124,"whdvr":"No","id":"abjw66q77j1x","address":"18350 Cottonwood Dr.","login":1234,"password":1234,"geo_precision":"range","state":"OH","pin":1234},"type":"Feature","geometry":{"type":"Point","coordinates":[-84.337415,40.914776]}},{"properties":{"city":"Fort Jennings","status":"Active","ppv":"No","zip":"45844","region":"Ottoville","service packages":"BASIC,EXPANDED BASIC,STARZ HD,STARZ","township":null,"last":"McClure","stbs allowed":5,"geo_score":0.819,"first":"Mary","ppv limit":"Unlimited","customer id":null,"phone":4194532881,"whdvr":"No","id":"abjw66sbeaci","address":"23090-L Road Q","login":1234,"password":1234,"geo_precision":"range","state":"OH","pin":1234},"type":"Feature","geometry":{"type":"Point","coordinates":[-84.302009,40.932618]}},{"properties":{"city":"Cloverdale","status":"Active","ppv":"No","zip":"45827","region":"Ottoville","service packages":"BASIC,HD BASIC,DIGITAL BASIC,EXPANDED BASIC,HD EXP BASIC,HD DIGITAL BASIC","township":null,"last":"McElwain","stbs allowed":5,"geo_score":0.902,"first":"Jason","ppv limit":"Unlimited","customer id":null,"phone":4194883415,"whdvr":"No","id":"abjw66hjgcuc","address":"9243 Road 24","login":1234,"password":1234,"geo_precision":"range","state":"OH","pin":1234},"type":"Feature","geometry":{"type":"Point","coordinates":[-84.32291,41.045195]}},{"properties":{"city":"Cloverdale","status":"Active","ppv":"No","zip":"45827","region":"Ottoville","service packages":"BASIC,HD BASIC,DIGITAL BASIC,EXPANDED BASIC,HD EXP BASIC,HBO HD,CINEMAX HD,HBO/CINEMAX,HD DIGITAL BASIC","township":null,"last":"Merillat","stbs allowed":5,"geo_score":0.498,"first":"Mike","ppv limit":"Unlimited","customer id":null,"phone":4194883940,"whdvr":"Yes","id":"abjw66s3gwdv","address":"19252 SR694","login":1234,"password":1234,"geo_precision":"street","state":"OH","pin":1234},"type":"Feature","geometry":{"type":"Point","coordinates":[-83.888798,40.885985]}},{"properties":{"city":"Grover Hill","status":"Active","ppv":"No","zip":"45849","region":"Ottoville","service packages":"BASIC,HD BASIC,DIGITAL BASIC,EXPANDED BASIC,HD EXP BASIC,HD DIGITAL BASIC","township":null,"last":"Merriman","stbs allowed":5,"geo_score":0.482,"first":"Felicia","ppv limit":"Unlimited","customer id":null,"phone":4995870022,"whdvr":"No","id":"abjw66ibd7z2","address":"207 E. Wayne St.","login":1234,"password":1234,"geo_precision":"street","state":"OH","pin":1234},"type":"Feature","geometry":{"type":"Point","coordinates":[-84.47527,41.021127]}},{"properties":{"city":"Cloverdale","status":"Active","ppv":"No","zip":"45827","region":"Ottoville","service packages":"BASIC,EXPANDED BASIC","township":null,"last":"Meyer","stbs allowed":5,"geo_score":0.902,"first":"Richard","ppv limit":"Unlimited","customer id":null,"phone":4194533509,"whdvr":"No","id":"abjw66hg7k1m","address":"25075 RD M","login":1234,"password":1234,"geo_precision":"range","state":"OH","pin":1234},"type":"Feature","geometry":{"type":"Point","coordinates":[-84.347651,40.990662]}},{"properties":{"city":"Ottoville","status":"Active","ppv":"No","zip":"45876","region":"Ottoville","service packages":"BASIC,HD BASIC,EXPANDED BASIC,HD EXP BASIC","township":null,"last":"Miller","stbs allowed":5,"geo_score":0.876,"first":"Dennis (Bender)","ppv limit":"Unlimited","customer id":null,"phone":4194533849,"whdvr":"No","id":"abjw66hh27bt","address":"248 NE Canal St.","login":1234,"password":1234,"geo_precision":"range","state":"OH","pin":1234},"type":"Feature","geometry":{"type":"Point","coordinates":[-84.338095,40.930802]}},{"properties":{"city":"Ottoville","status":"Active","ppv":"No","zip":"45876","region":"Ottoville","service packages":"BASIC,HD BASIC,DIGITAL BASIC,EXPANDED BASIC,HD EXP BASIC,HD DIGITAL BASIC","township":null,"last":"Miller","stbs allowed":5,"geo_score":0.902,"first":"Roger","ppv limit":"Unlimited","customer id":null,"phone":4194533529,"whdvr":"No","id":"abjw66dezfv8","address":"376 Walnut St","login":1234,"password":1234,"geo_precision":"range","state":"OH","pin":1234},"type":"Feature","geometry":{"type":"Point","coordinates":[-84.339966,40.92899]}},{"properties":{"city":"Cloverdale","status":"Active","ppv":"No","zip":"45827","region":"Ottoville","service packages":"BASIC,HD BASIC,EXPANDED BASIC,HD EXP BASIC","township":null,"last":"Miller","stbs allowed":5,"geo_score":0.902,"first":"Adam","ppv limit":"Unlimited","customer id":null,"phone":4194533289,"whdvr":"No","id":"abjw66jy5qgi","address":"13205 Road 27","login":1234,"password":1234,"geo_precision":"range","state":"OH","pin":1234},"type":"Feature","geometry":{"type":"Point","coordinates":[-84.380338,40.983124]}},{"properties":{"city":"Ottoville","status":"Active","ppv":"No","zip":"45876","region":"Ottoville","service packages":"BASIC,HD BASIC,EXPANDED BASIC,HD EXP BASIC","township":null,"last":"Miller","stbs allowed":5,"geo_score":0.805,"first":"Don","ppv limit":"Unlimited","customer id":null,"phone":4194533222,"whdvr":"No","id":"abjw66r4i6cd","address":"301 Auglaize St.","login":1234,"password":1234,"geo_precision":"range","state":"OH","pin":1234},"type":"Feature","geometry":{"type":"Point","coordinates":[-84.342673,40.929895]}},{"properties":{"city":"Ottoville","status":"Active","ppv":"No","zip":"45876","region":"Ottoville","service packages":"BASIC,HD BASIC,EXPANDED BASIC,HD EXP BASIC","township":null,"last":"Miller","stbs allowed":5,"geo_score":0.902,"first":"Heidi &amp; Kyle","ppv limit":"Unlimited","customer id":null,"phone":4194533110,"whdvr":"No","id":"abjw66k2ccs7","address":"304 Walnut St.","login":1234,"password":1234,"geo_precision":"range","state":"OH","pin":1234},"type":"Feature","geometry":{"type":"Point","coordinates":[-84.339977,40.930184]}},{"properties":{"city":"Ottoville","status":"Active","ppv":"No","zip":"45876","region":"Ottoville","service packages":"BASIC,HD BASIC,DIGITAL BASIC,EXPANDED BASIC,HD EXP BASIC,HD DIGITAL BASIC","township":null,"last":"Miller","stbs allowed":5,"geo_score":0.902,"first":"John (Jay)","ppv limit":"Unlimited","customer id":null,"phone":4194533119,"whdvr":"No","id":"abjw66q10fg2","address":"439 Walnut St.","login":1234,"password":1234,"geo_precision":"range","state":"OH","pin":1234},"type":"Feature","geometry":{"type":"Point","coordinates":[-84.340102,40.92754]}},{"properties":{"city":"Fort Jennings","status":"Active","ppv":"No","zip":"45844","region":"Ottoville","service packages":"BASIC,HD BASIC,DIGITAL BASIC,EXPANDED BASIC,HD EXP BASIC,HBO HD,STARZ HD,HBO,STARZ,HD DIGITAL BASIC","township":null,"last":"Miller","stbs allowed":5,"geo_score":0.488,"first":"Jim","ppv limit":"Unlimited","customer id":null,"phone":4194533272,"whdvr":"No","id":"abjw66n4i0ek","address":"23385 US224","login":1234,"password":1234,"geo_precision":"zip","state":"OH","pin":1234},"type":"Feature","geometry":{"type":"Point","coordinates":[-84.253283,40.874217]}},{"properties":{"city":"Ottoville","status":"Active","ppv":"No","zip":"45876","region":"Ottoville","service packages":"BASIC,HD BASIC,EXPANDED BASIC,HD EXP BASIC","township":null,"last":"Miller","stbs allowed":5,"geo_score":0.902,"first":"Marilyn","ppv limit":"Unlimited","customer id":null,"phone":4194533453,"whdvr":"No","id":"abjw66dj86g6","address":"464 Walnut St.","login":1234,"password":1234,"geo_precision":"range","state":"OH","pin":1234},"type":"Feature","geometry":{"type":"Point","coordinates":[-84.339953,40.927374]}},{"properties":{"city":"Ottoville","status":"Active","ppv":"No","zip":"45844","region":"Ottoville","service packages":"BASIC,HD BASIC,EXPANDED BASIC,HD EXP BASIC","township":null,"last":"Miller","stbs allowed":5,"geo_score":0.78,"first":"Pat","ppv limit":"Unlimited","customer id":null,"phone":4194533406,"whdvr":"Yes","id":"abjw66r1rzuj","address":"111 Linden Lane","login":1234,"password":1234,"geo_precision":"range","state":"OH","pin":1234},"type":"Feature","geometry":{"type":"Point","coordinates":[-84.342772,40.92354]}},{"properties":{"city":"Cloverdale","status":"Active","ppv":"No","zip":"45827","region":"Ottoville","service packages":"BASIC,HD BASIC,DIGITAL BASIC,EXPANDED BASIC,HD EXP BASIC,HD DIGITAL BASIC","township":null,"last":"Miller","stbs allowed":5,"geo_score":0.552,"first":"Jerry","ppv limit":"Unlimited","customer id":null,"phone":4194883825,"whdvr":"Yes","id":"abjw66j46jv1","address":"21403 SR 114","login":1234,"password":1234,"geo_precision":"street","state":"OH","pin":1234},"type":"Feature","geometry":{"type":"Point","coordinates":[-84.28615,41.018294]}},{"properties":{"city":"Fort Jennings","status":"Active","ppv":"No","zip":"45844","region":"Ottoville","service packages":"BASIC,HD BASIC,DIGITAL BASIC,EXPANDED BASIC,HD EXP BASIC,SHOWTIME HD,SHOWTIME UNLIMITED,THE MOVIE CHANNEL HD,HD DIGITAL BASIC","township":null,"last":"Miller","stbs allowed":5,"geo_score":0.861,"first":"Gene (ozone)","ppv limit":"Unlimited","customer id":null,"phone":4194533715,"whdvr":"No","id":"abjw66q03f43","address":"18135 Road 24Q","login":1234,"password":1234,"geo_precision":"range","state":"OH","pin":1234},"type":"Feature","geometry":{"type":"Point","coordinates":[-84.339321,40.916577]}},{"properties":{"city":"Ottoville","status":"Active","ppv":"No","zip":"45876","region":"Ottoville","service packages":"BASIC,HD BASIC,DIGITAL BASIC,EXPANDED BASIC,HD EXP BASIC,HD DIGITAL BASIC","township":null,"last":"Miller","stbs allowed":5,"geo_score":0.87,"first":"Jim (Butch)","ppv limit":"Unlimited","customer id":null,"phone":4194533038,"whdvr":"Yes","id":"abjw66lj6owb","address":"156 Miller Dr.","login":1234,"password":1234,"geo_precision":"range","state":"OH","pin":1234},"type":"Feature","geometry":{"type":"Point","coordinates":[-84.09177,40.868149]}},{"properties":{"city":"Fort Jennings","status":"Active","ppv":"No","zip":"45844","region":"Ottoville","service packages":"BASIC,HD BASIC,DIGITAL BASIC,EXPANDED BASIC,HD EXP BASIC,SHOWTIME HD,SHOWTIME UNLIMITED,HD DIGITAL BASIC","township":null,"last":"Miller","stbs allowed":5,"geo_score":0.861,"first":"Gene","ppv limit":"Unlimited","customer id":null,"phone":4994533715,"whdvr":"No","id":"abjw66hnmsgu","address":"18135 Road 24Q","login":1234,"password":1234,"geo_precision":"range","state":"OH","pin":1234},"type":"Feature","geometry":{"type":"Point","coordinates":[-84.339321,40.916577]}},{"properties":{"city":"Fort Jennings","status":"Active","ppv":"No","zip":"45844","region":"Ottoville","service packages":"BASIC,HD BASIC,DIGITAL BASIC,EXPANDED BASIC,HD EXP BASIC,HD DIGITAL BASIC","township":null,"last":"Moore","stbs allowed":5,"geo_score":0.902,"first":"Ellen","ppv limit":"Unlimited","customer id":null,"phone":4999989197,"whdvr":"No","id":"abjw66d73h86","address":"25561 RD R","login":1234,"password":1234,"geo_precision":"range","state":"OH","pin":1234},"type":"Feature","geometry":{"type":"Point","coordinates":[-84.35174,40.917929]}},{"properties":{"city":"Ottoville","status":"Active","ppv":"No","zip":"45876","region":"Ottoville","service packages":"BASIC,HD BASIC,EXPANDED BASIC,HD EXP BASIC","township":null,"last":"Oberg","stbs allowed":5,"geo_score":0.902,"first":"Duane","ppv limit":"Unlimited","customer id":null,"phone":4194533196,"whdvr":"No","id":"abjw66gkzz6k","address":"106 Red Maple Court","login":1234,"password":1234,"geo_precision":"range","state":"OH","pin":1234},"type":"Feature","geometry":{"type":"Point","coordinates":[-84.342824,40.923614]}},{"properties":{"city":"Fort Jennings","status":"Active","ppv":"No","zip":"45844","region":"Ottoville","service packages":"BASIC,HD BASIC,EXPANDED BASIC,HD EXP BASIC","township":null,"last":"Odenweller","stbs allowed":5,"geo_score":0.902,"first":"Howard","ppv limit":"Unlimited","customer id":null,"phone":4194533711,"whdvr":"No","id":"abjw66l89x3x","address":"24642 RD R","login":1234,"password":1234,"geo_precision":"range","state":"OH","pin":1234},"type":"Feature","geometry":{"type":"Point","coordinates":[-84.333641,40.917909]}},{"properties":{"city":"Ottoville","status":"Active","ppv":"No","zip":"45876","region":"Ottoville","service packages":"Ottoville test","township":null,"last":"Otec","stbs allowed":20,"geo_score":0.429,"first":null,"ppv limit":"Unlimited","customer id":null,"phone":4194533324,"whdvr":"No","id":"abjw66iht2gq","address":"245 W. 3rd","login":1234,"password":1234,"geo_precision":"street","state":"OH","pin":1234},"type":"Feature","geometry":{"type":"Point","coordinates":[-84.33717,40.932274]}},{"properties":{"city":"Ottoville","status":"Active","ppv":"Yes","zip":"45876","region":"Ottoville","service packages":"Ottoville Headend Channel 11","township":null,"last":"Ottoville Headend Channel 11","stbs allowed":5,"geo_score":0.561,"first":null,"ppv limit":"Unlimited","customer id":null,"phone":4194883500,"whdvr":"No","id":"abjw66ji4f6w","address":"245 w 3rd","login":1234,"password":1234,"geo_precision":"range","state":"OH","pin":1234},"type":"Feature","geometry":{"type":"Point","coordinates":[-84.337815,40.932196]}},{"properties":{"city":"Ottoville","status":"Active","ppv":"Yes","zip":"45876","region":"Ottoville","service packages":"wnwo","township":null,"last":"Ottoville Headend Channel 7","stbs allowed":6,"geo_score":0.561,"first":null,"ppv limit":"Unlimited","customer id":null,"phone":4194533939,"whdvr":"No","id":"abjw66h1ot5x","address":"245 W 3rd","login":1234,"password":1234,"geo_precision":"range","state":"OH","pin":1234},"type":"Feature","geometry":{"type":"Point","coordinates":[-84.337815,40.932196]}},{"properties":{"city":"Cloverdale","status":"Active","ppv":"No","zip":"45827","region":"Ottoville","service packages":"BASIC,HD BASIC,DIGITAL BASIC,EXPANDED BASIC,HD EXP BASIC,HD DIGITAL BASIC","township":null,"last":"Peters","stbs allowed":5,"geo_score":0.613,"first":"Charles","ppv limit":"Unlimited","customer id":null,"phone":4194533470,"whdvr":"No","id":"abjw66mu2r02","address":"26941 Road N","login":1234,"password":1234,"geo_precision":"street","state":"OH","pin":1234},"type":"Feature","geometry":{"type":"Point","coordinates":[-84.380192,40.975781]}},{"properties":{"city":"Delphos","status":"Active","ppv":"No","zip":"45833","region":"Ottoville","service packages":"BASIC,DIGITAL BASIC,EXPANDED BASIC","township":null,"last":"Pohlman","stbs allowed":5,"geo_score":0.5,"first":"Ken","ppv limit":"Unlimited","customer id":null,"phone":4194533997,"whdvr":"No","id":"abjw66ou4z4a","address":"26850 Rd. S","login":1234,"password":1234,"geo_precision":"street","state":"OH","pin":1234},"type":"Feature","geometry":{"type":"Point","coordinates":[-84.393604,40.903303]}},{"properties":{"city":"Fort Jennings","status":"Active","ppv":"No","zip":"45844","region":"Ottoville","service packages":"BASIC,EXPANDED BASIC","township":null,"last":"Pohlman","stbs allowed":5,"geo_score":0.902,"first":"Terry","ppv limit":"Unlimited","customer id":null,"phone":4194533979,"whdvr":"No","id":"abjw66oweuv0","address":"17733 RD 28","login":1234,"password":1234,"geo_precision":"range","state":"OH","pin":1234},"type":"Feature","geometry":{"type":"Point","coordinates":[-84.398624,40.923011]}},{"properties":{"city":"Ottoville","status":"Active","ppv":"No","zip":"45876","region":"Ottoville","service packages":"BASIC,HD BASIC,EXPANDED BASIC,HD EXP BASIC,HBO HD,CINEMAX HD,HBO/CINEMAX","township":null,"last":"Pohlman","stbs allowed":5,"geo_score":0.501,"first":"Louise","ppv limit":"Unlimited","customer id":null,"phone":4194533573,"whdvr":"No","id":"abjw66tecd1e","address":"110 SR189","login":1234,"password":1234,"geo_precision":"street","state":"OH","pin":1234},"type":"Feature","geometry":{"type":"Point","coordinates":[-83.888798,40.885985]}},{"properties":{"city":"Cloverdale","status":"Active","ppv":"No","zip":"45827","region":"Ottoville","service packages":"BASIC,DIGITAL BASIC,EXPANDED BASIC","township":null,"last":"Prowant","stbs allowed":5,"geo_score":0.805,"first":"Mike","ppv limit":"Unlimited","customer id":null,"phone":4194884571,"whdvr":"No","id":"abjw66of8sga","address":"11503 Road 22K","login":1234,"password":1234,"geo_precision":"street","state":"OH","pin":1234},"type":"Feature","geometry":{"type":"Point","coordinates":[-84.282932,41.010823]}},{"properties":{"city":"Grover Hill","status":"Active","ppv":"No","zip":"45849","region":"Ottoville","service packages":"BASIC,EXPANDED BASIC","township":null,"last":"Rickard","stbs allowed":5,"geo_score":0.873,"first":"Norma","ppv limit":"Unlimited","customer id":null,"phone":4999986913,"whdvr":"No","id":"abjw66flx2mg","address":"101 E Perry St.","login":1234,"password":1234,"geo_precision":"range","state":"OH","pin":1234},"type":"Feature","geometry":{"type":"Point","coordinates":[-84.477811,41.020143]}},{"properties":{"city":"Cloverdale","status":"Active","ppv":"No","zip":"45827","region":"Ottoville","service packages":"BASIC,HD BASIC,DIGITAL BASIC,EXPANDED BASIC,HD EXP BASIC,HD DIGITAL BASIC","township":null,"last":"Ricker","stbs allowed":5,"geo_score":0.745,"first":"John","ppv limit":"Unlimited","customer id":null,"phone":4194884671,"whdvr":"No","id":"abjw66secl77","address":"13734 SR 634","login":1234,"password":1234,"geo_precision":"range","state":"OH","pin":1234},"type":"Feature","geometry":{"type":"Point","coordinates":[-84.292048,40.980569]}},{"properties":{"city":"Ottoville","status":"Active","ppv":"No","zip":"45876","region":"Ottoville","service packages":"BASIC,HD BASIC,DIGITAL BASIC,EXPANDED BASIC,HD EXP BASIC,HBO HD,HBO,HD DIGITAL BASIC","township":null,"last":"Ricker","stbs allowed":5,"geo_score":0.659,"first":"Louis","ppv limit":"Unlimited","customer id":null,"phone":4194533198,"whdvr":"Yes","id":"abjw66ki1edo","address":"386 E 6th St.","login":1234,"password":1234,"geo_precision":"range","state":"OH","pin":1234},"type":"Feature","geometry":{"type":"Point","coordinates":[-84.335988,40.928858]}},{"properties":{"city":"Ottoville","status":"Active","ppv":"No","zip":"45876","region":"Ottoville","service packages":"BASIC,HD BASIC,DIGITAL BASIC,EXPANDED BASIC,HD EXP BASIC,HD DIGITAL BASIC","township":null,"last":"Ricker","stbs allowed":5,"geo_score":0.488,"first":"Amy &amp; Mike","ppv limit":"Unlimited","customer id":null,"phone":4194533203,"whdvr":"Yes","id":"abjw66jaos1v","address":"116 Evelyn Dr.","login":1234,"password":1234,"geo_precision":"zip","state":"OH","pin":1234},"type":"Feature","geometry":{"type":"Point","coordinates":[-84.238754,41.027573]}},{"properties":{"city":"Delphos","status":"Active","ppv":"No","zip":"45833","region":"Ottoville","service packages":"BASIC,EXPANDED BASIC","township":null,"last":"Ricker","stbs allowed":5,"geo_score":0.861,"first":"George","ppv limit":"Unlimited","customer id":null,"phone":4194533256,"whdvr":"No","id":"abjw66p14wz8","address":"18479 Road 27R","login":1234,"password":1234,"geo_precision":"range","state":"OH","pin":1234},"type":"Feature","geometry":{"type":"Point","coordinates":[-84.388966,40.910864]}},{"properties":{"city":"Ottoville","status":"Active","ppv":"No","zip":"45876","region":"Ottoville","service packages":"BASIC,HD BASIC,DIGITAL BASIC,EXPANDED BASIC,HD EXP BASIC,HD DIGITAL BASIC","township":null,"last":"Rieger","stbs allowed":5,"geo_score":0.902,"first":"Tony","ppv limit":"Unlimited","customer id":null,"phone":4194533139,"whdvr":"No","id":"abjw66thimjm","address":"109 Sunset Dr.","login":1234,"password":1234,"geo_precision":"range","state":"OH","pin":1234},"type":"Feature","geometry":{"type":"Point","coordinates":[-83.900342,40.894824]}},{"properties":{"city":"Grover Hill","status":"Active","ppv":"No","zip":"45849","region":"Ottoville","service packages":"BASIC,HD BASIC,EXPANDED BASIC,HD EXP BASIC","township":null,"last":"Risner","stbs allowed":5,"geo_score":0.591,"first":"Wayne","ppv limit":"Unlimited","customer id":null,"phone":4195873311,"whdvr":"No","id":"abjw66sqzo2n","address":"305 East Perry","login":1234,"password":1234,"geo_precision":"street","state":"OH","pin":1234},"type":"Feature","geometry":{"type":"Point","coordinates":[-84.476571,41.020165]}},{"properties":{"city":"Ottoville","status":"Active","ppv":"No","zip":"45876","region":"Ottoville","service packages":"BASIC,HD BASIC,EXPANDED BASIC,HD EXP BASIC","township":null,"last":"Ruen","stbs allowed":5,"geo_score":0.902,"first":"Paul","ppv limit":"Unlimited","customer id":null,"phone":4194533555,"whdvr":"No","id":"abjw66g94sc3","address":"562 Bendele St.","login":1234,"password":1234,"geo_precision":"range","state":"OH","pin":1234},"type":"Feature","geometry":{"type":"Point","coordinates":[-84.33626,40.926613]}},{"properties":{"city":"Ottoville","status":"Active","ppv":"Yes","zip":"45876","region":"Ottoville","service packages":"BASIC","township":null,"last":"Sakosits","stbs allowed":5,"geo_score":0.785,"first":"Jon","ppv limit":"Unlimited","customer id":null,"phone":4999980010,"whdvr":"No","id":"abjw66oae1dl","address":"130A West Canal","login":1234,"password":1234,"geo_precision":"range","state":"OH","pin":1234},"type":"Feature","geometry":{"type":"Point","coordinates":[-84.338021,40.933404]}},{"properties":{"city":"Fort Jennings","status":"Active","ppv":"No","zip":"45844","region":"Ottoville","service packages":"BASIC,HD BASIC,DIGITAL BASIC,EXPANDED BASIC,HD EXP BASIC,HD DIGITAL BASIC","township":null,"last":"Saxton","stbs allowed":5,"geo_score":0.902,"first":"Brian","ppv limit":"Unlimited","customer id":null,"phone":4194532277,"whdvr":"No","id":"abjw66qpkitd","address":"18321 Cottonwood Drive","login":1234,"password":1234,"geo_precision":"range","state":"OH","pin":1234},"type":"Feature","geometry":{"type":"Point","coordinates":[-84.336862,40.914624]}},{"properties":{"city":"Cloverdale","status":"Active","ppv":"No","zip":"45827","region":"Ottoville","service packages":"BASIC,HD BASIC,DIGITAL BASIC,EXPANDED BASIC,HD EXP BASIC,HD DIGITAL BASIC","township":null,"last":"Schimmoeller","stbs allowed":5,"geo_score":0.805,"first":"Gene","ppv limit":"Unlimited","customer id":null,"phone":4192862693,"whdvr":"No","id":"abjw66g3rl15","address":"15594 RD 22","login":1234,"password":1234,"geo_precision":"street","state":"OH","pin":1234},"type":"Feature","geometry":{"type":"Point","coordinates":[-84.282552,40.949381]}},{"properties":{"city":"Ottoville","status":"Active","ppv":"No","zip":"45876","region":"Ottoville","service packages":"BASIC,HD BASIC,DIGITAL BASIC,EXPANDED BASIC,HD EXP BASIC,HD DIGITAL BASIC","township":null,"last":"Schimmoeller","stbs allowed":5,"geo_score":0.61,"first":"Carl","ppv limit":"Unlimited","customer id":null,"phone":4194532776,"whdvr":"No","id":"abjw66gtb1an","address":"131 Winkelman","login":1234,"password":1234,"geo_precision":"street","state":"OH","pin":1234},"type":"Feature","geometry":{"type":"Point","coordinates":[-84.335606,40.933164]}},{"properties":{"city":"Ottoville","status":"Active","ppv":"No","zip":"45876","region":"Ottoville","service packages":"BASIC,HD BASIC,EXPANDED BASIC,HD EXP BASIC","township":null,"last":"Schimmoeller","stbs allowed":5,"geo_score":0.488,"first":"Ryan","ppv limit":"Unlimited","customer id":null,"phone":4999980012,"whdvr":"No","id":"abjw66lms6h2","address":"180 Max St.","login":1234,"password":1234,"geo_precision":"zip","state":"OH","pin":1234},"type":"Feature","geometry":{"type":"Point","coordinates":[-84.238754,41.027573]}},{"properties":{"city":"Grover Hill","status":"Active","ppv":"No","zip":"45849","region":"Ottoville","service packages":"BASIC,EXPANDED BASIC","township":null,"last":"Schlegel","stbs allowed":5,"geo_score":0.72,"first":"Ken","ppv limit":"Unlimited","customer id":null,"phone":4195873069,"whdvr":"No","id":"abjw66o6fkxd","address":"301 E Wayne","login":1234,"password":1234,"geo_precision":"range","state":"OH","pin":1234},"type":"Feature","geometry":{"type":"Point","coordinates":[-84.472465,41.021199]}},{"properties":{"city":"Ottoville","status":"Active","ppv":"No","zip":"45876","region":"Ottoville","service packages":"BASIC,HD BASIC,DIGITAL BASIC,EXPANDED BASIC,HD EXP BASIC,HD DIGITAL BASIC","township":null,"last":"Schnipke","stbs allowed":5,"geo_score":0.837,"first":"Dennis (Bones)","ppv limit":"Unlimited","customer id":null,"phone":4194533396,"whdvr":"No","id":"abjw66mvnvl9","address":"228 S Otto St.","login":1234,"password":1234,"geo_precision":"range","state":"OH","pin":1234},"type":"Feature","geometry":{"type":"Point","coordinates":[-84.337151,40.930999]}},{"properties":{"city":"Cloverdale","status":"Active","ppv":"No","zip":"45827","region":"Ottoville","service packages":"BASIC,HD BASIC,DIGITAL BASIC,EXPANDED BASIC,HD EXP BASIC,HD DIGITAL BASIC","township":null,"last":"Schnipke","stbs allowed":5,"geo_score":0.805,"first":"Arnold","ppv limit":"Unlimited","customer id":null,"phone":4194882867,"whdvr":"No","id":"abjw66r68sla","address":"12824 Road 21L","login":1234,"password":1234,"geo_precision":"street","state":"OH","pin":1234},"type":"Feature","geometry":{"type":"Point","coordinates":[-84.274717,40.994477]}},{"properties":{"city":"Fort Jennings","status":"Active","ppv":"No","zip":"45844","region":"Ottoville","service packages":"BASIC,EXPANDED BASIC","township":null,"last":"Schnipke","stbs allowed":5,"geo_score":0.902,"first":"Adam","ppv limit":"Unlimited","customer id":null,"phone":4194533656,"whdvr":"No","id":"abjw66if0w3h","address":"26686 RD P","login":1234,"password":1234,"geo_precision":"range","state":"OH","pin":1234},"type":"Feature","geometry":{"type":"Point","coordinates":[-84.372819,40.946952]}},{"properties":{"city":"Ottoville","status":"Active","ppv":"No","zip":"45876","region":"Ottoville","service packages":"BASIC,HD BASIC,EXPANDED BASIC,HD EXP BASIC","township":null,"last":"Schnipke","stbs allowed":5,"geo_score":0.693,"first":"Connie","ppv limit":"Unlimited","customer id":null,"phone":4194532221,"whdvr":"No","id":"abjw66hykkvz","address":"228 S OTTO","login":1234,"password":1234,"geo_precision":"range","state":"OH","pin":1234},"type":"Feature","geometry":{"type":"Point","coordinates":[-84.337151,40.930999]}},{"properties":{"city":"Cloverdale","status":"Active","ppv":"No","zip":"45827","region":"Ottoville","service packages":"BASIC,EXPANDED BASIC,STARZ","township":null,"last":"Schnipke","stbs allowed":5,"geo_score":0.902,"first":"Keith","ppv limit":"Unlimited","customer id":null,"phone":4194882125,"whdvr":"No","id":"abjw66jg8mfs","address":"21882 RD M","login":1234,"password":1234,"geo_precision":"range","state":"OH","pin":1234},"type":"Feature","geometry":{"type":"Point","coordinates":[-84.282188,40.991015]}},{"properties":{"city":"Delphos","status":"Active","ppv":"No","zip":"45833","region":"Ottoville","service packages":"BASIC,HD BASIC,EXPANDED BASIC,HD EXP BASIC","township":null,"last":"Schnipke","stbs allowed":5,"geo_score":0.707,"first":"Eric","ppv limit":"Unlimited","customer id":null,"phone":4194532397,"whdvr":"No","id":"abjw66numwr6","address":"25017 Road R23","login":1234,"password":1234,"geo_precision":"street","state":"OH","pin":1234},"type":"Feature","geometry":{"type":"Point","coordinates":[-84.395428,40.917767]}},{"properties":{"city":"Cloverdale","status":"Active","ppv":"No","zip":"45827","region":"Ottoville","service packages":"BASIC,EXPANDED BASIC","township":null,"last":"Schnipke","stbs allowed":5,"geo_score":0.707,"first":"Rodney","ppv limit":"Unlimited","customer id":null,"phone":4999984111,"whdvr":"No","id":"abjw66ia3j5t","address":"23848 Road I22","login":1234,"password":1234,"geo_precision":"street","state":"OH","pin":1234},"type":"Feature","geometry":{"type":"Point","coordinates":[-84.276637,41.048879]}},{"properties":{"city":"Ottoville","status":"Active","ppv":"No","zip":"45876","region":"Ottoville","service packages":"BASIC,HD BASIC,DIGITAL BASIC,EXPANDED BASIC,HD EXP BASIC,HD DIGITAL BASIC","township":null,"last":"Schnipke","stbs allowed":5,"geo_score":0.612,"first":"Jason and Sabrina","ppv limit":"Unlimited","customer id":null,"phone":4194532310,"whdvr":"No","id":"abjw66oglrf2","address":"302 Walt St","login":1234,"password":1234,"geo_precision":"street","state":"OH","pin":1234},"type":"Feature","geometry":{"type":"Point","coordinates":[-84.332319,40.932337]}},{"properties":{"city":"Cloverdale","status":"Active","ppv":"No","zip":"45827","region":"Ottoville","service packages":"BASIC,HD BASIC,DIGITAL BASIC,EXPANDED BASIC,HD EXP BASIC,HD DIGITAL BASIC","township":null,"last":"Schulte","stbs allowed":5,"geo_score":0.707,"first":"Wayne","ppv limit":"Unlimited","customer id":null,"phone":4194884125,"whdvr":"No","id":"abjw66dasjd0","address":"22732 RD H22","login":1234,"password":1234,"geo_precision":"street","state":"OH","pin":1234},"type":"Feature","geometry":{"type":"Point","coordinates":[-84.256153,41.063925]}},{"properties":{"city":"Ottoville","status":"Active","ppv":"No","zip":"45876","region":"Ottoville","service packages":"BASIC,HD BASIC,EXPANDED BASIC,HD EXP BASIC","township":null,"last":"Schweller","stbs allowed":5,"geo_score":0.616,"first":"Jim","ppv limit":"Unlimited","customer id":null,"phone":4194533689,"whdvr":"No","id":"abjw66nshq64","address":"405 SE Canal St.","login":1234,"password":1234,"geo_precision":"street","state":"OH","pin":1234},"type":"Feature","geometry":{"type":"Point","coordinates":[-84.338405,40.928207]}},{"properties":{"city":"Fort Jennings","status":"Active","ppv":"No","zip":"45844","region":"Ottoville","service packages":"BASIC,HD BASIC,EXPANDED BASIC,HD EXP BASIC","township":null,"last":"Sehlhorst","stbs allowed":5,"geo_score":0.498,"first":"Cory","ppv limit":"Unlimited","customer id":null,"phone":4194533488,"whdvr":"No","id":"abjw66p0xbxa","address":"24310 SR189","login":1234,"password":1234,"geo_precision":"street","state":"OH","pin":1234},"type":"Feature","geometry":{"type":"Point","coordinates":[-83.888798,40.885985]}},{"properties":{"city":"Ottoville","status":"Active","ppv":"No","zip":"45876","region":"Ottoville","service packages":"BASIC,HD BASIC,DIGITAL BASIC,EXPANDED BASIC,HD EXP BASIC,HD DIGITAL BASIC","township":null,"last":"Sellers","stbs allowed":5,"geo_score":0.902,"first":"Sheena","ppv limit":"Unlimited","customer id":null,"phone":4194533207,"whdvr":"No","id":"abjw66o9l6bw","address":"279 Wayne St.","login":1234,"password":1234,"geo_precision":"range","state":"OH","pin":1234},"type":"Feature","geometry":{"type":"Point","coordinates":[-84.341496,40.930447]}},{"properties":{"city":"Fort Jennings","status":"Active","ppv":"No","zip":"45844","region":"Ottoville","service packages":"BASIC,HD BASIC,DIGITAL BASIC,EXPANDED BASIC,HD EXP BASIC,HD DIGITAL BASIC","township":null,"last":"Sellers","stbs allowed":5,"geo_score":0.861,"first":"Chuck","ppv limit":"Unlimited","customer id":null,"phone":4194533444,"whdvr":"No","id":"abjw66danrzp","address":"16235 Road 25P","login":1234,"password":1234,"geo_precision":"range","state":"OH","pin":1234},"type":"Feature","geometry":{"type":"Point","coordinates":[-84.343146,40.945383]}},{"properties":{"city":"Cloverdale","status":"Active","ppv":"No","zip":"45827","region":"Ottoville","service packages":"BASIC,HD BASIC,DIGITAL BASIC,EXPANDED BASIC,HD EXP BASIC,HD DIGITAL BASIC","township":null,"last":"Sharp","stbs allowed":5,"geo_score":0.902,"first":"Aaron","ppv limit":"Unlimited","customer id":null,"phone":4194882403,"whdvr":"No","id":"abjw66m6ksat","address":"22424 Road J","login":1234,"password":1234,"geo_precision":"range","state":"OH","pin":1234},"type":"Feature","geometry":{"type":"Point","coordinates":[-84.292942,41.034639]}},{"properties":{"city":"Cloverdale","status":"Active","ppv":"No","zip":"45827","region":"Ottoville","service packages":"BASIC,HD BASIC,DIGITAL BASIC,EXPANDED BASIC,HD EXP BASIC,HD DIGITAL BASIC","township":null,"last":"Siefer","stbs allowed":5,"geo_score":0.493,"first":"Richard","ppv limit":"Unlimited","customer id":null,"phone":4194883080,"whdvr":"No","id":"abjw66n0y4zq","address":"150 Truax Road","login":1234,"password":1234,"geo_precision":"street","state":"OH","pin":1234},"type":"Feature","geometry":{"type":"Point","coordinates":[-84.521508,40.67205]}},{"properties":{"city":"Ottoville","status":"Active","ppv":"No","zip":"45876","region":"Ottoville","service packages":"BASIC,EXPANDED BASIC","township":null,"last":"Siefker","stbs allowed":5,"geo_score":0.902,"first":"Carol","ppv limit":"Unlimited","customer id":null,"phone":4999983736,"whdvr":"No","id":"abjw66gaobf3","address":"319 Wayne St.","login":1234,"password":1234,"geo_precision":"range","state":"OH","pin":1234},"type":"Feature","geometry":{"type":"Point","coordinates":[-84.341493,40.93009]}},{"properties":{"city":"Ottoville","status":"Inactive","ppv":"No","zip":"45876","region":"Ottoville","service packages":"BASIC,HD BASIC,EXPANDED BASIC,HD EXP BASIC","township":null,"last":"Slusser","stbs allowed":5,"geo_score":0.429,"first":"Mike","ppv limit":"Unlimited","customer id":null,"phone":4194533615,"whdvr":"No","id":"abjw66kkks5n","address":"333 E. 3rd","login":1234,"password":1234,"geo_precision":"street","state":"OH","pin":1234},"type":"Feature","geometry":{"type":"Point","coordinates":[-84.33717,40.932274]}},{"properties":{"city":"Cloverdale","status":"Active","ppv":"No","zip":"45827","region":"Ottoville","service packages":"BASIC,HD BASIC,EXPANDED BASIC,HD EXP BASIC","township":null,"last":"Spencer","stbs allowed":5,"geo_score":0.902,"first":"Justin","ppv limit":"Unlimited","customer id":null,"phone":4194883700,"whdvr":"No","id":"abjw66enfnhs","address":"24149 Road J","login":1234,"password":1234,"geo_precision":"range","state":"OH","pin":1234},"type":"Feature","geometry":{"type":"Point","coordinates":[-84.327651,41.034379]}},{"properties":{"city":"Cloverdale","status":"Active","ppv":"No","zip":"45827","region":"Ottoville","service packages":"BASIC,EXPANDED BASIC","township":null,"last":"Spitnale","stbs allowed":5,"geo_score":0.902,"first":"Judy","ppv limit":"Unlimited","customer id":null,"phone":4194883175,"whdvr":"No","id":"abjw66dd5ca5","address":"22148 Road J","login":1234,"password":1234,"geo_precision":"range","state":"OH","pin":1234},"type":"Feature","geometry":{"type":"Point","coordinates":[-84.291648,41.034657]}},{"properties":{"city":"Cloverdale","status":"Active","ppv":"No","zip":"45827","region":"Ottoville","service packages":"BASIC,DIGITAL BASIC,EXPANDED BASIC","township":null,"last":"Sybert","stbs allowed":5,"geo_score":0.902,"first":"Curtis","ppv limit":"Unlimited","customer id":null,"phone":4194884541,"whdvr":"No","id":"abjw66jbbi3v","address":"11844 Road 20J","login":1234,"password":1234,"geo_precision":"range","state":"OH","pin":1234},"type":"Feature","geometry":{"type":"Point","coordinates":[-84.255431,41.007646]}},{"properties":{"city":"Grover Hill","status":"Inactive","ppv":"No","zip":"45849","region":"Ottoville","service packages":"BASIC,EXPANDED BASIC","township":null,"last":"Talbot","stbs allowed":5,"geo_score":0.902,"first":"John","ppv limit":"Unlimited","customer id":null,"phone":4999983197,"whdvr":"No","id":"abjw66lxlswn","address":"407 Monroe St.","login":1234,"password":1234,"geo_precision":"range","state":"OH","pin":1234},"type":"Feature","geometry":{"type":"Point","coordinates":[-84.478981,41.015829]}},{"properties":{"city":"Cloverdale","status":"Active","ppv":"No","zip":"45827","region":"Ottoville","service packages":"BASIC,HD BASIC,DIGITAL BASIC,EXPANDED BASIC,HD EXP BASIC,HD DIGITAL BASIC","township":null,"last":"Thomas","stbs allowed":5,"geo_score":0.902,"first":"Dan","ppv limit":"Unlimited","customer id":null,"phone":4194882134,"whdvr":"No","id":"abjw66reoldg","address":"23169 RD M","login":1234,"password":1234,"geo_precision":"range","state":"OH","pin":1234},"type":"Feature","geometry":{"type":"Point","coordinates":[-84.305357,40.990689]}},{"properties":{"city":"Cloverdale","status":"Active","ppv":"No","zip":"45827","region":"Ottoville","service packages":"BASIC,EXPANDED BASIC","township":null,"last":"Tumblin","stbs allowed":5,"geo_score":0.902,"first":"Art","ppv limit":"Unlimited","customer id":null,"phone":4194533532,"whdvr":"No","id":"abjw66lfg25a","address":"13306 Rd 25M","login":1234,"password":1234,"geo_precision":"range","state":"OH","pin":1234},"type":"Feature","geometry":{"type":"Point","coordinates":[-84.342101,40.987796]}},{"properties":{"city":"Ottoville","status":"Active","ppv":"No","zip":"45876","region":"Ottoville","service packages":"BASIC,HD BASIC,DIGITAL BASIC,EXPANDED BASIC,HD EXP BASIC,HD DIGITAL BASIC","township":null,"last":"Tumlinson","stbs allowed":5,"geo_score":0.805,"first":"Justin","ppv limit":"Unlimited","customer id":null,"phone":4194532261,"whdvr":"No","id":"abjw66qd1lux","address":"365 Fourth St.","login":1234,"password":1234,"geo_precision":"range","state":"OH","pin":1234},"type":"Feature","geometry":{"type":"Point","coordinates":[-84.342272,40.931158]}},{"properties":{"city":"Ottoville","status":"Active","ppv":"No","zip":"45876","region":"Ottoville","service packages":"BASIC,HD BASIC,EXPANDED BASIC,HD EXP BASIC,HBO HD,HBO","township":null,"last":"Turnwald","stbs allowed":5,"geo_score":0.902,"first":"Gene","ppv limit":"Unlimited","customer id":null,"phone":4194533601,"whdvr":"No","id":"abjw66nrpyhj","address":"123 Red Maple Court","login":1234,"password":1234,"geo_precision":"range","state":"OH","pin":1234},"type":"Feature","geometry":{"type":"Point","coordinates":[-84.343851,40.923926]}},{"properties":{"city":"Cloverdale","status":"Active","ppv":"No","zip":"45827","region":"Ottoville","service packages":"BASIC,HD BASIC,EXPANDED BASIC,HD EXP BASIC","township":null,"last":"Turnwald","stbs allowed":5,"geo_score":0.902,"first":"Gary","ppv limit":"Unlimited","customer id":null,"phone":4194533847,"whdvr":"No","id":"abjw66d7qzd7","address":"27271 RD O","login":1234,"password":1234,"geo_precision":"range","state":"OH","pin":1234},"type":"Feature","geometry":{"type":"Point","coordinates":[-84.385144,40.961224]}},{"properties":{"city":"Ottoville","status":"Active","ppv":"No","zip":"45876","region":"Ottoville","service packages":"BASIC,HD BASIC,DIGITAL BASIC,EXPANDED BASIC,HD EXP BASIC,HD DIGITAL BASIC","township":null,"last":"Turnwald","stbs allowed":5,"geo_score":0.902,"first":"Todd","ppv limit":"Unlimited","customer id":null,"phone":4194532678,"whdvr":"No","id":"abjw66eidm8r","address":"111 Red Maple Court","login":1234,"password":1234,"geo_precision":"range","state":"OH","pin":1234},"type":"Feature","geometry":{"type":"Point","coordinates":[-84.345301,40.923995]}},{"properties":{"city":"Cloverdale","status":"Active","ppv":"No","zip":"45827","region":"Ottoville","service packages":"BASIC,HD BASIC,EXPANDED BASIC,HD EXP BASIC","township":null,"last":"Verhoff","stbs allowed":5,"geo_score":0.902,"first":"Ken","ppv limit":"Unlimited","customer id":null,"phone":4194532955,"whdvr":"No","id":"abjw66nrwpoh","address":"23622 Road O","login":1234,"password":1234,"geo_precision":"range","state":"OH","pin":1234},"type":"Feature","geometry":{"type":"Point","coordinates":[-84.317364,40.961393]}},{"properties":{"city":"Fort Jennings","status":"Active","ppv":"No","zip":"45844","region":"Ottoville","service packages":"BASIC,HD BASIC,EXPANDED BASIC,HD EXP BASIC","township":null,"last":"Vetter","stbs allowed":5,"geo_score":0.861,"first":"John","ppv limit":"Unlimited","customer id":null,"phone":4194533131,"whdvr":"No","id":"abjw66t3rm6f","address":"18105 Road 24Q","login":1234,"password":1234,"geo_precision":"range","state":"OH","pin":1234},"type":"Feature","geometry":{"type":"Point","coordinates":[-84.33931,40.91684]}},{"properties":{"city":"Ottoville","status":"Active","ppv":"No","zip":"45876","region":"Ottoville","service packages":"BASIC,HD BASIC,DIGITAL BASIC,EXPANDED BASIC,HD EXP BASIC,HD DIGITAL BASIC","township":null,"last":"Vetter","stbs allowed":5,"geo_score":0.902,"first":"Pat","ppv limit":"Unlimited","customer id":null,"phone":4194533317,"whdvr":"Yes","id":"abjw66op442d","address":"304 Walnut St.","login":1234,"password":1234,"geo_precision":"range","state":"OH","pin":1234},"type":"Feature","geometry":{"type":"Point","coordinates":[-84.339977,40.930184]}},{"properties":{"city":"Ottoville","status":"Active","ppv":"No","zip":"45876","region":"Ottoville","service packages":"BASIC,HD BASIC,EXPANDED BASIC,HD EXP BASIC,HBO HD,HBO","township":null,"last":"Vorst","stbs allowed":5,"geo_score":0.902,"first":"Mark","ppv limit":"Unlimited","customer id":null,"phone":4194533413,"whdvr":"No","id":"abjw66fc3464","address":"119 Red Maple Ct.","login":1234,"password":1234,"geo_precision":"range","state":"OH","pin":1234},"type":"Feature","geometry":{"type":"Point","coordinates":[-84.344394,40.923929]}},{"properties":{"city":"Ottoville","status":"Active","ppv":"No","zip":"45876","region":"Ottoville","service packages":"BASIC,HD BASIC,EXPANDED BASIC,HD EXP BASIC","township":null,"last":"Vorst","stbs allowed":5,"geo_score":0.651,"first":"Josh","ppv limit":"Unlimited","customer id":null,"phone":4194532922,"whdvr":"No","id":"abjw66rx3dhg","address":"113 Douglas Drive","login":1234,"password":1234,"geo_precision":"street","state":"OH","pin":1234},"type":"Feature","geometry":{"type":"Point","coordinates":[-84.332706,40.845068]}},{"properties":{"city":"Cloverdale","status":"Active","ppv":"No","zip":"45827","region":"Ottoville","service packages":"BASIC,HD BASIC,DIGITAL BASIC,EXPANDED BASIC,HD EXP BASIC,HD DIGITAL BASIC","township":null,"last":"Walters","stbs allowed":5,"geo_score":0.902,"first":"Carl","ppv limit":"Unlimited","customer id":null,"phone":4194533156,"whdvr":"No","id":"abjw66jlttt3","address":"1139 Road 197","login":1234,"password":1234,"geo_precision":"range","state":"OH","pin":1234},"type":"Feature","geometry":{"type":"Point","coordinates":[-84.380467,40.990887]}},{"properties":{"city":"Cloverdale","status":"Active","ppv":"No","zip":"45827","region":"Ottoville","service packages":"BASIC,DIGITAL BASIC,EXPANDED BASIC","township":null,"last":"Walters","stbs allowed":5,"geo_score":0.498,"first":"Mike","ppv limit":"Unlimited","customer id":null,"phone":4194884261,"whdvr":"No","id":"abjw66dqzztv","address":"24160 SR114","login":1234,"password":1234,"geo_precision":"street","state":"OH","pin":1234},"type":"Feature","geometry":{"type":"Point","coordinates":[-83.888798,40.885985]}},{"properties":{"city":"Ottoville","status":"Active","ppv":"No","zip":"45876","region":"Ottoville","service packages":"BASIC,HD BASIC,EXPANDED BASIC,HD EXP BASIC","township":null,"last":"Wannemacher","stbs allowed":5,"geo_score":0.563,"first":"Bill W","ppv limit":"Unlimited","customer id":null,"phone":4194532137,"whdvr":"No","id":"abjw66tkd3p9","address":"488 E 2nd St.","login":1234,"password":1234,"geo_precision":"street","state":"OH","pin":1234},"type":"Feature","geometry":{"type":"Point","coordinates":[-84.333227,40.933603]}},{"properties":{"city":"Ottoville","status":"Active","ppv":"No","zip":"45876","region":"Ottoville","service packages":"BASIC,HD BASIC,EXPANDED BASIC,HD EXP BASIC,STARZ HD,STARZ","township":null,"last":"Wannemacher","stbs allowed":5,"geo_score":0.823,"first":"Bill and Suzanne","ppv limit":"Unlimited","customer id":null,"phone":4194533816,"whdvr":"No","id":"abjw66fxlepj","address":"152 Westwood","login":1234,"password":1234,"geo_precision":"range","state":"OH","pin":1234},"type":"Feature","geometry":{"type":"Point","coordinates":[-84.077586,41.025035]}},{"properties":{"city":"Ottoville","status":"Active","ppv":"No","zip":"45876","region":"Ottoville","service packages":"BASIC,HD BASIC,EXPANDED BASIC,HD EXP BASIC","township":null,"last":"Wannemacher","stbs allowed":5,"geo_score":0.805,"first":"Matt","ppv limit":"Unlimited","customer id":null,"phone":4194532960,"whdvr":"No","id":"abjw66glzv3n","address":"344 Walnut","login":1234,"password":1234,"geo_precision":"range","state":"OH","pin":1234},"type":"Feature","geometry":{"type":"Point","coordinates":[-84.339982,40.929508]}},{"properties":{"city":"Ottoville","status":"Active","ppv":"No","zip":"45876","region":"Ottoville","service packages":"BASIC,HD BASIC,EXPANDED BASIC,HD EXP BASIC","township":null,"last":"Wannemacher","stbs allowed":5,"geo_score":0.902,"first":"Gerald","ppv limit":"Unlimited","customer id":null,"phone":4194533565,"whdvr":"No","id":"abjw66t3zoxy","address":"159 Walt St.","login":1234,"password":1234,"geo_precision":"range","state":"OH","pin":1234},"type":"Feature","geometry":{"type":"Point","coordinates":[-84.33231,40.933534]}},{"properties":{"city":"Ottoville","status":"Active","ppv":"No","zip":"45876","region":"Ottoville","service packages":"BASIC,HD BASIC,DIGITAL BASIC,EXPANDED BASIC,HD EXP BASIC,HD DIGITAL BASIC","township":null,"last":"Warman","stbs allowed":5,"geo_score":0.876,"first":"Shannon","ppv limit":"Unlimited","customer id":null,"phone":4194532269,"whdvr":"No","id":"abjw66p2jze8","address":"288 SE Canal St.","login":1234,"password":1234,"geo_precision":"range","state":"OH","pin":1234},"type":"Feature","geometry":{"type":"Point","coordinates":[-84.338099,40.93041]}},{"properties":{"city":"Ottoville","status":"Active","ppv":"No","zip":"45876","region":"Ottoville","service packages":"BASIC,HD BASIC,EXPANDED BASIC,HD EXP BASIC","township":null,"last":"Wehri","stbs allowed":5,"geo_score":0.615,"first":"Dustin","ppv limit":"Unlimited","customer id":null,"phone":4194533469,"whdvr":"No","id":"abjw66nxl31s","address":"201 Auglaize St","login":1234,"password":1234,"geo_precision":"street","state":"OH","pin":1234},"type":"Feature","geometry":{"type":"Point","coordinates":[-84.342601,40.931191]}},{"properties":{"city":"Cloverdale","status":"Active","ppv":"No","zip":"45827","region":"Ottoville","service packages":"BASIC,EXPANDED BASIC","township":null,"last":"Wilson","stbs allowed":5,"geo_score":0.624,"first":"Connie","ppv limit":"Unlimited","customer id":null,"phone":4999983922,"whdvr":"No","id":"abjw66q4aipd","address":"21893 Road I-21","login":1234,"password":1234,"geo_precision":"street","state":"OH","pin":1234},"type":"Feature","geometry":{"type":"Point","coordinates":[-84.263322,40.975898]}},{"properties":{"city":"Cloverdale","status":"Active","ppv":"No","zip":"45827","region":"Ottoville","service packages":"BASIC,HD BASIC,EXPANDED BASIC,HD EXP BASIC","township":null,"last":"Wingate","stbs allowed":5,"geo_score":0.416,"first":"Steve","ppv limit":"Unlimited","customer id":null,"phone":4194882441,"whdvr":"No","id":"abjw66e0icms","address":"108 1/2 Truax","login":1234,"password":1234,"geo_precision":"street","state":"OH","pin":1234},"type":"Feature","geometry":{"type":"Point","coordinates":[-84.520996,40.672267]}},{"properties":{"city":"Dupont","status":"Active","ppv":"No","zip":"45837","region":"Ottoville","service packages":"BASIC,HD BASIC,EXPANDED BASIC,HD EXP BASIC","township":null,"last":"Wiseman","stbs allowed":5,"geo_score":0.561,"first":"Brian","ppv limit":"Unlimited","customer id":null,"phone":4999980059,"whdvr":"No","id":"abjw66ebiv8s","address":"201 South St.","login":1234,"password":1234,"geo_precision":"street","state":"OH","pin":1234},"type":"Feature","geometry":{"type":"Point","coordinates":[-84.302689,41.053191]}},{"properties":{"city":"Ottoville","status":"Active","ppv":"No","zip":"45876","region":"Ottoville","service packages":"BASIC,HD BASIC,EXPANDED BASIC,HD EXP BASIC","township":null,"last":"Wittler","stbs allowed":5,"geo_score":0.756,"first":"Steve","ppv limit":"Unlimited","customer id":null,"phone":4194533080,"whdvr":"No","id":"abjw66i4mlxp","address":"574 E 2nd St.","login":1234,"password":1234,"geo_precision":"range","state":"OH","pin":1234},"type":"Feature","geometry":{"type":"Point","coordinates":[-84.333227,40.933603]}},{"properties":{"city":"Ottoville","status":"Active","ppv":"No","zip":"45876","region":"Ottoville","service packages":"wtol2","township":null,"last":"wtol2","stbs allowed":5,"geo_score":0.561,"first":null,"ppv limit":"Unlimited","customer id":null,"phone":4994533939,"whdvr":"No","id":"abjw66nvci85","address":"245 w 3rd","login":1234,"password":1234,"geo_precision":"range","state":"OH","pin":1234},"type":"Feature","geometry":{"type":"Point","coordinates":[-84.337815,40.932196]}},{"properties":{"city":"Ottoville","status":"Active","ppv":"No","zip":"45876","region":"Ottoville","service packages":"BASIC,HD BASIC,EXPANDED BASIC,HD EXP BASIC,HBO HD,HBO","township":null,"last":"Wurst","stbs allowed":5,"geo_score":0.488,"first":"Gary","ppv limit":"Unlimited","customer id":null,"phone":4194533906,"whdvr":"No","id":"abjw66dr2w3v","address":"136 Evelyn Dr.","login":1234,"password":1234,"geo_precision":"zip","state":"OH","pin":1234},"type":"Feature","geometry":{"type":"Point","coordinates":[-84.238754,41.027573]}},{"properties":{"city":"Ottoville","status":"Active","ppv":"No","zip":"45876","region":"Ottoville","service packages":"BASIC,HD BASIC,EXPANDED BASIC,HD EXP BASIC","township":null,"last":"Wurst","stbs allowed":5,"geo_score":0.561,"first":"Leo","ppv limit":"Unlimited","customer id":null,"phone":4194533385,"whdvr":"No","id":"abjw66sc1om7","address":"186 E 3rd","login":1234,"password":1234,"geo_precision":"range","state":"OH","pin":1234},"type":"Feature","geometry":{"type":"Point","coordinates":[-84.338621,40.932327]}}],"is_temporal":false,"author":{"url":"","metadata":null,"contact_name":null,"contact_address":null,"source":null,"contact_phone":null},"source":"","pagination":{"sort":null,"start":0,"total":220,"limit":1000000},"state":"complete","tags":"","published":"2014-08-16T16:00:59-04:00","id":312384}