{"type":"FeatureCollection","data_type":"Dataset","url_type":null,"permissions":[{"permissions":{"download":true,"view":true},"group_id":"everyone"}],"classification":null,"title":"Copy_of_IPTV-Kalida-Jan-16-2013_-_Copy","count":198,"stream_id":312379,"contributor":{"url":"http://geocommons.com/users/59404","name":"KatieEtgen"},"data_attributes":null,"calculation_params":null,"icon_link":null,"link":"http://geocommons.com/overlays/312379.json","extent":[-84.629,40.4224,-83.6781,41.1669],"geometry_types":["point"],"unique_name":null,"name":"Copy_of_IPTV-Kalida-Jan-16-2013_-_Copy","feature_count":198,"description":"","next_feature":null,"is_raster":false,"short_classification":"Y","stats":{"stbs allowed":{"max":15,"mean":1.57070707070707,"variance":2.12441675639644,"stdev":1.45753790907696,"median":1,"min":1},"phone":{"max":4195323975,"mean":4195322783.73737,"variance":528103.280931141,"stdev":726.70714936014,"median":4195322770,"min":4195321262},"customer id":{"max":4195323975,"mean":4131742346.26263,"variance":2.63968167944147e+17,"stdev":513778325.685453,"median":4195322726,"min":1234},"password":{"max":9117,"mean":2841.4595959596,"variance":940453.427293237,"stdev":969.769780563015,"median":2770,"min":377},"pin":{"max":9117,"mean":2869.19191919192,"variance":1080776.30815772,"stdev":1039.6039188834,"median":2816,"min":377}},"features":[{"properties":{"city":"OTTAWA","status":"Active","ppv":"Yes","zip":"45875","region":"Kalida","service packages":"Digital Basic","township":null,"last":"ADRENALINE MARKETING","stbs allowed":1,"geo_score":0.561,"first":"JESSE BOHRER","ppv limit":"Unlimited","customer id":4195323480,"phone":4195323480,"whdvr":"No","id":"abjw5lunv5h7","address":"10436-10 COUNTRY ACRES DR","login":"KALIDA","password":3480,"geo_precision":"street","state":"OH","pin":3480},"type":"Feature","geometry":{"type":"Point","coordinates":[-84.628985,40.422357]}},{"properties":{"city":"KALIDA","status":"Active","ppv":"Yes","zip":"45853","region":"Kalida","service packages":"Digital Basic,Digital Expanded,Digital SHO","township":null,"last":"ALLEN","stbs allowed":1,"geo_score":0.844,"first":"CONNIE","ppv limit":"Unlimited","customer id":4195322486,"phone":4195322486,"whdvr":"No","id":"abjw5lyso7p3","address":"523 E RALPH ST","login":"KALIDA","password":2486,"geo_precision":"range","state":"OH","pin":2486},"type":"Feature","geometry":{"type":"Point","coordinates":[-84.194129,40.984004]}},{"properties":{"city":"KALIDA","status":"Active","ppv":"No","zip":"45853","region":"Kalida","service packages":"Digital Basic","township":null,"last":"BENDELE","stbs allowed":1,"geo_score":0.74,"first":"DON","ppv limit":"Unlimited","customer id":4195323704,"phone":4195323704,"whdvr":"No","id":"abjw5lzqaxpt","address":"209 E MAIN ST","login":"KALIDA","password":3704,"geo_precision":"street","state":"OH","pin":3704},"type":"Feature","geometry":{"type":"Point","coordinates":[-84.202792,40.982062]}},{"properties":{"city":"KALIDA","status":"Active","ppv":"Yes","zip":"45853","region":"Kalida","service packages":"Digital Basic,Digital Expanded,Digital Starz  Encore,Digital HD,Digital Sho / TMC,Digital HBO /Cinemax","township":null,"last":"BIRKEMEIER","stbs allowed":2,"geo_score":0.756,"first":"STACEY","ppv limit":"Unlimited","customer id":4195322334,"phone":4195322334,"whdvr":"Yes","id":"abjw5lz6zwzx","address":"103 S SECOND ST","login":"KALIDA","password":377,"geo_precision":"range","state":"OH","pin":377},"type":"Feature","geometry":{"type":"Point","coordinates":[-84.20223,40.983859]}},{"properties":{"city":"KALIDA","status":"Active","ppv":"No","zip":"45853","region":"Kalida","service packages":"Digital Basic,Digital Expanded","township":null,"last":"BIRKEMEIER","stbs allowed":1,"geo_score":0.902,"first":"JOHN","ppv limit":"Unlimited","customer id":4195323663,"phone":4195323663,"whdvr":"No","id":"abjw5ltpn6kj","address":"535 RALPH ST","login":"KALIDA","password":3663,"geo_precision":"range","state":"OH","pin":3663},"type":"Feature","geometry":{"type":"Point","coordinates":[-84.194095,40.983973]}},{"properties":{"city":"KALIDA","status":"Active","ppv":"No","zip":"45853","region":"Kalida","service packages":"Digital Basic","township":null,"last":"BOCKRATH","stbs allowed":1,"geo_score":0.471,"first":"JUSTIN","ppv limit":"Unlimited","customer id":4195322710,"phone":4195322710,"whdvr":"No","id":"abjw5m3ix1qu","address":"408 W. NORTH ST","login":"KALIDA","password":2710,"geo_precision":"street","state":"OH","pin":2710},"type":"Feature","geometry":{"type":"Point","coordinates":[-84.202995,40.984756]}},{"properties":{"city":"KALIDA","status":"Active","ppv":"No","zip":"45853","region":"Kalida","service packages":"Digital Basic","township":null,"last":"BONIFAS","stbs allowed":1,"geo_score":0.74,"first":"PAUL","ppv limit":"Unlimited","customer id":4195323362,"phone":4195323362,"whdvr":"No","id":"abjw5lsz27ud","address":"309 LOCUST DR","login":"KALIDA","password":3362,"geo_precision":"range","state":"OH","pin":3362},"type":"Feature","geometry":{"type":"Point","coordinates":[-84.198868,40.989246]}},{"properties":{"city":"KALIDA","status":"Active","ppv":"No","zip":"45853","region":"Kalida","service packages":"Digital Basic,Digital Starz  Encore","township":null,"last":"BRYAN","stbs allowed":1,"geo_score":0.805,"first":"LEAH","ppv limit":"Unlimited","customer id":4195321585,"phone":4195321585,"whdvr":"No","id":"abjw5m4nd4qo","address":"414 OTTAWA ST","login":"KALIDA","password":1585,"geo_precision":"range","state":"OH","pin":1585},"type":"Feature","geometry":{"type":"Point","coordinates":[-84.191168,40.981137]}},{"properties":{"city":"OTTAWA","status":"Active","ppv":"Yes","zip":"45875","region":"Kalida","service packages":"Digital Basic,Digital Expanded","township":null,"last":"BUTLER","stbs allowed":1,"geo_score":0.561,"first":"SHARON","ppv limit":"Unlimited","customer id":4195322724,"phone":4195322724,"whdvr":"No","id":"abjw5lp427y4","address":"10436-14 COUNTRY ACRES DR","login":"KALIDA","password":2724,"geo_precision":"street","state":"OH","pin":2724},"type":"Feature","geometry":{"type":"Point","coordinates":[-84.628985,40.422357]}},{"properties":{"city":"OTTAWA","status":"Active","ppv":"No","zip":"45875","region":"Kalida","service packages":"Digital Basic,Digital HBO /Cinemax","township":null,"last":"CATTELL","stbs allowed":2,"geo_score":0.745,"first":"CHAD","ppv limit":"Unlimited","customer id":4195322545,"phone":4195322545,"whdvr":"Yes","id":"abjw5m3e9c6o","address":"12194 SR 115","login":"KALIDA","password":2545,"geo_precision":"range","state":"OH","pin":2545},"type":"Feature","geometry":{"type":"Point","coordinates":[-84.19794,41.003201]}},{"properties":{"city":"KALIDA","status":"Active","ppv":"No","zip":"45853","region":"Kalida","service packages":"Digital Basic","township":null,"last":"CHAMBERLIN","stbs allowed":1,"geo_score":0.844,"first":"BRIAN","ppv limit":"Unlimited","customer id":4195322676,"phone":4195322676,"whdvr":"No","id":"abjw5lzlpa33","address":"110 N BROAD ST","login":"KALIDA","password":2676,"geo_precision":"range","state":"OH","pin":2676},"type":"Feature","geometry":{"type":"Point","coordinates":[-84.199344,40.983473]}},{"properties":{"city":"KALIDA","status":"Active","ppv":"Yes","zip":"45853","region":"Kalida","service packages":"Digital Basic","township":null,"last":"CHAPMAN","stbs allowed":1,"geo_score":0.902,"first":"KASEY","ppv limit":"Unlimited","customer id":4195321592,"phone":4195321592,"whdvr":"No","id":"abjw5m413lda","address":"527 RALPH ST","login":"KALIDA","password":1592,"geo_precision":"range","state":"OH","pin":1592},"type":"Feature","geometry":{"type":"Point","coordinates":[-84.194118,40.983994]}},{"properties":{"city":"KALIDA","status":"Active","ppv":"No","zip":"45853","region":"Kalida","service packages":"Digital Basic,Digital Expanded","township":null,"last":"COX","stbs allowed":1,"geo_score":0.837,"first":"JODY &amp; MELINDA","ppv limit":"Unlimited","customer id":4195322045,"phone":4195322045,"whdvr":"No","id":"abjw5lree7mz","address":"108 E PLUM ST","login":"KALIDA","password":2045,"geo_precision":"range","state":"OH","pin":2045},"type":"Feature","geometry":{"type":"Point","coordinates":[-84.200967,40.982037]}},{"properties":{"city":"KALIDA","status":"Active","ppv":"No","zip":"45853","region":"Kalida","service packages":"Digital Basic","township":null,"last":"CROSS","stbs allowed":1,"geo_score":0.732,"first":"TIM","ppv limit":"Unlimited","customer id":4195321568,"phone":4195321568,"whdvr":"No","id":"abjw5lslb0uc","address":"312 N 6TH ST","login":"KALIDA","password":1568,"geo_precision":"range","state":"OH","pin":1568},"type":"Feature","geometry":{"type":"Point","coordinates":[-84.194432,40.983211]}},{"properties":{"city":"KALIDA","status":"Active","ppv":"Yes","zip":"45853","region":"Kalida","service packages":"Digital Basic,Digital Expanded,Digital Starz  Encore,Digital HD,Digital Sho / TMC,Digital HBO /Cinemax","township":null,"last":"DICKMAN","stbs allowed":2,"geo_score":0.902,"first":"JEFF","ppv limit":"Unlimited","customer id":4195323000,"phone":4195323000,"whdvr":"Yes","id":"abjw5lss9o29","address":"414 VEACH ST","login":"KALIDA","password":9117,"geo_precision":"range","state":"OH","pin":9117},"type":"Feature","geometry":{"type":"Point","coordinates":[-84.195313,40.982431]}},{"properties":{"city":"KALIDA","status":"Active","ppv":"No","zip":"45853","region":"Kalida","service packages":"Digital Basic","township":null,"last":"DICKMAN","stbs allowed":1,"geo_score":0.644,"first":"RODNEY","ppv limit":"Unlimited","customer id":4195322285,"phone":4195322285,"whdvr":"No","id":"abjw5lqeab3q","address":"513 W PLUM ST","login":"KALIDA","password":2285,"geo_precision":"street","state":"OH","pin":2285},"type":"Feature","geometry":{"type":"Point","coordinates":[-84.203824,40.984049]}},{"properties":{"city":"KALIDA","status":"Active","ppv":"Yes","zip":"45853","region":"Kalida","service packages":"Digital Basic,Digital Expanded","township":null,"last":"DICKMAN","stbs allowed":1,"geo_score":0.902,"first":"ROGER","ppv limit":"Unlimited","customer id":4195323835,"phone":4195323835,"whdvr":"No","id":"abjw5lu8y4kl","address":"311 DRAY ST","login":"KALIDA","password":3835,"geo_precision":"range","state":"OH","pin":3835},"type":"Feature","geometry":{"type":"Point","coordinates":[-84.193776,40.982778]}},{"properties":{"city":"KALIDA","status":"Active","ppv":"Yes","zip":"45853","region":"Kalida","service packages":"Digital Basic","township":null,"last":"DICKMAN","stbs allowed":1,"geo_score":0.805,"first":"GARY","ppv limit":"Unlimited","customer id":4195323509,"phone":4195323509,"whdvr":"No","id":"abjw5m3aa12f","address":"225 EASTOWN RD","login":"KALIDA","password":3509,"geo_precision":"range","state":"OH","pin":3509},"type":"Feature","geometry":{"type":"Point","coordinates":[-84.183458,40.981111]}},{"properties":{"city":"KALIDA","status":"Active","ppv":"No","zip":"45853","region":"Kalida","service packages":"Digital Basic","township":null,"last":"DONALDSON","stbs allowed":1,"geo_score":0.823,"first":"LISA","ppv limit":"Unlimited","customer id":4195321583,"phone":4195321583,"whdvr":"No","id":"abjw5ly27fm7","address":"313 EAST MAIN ST","login":"KALIDA","password":1583,"geo_precision":"range","state":"OH","pin":1583},"type":"Feature","geometry":{"type":"Point","coordinates":[-84.204662,40.983208]}},{"properties":{"city":"KALIDA","status":"Active","ppv":"Yes","zip":"45853","region":"Kalida","service packages":"Digital Basic,Digital Expanded","township":null,"last":"DULING","stbs allowed":1,"geo_score":0.902,"first":"MICHAEL","ppv limit":"Unlimited","customer id":4195322322,"phone":4195322322,"whdvr":"No","id":"abjw5lt5eitx","address":"531 RALPH ST","login":"KALIDA","password":2322,"geo_precision":"range","state":"OH","pin":2322},"type":"Feature","geometry":{"type":"Point","coordinates":[-84.194106,40.983984]}},{"properties":{"city":"OTTAWA","status":"Active","ppv":"No","zip":"45875","region":"Kalida","service packages":"Digital Basic","township":null,"last":"EBBESKOTTE","stbs allowed":1,"geo_score":0.902,"first":"RHONDA","ppv limit":"Unlimited","customer id":4195322291,"phone":4195322291,"whdvr":"No","id":"abjw5m34yccr","address":"17452 FAIRWAY DRIVE","login":"KALIDA","password":2291,"geo_precision":"range","state":"OH","pin":2291},"type":"Feature","geometry":{"type":"Point","coordinates":[-84.197602,41.028679]}},{"properties":{"city":"OTTAWA","status":"Active","ppv":"Yes","zip":"45875","region":"Kalida","service packages":"Digital Basic","township":null,"last":"EHRNSBERGER","stbs allowed":1,"geo_score":0.902,"first":"GARY","ppv limit":"Unlimited","customer id":4195323840,"phone":4195323840,"whdvr":"No","id":"abjw5lyli58f","address":"15898 RD M","login":"KALIDA","password":3840,"geo_precision":"range","state":"OH","pin":3840},"type":"Feature","geometry":{"type":"Point","coordinates":[-84.169394,40.991701]}},{"properties":{"city":"COLUMBUS GROVE","status":"Active","ppv":"No","zip":"45827","region":"Kalida","service packages":"Digital Basic,Digital Expanded","township":null,"last":"ELLERBROCK","stbs allowed":1,"geo_score":0.902,"first":"GENE","ppv limit":"Unlimited","customer id":4195323654,"phone":4195323654,"whdvr":"No","id":"abjw5m5i4t8d","address":"14840 RD 15-M","login":"KALIDA","password":3654,"geo_precision":"range","state":"OH","pin":3654},"type":"Feature","geometry":{"type":"Point","coordinates":[-84.159183,40.964334]}},{"properties":{"city":"KALIDA","status":"Active","ppv":"Yes","zip":"45853","region":"Kalida","service packages":"Digital Basic,Digital Expanded","township":null,"last":"ELLERBROCK","stbs allowed":2,"geo_score":0.902,"first":"KENNY","ppv limit":"Unlimited","customer id":4195323727,"phone":4195323727,"whdvr":"No","id":"abjw5lz7nqrv","address":"302 LOCUST ST","login":"KALIDA","password":3727,"geo_precision":"range","state":"OH","pin":3727},"type":"Feature","geometry":{"type":"Point","coordinates":[-84.199521,40.989398]}},{"properties":{"city":"CLOVERDALE","status":"Active","ppv":"No","zip":"45827","region":"Kalida","service packages":"Digital Basic","township":null,"last":"ELLIOTT","stbs allowed":1,"geo_score":0.852,"first":"CHERYL &amp; MARK","ppv limit":"Unlimited","customer id":4195322726,"phone":4195322726,"whdvr":"No","id":"abjw5m1xoimw","address":"13730 RD 22-K","login":"KALIDA","password":2726,"geo_precision":"range","state":"OH","pin":2726},"type":"Feature","geometry":{"type":"Point","coordinates":[-84.254567,40.98004]}},{"properties":{"city":"COLUMBUS GROVE","status":"Active","ppv":"No","zip":"45830","region":"Kalida","service packages":"Digital Basic,Digital Expanded","township":null,"last":"ERNEST","stbs allowed":1,"geo_score":0.738,"first":"JAMES","ppv limit":"Unlimited","customer id":4195321622,"phone":4195321622,"whdvr":"No","id":"abjw5ltchauk","address":"15902 SR 115","login":"KALIDA","password":1622,"geo_precision":"range","state":"OH","pin":1622},"type":"Feature","geometry":{"type":"Point","coordinates":[-84.164891,40.949015]}},{"properties":{"city":"KALIDA","status":"Active","ppv":"No","zip":"45853","region":"Kalida","service packages":"Digital Basic","township":null,"last":"ERNEST","stbs allowed":1,"geo_score":0.805,"first":"NITA","ppv limit":"Unlimited","customer id":4195321631,"phone":4195321631,"whdvr":"No","id":"abjw5lqxfd77","address":"510 RALPH ST","login":"KALIDA","password":1631,"geo_precision":"street","state":"OH","pin":1631},"type":"Feature","geometry":{"type":"Point","coordinates":[-84.192138,40.982198]}},{"properties":{"city":"OTTAWA","status":"Active","ppv":"Yes","zip":"45875","region":"Kalida","service packages":"Digital Basic","township":null,"last":"ETTER","stbs allowed":1,"geo_score":0.889,"first":"KEVIN","ppv limit":"Unlimited","customer id":4195321676,"phone":4195321676,"whdvr":"No","id":"abjw5m4vcnha","address":"17470 FAIRWAY DR","login":"KALIDA","password":1676,"geo_precision":"range","state":"OH","pin":1676},"type":"Feature","geometry":{"type":"Point","coordinates":[-84.197585,41.028678]}},{"properties":{"city":"KALIDA","status":"Active","ppv":"Yes","zip":"45853","region":"Kalida","service packages":"Digital Basic,Digital Expanded","township":null,"last":"FANGER","stbs allowed":1,"geo_score":0.844,"first":"CARTER","ppv limit":"Unlimited","customer id":4195323975,"phone":4195323975,"whdvr":"No","id":"abjw5lu6zz7k","address":"404 N BROAD ST","login":"KALIDA","password":3975,"geo_precision":"range","state":"OH","pin":3975},"type":"Feature","geometry":{"type":"Point","coordinates":[-84.197149,40.985302]}},{"properties":{"city":"OTTAWA","status":"Active","ppv":"Yes","zip":"45875","region":"Kalida","service packages":"Digital Basic,Digital Expanded","township":null,"last":"FANGER","stbs allowed":3,"geo_score":0.889,"first":"DAN","ppv limit":"Unlimited","customer id":4195323145,"phone":4195323145,"whdvr":"No","id":"abjw5m2ogtj5","address":"16221 RD L","login":"KALIDA","password":3145,"geo_precision":"range","state":"OH","pin":3145},"type":"Feature","geometry":{"type":"Point","coordinates":[-84.173416,41.006212]}},{"properties":{"city":"KALIDA","status":"Active","ppv":"No","zip":"45853","region":"Kalida","service packages":"Digital Basic","township":null,"last":"FORTMAN","stbs allowed":1,"geo_score":0.562,"first":"GLEN","ppv limit":"Unlimited","customer id":4195323284,"phone":4195323284,"whdvr":"No","id":"abjw5lvb1lym","address":"115 N THIRD ST","login":"KALIDA","password":3284,"geo_precision":"street","state":"OH","pin":3284},"type":"Feature","geometry":{"type":"Point","coordinates":[-84.202792,40.982062]}},{"properties":{"city":"KALIDA","status":"Active","ppv":"Yes","zip":"45853","region":"Kalida","service packages":"Digital Basic,Digital Expanded,Digital Sho / TMC","township":null,"last":"FORTMAN","stbs allowed":1,"geo_score":0.585,"first":"MARK","ppv limit":"Unlimited","customer id":4195323768,"phone":4195323768,"whdvr":"No","id":"abjw5lpxjvep","address":"419 E NORTH ST","login":"KALIDA","password":3768,"geo_precision":"street","state":"OH","pin":3768},"type":"Feature","geometry":{"type":"Point","coordinates":[-84.202995,40.984756]}},{"properties":{"city":"KALIDA","status":"Active","ppv":"Yes","zip":"45853","region":"Kalida","service packages":"Digital Basic,Digital Expanded,Digital SHO","township":null,"last":"FORTMAN","stbs allowed":2,"geo_score":0.837,"first":"CARL","ppv limit":"Unlimited","customer id":4195323613,"phone":4195323613,"whdvr":"No","id":"abjw5ltnwbl8","address":"310 E MAIN ST","login":"KALIDA","password":3613,"geo_precision":"range","state":"OH","pin":3613},"type":"Feature","geometry":{"type":"Point","coordinates":[-84.204187,40.98306]}},{"properties":{"city":"KALIDA","status":"Active","ppv":"Yes","zip":"45853","region":"Kalida","service packages":"Digital Basic","township":null,"last":"FORTMAN","stbs allowed":1,"geo_score":0.902,"first":"CHRIS","ppv limit":"Unlimited","customer id":4195323828,"phone":4195323828,"whdvr":"No","id":"abjw5lq39e0w","address":"801 OAK PARKWAY","login":"KALIDA","password":3828,"geo_precision":"range","state":"OH","pin":3828},"type":"Feature","geometry":{"type":"Point","coordinates":[-84.190564,40.993581]}},{"properties":{"city":"OTTAWA","status":"Active","ppv":"No","zip":"45875","region":"Kalida","service packages":"Digital Basic","township":null,"last":"FREY","stbs allowed":1,"geo_score":0.902,"first":"TRAVIS","ppv limit":"Unlimited","customer id":4195322258,"phone":4195322258,"whdvr":"No","id":"abjw5lwsun6n","address":"16040 RD M","login":"KALIDA","password":2258,"geo_precision":"range","state":"OH","pin":2258},"type":"Feature","geometry":{"type":"Point","coordinates":[-84.172973,40.991689]}},{"properties":{"city":"OTTAWA","status":"Active","ppv":"No","zip":"45875","region":"Kalida","service packages":"Digital Basic,Digital Expanded,Digital Sho / TMC,Digital HBO /Cinemax","township":null,"last":"GARDNER","stbs allowed":4,"geo_score":0.745,"first":"FRANK","ppv limit":"Unlimited","customer id":4195322704,"phone":4195322704,"whdvr":"No","id":"abjw5lq1o46q","address":"17013 SR 694","login":"KALIDA","password":2704,"geo_precision":"range","state":"OH","pin":2704},"type":"Feature","geometry":{"type":"Point","coordinates":[-84.189316,41.027967]}},{"properties":{"city":"FT JENNINGS","status":"Active","ppv":"No","zip":"45844","region":"Kalida","service packages":"Digital Basic,Digital Expanded,Digital Starz  Encore","township":null,"last":"GERDEMAN","stbs allowed":1,"geo_score":0.773,"first":"JOHN","ppv limit":"Unlimited","customer id":3441,"phone":4195323441,"whdvr":"No","id":"abjw5lxqc1up","address":"14260 RD 17-N","login":"KALIDA","password":3441,"geo_precision":"range","state":"OH","pin":3441},"type":"Feature","geometry":{"type":"Point","coordinates":[-84.199215,40.974292]}},{"properties":{"city":"KALIDA","status":"Active","ppv":"No","zip":"45853","region":"Kalida","service packages":"Digital Basic","township":null,"last":"GERDEMAN","stbs allowed":1,"geo_score":0.707,"first":"KEN","ppv limit":"Unlimited","customer id":4195322533,"phone":4195322533,"whdvr":"No","id":"abjw5lvdl8yr","address":"102 BROOKHAVEN DR","login":"KALIDA","password":2533,"geo_precision":"street","state":"OH","pin":2533},"type":"Feature","geometry":{"type":"Point","coordinates":[-84.132188,40.762625]}},{"properties":{"city":"CLOVERDALE","status":"Active","ppv":"No","zip":"45827","region":"Kalida","service packages":"Digital Basic","township":null,"last":"GERDING","stbs allowed":1,"geo_score":0.745,"first":"MARK","ppv limit":"Unlimited","customer id":4195322236,"phone":4195322236,"whdvr":"No","id":"abjw5lpwrejv","address":"18971 SR 114","login":"KALIDA","password":2236,"geo_precision":"range","state":"OH","pin":2236},"type":"Feature","geometry":{"type":"Point","coordinates":[-84.21409,40.992079]}},{"properties":{"city":"KALIDA","status":"Active","ppv":"No","zip":"45853","region":"Kalida","service packages":"Digital Basic","township":null,"last":"GOEDDE","stbs allowed":1,"geo_score":0.722,"first":"DAVE","ppv limit":"Unlimited","customer id":4195321565,"phone":4195321565,"whdvr":"No","id":"abjw5m2g9rn8","address":"114 E WATER ST","login":"KALIDA","password":1565,"geo_precision":"range","state":"OH","pin":1565},"type":"Feature","geometry":{"type":"Point","coordinates":[-84.2035,40.981099]}},{"properties":{"city":"OTTAWA","status":"Active","ppv":"No","zip":"45875","region":"Kalida","service packages":"Digital Basic,Digital Expanded","township":null,"last":"GOLF COURSE","stbs allowed":2,"geo_score":0.731,"first":"COUNTRY ACRES","ppv limit":"Unlimited","customer id":4195323434,"phone":4195323434,"whdvr":"No","id":"abjw5lup8kul","address":"17374 SR 694","login":"KALIDA","password":3434,"geo_precision":"range","state":"OH","pin":3434},"type":"Feature","geometry":{"type":"Point","coordinates":[-84.196402,41.028082]}},{"properties":{"city":"KALIDA","status":"Active","ppv":"No","zip":"45853","region":"Kalida","service packages":"Digital Basic","township":null,"last":"GUISINGER","stbs allowed":2,"geo_score":0.902,"first":"CRAIG","ppv limit":"Unlimited","customer id":4195322079,"phone":4195322079,"whdvr":"No","id":"abjw5lrrcvay","address":"206 SHADY LANE","login":"KALIDA","password":2079,"geo_precision":"range","state":"OH","pin":2079},"type":"Feature","geometry":{"type":"Point","coordinates":[-84.033512,41.040058]}},{"properties":{"city":"FT JENNINGS","status":"Active","ppv":"No","zip":"45844","region":"Kalida","service packages":"Digital Basic","township":null,"last":"HAMBURG","stbs allowed":1,"geo_score":0.88,"first":"ROBERT","ppv limit":"Unlimited","customer id":4195323882,"phone":4195323882,"whdvr":"No","id":"abjw5lthsinh","address":"15112 RD 19","login":"KALIDA","password":3882,"geo_precision":"range","state":"OH","pin":3882},"type":"Feature","geometry":{"type":"Point","coordinates":[-84.226144,40.961019]}},{"properties":{"city":"KALIDA","status":"Active","ppv":"No","zip":"45853","region":"Kalida","service packages":"Digital Basic,Digital Expanded,Digital Sho / TMC,Digital HBO /Cinemax","township":null,"last":"HAMILTON","stbs allowed":1,"geo_score":0.756,"first":"JIM","ppv limit":"Unlimited","customer id":4195323061,"phone":4195323061,"whdvr":"No","id":"abjw5lrs921g","address":"311 S THIRD ST.","login":"KALIDA","password":3061,"geo_precision":"range","state":"OH","pin":3061},"type":"Feature","geometry":{"type":"Point","coordinates":[-84.202998,40.981705]}},{"properties":{"city":"columbus grove","status":"Active","ppv":"No","zip":"45830","region":"Kalida","service packages":"Digital Basic,Digital Expanded","township":null,"last":"HANNEMAN","stbs allowed":1,"geo_score":0.902,"first":"ROGER","ppv limit":"Unlimited","customer id":4195323764,"phone":4195323764,"whdvr":"No","id":"abjw5lsbx43m","address":"16890 RD Z","login":"KALIDA","password":3764,"geo_precision":"range","state":"OH","pin":3764},"type":"Feature","geometry":{"type":"Point","coordinates":[-84.184721,40.972264]}},{"properties":{"city":"OTTAWA","status":"Active","ppv":"No","zip":"45875","region":"Kalida","service packages":"Digital Basic","township":null,"last":"HANNEMAN","stbs allowed":2,"geo_score":0.488,"first":"GARY","ppv limit":"Unlimited","customer id":4195323414,"phone":4195323414,"whdvr":"No","id":"abjw5lw6ud5e","address":"14701 RD K-14","login":"KALIDA","password":3414,"geo_precision":"zip","state":"OH","pin":3414},"type":"Feature","geometry":{"type":"Point","coordinates":[-84.169112,41.020884]}},{"properties":{"city":"KALIDA","status":"Active","ppv":"No","zip":"45853","region":"Kalida","service packages":"Digital Basic","township":null,"last":"HANNEMAN","stbs allowed":1,"geo_score":0.902,"first":"LOGAN","ppv limit":"Unlimited","customer id":4195322482,"phone":4195322482,"whdvr":"No","id":"abjw5luoqfpu","address":"109 BACON ST","login":"KALIDA","password":2482,"geo_precision":"range","state":"OH","pin":2482},"type":"Feature","geometry":{"type":"Point","coordinates":[-84.19211,40.990548]}},{"properties":{"city":"OTTAWA","status":"Active","ppv":"No","zip":"45875","region":"Kalida","service packages":"Digital Basic,Digital Expanded","township":null,"last":"HEITMEYER","stbs allowed":1,"geo_score":0.415,"first":"BRIAN","ppv limit":"Unlimited","customer id":4195321555,"phone":4195321555,"whdvr":"No","id":"abjw5lqst945","address":"16925 ST. RT. 224","login":"KALIDA","password":1555,"geo_precision":"street","state":"OH","pin":1555},"type":"Feature","geometry":{"type":"Point","coordinates":[-84.092475,41.108256]}},{"properties":{"city":"KALIDA","status":"Active","ppv":"No","zip":"45853","region":"Kalida","service packages":"Digital Basic,Digital Expanded,Digital HBO /Cinemax","township":null,"last":"HEITMEYER","stbs allowed":1,"geo_score":0.829,"first":"TYLER","ppv limit":"Unlimited","customer id":4195321606,"phone":4195321606,"whdvr":"No","id":"abjw5m3qqs4c","address":"504 N 5TH ST","login":"KALIDA","password":1606,"geo_precision":"range","state":"OH","pin":1606},"type":"Feature","geometry":{"type":"Point","coordinates":[-84.194356,40.985008]}},{"properties":{"city":"KALIDA","status":"Active","ppv":"No","zip":"45853","region":"Kalida","service packages":"Digital Basic","township":null,"last":"HELMKE","stbs allowed":1,"geo_score":0.829,"first":"BRENT","ppv limit":"Unlimited","customer id":4195322411,"phone":4195322411,"whdvr":"No","id":"abjw5m4qh8ru","address":"315 BIRCH DR","login":"KALIDA","password":2411,"geo_precision":"range","state":"OH","pin":2411},"type":"Feature","geometry":{"type":"Point","coordinates":[-84.198782,40.988239]}},{"properties":{"city":"KALIDA","status":"Active","ppv":"No","zip":"45853","region":"Kalida","service packages":"Digital Basic","township":null,"last":"HENRY","stbs allowed":1,"geo_score":0.844,"first":"WILLIAM","ppv limit":"Unlimited","customer id":4195322430,"phone":4195322430,"whdvr":"No","id":"abjw5ltlr4xh","address":"404 N BROAD ST","login":"KALIDA","password":2430,"geo_precision":"range","state":"OH","pin":2430},"type":"Feature","geometry":{"type":"Point","coordinates":[-84.197149,40.985302]}},{"properties":{"city":"KALIDA","status":"Active","ppv":"Yes","zip":"45853","region":"Kalida","service packages":"Digital Basic,Digital Expanded","township":null,"last":"HERMILLER","stbs allowed":1,"geo_score":0.837,"first":"JENNIFER","ppv limit":"Unlimited","customer id":4195321668,"phone":4195321668,"whdvr":"No","id":"abjw5luh7zru","address":"424 W MAIN ST","login":"KALIDA","password":3811,"geo_precision":"range","state":"OH","pin":3811},"type":"Feature","geometry":{"type":"Point","coordinates":[-84.206212,40.984345]}},{"properties":{"city":"COLUMBUS GROVE","status":"Active","ppv":"Yes","zip":"45830","region":"Kalida","service packages":"Digital Basic","township":null,"last":"HESSEL","stbs allowed":1,"geo_score":0.738,"first":"DAVID","ppv limit":"Unlimited","customer id":4195321619,"phone":4195321619,"whdvr":"No","id":"abjw5m3glrfn","address":"15860 SR 115","login":"KALIDA","password":1619,"geo_precision":"range","state":"OH","pin":1619},"type":"Feature","geometry":{"type":"Point","coordinates":[-84.165854,40.949714]}},{"properties":{"city":"KALIDA","status":"Active","ppv":"Yes","zip":"45853","region":"Kalida","service packages":"Digital Basic,Digital Expanded,Digital HBO","township":null,"last":"HIGGINS","stbs allowed":1,"geo_score":0.746,"first":"JEREMY &amp; JILL","ppv limit":"Unlimited","customer id":4195322592,"phone":4195322592,"whdvr":"No","id":"abjw5lwdb4wt","address":"507 N BROAD ST","login":"KALIDA","password":2592,"geo_precision":"range","state":"OH","pin":2592},"type":"Feature","geometry":{"type":"Point","coordinates":[-84.197172,40.985386]}},{"properties":{"city":"KALIDA","status":"Active","ppv":"No","zip":"45853","region":"Kalida","service packages":"Digital Basic","township":null,"last":"HOFFMAN","stbs allowed":1,"geo_score":0.659,"first":"BRIAN","ppv limit":"Unlimited","customer id":4195322697,"phone":4195322697,"whdvr":"No","id":"abjw5m25ni09","address":"104 CAMBRIDGE DR","login":"KALIDA","password":2697,"geo_precision":"street","state":"OH","pin":2697},"type":"Feature","geometry":{"type":"Point","coordinates":[-84.033097,40.733792]}},{"properties":{"city":"OTTAWA","status":"Active","ppv":"Yes","zip":"45875","region":"Kalida","service packages":"Digital Basic,Digital Expanded,Digital Starz  Encore,Digital HD,Digital Sho / TMC,Digital HBO /Cinemax","township":null,"last":"HOFFMAN","stbs allowed":8,"geo_score":0.745,"first":"CHRIS","ppv limit":"Unlimited","customer id":4195322266,"phone":4195322266,"whdvr":"Yes","id":"abjw5luj5ygv","address":"12238 sr 115","login":"KALIDA","password":5044,"geo_precision":"range","state":"OH","pin":5044},"type":"Feature","geometry":{"type":"Point","coordinates":[-84.197937,41.002537]}},{"properties":{"city":"FT JENNINGS","status":"Active","ppv":"Yes","zip":"45844","region":"Kalida","service packages":"Digital Basic,Digital HBO /Cinemax","township":null,"last":"HOFFMAN","stbs allowed":1,"geo_score":0.77,"first":"CRAIG","ppv limit":"Unlimited","customer id":4195323466,"phone":4195323466,"whdvr":"No","id":"abjw5m3jrmcl","address":"18371 SR 224","login":"KALIDA","password":8262,"geo_precision":"range","state":"OH","pin":8262},"type":"Feature","geometry":{"type":"Point","coordinates":[-84.219979,40.96981]}},{"properties":{"city":"FT. JENNINGS","status":"Active","ppv":"Yes","zip":"45844","region":"Kalida","service packages":"Digital Basic,Digital Expanded,Digital Starz  Encore,Digital HBO /Cinemax,Digital SHO","township":null,"last":"HONIGFORT","stbs allowed":1,"geo_score":0.88,"first":"JON","ppv limit":"Unlimited","customer id":4195321523,"phone":4195321523,"whdvr":"No","id":"abjw5lvk4a66","address":"18019 RD Q","login":"KALIDA","password":1523,"geo_precision":"range","state":"OH","pin":1523},"type":"Feature","geometry":{"type":"Point","coordinates":[-84.206928,40.932767]}},{"properties":{"city":"KALIDA","status":"Active","ppv":"No","zip":"45853","region":"Kalida","service packages":"Digital Basic","township":null,"last":"HOPKINS","stbs allowed":1,"geo_score":0.902,"first":"JOHN","ppv limit":"Unlimited","customer id":4195323004,"phone":4195323004,"whdvr":"No","id":"abjw5lyfxql2","address":"104 CARNATION ST","login":"KALIDA","password":3004,"geo_precision":"range","state":"OH","pin":3004},"type":"Feature","geometry":{"type":"Point","coordinates":[-84.191179,40.985745]}},{"properties":{"city":"KALIDA","status":"Active","ppv":"Yes","zip":"45853","region":"Kalida","service packages":"Digital Basic,Digital Starz  Encore,Digital Sho / TMC,Digital HBO /Cinemax","township":null,"last":"HORSTMAN","stbs allowed":4,"geo_score":0.659,"first":"TED","ppv limit":"Unlimited","customer id":4195322457,"phone":4195322457,"whdvr":"Yes","id":"abjw5lrh9ys4","address":"101 CAMBRIDGE DR","login":"KALIDA","password":2457,"geo_precision":"street","state":"OH","pin":2457},"type":"Feature","geometry":{"type":"Point","coordinates":[-84.033097,40.733792]}},{"properties":{"city":"KALIDA","status":"Active","ppv":"Yes","zip":"45853","region":"Kalida","service packages":"Digital Basic,Digital Expanded,Digital Sho / TMC,Digital HBO /Cinemax","township":null,"last":"HORSTMAN","stbs allowed":1,"geo_score":0.634,"first":"RICK","ppv limit":"Unlimited","customer id":4195322076,"phone":4195322076,"whdvr":"No","id":"abjw5m3fhwz2","address":"309 SHOREVIEW","login":"KALIDA","password":2076,"geo_precision":"street","state":"OH","pin":2076},"type":"Feature","geometry":{"type":"Point","coordinates":[-84.158177,40.721863]}},{"properties":{"city":"KALIDA","status":"Active","ppv":"Yes","zip":"45853","region":"Kalida","service packages":"Digital Expanded,Digital Basic No Fox Sports","township":null,"last":"HOYTS TAVERN","stbs allowed":1,"geo_score":0.746,"first":"HOYTS","ppv limit":"Unlimited","customer id":4195323200,"phone":4195323200,"whdvr":"No","id":"abjw5m5b2pcl","address":"409 S BROAD ST","login":"KALIDA","password":2736,"geo_precision":"range","state":"OH","pin":2736},"type":"Feature","geometry":{"type":"Point","coordinates":[-84.197254,40.985408]}},{"properties":{"city":"KALIDA","status":"Active","ppv":"No","zip":"45853","region":"Kalida","service packages":"Digital Basic","township":null,"last":"ILLIF","stbs allowed":1,"geo_score":0.844,"first":"DAVE &amp; RITA","ppv limit":"Unlimited","customer id":4195323703,"phone":4195323703,"whdvr":"No","id":"abjw5m00n8da","address":"307 E RALPH ST","login":"KALIDA","password":3703,"geo_precision":"range","state":"OH","pin":3703},"type":"Feature","geometry":{"type":"Point","coordinates":[-84.194747,40.984554]}},{"properties":{"city":"FORT JENNINGS","status":"Active","ppv":"No","zip":"45844","region":"Kalida","service packages":"Digital Basic","township":null,"last":"JANKA","stbs allowed":1,"geo_score":0.902,"first":"TOM","ppv limit":"Unlimited","customer id":4195322039,"phone":4195322039,"whdvr":"No","id":"abjw5lue8kjv","address":"16184 RD 19","login":"KALIDA","password":2039,"geo_precision":"range","state":"OH","pin":2039},"type":"Feature","geometry":{"type":"Point","coordinates":[-84.225883,40.947419]}},{"properties":{"city":"KALIDA","status":"Active","ppv":"Yes","zip":"45853","region":"Kalida","service packages":"Digital Basic,Digital HBO /Cinemax","township":null,"last":"JERWERS","stbs allowed":1,"geo_score":0.649,"first":"JEREMY","ppv limit":"Unlimited","customer id":4195322922,"phone":4195322922,"whdvr":"No","id":"abjw5m1f69ca","address":"404 W NORTH ST","login":"KALIDA","password":2922,"geo_precision":"range","state":"OH","pin":2922},"type":"Feature","geometry":{"type":"Point","coordinates":[-84.203845,40.985224]}},{"properties":{"city":"KALIDA","status":"Active","ppv":"No","zip":"45853","region":"Kalida","service packages":"Digital Basic","township":null,"last":"JOHNSON","stbs allowed":1,"geo_score":0.592,"first":"CHAD","ppv limit":"Unlimited","customer id":4195322311,"phone":4195322311,"whdvr":"No","id":"abjw5lsoouk3","address":"311 W NORTH ST","login":"KALIDA","password":2311,"geo_precision":"street","state":"OH","pin":2311},"type":"Feature","geometry":{"type":"Point","coordinates":[-84.204122,40.985505]}},{"properties":{"city":"KALIDA","status":"Active","ppv":"No","zip":"45853","region":"Kalida","service packages":"Digital Basic,Digital Expanded","township":null,"last":"KAHLE","stbs allowed":1,"geo_score":0.902,"first":"RON","ppv limit":"Unlimited","customer id":4195323111,"phone":4195323111,"whdvr":"No","id":"abjw5lw3bwc3","address":"205 CANABERRY DRIVE","login":"KALIDA","password":3111,"geo_precision":"range","state":"OH","pin":3111},"type":"Feature","geometry":{"type":"Point","coordinates":[-84.199428,40.99037]}},{"properties":{"city":"Kalida","status":"Active","ppv":"Yes","zip":"45853","region":"Kalida","service packages":"Digital Basic,Digital Expanded,Digital Starz  Encore,Digital HD,Digital Sho / TMC,Digital HBO /Cinemax","township":null,"last":"KalidaTel","stbs allowed":15,"geo_score":0.837,"first":"Kalida","ppv limit":"Unlimited","customer id":1234,"phone":4195323218,"whdvr":"Yes","id":"abjw5ltx97h5","address":"121 East Main Street","login":"kalida","password":1234,"geo_precision":"range","state":"OH","pin":1234},"type":"Feature","geometry":{"type":"Point","coordinates":[-84.202792,40.982062]}},{"properties":{"city":"OTTAWA","status":"Active","ppv":"No","zip":"45875","region":"Kalida","service packages":"Digital Basic","township":null,"last":"KERN","stbs allowed":3,"geo_score":0.561,"first":"ADAM","ppv limit":"Unlimited","customer id":4195322147,"phone":4195322147,"whdvr":"Yes","id":"abjw5lt2ip0e","address":"10436-16 COUNTRY ACRES DRIVE","login":"KALIDA","password":2147,"geo_precision":"street","state":"OH","pin":2147},"type":"Feature","geometry":{"type":"Point","coordinates":[-84.628985,40.422357]}},{"properties":{"city":"OTTAWA","status":"Active","ppv":"Yes","zip":"45875","region":"Kalida","service packages":"Digital Basic","township":null,"last":"KILLION","stbs allowed":1,"geo_score":0.902,"first":"MICHAEL","ppv limit":"Unlimited","customer id":4195323567,"phone":4195323567,"whdvr":"No","id":"abjw5lz82x3h","address":"15873 RD L","login":"KALIDA","password":3567,"geo_precision":"range","state":"OH","pin":3567},"type":"Feature","geometry":{"type":"Point","coordinates":[-84.16648,41.006211]}},{"properties":{"city":"KALIDA","status":"Active","ppv":"Yes","zip":"45853","region":"Kalida","service packages":"Digital Basic,Digital Expanded","township":null,"last":"KIMMEL","stbs allowed":1,"geo_score":0.902,"first":"GLENN","ppv limit":"Unlimited","customer id":4195321644,"phone":4195321644,"whdvr":"No","id":"abjw5lrhzsx4","address":"135 WALNUT DR","login":"KALIDA","password":1644,"geo_precision":"range","state":"OH","pin":1644},"type":"Feature","geometry":{"type":"Point","coordinates":[-84.195162,40.989708]}},{"properties":{"city":"KALIDA","status":"Active","ppv":"No","zip":"45853","region":"Kalida","service packages":"Digital Basic,Digital Expanded","township":null,"last":"KLAUSING","stbs allowed":1,"geo_score":0.507,"first":"GREG","ppv limit":"Unlimited","customer id":4195323053,"phone":4195323053,"whdvr":"No","id":"abjw5m01enai","address":"416 W NORTH ST","login":"KALIDA","password":3053,"geo_precision":"street","state":"OH","pin":3053},"type":"Feature","geometry":{"type":"Point","coordinates":[-84.202995,40.984756]}},{"properties":{"city":"KALIDA","status":"Active","ppv":"Yes","zip":"45853","region":"Kalida","service packages":"Digital Basic","township":null,"last":"KLAUSING","stbs allowed":2,"geo_score":0.718,"first":"TIM","ppv limit":"Unlimited","customer id":4195322752,"phone":4195322752,"whdvr":"No","id":"abjw5m2n0umc","address":"322 N 6TH ST","login":"KALIDA","password":2752,"geo_precision":"range","state":"OH","pin":2752},"type":"Feature","geometry":{"type":"Point","coordinates":[-84.195449,40.98262]}},{"properties":{"city":"OTTAWA","status":"Active","ppv":"No","zip":"45853","region":"Kalida","service packages":"Digital Basic","township":null,"last":"KLAUSING","stbs allowed":1,"geo_score":0.902,"first":"BRIAN","ppv limit":"Unlimited","customer id":4195323324,"phone":4195323324,"whdvr":"No","id":"abjw5m04qbb9","address":"12545 RD 18","login":"KALIDA","password":3324,"geo_precision":"range","state":"OH","pin":3324},"type":"Feature","geometry":{"type":"Point","coordinates":[-84.207362,40.995345]}},{"properties":{"city":"OTTAWA","status":"Active","ppv":"No","zip":"45875","region":"Kalida","service packages":"Digital Basic","township":null,"last":"KLAUSING","stbs allowed":1,"geo_score":0.902,"first":"ANGELA","ppv limit":"Unlimited","customer id":4195322593,"phone":4195322593,"whdvr":"No","id":"abjw5lu8pwsv","address":"17450 FAIRWAY DR","login":"KALIDA","password":2593,"geo_precision":"range","state":"OH","pin":2593},"type":"Feature","geometry":{"type":"Point","coordinates":[-84.197604,41.028679]}},{"properties":{"city":"OTTAWA","status":"Active","ppv":"No","zip":"45875","region":"Kalida","service packages":"Digital Basic","township":null,"last":"KNOWLES","stbs allowed":1,"geo_score":0.561,"first":"STANTON","ppv limit":"Unlimited","customer id":4195322364,"phone":4195322364,"whdvr":"No","id":"abjw5m4evrrv","address":"10436-13 COUNTRY ACRES DRIVE","login":"KALIDA","password":2364,"geo_precision":"street","state":"OH","pin":2364},"type":"Feature","geometry":{"type":"Point","coordinates":[-84.628985,40.422357]}},{"properties":{"city":"FORT JENNINGS","status":"Active","ppv":"Yes","zip":"45844","region":"Kalida","service packages":"Digital Basic","township":null,"last":"KOENIGSEKER","stbs allowed":2,"geo_score":0.902,"first":"DAVID","ppv limit":"Unlimited","customer id":4195322830,"phone":4195322830,"whdvr":"Yes","id":"abjw5ly2ovne","address":"16766 RD 18","login":"KALIDA","password":2830,"geo_precision":"range","state":"OH","pin":2830},"type":"Feature","geometry":{"type":"Point","coordinates":[-84.206651,40.933042]}},{"properties":{"city":"KALIDA","status":"Active","ppv":"No","zip":"45853","region":"Kalida","service packages":"Digital Basic,Digital Expanded","township":null,"last":"KOHLS","stbs allowed":1,"geo_score":0.829,"first":"PAT","ppv limit":"Unlimited","customer id":4195322234,"phone":4195322234,"whdvr":"No","id":"abjw5lvd073n","address":"601 N SIXTH ST","login":"KALIDA","password":2234,"geo_precision":"range","state":"OH","pin":2234},"type":"Feature","geometry":{"type":"Point","coordinates":[-84.193618,40.983984]}},{"properties":{"city":"COLUMBUS GROVE","status":"Active","ppv":"No","zip":"45830","region":"Kalida","service packages":"Digital Basic","township":null,"last":"KORTE","stbs allowed":1,"geo_score":0.738,"first":"RON","ppv limit":"Unlimited","customer id":4195323877,"phone":4195323877,"whdvr":"No","id":"abjw5lw3debs","address":"15918 SR 115","login":"KALIDA","password":3877,"geo_precision":"range","state":"OH","pin":3877},"type":"Feature","geometry":{"type":"Point","coordinates":[-84.164583,40.94875]}},{"properties":{"city":"KALIDA","status":"Active","ppv":"Yes","zip":"45853","region":"Kalida","service packages":"Digital Basic,Digital Expanded","township":null,"last":"KORTE","stbs allowed":1,"geo_score":0.844,"first":"ELMER","ppv limit":"Unlimited","customer id":4195323250,"phone":4195323250,"whdvr":"No","id":"abjw5ltkc0gi","address":"210 E PRICE ST","login":"KALIDA","password":3250,"geo_precision":"range","state":"OH","pin":3250},"type":"Feature","geometry":{"type":"Point","coordinates":[-84.198336,40.982791]}},{"properties":{"city":"KALIDA","status":"Active","ppv":"Yes","zip":"45853","region":"Kalida","service packages":"Digital Basic","township":null,"last":"KRANING","stbs allowed":1,"geo_score":0.837,"first":"ADAM","ppv limit":"Unlimited","customer id":4195321643,"phone":4195321643,"whdvr":"No","id":"abjw5lqj0pcu","address":"309 E MAIN ST","login":"KALIDA","password":1643,"geo_precision":"range","state":"OH","pin":1643},"type":"Feature","geometry":{"type":"Point","coordinates":[-84.204708,40.983232]}},{"properties":{"city":"KALIDA","status":"Active","ppv":"No","zip":"45853","region":"Kalida","service packages":"Digital Basic","township":null,"last":"KROUSE","stbs allowed":2,"geo_score":0.902,"first":"STEVE","ppv limit":"Unlimited","customer id":4195323353,"phone":4195323353,"whdvr":"No","id":"abjw5ly7df6r","address":"165 WALNUT DR","login":"KALIDA","password":3353,"geo_precision":"range","state":"OH","pin":3353},"type":"Feature","geometry":{"type":"Point","coordinates":[-84.192634,40.989704]}},{"properties":{"city":"KALIDA","status":"Active","ppv":"No","zip":"45853","region":"Kalida","service packages":"Digital Basic","township":null,"last":"KROUSE","stbs allowed":1,"geo_score":0.837,"first":"NOLAN","ppv limit":"Unlimited","customer id":4195323560,"phone":4195323560,"whdvr":"No","id":"abjw5lwuguax","address":"203 W PLUM ST","login":"KALIDA","password":3560,"geo_precision":"range","state":"OH","pin":3560},"type":"Feature","geometry":{"type":"Point","coordinates":[-84.202899,40.98341]}},{"properties":{"city":"OTTAWA","status":"Active","ppv":"No","zip":"45875","region":"Kalida","service packages":"Digital Basic,Digital Expanded","township":null,"last":"KROUSE","stbs allowed":1,"geo_score":0.812,"first":"GARY","ppv limit":"Unlimited","customer id":4195323788,"phone":4195323788,"whdvr":"No","id":"abjw5lt8stlk","address":"17141 ST RT 694","login":"KALIDA","password":3788,"geo_precision":"range","state":"OH","pin":3788},"type":"Feature","geometry":{"type":"Point","coordinates":[-84.191936,41.027954]}},{"properties":{"city":"KALIDA","status":"Active","ppv":"Yes","zip":"45853","region":"Kalida","service packages":"Digital Basic","township":null,"last":"KROUSE","stbs allowed":1,"geo_score":0.666,"first":"RYAN","ppv limit":"Unlimited","customer id":4195322574,"phone":4195322574,"whdvr":"No","id":"abjw5lqs0vm1","address":"410 W NORTHLAND DR","login":"KALIDA","password":2574,"geo_precision":"street","state":"OH","pin":2574},"type":"Feature","geometry":{"type":"Point","coordinates":[-84.190601,40.991479]}},{"properties":{"city":"FT JENNINGS","status":"Active","ppv":"Yes","zip":"45844","region":"Kalida","service packages":"Digital Basic,Digital Expanded,Digital Starz  Encore,Digital HD,Digital Sho / TMC,Digital HBO /Cinemax","township":null,"last":"KRUSE","stbs allowed":2,"geo_score":0.887,"first":"AUSTIN","ppv limit":"Unlimited","customer id":4195323057,"phone":4195323057,"whdvr":"Yes","id":"abjw5m0i4eft","address":"18271 RD Q","login":"KALIDA","password":3057,"geo_precision":"range","state":"OH","pin":3057},"type":"Feature","geometry":{"type":"Point","coordinates":[-84.212448,40.932695]}},{"properties":{"city":"KALIDA","status":"Active","ppv":"No","zip":"45853","region":"Kalida","service packages":"Digital Basic","township":null,"last":"KUHLMAN","stbs allowed":2,"geo_score":0.688,"first":"CRAIG","ppv limit":"Unlimited","customer id":4195322496,"phone":4195322496,"whdvr":"No","id":"abjw5m1sa4cg","address":"413 W NORTH ST","login":"KALIDA","password":2496,"geo_precision":"street","state":"OH","pin":2496},"type":"Feature","geometry":{"type":"Point","coordinates":[-84.202995,40.984756]}},{"properties":{"city":"KALIDA","status":"Active","ppv":"No","zip":"45853","region":"Kalida","service packages":"Digital Basic,Digital Expanded","township":null,"last":"LANDIN","stbs allowed":3,"geo_score":0.659,"first":"TROY","ppv limit":"Unlimited","customer id":4195322583,"phone":4195322583,"whdvr":"No","id":"abjw5luc4hes","address":"103 CAMBRIDGE DR","login":"KALIDA","password":2583,"geo_precision":"street","state":"OH","pin":2583},"type":"Feature","geometry":{"type":"Point","coordinates":[-84.033097,40.733792]}},{"properties":{"city":"CLOVERDALE","status":"Active","ppv":"Yes","zip":"45827","region":"Kalida","service packages":"Digital Basic,Digital Expanded,Digital HBO /Cinemax","township":null,"last":"LANGHALS","stbs allowed":1,"geo_score":0.736,"first":"DOUG","ppv limit":"Unlimited","customer id":4195321542,"phone":4195321542,"whdvr":"No","id":"abjw5lxrzmxa","address":"19136 SR 114","login":"KALIDA","password":1542,"geo_precision":"range","state":"OH","pin":1542},"type":"Feature","geometry":{"type":"Point","coordinates":[-84.229851,40.996863]}},{"properties":{"city":"KALIDA","status":"Active","ppv":"Yes","zip":"45853","region":"Kalida","service packages":"Digital Basic,Digital Expanded","township":null,"last":"LEIS","stbs allowed":1,"geo_score":0.78,"first":"JASON","ppv limit":"Unlimited","customer id":4195322455,"phone":4195322455,"whdvr":"No","id":"abjw5ls4c3bl","address":"305 PLUM ST","login":"KALIDA","password":2455,"geo_precision":"street","state":"OH","pin":2455},"type":"Feature","geometry":{"type":"Point","coordinates":[-84.202899,40.98341]}},{"properties":{"city":"OTTAWA","status":"Active","ppv":"Yes","zip":"45875","region":"Kalida","service packages":"Digital Basic,Digital HBO","township":null,"last":"LITTLE","stbs allowed":2,"geo_score":0.488,"first":"CHARLES","ppv limit":"Unlimited","customer id":4195322273,"phone":4195322273,"whdvr":"No","id":"abjw5m1suw33","address":"17466 FAIRWAY-C DRIVE","login":"KALIDA","password":2273,"geo_precision":"zip","state":"OH","pin":2273},"type":"Feature","geometry":{"type":"Point","coordinates":[-84.169112,41.020884]}},{"properties":{"city":"OTTAWA","status":"Active","ppv":"No","zip":"45875","region":"Kalida","service packages":"Digital Basic","township":null,"last":"McELWAIN","stbs allowed":2,"geo_score":0.902,"first":"RICH","ppv limit":"Unlimited","customer id":4195323126,"phone":4195323126,"whdvr":"No","id":"abjw5m47ph0z","address":"17195 RD L","login":"KALIDA","password":3126,"geo_precision":"range","state":"OH","pin":3126},"type":"Feature","geometry":{"type":"Point","coordinates":[-84.191971,41.006031]}},{"properties":{"city":"KALIDA","status":"Active","ppv":"Yes","zip":"45853","region":"Kalida","service packages":"Digital Basic,Digital Expanded,Digital HBO","township":null,"last":"MCELWAIN","stbs allowed":1,"geo_score":0.592,"first":"JIM","ppv limit":"Unlimited","customer id":4195323622,"phone":4195323622,"whdvr":"No","id":"abjw5m08yl89","address":"17115 SR 224","login":"KALIDA","password":3622,"geo_precision":"street","state":"OH","pin":3622},"type":"Feature","geometry":{"type":"Point","coordinates":[-84.183458,40.981111]}},{"properties":{"city":"KALIDA","status":"Active","ppv":"No","zip":"45853","region":"Kalida","service packages":"Digital Basic,Digital Expanded","township":null,"last":"MCVEY","stbs allowed":4,"geo_score":0.483,"first":"MATT &amp; JEN","ppv limit":"Unlimited","customer id":4195323242,"phone":4195323242,"whdvr":"No","id":"abjw5m0agyy2","address":"612 B BUCKEYE APT","login":"KALIDA","password":3242,"geo_precision":"street","state":"OH","pin":3242},"type":"Feature","geometry":{"type":"Point","coordinates":[-84.12672,40.763099]}},{"properties":{"city":"KALIDA","status":"Active","ppv":"Yes","zip":"45853","region":"Kalida","service packages":"Digital Basic","township":null,"last":"MERILLOT","stbs allowed":1,"geo_score":0.756,"first":"DAN","ppv limit":"Unlimited","customer id":4195322907,"phone":4195322907,"whdvr":"No","id":"abjw5lvnz29a","address":"411 E NORTH ST","login":"KALIDA","password":2907,"geo_precision":"range","state":"OH","pin":2907},"type":"Feature","geometry":{"type":"Point","coordinates":[-84.202995,40.984756]}},{"properties":{"city":"FT. JENNINGS","status":"Active","ppv":"No","zip":"45844","region":"Kalida","service packages":"Digital Basic","township":null,"last":"MERSCHMAN","stbs allowed":1,"geo_score":0.88,"first":"MARY LOU","ppv limit":"Unlimited","customer id":4195323650,"phone":4195323650,"whdvr":"No","id":"abjw5m2nw7l1","address":"16596 RD 18","login":"KALIDA","password":3650,"geo_precision":"range","state":"OH","pin":3650},"type":"Feature","geometry":{"type":"Point","coordinates":[-84.206709,40.938292]}},{"properties":{"city":"KALIDA","status":"Active","ppv":"Yes","zip":"45853","region":"Kalida","service packages":"Digital Basic,Digital Expanded","township":null,"last":"MESSMANN","stbs allowed":1,"geo_score":0.844,"first":"DREW","ppv limit":"Unlimited","customer id":4195321547,"phone":4195321547,"whdvr":"No","id":"abjw5lpwuut0","address":"209 S BROAD ST","login":"KALIDA","password":1547,"geo_precision":"range","state":"OH","pin":1547},"type":"Feature","geometry":{"type":"Point","coordinates":[-84.198512,40.984266]}},{"properties":{"city":"KALIDA","status":"Active","ppv":"No","zip":"45853","region":"Kalida","service packages":"Digital Basic","township":null,"last":"MEYER","stbs allowed":2,"geo_score":0.785,"first":"SCOTT","ppv limit":"Unlimited","customer id":4195323230,"phone":4195323230,"whdvr":"No","id":"abjw5m0n4iug","address":"411 W NORTH ST","login":"KALIDA","password":3230,"geo_precision":"range","state":"OH","pin":3230},"type":"Feature","geometry":{"type":"Point","coordinates":[-84.202995,40.984756]}},{"properties":{"city":"KALIDA","status":"Active","ppv":"Yes","zip":"45853","region":"Kalida","service packages":"Digital Basic,Digital Expanded","township":null,"last":"MEYER","stbs allowed":2,"geo_score":0.756,"first":"ROSE","ppv limit":"Unlimited","customer id":4195323453,"phone":4195323453,"whdvr":"No","id":"abjw5m46jgts","address":"205 FIFTH ST","login":"KALIDA","password":3453,"geo_precision":"range","state":"OH","pin":3453},"type":"Feature","geometry":{"type":"Point","coordinates":[-84.19902,40.980766]}},{"properties":{"city":"FT JENNINGS","status":"Active","ppv":"No","zip":"45844","region":"Kalida","service packages":"Digital Basic,Digital Expanded","township":null,"last":"MILLER","stbs allowed":1,"geo_score":0.488,"first":"BRAD","ppv limit":"Unlimited","customer id":4195321559,"phone":4195321559,"whdvr":"No","id":"abjw5lq7lm0a","address":"18185 RD M-17","login":"KALIDA","password":1559,"geo_precision":"zip","state":"OH","pin":1559},"type":"Feature","geometry":{"type":"Point","coordinates":[-84.253283,40.874217]}},{"properties":{"city":"KALIDA","status":"Inactive","ppv":"No","zip":"45853","region":"Kalida","service packages":"Digital Basic,Digital Expanded","township":null,"last":"MILLER","stbs allowed":1,"geo_score":0.902,"first":"PAUL","ppv limit":"Unlimited","customer id":4195323240,"phone":4195323240,"whdvr":"No","id":"abjw5m4nf1uz","address":"507 VEACH ST","login":"KALIDA","password":3240,"geo_precision":"range","state":"OH","pin":3240},"type":"Feature","geometry":{"type":"Point","coordinates":[-84.192483,40.982211]}},{"properties":{"city":"Kalida","status":"Active","ppv":"Yes","zip":"45853","region":"Kalida","service packages":"Digital Basic,Digital Expanded,Digital TMC","township":null,"last":"MOENING","stbs allowed":1,"geo_score":0.902,"first":"LEONARD","ppv limit":"Unlimited","customer id":4195323468,"phone":4195323468,"whdvr":"No","id":"abjw5lu0utmk","address":"418 Ottawa St.","login":"KALIDA","password":3468,"geo_precision":"range","state":"OH","pin":3468},"type":"Feature","geometry":{"type":"Point","coordinates":[-84.191028,40.981211]}},{"properties":{"city":"KALIDA","status":"Active","ppv":"No","zip":"45853","region":"Kalida","service packages":"Digital Basic,Digital Expanded,Digital HBO /Cinemax,Digital SHO","township":null,"last":"NARTKER","stbs allowed":2,"geo_score":0.488,"first":"DAVID","ppv limit":"Unlimited","customer id":4195322695,"phone":4195322695,"whdvr":"Yes","id":"abjw5lzlkwv6","address":"18116 RD M-17","login":"KALIDA","password":2695,"geo_precision":"zip","state":"OH","pin":2695},"type":"Feature","geometry":{"type":"Point","coordinates":[-84.219208,40.979612]}},{"properties":{"city":"FT JENNINGS","status":"Active","ppv":"No","zip":"45844","region":"Kalida","service packages":"Digital Basic,Digital Expanded","township":null,"last":"NIEMEYER","stbs allowed":1,"geo_score":0.88,"first":"ANDY","ppv limit":"Unlimited","customer id":4195322575,"phone":4195322575,"whdvr":"No","id":"abjw5lvi10kl","address":"15160 RD 18","login":"KALIDA","password":2575,"geo_precision":"range","state":"OH","pin":2575},"type":"Feature","geometry":{"type":"Point","coordinates":[-84.206967,40.963733]}},{"properties":{"city":"COLUMBUS GROVE","status":"Active","ppv":"No","zip":"45830","region":"Kalida","service packages":"Digital Basic","township":null,"last":"NUSSBAUM","stbs allowed":1,"geo_score":0.902,"first":"CHARLES","ppv limit":"Unlimited","customer id":4195323713,"phone":4195323713,"whdvr":"No","id":"abjw5lvyyuv4","address":"16835 RD Z","login":"KALIDA","password":3713,"geo_precision":"range","state":"OH","pin":3713},"type":"Feature","geometry":{"type":"Point","coordinates":[-84.185431,40.972111]}},{"properties":{"city":"KALIDA","status":"Active","ppv":"No","zip":"45853","region":"Kalida","service packages":"Digital Basic","township":null,"last":"ORWICK","stbs allowed":1,"geo_score":0.902,"first":"KRISTA","ppv limit":"Unlimited","customer id":4195321528,"phone":4195321528,"whdvr":"No","id":"abjw5lpu37jt","address":"529 RALPH ST","login":"KALIDA","password":1528,"geo_precision":"range","state":"OH","pin":1528},"type":"Feature","geometry":{"type":"Point","coordinates":[-84.194112,40.983989]}},{"properties":{"city":"OTTAWA","status":"Active","ppv":"Yes","zip":"45875","region":"Kalida","service packages":"Digital Basic,Digital HBO /Cinemax","township":null,"last":"PARKER","stbs allowed":1,"geo_score":0.561,"first":"ADAM","ppv limit":"Unlimited","customer id":4195322222,"phone":4195322222,"whdvr":"No","id":"abjw5lyxzf16","address":"10436-6 COUNTRY ACRES DRIVE","login":"KALIDA","password":2222,"geo_precision":"street","state":"OH","pin":2222},"type":"Feature","geometry":{"type":"Point","coordinates":[-84.628985,40.422357]}},{"properties":{"city":"KALIDA","status":"Active","ppv":"Yes","zip":"45853","region":"Kalida","service packages":"Digital Basic,Digital Expanded,Digital Starz  Encore,Digital HD,Digital Sho / TMC,Digital HBO /Cinemax","township":null,"last":"PHILLIPS","stbs allowed":2,"geo_score":0.876,"first":"CHRIS","ppv limit":"Unlimited","customer id":4195323210,"phone":4195323210,"whdvr":"No","id":"abjw5lttmlm4","address":"621 NAPOLEON RD","login":"KALIDA","password":3210,"geo_precision":"range","state":"OH","pin":3210},"type":"Feature","geometry":{"type":"Point","coordinates":[-84.197841,40.989586]}},{"properties":{"city":"KALIDA","status":"Active","ppv":"No","zip":"45853","region":"Kalida","service packages":"Digital Basic","township":null,"last":"POTTS","stbs allowed":2,"geo_score":0.553,"first":"BRAD","ppv limit":"Unlimited","customer id":4195323505,"phone":4195323505,"whdvr":"No","id":"abjw5m31a4by","address":"619 N BROAD ST","login":"KALIDA","password":3505,"geo_precision":"street","state":"OH","pin":3505},"type":"Feature","geometry":{"type":"Point","coordinates":[-84.197172,40.985386]}},{"properties":{"city":"COLUMBUS GROVE","status":"Active","ppv":"No","zip":"45830","region":"Kalida","service packages":"Digital Basic,Digital Expanded","township":"Union Township","last":"PRIESTAS","stbs allowed":2,"geo_score":0.738,"first":"CARYN","ppv limit":"Unlimited","customer id":4195322816,"phone":4195322816,"whdvr":"No","id":"abjw5m2f322y","address":"14643 SR 115","login":"KALIDA","password":2816,"geo_precision":"range","state":"OH","pin":2816},"type":"Feature","geometry":{"type":"Point","coordinates":[-84.184135,40.964172]}},{"properties":{"city":"KALIDA","status":"Active","ppv":"Yes","zip":"45853","region":"Kalida","service packages":"Digital Basic,Digital Expanded,Digital Starz  Encore,Digital HD,Digital Sho / TMC,Digital HBO /Cinemax","township":null,"last":"RAMPE","stbs allowed":2,"geo_score":0.59,"first":"DORIS","ppv limit":"Unlimited","customer id":3671,"phone":4195323671,"whdvr":"No","id":"abjw5m40i9z2","address":"17831 US 224","login":"KALIDA","password":3671,"geo_precision":"street","state":"OH","pin":3671},"type":"Feature","geometry":{"type":"Point","coordinates":[-84.183458,40.981111]}},{"properties":{"city":"KALIDA","status":"Active","ppv":"Yes","zip":"45853","region":"Kalida","service packages":"Digital Basic,Digital Expanded","township":null,"last":"RAMPE","stbs allowed":2,"geo_score":0.655,"first":"TROY","ppv limit":"Unlimited","customer id":4195322004,"phone":4195322004,"whdvr":"No","id":"abjw5lsmmgak","address":"861 NAPOLEON DR","login":"KALIDA","password":2004,"geo_precision":"street","state":"OH","pin":2004},"type":"Feature","geometry":{"type":"Point","coordinates":[-84.197766,40.989607]}},{"properties":{"city":"KALIDA","status":"Active","ppv":"Yes","zip":"45853","region":"Kalida","service packages":"Digital Basic,Digital Expanded","township":null,"last":"RAMPE","stbs allowed":2,"geo_score":0.837,"first":"JOEL","ppv limit":"Unlimited","customer id":4195323851,"phone":4195323851,"whdvr":"Yes","id":"abjw5lrn1zw8","address":"311 E PLUM ST","login":"KALIDA","password":3851,"geo_precision":"range","state":"OH","pin":3851},"type":"Feature","geometry":{"type":"Point","coordinates":[-84.203672,40.983837]}},{"properties":{"city":"OTTAWA","status":"Active","ppv":"Yes","zip":"45875","region":"Kalida","service packages":"Digital Basic,Digital Expanded,Digital SHO","township":null,"last":"RECKER","stbs allowed":2,"geo_score":0.666,"first":"CHAD","ppv limit":"Unlimited","customer id":4195322139,"phone":4195322139,"whdvr":"No","id":"abjw5lq0zwjm","address":"14015 RD 15-M","login":"KALIDA","password":2139,"geo_precision":"street","state":"OH","pin":2139},"type":"Feature","geometry":{"type":"Point","coordinates":[-84.159729,41.028165]}},{"properties":{"city":"KALIDA","status":"Active","ppv":"Yes","zip":"45853","region":"Kalida","service packages":"Digital Basic","township":null,"last":"RECKER","stbs allowed":1,"geo_score":0.815,"first":"ERIN","ppv limit":"Unlimited","customer id":4195321599,"phone":4195321599,"whdvr":"No","id":"abjw5m18d2jf","address":"609 N FIFTH ST","login":"KALIDA","password":1599,"geo_precision":"range","state":"OH","pin":1599},"type":"Feature","geometry":{"type":"Point","coordinates":[-84.193275,40.985859]}},{"properties":{"city":"KALIDA","status":"Active","ppv":"No","zip":"45853","region":"Kalida","service packages":"Digital Basic,Digital Expanded","township":null,"last":"RECKER","stbs allowed":1,"geo_score":0.805,"first":"TOM","ppv limit":"Unlimited","customer id":4195323823,"phone":4195323823,"whdvr":"No","id":"abjw5lzi4dqu","address":"511 OTTAWA ST","login":"KALIDA","password":3823,"geo_precision":"range","state":"OH","pin":3823},"type":"Feature","geometry":{"type":"Point","coordinates":[-84.195073,40.981367]}},{"properties":{"city":"COLUMBUS GROVE","status":"Active","ppv":"No","zip":"45830","region":"Kalida","service packages":"Digital Basic","township":null,"last":"RECKER","stbs allowed":1,"geo_score":0.745,"first":"JAMES","ppv limit":"Unlimited","customer id":4195323314,"phone":4195323314,"whdvr":"No","id":"abjw5luue94p","address":"14487 SR 115","login":"KALIDA","password":3314,"geo_precision":"range","state":"OH","pin":3314},"type":"Feature","geometry":{"type":"Point","coordinates":[-84.185441,40.967661]}},{"properties":{"city":"OTTAWA","status":"Active","ppv":"No","zip":"45875","region":"Kalida","service packages":"Digital Basic,Cinemax HD","township":null,"last":"REINDEL","stbs allowed":2,"geo_score":0.745,"first":"CARL","ppv limit":"Unlimited","customer id":4195322056,"phone":4195322056,"whdvr":"No","id":"abjw5lznh69r","address":"12758 SR 115","login":"KALIDA","password":2056,"geo_precision":"range","state":"OH","pin":2056},"type":"Feature","geometry":{"type":"Point","coordinates":[-84.197852,40.994891]}},{"properties":{"city":"KALIDA","status":"Active","ppv":"No","zip":"45853","region":"Kalida","service packages":"Digital Basic","township":null,"last":"RELLINGER","stbs allowed":1,"geo_score":0.837,"first":"HOWARD","ppv limit":"Unlimited","customer id":4195322296,"phone":4195322296,"whdvr":"No","id":"abjw5lrpsdg6","address":"310 LOCUST DR","login":"KALIDA","password":2296,"geo_precision":"range","state":"OH","pin":2296},"type":"Feature","geometry":{"type":"Point","coordinates":[-84.198788,40.989395]}},{"properties":{"city":"KALIDA","status":"Active","ppv":"No","zip":"45853","region":"Kalida","service packages":"Digital Basic,Digital Expanded","township":null,"last":"REYNOLDS","stbs allowed":2,"geo_score":0.729,"first":"LINDA","ppv limit":"Unlimited","customer id":4195323082,"phone":4195323082,"whdvr":"No","id":"abjw5lrfwu24","address":"719 NAPOLEON RD","login":"KALIDA","password":3082,"geo_precision":"street","state":"OH","pin":3082},"type":"Feature","geometry":{"type":"Point","coordinates":[-84.197766,40.989607]}},{"properties":{"city":"COLUMBUS GROVE","status":"Active","ppv":"No","zip":"45830","region":"Kalida","service packages":"Digital Basic","township":null,"last":"RICKER","stbs allowed":1,"geo_score":0.745,"first":"PAUL","ppv limit":"Unlimited","customer id":4195322329,"phone":4195322329,"whdvr":"No","id":"abjw5lufqhbz","address":"15938 SR 115","login":"KALIDA","password":2329,"geo_precision":"range","state":"OH","pin":2329},"type":"Feature","geometry":{"type":"Point","coordinates":[-84.1643,40.948417]}},{"properties":{"city":"KALIDA","status":"Active","ppv":"Yes","zip":"45853","region":"Kalida","service packages":"Digital Basic,Digital HBO","township":null,"last":"RICKER","stbs allowed":1,"geo_score":0.844,"first":"JASON","ppv limit":"Unlimited","customer id":4195322915,"phone":4195322915,"whdvr":"No","id":"abjw5lw2xpjx","address":"215 N BROAD ST","login":"KALIDA","password":2915,"geo_precision":"range","state":"OH","pin":2915},"type":"Feature","geometry":{"type":"Point","coordinates":[-84.19935,40.983582]}},{"properties":{"city":"OTTAWA","status":"Active","ppv":"Yes","zip":"45875","region":"Kalida","service packages":"Digital Basic","township":null,"last":"RICKER","stbs allowed":1,"geo_score":0.793,"first":"DALE","ppv limit":"Unlimited","customer id":4195321615,"phone":4195321615,"whdvr":"No","id":"abjw5lupfi7e","address":"17432 FAIRWAY DR APT I","login":"KALIDA","password":1615,"geo_precision":"range","state":"OH","pin":1615},"type":"Feature","geometry":{"type":"Point","coordinates":[-84.197622,41.028679]}},{"properties":{"city":"OTTAWA","status":"Active","ppv":"Yes","zip":"45875","region":"Kalida","service packages":"Digital Basic","township":null,"last":"RIEMAN","stbs allowed":1,"geo_score":0.745,"first":"BILL","ppv limit":"Unlimited","customer id":4195323359,"phone":4195323359,"whdvr":"No","id":"abjw5m3lq2x7","address":"16961 SR 694","login":"KALIDA","password":3359,"geo_precision":"range","state":"OH","pin":3359},"type":"Feature","geometry":{"type":"Point","coordinates":[-84.187724,41.027972]}},{"properties":{"city":"KALIDA","status":"Active","ppv":"Yes","zip":"45853","region":"Kalida","service packages":"Digital Basic","township":null,"last":"ROOF","stbs allowed":1,"geo_score":0.861,"first":"TOM","ppv limit":"Unlimited","customer id":4195322008,"phone":4195322008,"whdvr":"No","id":"abjw5lzn6frj","address":"136 W NORTHLAND DR","login":"KALIDA","password":2008,"geo_precision":"range","state":"OH","pin":2008},"type":"Feature","geometry":{"type":"Point","coordinates":[-84.191102,40.991554]}},{"properties":{"city":"KALIDA","status":"Active","ppv":"No","zip":"45853","region":"Kalida","service packages":"Digital Basic,Digital Expanded","township":null,"last":"SCHIMMOELLER","stbs allowed":2,"geo_score":0.571,"first":"JOHN","ppv limit":"Unlimited","customer id":4195323755,"phone":4195323755,"whdvr":"No","id":"abjw5lp7l4os","address":"511 W PLUM","login":"KALIDA","password":3755,"geo_precision":"street","state":"OH","pin":3755},"type":"Feature","geometry":{"type":"Point","coordinates":[-84.203824,40.984049]}},{"properties":{"city":"OTTAWA","status":"Active","ppv":"No","zip":"45875","region":"Kalida","service packages":"Digital Basic","township":null,"last":"SCHMERSAL","stbs allowed":1,"geo_score":0.902,"first":"JEFF","ppv limit":"Unlimited","customer id":4195321533,"phone":4195321533,"whdvr":"No","id":"abjw5lqgtifd","address":"15845 RD L","login":"KALIDA","password":1533,"geo_precision":"range","state":"OH","pin":1533},"type":"Feature","geometry":{"type":"Point","coordinates":[-84.166063,41.006217]}},{"properties":{"city":"OTTAWA","status":"Active","ppv":"No","zip":"45875","region":"Kalida","service packages":"Digital Basic","township":null,"last":"SCHMERSAL","stbs allowed":1,"geo_score":0.902,"first":"PAUL","ppv limit":"Unlimited","customer id":4195322307,"phone":4195322307,"whdvr":"No","id":"abjw5m3336r7","address":"11572 RD 16","login":"KALIDA","password":2307,"geo_precision":"range","state":"OH","pin":2307},"type":"Feature","geometry":{"type":"Point","coordinates":[-84.169353,41.012369]}},{"properties":{"city":"OTTAWA","status":"Active","ppv":"Yes","zip":"45875","region":"Kalida","service packages":"Digital Basic","township":null,"last":"SCHMERSAL","stbs allowed":1,"geo_score":0.708,"first":"TOM","ppv limit":"Unlimited","customer id":4195323186,"phone":4195323186,"whdvr":"No","id":"abjw5lq0zb2p","address":"18838 RD L","login":"KALIDA","password":3186,"geo_precision":"street","state":"OH","pin":3186},"type":"Feature","geometry":{"type":"Point","coordinates":[-84.215655,41.006014]}},{"properties":{"city":"OTTAWA","status":"Active","ppv":"No","zip":"45875","region":"Kalida","service packages":"Digital Basic,Digital Expanded","township":null,"last":"SCHROEDER","stbs allowed":1,"geo_score":0.902,"first":"DOUG","ppv limit":"Unlimited","customer id":4195323153,"phone":4195323153,"whdvr":"No","id":"abjw5lq8yjq2","address":"16055 RD M","login":"KALIDA","password":3153,"geo_precision":"range","state":"OH","pin":3153},"type":"Feature","geometry":{"type":"Point","coordinates":[-84.173186,40.991537]}},{"properties":{"city":"FT. JENNINGS","status":"Active","ppv":"No","zip":"45844","region":"Kalida","service packages":"Digital Basic,Digital Expanded","township":null,"last":"SCHROEDER","stbs allowed":2,"geo_score":0.665,"first":"JIM","ppv limit":"Unlimited","customer id":4195322237,"phone":4195322237,"whdvr":"No","id":"abjw5lyrtsm1","address":"18256 SR 224","login":"KALIDA","password":2237,"geo_precision":"street","state":"OH","pin":2237},"type":"Feature","geometry":{"type":"Point","coordinates":[-84.219315,40.970281]}},{"properties":{"city":"COLUMBUS GROVE","status":"Active","ppv":"No","zip":"45830","region":"Kalida","service packages":"Digital Basic","township":null,"last":"SCHROEDER","stbs allowed":1,"geo_score":0.447,"first":"DUANE","ppv limit":"Unlimited","customer id":4195323638,"phone":4195323638,"whdvr":"No","id":"abjw5luuu0ft","address":"15142 RD M-10","login":"KALIDA","password":3638,"geo_precision":"street","state":"OH","pin":3638},"type":"Feature","geometry":{"type":"Point","coordinates":[-83.956582,40.658476]}},{"properties":{"city":"OTTAWA","status":"Active","ppv":"No","zip":"45875","region":"Kalida","service packages":"Digital Basic,Digital Expanded","township":null,"last":"SCHROEDER","stbs allowed":1,"geo_score":0.732,"first":"DUANE","ppv limit":"Unlimited","customer id":4195322657,"phone":4195322657,"whdvr":"No","id":"abjw5lrrjxr8","address":"10216 RD 17-J","login":"KALIDA","password":2657,"geo_precision":"range","state":"OH","pin":2657},"type":"Feature","geometry":{"type":"Point","coordinates":[-84.189242,41.032407]}},{"properties":{"city":"OTTAWA","status":"Active","ppv":"Yes","zip":"45875","region":"Kalida","service packages":"Digital Basic","township":null,"last":"SCHROEDER","stbs allowed":1,"geo_score":0.902,"first":"CLETE","ppv limit":"Unlimited","customer id":4195323069,"phone":4195323069,"whdvr":"No","id":"abjw5lzplv1e","address":"11462 RD 16","login":"KALIDA","password":3069,"geo_precision":"range","state":"OH","pin":3069},"type":"Feature","geometry":{"type":"Point","coordinates":[-84.169373,41.013949]}},{"properties":{"city":"OTTAWA","status":"Active","ppv":"Yes","zip":"45875","region":"Kalida","service packages":"Digital Basic,Digital Starz  Encore","township":null,"last":"SCHROEDER","stbs allowed":5,"geo_score":0.488,"first":"GARY","ppv limit":"Unlimited","customer id":4195323404,"phone":4195323404,"whdvr":"No","id":"abjw5ly1uox0","address":"14779 K-14","login":"KALIDA","password":3404,"geo_precision":"zip","state":"OH","pin":3404},"type":"Feature","geometry":{"type":"Point","coordinates":[-84.169112,41.020884]}},{"properties":{"city":"KALIDA","status":"Active","ppv":"No","zip":"45853","region":"Kalida","service packages":"Digital Basic,Digital Expanded","township":null,"last":"SCHROEDER","stbs allowed":1,"geo_score":0.645,"first":"DEREK","ppv limit":"Unlimited","customer id":4195322661,"phone":4195322661,"whdvr":"No","id":"abjw5m257t2w","address":"812 SILVER PINES","login":"KALIDA","password":2661,"geo_precision":"street","state":"OH","pin":2661},"type":"Feature","geometry":{"type":"Point","coordinates":[-83.678117,41.081193]}},{"properties":{"city":"OTTAWA","status":"Active","ppv":"No","zip":"45875","region":"Kalida","service packages":"Digital Basic,Digital Expanded","township":null,"last":"SCHULTE","stbs allowed":1,"geo_score":0.902,"first":"DALE","ppv limit":"Unlimited","customer id":4195323900,"phone":4195323900,"whdvr":"No","id":"abjw5lwz9zs5","address":"16950 RD M","login":"KALIDA","password":3900,"geo_precision":"range","state":"OH","pin":3900},"type":"Feature","geometry":{"type":"Point","coordinates":[-84.184558,40.991605]}},{"properties":{"city":"OTTAWA","status":"Active","ppv":"Yes","zip":"45875","region":"Kalida","service packages":"Digital Basic,Digital Expanded","township":null,"last":"SCHUMACHER","stbs allowed":1,"geo_score":0.902,"first":"JASON","ppv limit":"Unlimited","customer id":4195322459,"phone":4195322459,"whdvr":"No","id":"abjw5lysz8nz","address":"16318 RD M","login":"KALIDA","password":2459,"geo_precision":"range","state":"OH","pin":2459},"type":"Feature","geometry":{"type":"Point","coordinates":[-84.178433,40.99165]}},{"properties":{"city":"KALIDA","status":"Active","ppv":"Yes","zip":"45853","region":"Kalida","service packages":"Digital Basic","township":null,"last":"SCHUMACHER","stbs allowed":1,"geo_score":0.805,"first":"DAVE","ppv limit":"Unlimited","customer id":4195323902,"phone":4195323902,"whdvr":"No","id":"abjw5lx56kuu","address":"206 6TH ST","login":"KALIDA","password":3902,"geo_precision":"range","state":"OH","pin":3902},"type":"Feature","geometry":{"type":"Point","coordinates":[-84.19592,40.982081]}},{"properties":{"city":"KALIDA","status":"Active","ppv":"No","zip":"45853","region":"Kalida","service packages":"Digital Basic,Digital Expanded","township":null,"last":"SEHLHORST","stbs allowed":1,"geo_score":0.726,"first":"JOE","ppv limit":"Unlimited","customer id":4195323249,"phone":4195323249,"whdvr":"No","id":"abjw5lqzxesg","address":"200 E PLUM ST","login":"KALIDA","password":3249,"geo_precision":"street","state":"OH","pin":3249},"type":"Feature","geometry":{"type":"Point","coordinates":[-84.200009,40.981494]}},{"properties":{"city":"KALIDA","status":"Active","ppv":"Yes","zip":"45853","region":"Kalida","service packages":"Digital Basic","township":null,"last":"SEHLHORST","stbs allowed":1,"geo_score":0.902,"first":"JODY","ppv limit":"Unlimited","customer id":4195322309,"phone":4195322309,"whdvr":"No","id":"abjw5lwxh4tz","address":"169 WALNUT DRIVE","login":"KALIDA","password":2309,"geo_precision":"range","state":"OH","pin":2309},"type":"Feature","geometry":{"type":"Point","coordinates":[-84.192258,40.989699]}},{"properties":{"city":"KALIDA","status":"Active","ppv":"Yes","zip":"45853","region":"Kalida","service packages":"Digital Basic,Digital Expanded","township":null,"last":"SELHORST","stbs allowed":2,"geo_score":0.902,"first":"JOE","ppv limit":"Unlimited","customer id":4195322145,"phone":4195322145,"whdvr":"No","id":"abjw5lrwatsg","address":"102 BACON ST","login":"KALIDA","password":2145,"geo_precision":"range","state":"OH","pin":2145},"type":"Feature","geometry":{"type":"Point","coordinates":[-84.191303,40.990694]}},{"properties":{"city":"KALIDA","status":"Active","ppv":"Yes","zip":"45853","region":"Kalida","service packages":"Digital Basic,Digital SHO","township":null,"last":"SELHORST","stbs allowed":1,"geo_score":0.488,"first":"KEN","ppv limit":"Unlimited","customer id":4195322224,"phone":4195322224,"whdvr":"No","id":"abjw5m21nw4k","address":"642 HICKORY ST","login":"KALIDA","password":2224,"geo_precision":"zip","state":"OH","pin":2224},"type":"Feature","geometry":{"type":"Point","coordinates":[-84.219208,40.979612]}},{"properties":{"city":"KALIDA","status":"Active","ppv":"Yes","zip":"45853","region":"Kalida","service packages":"Digital Basic","township":null,"last":"SIEBENECK","stbs allowed":1,"geo_score":0.74,"first":"RANDY","ppv limit":"Unlimited","customer id":4195323971,"phone":4195323971,"whdvr":"No","id":"abjw5lxycedu","address":"301 W PLUM ST","login":"KALIDA","password":3971,"geo_precision":"street","state":"OH","pin":3971},"type":"Feature","geometry":{"type":"Point","coordinates":[-84.201928,40.982782]}},{"properties":{"city":"OTTAWA","status":"Active","ppv":"No","zip":"45875","region":"Kalida","service packages":"Digital Basic","township":null,"last":"SIEBENECK","stbs allowed":1,"geo_score":0.647,"first":"JAMES","ppv limit":"Unlimited","customer id":4195323187,"phone":4195323187,"whdvr":"No","id":"abjw5m1xu923","address":"18006 SR 694","login":"KALIDA","password":3187,"geo_precision":"range","state":"OH","pin":3187},"type":"Feature","geometry":{"type":"Point","coordinates":[-84.200968,41.028054]}},{"properties":{"city":"CLOVERDALE","status":"Active","ppv":"Yes","zip":"45827","region":"Kalida","service packages":"Digital Basic","township":null,"last":"SIEBENECK","stbs allowed":1,"geo_score":0.488,"first":"ARNOLD","ppv limit":"Unlimited","customer id":4195323754,"phone":4195323754,"whdvr":"No","id":"abjw5lpbzbt3","address":"18087 L-18","login":"KALIDA","password":3754,"geo_precision":"zip","state":"OH","pin":3754},"type":"Feature","geometry":{"type":"Point","coordinates":[-84.359948,41.018105]}},{"properties":{"city":"OTTAWA","status":"Active","ppv":"No","zip":"45875","region":"Kalida","service packages":"Digital Basic,Digital Expanded","township":null,"last":"SIMON","stbs allowed":2,"geo_score":0.488,"first":"DUANE","ppv limit":"Unlimited","customer id":4195323473,"phone":4195323473,"whdvr":"No","id":"abjw5m39dvko","address":"14857 RD K-14","login":"KALIDA","password":3473,"geo_precision":"zip","state":"OH","pin":3473},"type":"Feature","geometry":{"type":"Point","coordinates":[-84.169112,41.020884]}},{"properties":{"city":"KALIDA","status":"Active","ppv":"No","zip":"45853","region":"Kalida","service packages":"Digital Basic","township":null,"last":"SLUSSER","stbs allowed":1,"geo_score":0.902,"first":"BEN","ppv limit":"Unlimited","customer id":4195323044,"phone":4195323044,"whdvr":"No","id":"abjw5m1laxrt","address":"202 RALPH ST","login":"KALIDA","password":3044,"geo_precision":"range","state":"OH","pin":3044},"type":"Feature","geometry":{"type":"Point","coordinates":[-84.195781,40.985064]}},{"properties":{"city":"OTTAWA","status":"Active","ppv":"No","zip":"45875","region":"Kalida","service packages":"Digital Basic,Digital Expanded","township":null,"last":"SMITH","stbs allowed":1,"geo_score":0.902,"first":"RON","ppv limit":"Unlimited","customer id":4195323784,"phone":4195323784,"whdvr":"No","id":"abjw5lzwhrqx","address":"16140 RD M","login":"KALIDA","password":3784,"geo_precision":"range","state":"OH","pin":3784},"type":"Feature","geometry":{"type":"Point","coordinates":[-84.174925,40.991671]}},{"properties":{"city":"KALIDA","status":"Active","ppv":"No","zip":"45853","region":"Kalida","service packages":"Digital Basic","township":null,"last":"SMITH","stbs allowed":1,"geo_score":0.902,"first":"BRIAN","ppv limit":"Unlimited","customer id":4195322868,"phone":4195322868,"whdvr":"No","id":"abjw5lywirn4","address":"102 RIVERVIEW DR","login":"KALIDA","password":2868,"geo_precision":"range","state":"OH","pin":2868},"type":"Feature","geometry":{"type":"Point","coordinates":[-84.20511,40.987427]}},{"properties":{"city":"KALIDA","status":"Active","ppv":"No","zip":"45853","region":"Kalida","service packages":"Digital Basic,Digital Expanded","township":null,"last":"STANLEY","stbs allowed":1,"geo_score":0.488,"first":"DEBORAH","ppv limit":"Unlimited","customer id":4195322083,"phone":4195322083,"whdvr":"No","id":"abjw5ltl0a2c","address":"607 BUCKEYE DR","login":"KALIDA","password":2083,"geo_precision":"zip","state":"OH","pin":2083},"type":"Feature","geometry":{"type":"Point","coordinates":[-84.219208,40.979612]}},{"properties":{"city":"KALIDA","status":"Active","ppv":"No","zip":"45853","region":"Kalida","service packages":"Digital Basic","township":null,"last":"STECHSCHULTE","stbs allowed":2,"geo_score":0.488,"first":"CRAIG","ppv limit":"Unlimited","customer id":4195323188,"phone":4195323188,"whdvr":"No","id":"abjw5m12dewp","address":"661 HICKORY ST","login":"KALIDA","password":3188,"geo_precision":"zip","state":"OH","pin":3188},"type":"Feature","geometry":{"type":"Point","coordinates":[-84.219208,40.979612]}},{"properties":{"city":"KALIDA","status":"Active","ppv":"No","zip":"45853","region":"Kalida","service packages":"Digital Basic","township":null,"last":"STECHSCHULTE","stbs allowed":1,"geo_score":0.902,"first":"KEVIN","ppv limit":"Unlimited","customer id":4195323223,"phone":4195323223,"whdvr":"No","id":"abjw5m2hnzc3","address":"142 WALNUT DRIVE","login":"KALIDA","password":3223,"geo_precision":"range","state":"OH","pin":3223},"type":"Feature","geometry":{"type":"Point","coordinates":[-84.194385,40.989855]}},{"properties":{"city":"FT JENNINGS","status":"Active","ppv":"No","zip":"45844","region":"Kalida","service packages":"Digital Basic,Digital Expanded","township":null,"last":"STECHSCHULTE","stbs allowed":4,"geo_score":0.609,"first":"ART","ppv limit":"Unlimited","customer id":4195322449,"phone":4195322449,"whdvr":"No","id":"abjw5m3ouce6","address":"18919 RD N-18","login":"KALIDA","password":2449,"geo_precision":"street","state":"OH","pin":2449},"type":"Feature","geometry":{"type":"Point","coordinates":[-84.206578,40.932856]}},{"properties":{"city":"KALIDA","status":"Active","ppv":"Yes","zip":"45853","region":"Kalida","service packages":"Digital Basic,Digital Expanded","township":null,"last":"STEFFEL","stbs allowed":1,"geo_score":0.805,"first":"NATHEN","ppv limit":"Unlimited","customer id":4195322877,"phone":4195322877,"whdvr":"No","id":"abjw5lvvhk8l","address":"133 WALNUT","login":"KALIDA","password":2877,"geo_precision":"range","state":"OH","pin":2877},"type":"Feature","geometry":{"type":"Point","coordinates":[-84.146246,40.882648]}},{"properties":{"city":"KALIDA","status":"Active","ppv":"Yes","zip":"45853","region":"Kalida","service packages":"Digital Basic","township":null,"last":"SWIFT","stbs allowed":1,"geo_score":0.829,"first":"STEVE","ppv limit":"Unlimited","customer id":4195322627,"phone":4195322627,"whdvr":"No","id":"abjw5ltvth7y","address":"503 N 6TH ST","login":"KALIDA","password":2627,"geo_precision":"range","state":"OH","pin":8118},"type":"Feature","geometry":{"type":"Point","coordinates":[-84.190253,40.984853]}},{"properties":{"city":"KALIDA","status":"Active","ppv":"No","zip":"45853","region":"Kalida","service packages":"Digital Basic,Digital Expanded","township":null,"last":"THRASHER","stbs allowed":1,"geo_score":0.677,"first":"EUNICE","ppv limit":"Unlimited","customer id":4195322227,"phone":4195322227,"whdvr":"No","id":"abjw5lvip1ns","address":"612 A BUCKEYE APT","login":"KALIDA","password":2227,"geo_precision":"range","state":"OH","pin":2227},"type":"Feature","geometry":{"type":"Point","coordinates":[-84.047464,41.166893]}},{"properties":{"city":"KALIDA","status":"Active","ppv":"No","zip":"45853","region":"Kalida","service packages":"Digital Basic","township":null,"last":"TRENTMAN","stbs allowed":2,"geo_score":0.902,"first":"PAT","ppv limit":"Unlimited","customer id":4195321262,"phone":4195321262,"whdvr":"No","id":"abjw5ltfcm03","address":"410 OTTAWA ST","login":"KALIDA","password":1262,"geo_precision":"range","state":"OH","pin":1262},"type":"Feature","geometry":{"type":"Point","coordinates":[-84.191182,40.981138]}},{"properties":{"city":"CLOVERDALE","status":"Active","ppv":"No","zip":"45827","region":"Kalida","service packages":"Digital Basic","township":null,"last":"TURNWALD","stbs allowed":1,"geo_score":0.601,"first":"DON","ppv limit":"Unlimited","customer id":4195323246,"phone":4195323246,"whdvr":"No","id":"abjw5m0ozi32","address":"20019 RD N","login":"KALIDA","password":3246,"geo_precision":"street","state":"OH","pin":3246},"type":"Feature","geometry":{"type":"Point","coordinates":[-84.301914,40.96846]}},{"properties":{"city":"FT JENNINGS","status":"Active","ppv":"Yes","zip":"45844","region":"Kalida","service packages":"Digital Basic,Digital Expanded,Digital Cinemax","township":null,"last":"UNVERFERTH","stbs allowed":3,"geo_score":0.887,"first":"STEVE","ppv limit":"Unlimited","customer id":4195323770,"phone":4195323770,"whdvr":"No","id":"abjw5lxsk4km","address":"16356 RD 18","login":"KALIDA","password":3770,"geo_precision":"range","state":"OH","pin":3770},"type":"Feature","geometry":{"type":"Point","coordinates":[-84.206773,40.94546]}},{"properties":{"city":"KALIDA","status":"Active","ppv":"No","zip":"45853","region":"Kalida","service packages":"Digital Basic,Digital Expanded,Digital Starz  Encore,Digital HBO /Cinemax","township":null,"last":"UNVERFERTH","stbs allowed":5,"geo_score":0.59,"first":"JOE","ppv limit":"Unlimited","customer id":4195323129,"phone":4195323129,"whdvr":"No","id":"abjw5m2vf047","address":"18489 US 224","login":"KALIDA","password":3129,"geo_precision":"street","state":"OH","pin":3129},"type":"Feature","geometry":{"type":"Point","coordinates":[-84.183458,40.981111]}},{"properties":{"city":"KALIDA","status":"Active","ppv":"Yes","zip":"45853","region":"Kalida","service packages":"Digital Basic","township":null,"last":"UNVERFERTH","stbs allowed":2,"geo_score":0.78,"first":"BARRY","ppv limit":"Unlimited","customer id":4195322727,"phone":4195322727,"whdvr":"No","id":"abjw5m1s9zxn","address":"109 RIVERVIEW DR","login":"KALIDA","password":2727,"geo_precision":"range","state":"OH","pin":2727},"type":"Feature","geometry":{"type":"Point","coordinates":[-84.204651,40.987136]}},{"properties":{"city":"KALIDA","status":"Active","ppv":"Yes","zip":"45853","region":"Kalida","service packages":"Digital Basic,Digital Expanded,Digital Sho / TMC","township":null,"last":"UNVERFERTH","stbs allowed":1,"geo_score":0.902,"first":"BRAD","ppv limit":"Unlimited","customer id":4195323831,"phone":4195323831,"whdvr":"No","id":"abjw5m41qsdw","address":"209 CANABERRY DR","login":"KALIDA","password":3831,"geo_precision":"range","state":"OH","pin":3831},"type":"Feature","geometry":{"type":"Point","coordinates":[-84.199909,40.990235]}},{"properties":{"city":"OTTAWA","status":"Inactive","ppv":"Yes","zip":"45875","region":"Kalida","service packages":"Digital Basic,Digital Expanded","township":null,"last":"UNVERFERTH","stbs allowed":1,"geo_score":0.791,"first":"CURT","ppv limit":"Unlimited","customer id":4195323035,"phone":4195323035,"whdvr":"No","id":"abjw5ltnwpk4","address":"12390 RD 18","login":"KALIDA","password":3035,"geo_precision":"range","state":"OH","pin":3035},"type":"Feature","geometry":{"type":"Point","coordinates":[-84.207531,40.998311]}},{"properties":{"city":"KALIDA","status":"Active","ppv":"No","zip":"45853","region":"Kalida","service packages":"Digital Basic","township":null,"last":"UNVERFERTH","stbs allowed":2,"geo_score":0.74,"first":"TRAVIS","ppv limit":"Unlimited","customer id":4195322556,"phone":4195322556,"whdvr":"No","id":"abjw5ltn5oha","address":"210 W PLUM ST","login":"KALIDA","password":2556,"geo_precision":"street","state":"OH","pin":2556},"type":"Feature","geometry":{"type":"Point","coordinates":[-84.201928,40.982782]}},{"properties":{"city":"KALIDA","status":"Active","ppv":"No","zip":"45853","region":"Kalida","service packages":"Digital Basic","township":null,"last":"UNVERFERTH","stbs allowed":1,"geo_score":0.767,"first":"JACK","ppv limit":"Unlimited","customer id":4195323098,"phone":4195323098,"whdvr":"No","id":"abjw5lts7ez1","address":"104 ROSEWOOD DR","login":"KALIDA","password":3098,"geo_precision":"street","state":"OH","pin":3098},"type":"Feature","geometry":{"type":"Point","coordinates":[-84.200582,40.99032]}},{"properties":{"city":"FT JENNINGS","status":"Active","ppv":"No","zip":"45844","region":"Kalida","service packages":"Digital Basic","township":null,"last":"UNVERFERTH","stbs allowed":3,"geo_score":0.887,"first":"GREG","ppv limit":"Unlimited","customer id":4195322665,"phone":4195322665,"whdvr":"Yes","id":"abjw5m1yll99","address":"17644 RD P","login":"KALIDA","password":2665,"geo_precision":"range","state":"OH","pin":2665},"type":"Feature","geometry":{"type":"Point","coordinates":[-84.202551,40.947224]}},{"properties":{"city":"OTTAWA","status":"Active","ppv":"Yes","zip":"45875","region":"Kalida","service packages":"Digital Basic,Digital Expanded,Digital HBO","township":null,"last":"VELANDIA","stbs allowed":2,"geo_score":0.889,"first":"P.E.","ppv limit":"Unlimited","customer id":4195323337,"phone":4195323337,"whdvr":"No","id":"abjw5luzeb7e","address":"16628 RD L","login":"KALIDA","password":3337,"geo_precision":"range","state":"OH","pin":3337},"type":"Feature","geometry":{"type":"Point","coordinates":[-84.181237,41.006155]}},{"properties":{"city":"kalida","status":"Active","ppv":"No","zip":"45853","region":"Kalida","service packages":"Digital Basic,Digital HBO","township":null,"last":"VENNEKOTTER","stbs allowed":2,"geo_score":0.78,"first":"JEFF","ppv limit":"Unlimited","customer id":4195322336,"phone":4195322336,"whdvr":"No","id":"abjw5m3ecjbg","address":"107 RIVERVIEW DR","login":"KALIDA","password":2336,"geo_precision":"range","state":"OH","pin":2336},"type":"Feature","geometry":{"type":"Point","coordinates":[-84.204807,40.987218]}},{"properties":{"city":"COLUMBUS GROVE","status":"Active","ppv":"Yes","zip":"45830","region":"Kalida","service packages":"Digital Basic,Digital Expanded","township":null,"last":"VERHOFF","stbs allowed":1,"geo_score":0.896,"first":"TIM","ppv limit":"Unlimited","customer id":4195322377,"phone":4195322377,"whdvr":"No","id":"abjw5lxeg32q","address":"14483 RD 15-M","login":"KALIDA","password":2377,"geo_precision":"range","state":"OH","pin":2377},"type":"Feature","geometry":{"type":"Point","coordinates":[-84.159116,40.969636]}},{"properties":{"city":"OTTAWA","status":"Active","ppv":"Yes","zip":"45875","region":"Kalida","service packages":"Digital Basic","township":null,"last":"VERHOFF","stbs allowed":1,"geo_score":0.745,"first":"TOM","ppv limit":"Unlimited","customer id":4195323423,"phone":4195323423,"whdvr":"No","id":"abjw5lzcly5q","address":"17887 SR 694","login":"KALIDA","password":3423,"geo_precision":"range","state":"OH","pin":3423},"type":"Feature","geometry":{"type":"Point","coordinates":[-84.202349,41.027896]}},{"properties":{"city":"OTTAWA","status":"Active","ppv":"No","zip":"45875","region":"Kalida","service packages":"Digital Basic,Digital Expanded","township":null,"last":"VERHOFF","stbs allowed":1,"geo_score":0.902,"first":"TIM","ppv limit":"Unlimited","customer id":4195323031,"phone":4195323031,"whdvr":"No","id":"abjw5lpjjj6z","address":"10839 RD 16","login":"KALIDA","password":3031,"geo_precision":"range","state":"OH","pin":3031},"type":"Feature","geometry":{"type":"Point","coordinates":[-84.169361,41.023204]}},{"properties":{"city":"KALIDA","status":"Active","ppv":"Yes","zip":"45853","region":"Kalida","service packages":"Digital Basic,Digital HBO /Cinemax","township":null,"last":"VERHOFF","stbs allowed":10,"geo_score":0.577,"first":"LAUREN","ppv limit":"Unlimited","customer id":4195321673,"phone":4195321673,"whdvr":"No","id":"abjw5ltddo99","address":"115 W NORTH ST","login":"KALIDA","password":1673,"geo_precision":"street","state":"OH","pin":1673},"type":"Feature","geometry":{"type":"Point","coordinates":[-84.204122,40.985505]}},{"properties":{"city":"KALIDA","status":"Active","ppv":"No","zip":"45853","region":"Kalida","service packages":"Digital Basic,Digital SHO","township":null,"last":"VERHOFF","stbs allowed":2,"geo_score":0.902,"first":"EMILY","ppv limit":"Unlimited","customer id":4192357013,"phone":4195321649,"whdvr":"No","id":"abjw5lx01kcd","address":"527 RALPH ST","login":"KALIDA","password":1649,"geo_precision":"range","state":"OH","pin":1649},"type":"Feature","geometry":{"type":"Point","coordinates":[-84.194118,40.983994]}},{"properties":{"city":"CLOVERDALE","status":"Active","ppv":"No","zip":"45827","region":"Kalida","service packages":"Digital Basic","township":null,"last":"VERHOFF","stbs allowed":1,"geo_score":0.894,"first":"TRAVIS","ppv limit":"Unlimited","customer id":4195322651,"phone":4195322651,"whdvr":"No","id":"abjw5m2xy0ea","address":"18349 RD K","login":"KALIDA","password":2651,"geo_precision":"range","state":"OH","pin":2651},"type":"Feature","geometry":{"type":"Point","coordinates":[-84.210031,41.020573]}},{"properties":{"city":"OTTAWA","status":"Active","ppv":"No","zip":"45875","region":"Kalida","service packages":"Digital Basic,Digital Expanded","township":null,"last":"VERHOFF","stbs allowed":1,"geo_score":0.731,"first":"RALPH","ppv limit":"Unlimited","customer id":4195323787,"phone":4195323787,"whdvr":"No","id":"abjw5m2txai2","address":"9632 SR 115","login":"KALIDA","password":3787,"geo_precision":"range","state":"OH","pin":3787},"type":"Feature","geometry":{"type":"Point","coordinates":[-84.19822,41.041243]}},{"properties":{"city":"CLOVERDALE","status":"Active","ppv":"Yes","zip":"45827","region":"Kalida","service packages":"Digital Basic,Digital Expanded,Digital HBO /Cinemax","township":null,"last":"VERHOFF","stbs allowed":2,"geo_score":0.902,"first":"ED","ppv limit":"Unlimited","customer id":4195323077,"phone":4195323077,"whdvr":"No","id":"abjw5m02ezcj","address":"18111 RD K","login":"KALIDA","password":3077,"geo_precision":"range","state":"OH","pin":3077},"type":"Feature","geometry":{"type":"Point","coordinates":[-84.203826,41.020588]}},{"properties":{"city":"CLOVERDALE","status":"Active","ppv":"No","zip":"45827","region":"Kalida","service packages":"Digital Basic","township":null,"last":"VERHOFF","stbs allowed":1,"geo_score":0.902,"first":"JOE","ppv limit":"Unlimited","customer id":4195322674,"phone":4195322674,"whdvr":"No","id":"abjw5lr59ggb","address":"18013 RD K","login":"KALIDA","password":2674,"geo_precision":"range","state":"OH","pin":2674},"type":"Feature","geometry":{"type":"Point","coordinates":[-84.201141,41.020584]}},{"properties":{"city":"KALIDA","status":"Active","ppv":"No","zip":"45853","region":"Kalida","service packages":"Digital Basic","township":null,"last":"VINE","stbs allowed":1,"geo_score":0.878,"first":"BRAD","ppv limit":"Unlimited","customer id":4195322644,"phone":4195322644,"whdvr":"No","id":"abjw5m59s7qa","address":"104 RIVERVIEW RD","login":"KALIDA","password":2644,"geo_precision":"range","state":"OH","pin":2644},"type":"Feature","geometry":{"type":"Point","coordinates":[-84.205017,40.987344]}},{"properties":{"city":"KALIDA","status":"Active","ppv":"Yes","zip":"45853","region":"Kalida","service packages":"Digital Basic","township":null,"last":"VONDER EMBSE","stbs allowed":1,"geo_score":0.889,"first":"BARRY","ppv limit":"Unlimited","customer id":4195322018,"phone":4195322018,"whdvr":"No","id":"abjw5lvjpxkf","address":"108 RIVERVIEW DR.","login":"KALIDA","password":2018,"geo_precision":"range","state":"OH","pin":2018},"type":"Feature","geometry":{"type":"Point","coordinates":[-84.20476,40.987176]}},{"properties":{"city":"OTTAWA","status":"Active","ppv":"No","zip":"45875","region":"Kalida","service packages":"Digital Basic,Digital Expanded","township":null,"last":"VONDEREMBSE","stbs allowed":2,"geo_score":0.902,"first":"GARY","ppv limit":"Unlimited","customer id":4195322065,"phone":4195322065,"whdvr":"No","id":"abjw5m0oeg6l","address":"15950 RD M","login":"KALIDA","password":2065,"geo_precision":"range","state":"OH","pin":2065},"type":"Feature","geometry":{"type":"Point","coordinates":[-84.171225,40.991698]}},{"properties":{"city":"KALIDA","status":"Active","ppv":"Yes","zip":"45853","region":"Kalida","service packages":"Digital Basic,Digital Expanded,Digital Starz  Encore,Digital HBO /Cinemax","township":null,"last":"VONDEREMBSE","stbs allowed":2,"geo_score":0.767,"first":"RON","ppv limit":"Unlimited","customer id":4195323399,"phone":4195323399,"whdvr":"No","id":"abjw5m3z8dje","address":"503 OTTAWA ST","login":"KALIDA","password":3399,"geo_precision":"street","state":"OH","pin":3399},"type":"Feature","geometry":{"type":"Point","coordinates":[-84.194032,40.981331]}},{"properties":{"city":"KALIDA","status":"Active","ppv":"No","zip":"45853","region":"Kalida","service packages":"Digital Basic","township":null,"last":"VORST","stbs allowed":2,"geo_score":0.861,"first":"DAN","ppv limit":"Unlimited","customer id":4195323448,"phone":4195323448,"whdvr":"No","id":"abjw5m0hvtvz","address":"137 W NORTHLAND DR","login":"KALIDA","password":3448,"geo_precision":"range","state":"OH","pin":3448},"type":"Feature","geometry":{"type":"Point","coordinates":[-84.192537,40.991472]}},{"properties":{"city":"KALIDA","status":"Active","ppv":"No","zip":"45853","region":"Kalida","service packages":"Digital Basic","township":null,"last":"WAGNER","stbs allowed":1,"geo_score":0.408,"first":"MICHELLE","ppv limit":"Unlimited","customer id":4195321535,"phone":4195321535,"whdvr":"No","id":"abjw5m0tlsse","address":"430 W. MAIN ST","login":"KALIDA","password":1535,"geo_precision":"street","state":"OH","pin":1535},"type":"Feature","geometry":{"type":"Point","coordinates":[-84.201839,40.981414]}},{"properties":{"city":"OTTAWA","status":"Active","ppv":"No","zip":"45875","region":"Kalida","service packages":"Digital Basic,Digital Expanded","township":null,"last":"WARNECKE","stbs allowed":2,"geo_score":0.561,"first":"JEN","ppv limit":"Unlimited","customer id":4195321635,"phone":4195321635,"whdvr":"No","id":"abjw5lxfvyf3","address":"10436 COUNTRY ACRES DRIVE","login":"KALIDA","password":1635,"geo_precision":"street","state":"OH","pin":1635},"type":"Feature","geometry":{"type":"Point","coordinates":[-84.628985,40.422357]}},{"properties":{"city":"KALIDA","status":"Active","ppv":"No","zip":"45853","region":"Kalida","service packages":"Digital Basic","township":null,"last":"WARNECKE","stbs allowed":1,"geo_score":0.666,"first":"SCOTT","ppv limit":"Unlimited","customer id":4195322770,"phone":4195322770,"whdvr":"No","id":"abjw5lz3av2j","address":"418 W NORTHLAND DR","login":"KALIDA","password":2770,"geo_precision":"street","state":"OH","pin":2770},"type":"Feature","geometry":{"type":"Point","coordinates":[-84.190601,40.991479]}},{"properties":{"city":"CLOVERDALE","status":"Active","ppv":"Yes","zip":"45827","region":"Kalida","service packages":"Digital Basic","township":null,"last":"WARNECKE","stbs allowed":1,"geo_score":0.902,"first":"LUKE","ppv limit":"Unlimited","customer id":4195321641,"phone":4195321641,"whdvr":"No","id":"abjw5lww6xzf","address":"12698 RD 18","login":"KALIDA","password":1641,"geo_precision":"range","state":"OH","pin":1641},"type":"Feature","geometry":{"type":"Point","coordinates":[-84.207494,40.993542]}},{"properties":{"city":"OTTAWA","status":"Active","ppv":"No","zip":"45875","region":"Kalida","service packages":"Digital Basic","township":null,"last":"WARNECKE","stbs allowed":1,"geo_score":0.805,"first":"ART","ppv limit":"Unlimited","customer id":4195323299,"phone":4195323299,"whdvr":"No","id":"abjw5m0jqslj","address":"18429 RD L","login":"KALIDA","password":3299,"geo_precision":"range","state":"OH","pin":3299},"type":"Feature","geometry":{"type":"Point","coordinates":[-84.215655,41.006014]}},{"properties":{"city":"KALIDA","status":"Active","ppv":"No","zip":"45853","region":"Kalida","service packages":"Digital Basic","township":null,"last":"WEHRI","stbs allowed":1,"geo_score":0.815,"first":"BRIAN","ppv limit":"Unlimited","customer id":4195322193,"phone":4195322193,"whdvr":"No","id":"abjw5m2v0uzu","address":"509 N SIXTH ST","login":"KALIDA","password":2193,"geo_precision":"range","state":"OH","pin":2193},"type":"Feature","geometry":{"type":"Point","coordinates":[-84.190441,40.984786]}},{"properties":{"city":"KALIDA","status":"Active","ppv":"Yes","zip":"45853","region":"Kalida","service packages":"Digital Basic","township":null,"last":"WENNING","stbs allowed":1,"geo_score":0.902,"first":"JACQULYN","ppv limit":"Unlimited","customer id":4195321674,"phone":4195321674,"whdvr":"No","id":"abjw5lwrcnt3","address":"533 RALPH ST","login":"KALIDA","password":1674,"geo_precision":"range","state":"OH","pin":1674},"type":"Feature","geometry":{"type":"Point","coordinates":[-84.194101,40.983978]}},{"properties":{"city":"FT JENNINGS","status":"Active","ppv":"No","zip":"45844","region":"Kalida","service packages":"Digital Basic","township":null,"last":"WESTBELD","stbs allowed":1,"geo_score":0.781,"first":"LARRY","ppv limit":"Unlimited","customer id":4195323052,"phone":4195323052,"whdvr":"No","id":"abjw5lw3v6ug","address":"14046 RD 17-N","login":"KALIDA","password":3052,"geo_precision":"range","state":"OH","pin":3052},"type":"Feature","geometry":{"type":"Point","coordinates":[-84.202319,40.976781]}},{"properties":{"city":"OTTAWA","status":"Active","ppv":"No","zip":"45875","region":"Kalida","service packages":"Digital Basic","township":null,"last":"WINKLE","stbs allowed":1,"geo_score":0.745,"first":"ROBERT","ppv limit":"Unlimited","customer id":4195323957,"phone":4195323957,"whdvr":"No","id":"abjw5m0uyjp4","address":"12119 SR 115","login":"KALIDA","password":3957,"geo_precision":"range","state":"OH","pin":3957},"type":"Feature","geometry":{"type":"Point","coordinates":[-84.197896,41.006085]}},{"properties":{"city":"OTTAWA","status":"Active","ppv":"Yes","zip":"45875","region":"Kalida","service packages":"Digital Basic,Digital Expanded,Digital Starz  Encore","township":null,"last":"WINKLE","stbs allowed":5,"geo_score":0.902,"first":"JERID","ppv limit":"Unlimited","customer id":4195322445,"phone":4195322445,"whdvr":"No","id":"abjw5lpg37hh","address":"17275 RD L","login":"KALIDA","password":2445,"geo_precision":"range","state":"OH","pin":2445},"type":"Feature","geometry":{"type":"Point","coordinates":[-84.19339,41.006026]}},{"properties":{"city":"KALIDA","status":"Active","ppv":"Yes","zip":"45853","region":"Kalida","service packages":"Digital Basic,Digital Expanded","township":null,"last":"WINKLE","stbs allowed":2,"geo_score":0.624,"first":"DALE","ppv limit":"Unlimited","customer id":4195323471,"phone":4195323471,"whdvr":"No","id":"abjw5m42fjs0","address":"803 SILVERPINES DRIVE","login":"KALIDA","password":3471,"geo_precision":"street","state":"OH","pin":3471},"type":"Feature","geometry":{"type":"Point","coordinates":[-83.678117,41.081193]}},{"properties":{"city":"OTTAWA","status":"Active","ppv":"No","zip":"45875","region":"Kalida","service packages":"Digital Basic,Digital Expanded","township":null,"last":"WINKLE","stbs allowed":3,"geo_score":0.902,"first":"STAN","ppv limit":"Unlimited","customer id":4195323520,"phone":4195323520,"whdvr":"No","id":"abjw5m035v95","address":"17331 RD L","login":"KALIDA","password":3520,"geo_precision":"range","state":"OH","pin":3520},"type":"Feature","geometry":{"type":"Point","coordinates":[-84.194603,41.006027]}},{"properties":{"city":"KALIDA","status":"Active","ppv":"Yes","zip":"45853","region":"Kalida","service packages":"Digital Basic","township":null,"last":"WINSTEAD","stbs allowed":1,"geo_score":0.453,"first":"RANDY","ppv limit":"Unlimited","customer id":4195323449,"phone":4195323449,"whdvr":"No","id":"abjw5lu6vmay","address":"102 MAPLE LEAF DR","login":"KALIDA","password":3449,"geo_precision":"street","state":"OH","pin":3449},"type":"Feature","geometry":{"type":"Point","coordinates":[-84.199705,40.989324]}},{"properties":{"city":"FT JENNINGS","status":"Active","ppv":"No","zip":"45844","region":"Kalida","service packages":"Digital Basic,Digital Expanded","township":null,"last":"WURTH","stbs allowed":3,"geo_score":0.887,"first":"GERY","ppv limit":"Unlimited","customer id":4195323751,"phone":4195323751,"whdvr":"No","id":"abjw5lunk99f","address":"16821 RD 18","login":"KALIDA","password":3751,"geo_precision":"range","state":"OH","pin":3751},"type":"Feature","geometry":{"type":"Point","coordinates":[-84.206501,40.932912]}},{"properties":{"city":"OTTAWA","status":"Active","ppv":"No","zip":"45875","region":"Kalida","service packages":"Digital Basic,Digital Expanded,Digital Starz  Encore,Digital Sho / TMC,Digital HBO /Cinemax","township":null,"last":"ZOLLNER","stbs allowed":2,"geo_score":0.902,"first":"MILLIE","ppv limit":"Unlimited","customer id":4195322494,"phone":4195322494,"whdvr":"No","id":"abjw5m3v3zjp","address":"15644 RD L","login":"KALIDA","password":2494,"geo_precision":"range","state":"OK","pin":2494},"type":"Feature","geometry":{"type":"Point","coordinates":[-84.16215,41.006403]}}],"is_temporal":false,"author":{"url":"","metadata":null,"contact_name":null,"contact_address":null,"source":null,"contact_phone":null},"source":"","pagination":{"sort":null,"start":0,"total":198,"limit":1000000},"state":"complete","tags":"","published":"2014-08-16T15:58:57-04:00","id":312379}