{"type":"FeatureCollection","data_type":"Dataset","url_type":null,"permissions":[{"permissions":{"download":true,"view":true},"group_id":"everyone"}],"classification":null,"title":"Copy_of_IPTV-Ft","count":106,"stream_id":312377,"contributor":{"url":"http://geocommons.com/users/59404","name":"KatieEtgen"},"data_attributes":null,"calculation_params":null,"icon_link":null,"link":"http://geocommons.com/overlays/312377.json","extent":[-84.3551,40.8178,-83.5963,41.0682],"geometry_types":["point"],"unique_name":null,"name":"Copy_of_IPTV-Ft","feature_count":106,"description":"","next_feature":null,"is_raster":false,"short_classification":"Y","stats":{"stbs allowed":{"max":10,"mean":5.04716981132075,"variance":0.235849056603774,"stdev":0.485642931178632,"median":5,"min":5},"ppv limit":{"max":100,"mean":90.6603773584906,"variance":845.369272237196,"stdev":29.0752346892883,"median":100,"min":1},"phone":{"max":5677651225,"mean":4203650856.08491,"variance":7.2747293175004e+16,"stdev":269717061.334659,"median":4192862476,"min":2392536141},"password":{"max":1234,"mean":1234.0,"variance":0.0,"stdev":0.0,"median":1234,"min":1234},"login":{"max":1234,"mean":1234.0,"variance":0.0,"stdev":0.0,"median":1234,"min":1234},"pin":{"max":3267,"mean":1253.17924528302,"variance":38991.4056603773,"stdev":197.462415817232,"median":1234,"min":1234}},"features":[{"properties":{"city":"Fort Jennings","status":"Active","ppv":"Yes","zip":"45844","region":"Ft. Jennings","service packages":"Max","township":null,"last":"286 TEST","stbs allowed":10,"geo_score":0.793,"first":"FJTC","ppv limit":1,"customer id":null,"phone":4192862181,"whdvr":"Yes","id":"abjw57g34epz","address":"65 W Third St","login":1234,"password":1234,"geo_precision":"range","state":"OH","pin":1234},"type":"Feature","geometry":{"type":"Point","coordinates":[-84.297478,40.904997]}},{"properties":{"city":"Fort Jennings","status":"Active","ppv":"Yes","zip":"45844","region":"Ft. Jennings","service packages":"IP Basic,HD Basic","township":null,"last":"Anspach","stbs allowed":5,"geo_score":0.902,"first":"Adam","ppv limit":100,"customer id":null,"phone":4192862334,"whdvr":"No","id":"abjw57c12cpd","address":"19290 Road 20P","login":1234,"password":1234,"geo_precision":"range","state":"OH","pin":1234},"type":"Feature","geometry":{"type":"Point","coordinates":[-84.279444,40.898976]}},{"properties":{"city":"Delphos","status":"Active","ppv":"Yes","zip":"45833","region":"Ft. Jennings","service packages":"IP Basic,HD Basic","township":null,"last":"Baumgartner","stbs allowed":5,"geo_score":0.488,"first":"James","ppv limit":100,"customer id":null,"phone":4196928618,"whdvr":"No","id":"abjw572hriyn","address":"1211 Grothause St","login":1234,"password":1234,"geo_precision":"zip","state":"OH","pin":1234},"type":"Feature","geometry":{"type":"Point","coordinates":[-84.272729,40.817828]}},{"properties":{"city":"Delphos","status":"Active","ppv":"Yes","zip":"45833","region":"Ft. Jennings","service packages":"Max","township":null,"last":"Berelsman","stbs allowed":5,"geo_score":0.707,"first":"Tim","ppv limit":100,"customer id":null,"phone":4196958502,"whdvr":"No","id":"abjw57g5tph9","address":"1301 Rose Anna","login":1234,"password":1234,"geo_precision":"street","state":"OH","pin":1234},"type":"Feature","geometry":{"type":"Point","coordinates":[-84.35507,40.851704]}},{"properties":{"city":"Fort Jennings","status":"Active","ppv":"Yes","zip":"45844","region":"Ft. Jennings","service packages":"IP Basic,HD Basic","township":null,"last":"Berelsman","stbs allowed":5,"geo_score":0.902,"first":"Anthony","ppv limit":100,"customer id":null,"phone":4192861473,"whdvr":"No","id":"abjw575gnzcw","address":"215 Charles St","login":1234,"password":1234,"geo_precision":"range","state":"OH","pin":1234},"type":"Feature","geometry":{"type":"Point","coordinates":[-84.297168,40.907519]}},{"properties":{"city":"Fort Jennings","status":"Active","ppv":"Yes","zip":"45844","region":"Ft. Jennings","service packages":"IP Expanded,HD Basic","township":null,"last":"Berelsman","stbs allowed":5,"geo_score":0.87,"first":"Andrew","ppv limit":100,"customer id":null,"phone":4192864091,"whdvr":"No","id":"abjw573m8cv8","address":"480 N Main St","login":1234,"password":1234,"geo_precision":"range","state":"OH","pin":1234},"type":"Feature","geometry":{"type":"Point","coordinates":[-84.331012,40.937031]}},{"properties":{"city":"Delphos","status":"Active","ppv":"Yes","zip":"45833","region":"Ft. Jennings","service packages":"IP Basic,HD Basic","township":null,"last":"Bidlack","stbs allowed":5,"geo_score":0.902,"first":"Todd","ppv limit":100,"customer id":null,"phone":4192862078,"whdvr":"No","id":"abjw5753ba0v","address":"24836 Rd T","login":1234,"password":1234,"geo_precision":"range","state":"OH","pin":1234},"type":"Feature","geometry":{"type":"Point","coordinates":[-84.337709,40.888306]}},{"properties":{"city":"Fort Jennings","status":"Active","ppv":"Yes","zip":"45844","region":"Ft. Jennings","service packages":"IP Expanded,HD Basic","township":null,"last":"Bidlack","stbs allowed":5,"geo_score":0.902,"first":"John","ppv limit":100,"customer id":null,"phone":4192862279,"whdvr":"No","id":"abjw57b3jk95","address":"19150 Road 20","login":1234,"password":1234,"geo_precision":"range","state":"OH","pin":1234},"type":"Feature","geometry":{"type":"Point","coordinates":[-84.244009,40.901067]}},{"properties":{"city":"Fort Jennings","status":"Active","ppv":"Yes","zip":"45844","region":"Ft. Jennings","service packages":"IP Expanded,HD Basic","township":null,"last":"Bigelow","stbs allowed":5,"geo_score":0.745,"first":"Keith","ppv limit":100,"customer id":null,"phone":4192861342,"whdvr":"No","id":"abjw570pvb8b","address":"18517 SR 190","login":1234,"password":1234,"geo_precision":"range","state":"OH","pin":1234},"type":"Feature","geometry":{"type":"Point","coordinates":[-84.286738,40.908957]}},{"properties":{"city":"Delphos","status":"Active","ppv":"No","zip":"45833","region":"Ft. Jennings","service packages":"IP Basic,HD Basic","township":null,"last":"Bowersock","stbs allowed":5,"geo_score":0.902,"first":"Rex","ppv limit":1,"customer id":null,"phone":5677650550,"whdvr":"No","id":"abjw579n1jol","address":"1370 Marsh Ave","login":1234,"password":1234,"geo_precision":"range","state":"OH","pin":1234},"type":"Feature","geometry":{"type":"Point","coordinates":[-84.32382,40.855578]}},{"properties":{"city":"Fort Jennings","status":"Active","ppv":"Yes","zip":"45844","region":"Ft. Jennings","service packages":"IP Expanded,HD Basic","township":null,"last":"Brinkman","stbs allowed":5,"geo_score":0.745,"first":"Steve","ppv limit":100,"customer id":null,"phone":4192862759,"whdvr":"No","id":"abjw575xbn08","address":"16530 SR 634","login":1234,"password":1234,"geo_precision":"range","state":"OH","pin":1234},"type":"Feature","geometry":{"type":"Point","coordinates":[-84.292136,40.93599]}},{"properties":{"city":"Fort Jennings","status":"Active","ppv":"Yes","zip":"45844","region":"Ft. Jennings","service packages":"HBO,IP Expanded,HD Basic","township":null,"last":"Brokamp","stbs allowed":5,"geo_score":0.488,"first":"Eric","ppv limit":100,"customer id":null,"phone":4190019320,"whdvr":"No","id":"abjw570mrnab","address":"23896 Road T-23","login":1234,"password":1234,"geo_precision":"zip","state":"OH","pin":1234},"type":"Feature","geometry":{"type":"Point","coordinates":[-84.253283,40.874217]}},{"properties":{"city":"FORT JENNINGS","status":"Active","ppv":"Yes","zip":"45844","region":"Ft. Jennings","service packages":"IP Expanded,HD Basic,Encore HD","township":null,"last":"Brosseau","stbs allowed":5,"geo_score":0.715,"first":"Grant","ppv limit":100,"customer id":null,"phone":2392536141,"whdvr":"No","id":"abjw576xrfbd","address":"18564 St Rt 189","login":1234,"password":1234,"geo_precision":"street","state":"OH","pin":1234},"type":"Feature","geometry":{"type":"Point","coordinates":[-84.213669,40.884359]}},{"properties":{"city":"Fort Jennings","status":"Active","ppv":"Yes","zip":"45844","region":"Ft. Jennings","service packages":"IP Basic,HD Basic","township":null,"last":"Burgei","stbs allowed":5,"geo_score":0.902,"first":"Darrin","ppv limit":100,"customer id":null,"phone":4192862658,"whdvr":"No","id":"abjw570gu7t8","address":"19431 Road 22","login":1234,"password":1234,"geo_precision":"range","state":"OH","pin":1234},"type":"Feature","geometry":{"type":"Point","coordinates":[-84.282235,40.894502]}},{"properties":{"city":"Fort Jennings","status":"Active","ppv":"Yes","zip":"45844","region":"Ft. Jennings","service packages":"Max","township":null,"last":"Burkhart","stbs allowed":5,"geo_score":0.87,"first":"Luke","ppv limit":100,"customer id":null,"phone":4192865853,"whdvr":"No","id":"abjw57bdhaev","address":"280 N Main St","login":1234,"password":1234,"geo_precision":"range","state":"OH","pin":1234},"type":"Feature","geometry":{"type":"Point","coordinates":[-84.336575,40.934478]}},{"properties":{"city":"Fort Jennings","status":"Active","ppv":"Yes","zip":"45844","region":"Ft. Jennings","service packages":"IP Expanded,HD Basic","township":null,"last":"Calvelage","stbs allowed":5,"geo_score":0.707,"first":"Rick","ppv limit":100,"customer id":null,"phone":4192862476,"whdvr":"Yes","id":"abjw57886g0j","address":"24530 Rd T","login":1234,"password":1234,"geo_precision":"street","state":"OH","pin":1234},"type":"Feature","geometry":{"type":"Point","coordinates":[-84.291361,40.888427]}},{"properties":{"city":"Fort Jennings","status":"Active","ppv":"Yes","zip":"45844","region":"Ft. Jennings","service packages":"HBO,CINEMAX,IP Expanded,HD Basic,SHO Unlimited HD","township":null,"last":"Calvelage","stbs allowed":5,"geo_score":0.902,"first":"Omer","ppv limit":100,"customer id":null,"phone":4196928305,"whdvr":"Yes","id":"abjw57by2zh0","address":"21500 Rd V","login":1234,"password":1234,"geo_precision":"range","state":"OH","pin":1234},"type":"Feature","geometry":{"type":"Point","coordinates":[-84.270308,40.859769]}},{"properties":{"city":"Fort Jennings","status":"Active","ppv":"Yes","zip":"45844","region":"Ft. Jennings","service packages":"IP Basic,IP Expanded,HD Basic","township":null,"last":"Cross","stbs allowed":5,"geo_score":0.708,"first":"Greg","ppv limit":100,"customer id":null,"phone":4192862099,"whdvr":"No","id":"abjw57aipx0m","address":"20174 Rd 21","login":1234,"password":1234,"geo_precision":"street","state":"OH","pin":1234},"type":"Feature","geometry":{"type":"Point","coordinates":[-84.26278,40.893074]}},{"properties":{"city":"Fort Jennings","status":"Active","ppv":"Yes","zip":"45844","region":"Ft. Jennings","service packages":"IP Basic","township":null,"last":"Ebbeskotte","stbs allowed":5,"geo_score":0.902,"first":"Ron","ppv limit":100,"customer id":null,"phone":4190027144,"whdvr":"No","id":"abjw57ccf54e","address":"8765 Mericle Rd","login":1234,"password":1234,"geo_precision":"range","state":"OH","pin":1234},"type":"Feature","geometry":{"type":"Point","coordinates":[-84.271262,40.859617]}},{"properties":{"city":"Fort Jennings","status":"Active","ppv":"Yes","zip":"45844","region":"Ft. Jennings","service packages":"IP Basic,HD Basic","township":null,"last":"Ellerbrock","stbs allowed":5,"geo_score":0.745,"first":"Craig","ppv limit":100,"customer id":null,"phone":4192862934,"whdvr":"No","id":"abjw577egzis","address":"18332 SR 190","login":1234,"password":1234,"geo_precision":"range","state":"OH","pin":1234},"type":"Feature","geometry":{"type":"Point","coordinates":[-84.28371,40.91106]}},{"properties":{"city":"Fort Jennings","status":"Active","ppv":"Yes","zip":"45844","region":"Ft. Jennings","service packages":"IP Basic,IP Expanded,HD Basic","township":null,"last":"Elliott","stbs allowed":5,"geo_score":0.707,"first":"Dean","ppv limit":100,"customer id":null,"phone":4190027528,"whdvr":"No","id":"abjw57fir3mm","address":"21951 Rd 21","login":1234,"password":1234,"geo_precision":"street","state":"OH","pin":1234},"type":"Feature","geometry":{"type":"Point","coordinates":[-84.26278,40.893074]}},{"properties":{"city":"Fort Jennings","status":"Active","ppv":"Yes","zip":"45844","region":"Ft. Jennings","service packages":"IP Expanded,HD Basic","township":null,"last":"Erickson","stbs allowed":5,"geo_score":0.707,"first":"Roger","ppv limit":100,"customer id":null,"phone":4196425235,"whdvr":"No","id":"abjw57cyhlrn","address":"21952 Rd 21","login":1234,"password":1234,"geo_precision":"street","state":"OH","pin":1234},"type":"Feature","geometry":{"type":"Point","coordinates":[-84.26278,40.893074]}},{"properties":{"city":"Fort Jennings","status":"Active","ppv":"Yes","zip":"45844","region":"Ft. Jennings","service packages":"HBO,IP Expanded,HD Basic","township":null,"last":"Farler","stbs allowed":5,"geo_score":0.882,"first":"David","ppv limit":100,"customer id":null,"phone":4192867636,"whdvr":"No","id":"abjw57ftkhw4","address":"35 JF Kennedy St","login":1234,"password":1234,"geo_precision":"range","state":"OH","pin":1234},"type":"Feature","geometry":{"type":"Point","coordinates":[-84.297695,40.908281]}},{"properties":{"city":"Fort Jennings","status":"Active","ppv":"Yes","zip":"45844","region":"Ft. Jennings","service packages":"IP Expanded,HD Basic","township":null,"last":"Gasser","stbs allowed":5,"geo_score":0.526,"first":"Scott","ppv limit":100,"customer id":null,"phone":4190017502,"whdvr":"No","id":"abjw57ezyftj","address":"20065 Rd 23-T","login":1234,"password":1234,"geo_precision":"street","state":"OH","pin":1234},"type":"Feature","geometry":{"type":"Point","coordinates":[-84.330351,40.903715]}},{"properties":{"city":"Fort Jennings","status":"Active","ppv":"Yes","zip":"45844","region":"Ft. Jennings","service packages":"IP Expanded,HD Basic","township":null,"last":"Gasser","stbs allowed":5,"geo_score":0.902,"first":"Tim","ppv limit":100,"customer id":null,"phone":4192862400,"whdvr":"No","id":"abjw572iyw2y","address":"19502 Rd 22-S","login":1234,"password":1234,"geo_precision":"range","state":"OH","pin":1234},"type":"Feature","geometry":{"type":"Point","coordinates":[-84.293296,40.893712]}},{"properties":{"city":"Fort Jennings","status":"Active","ppv":"Yes","zip":"45844","region":"Ft. Jennings","service packages":"First Month,IP Basic,HD Basic","township":null,"last":"Gasser","stbs allowed":5,"geo_score":0.902,"first":"Randy","ppv limit":100,"customer id":null,"phone":4192862435,"whdvr":"No","id":"abjw573lb92t","address":"715 N Water St","login":1234,"password":1234,"geo_precision":"range","state":"OH","pin":1234},"type":"Feature","geometry":{"type":"Point","coordinates":[-84.292432,40.907914]}},{"properties":{"city":"Fort Jennings","status":"Inactive","ppv":"Yes","zip":"45844","region":"Ft. Jennings","service packages":"HBO,IP Expanded,HD Basic","township":null,"last":"Gerdeman","stbs allowed":5,"geo_score":0.902,"first":"Scott","ppv limit":100,"customer id":null,"phone":4192862387,"whdvr":"No","id":"abjw5792458f","address":"240 Maple Lane","login":1234,"password":1234,"geo_precision":"range","state":"OH","pin":1234},"type":"Feature","geometry":{"type":"Point","coordinates":[-84.300932,40.906816]}},{"properties":{"city":"Delphos","status":"Active","ppv":"Yes","zip":"45833","region":"Ft. Jennings","service packages":"IP Expanded,HD Basic","township":null,"last":"German","stbs allowed":5,"geo_score":0.902,"first":"Dan","ppv limit":100,"customer id":null,"phone":4192862815,"whdvr":"Yes","id":"abjw57fhgbtx","address":"24596 Road T","login":1234,"password":1234,"geo_precision":"range","state":"OH","pin":3267},"type":"Feature","geometry":{"type":"Point","coordinates":[-84.340525,40.88857]}},{"properties":{"city":"Delphos","status":"Active","ppv":"Yes","zip":"45833","region":"Ft. Jennings","service packages":"IP Basic,HD Basic","township":null,"last":"Gillespie","stbs allowed":5,"geo_score":0.537,"first":"Josh","ppv limit":100,"customer id":null,"phone":4196925633,"whdvr":"No","id":"abjw5775x28g","address":"1320 Christina St","login":1234,"password":1234,"geo_precision":"street","state":"OH","pin":1234},"type":"Feature","geometry":{"type":"Point","coordinates":[-83.597011,41.067296]}},{"properties":{"city":"Fort Jennings","status":"Active","ppv":"Yes","zip":"45844","region":"Ft. Jennings","service packages":"First Month,HBO,IP Basic,HD Basic,Showtime HD","township":null,"last":"Good","stbs allowed":5,"geo_score":0.812,"first":"Brandon","ppv limit":100,"customer id":null,"phone":4190018300,"whdvr":"No","id":"abjw57475g38","address":"17806A St Rt 634","login":1234,"password":1234,"geo_precision":"range","state":"OH","pin":1234},"type":"Feature","geometry":{"type":"Point","coordinates":[-84.292172,40.922813]}},{"properties":{"city":"Fort Jennings","status":"Active","ppv":"No","zip":"45844","region":"Ft. Jennings","service packages":"IP Expanded","township":null,"last":"Good","stbs allowed":5,"geo_score":0.87,"first":"Bob","ppv limit":1,"customer id":null,"phone":4192862767,"whdvr":"No","id":"abjw578l73o0","address":"365 N Main St","login":1234,"password":1234,"geo_precision":"range","state":"OH","pin":1234},"type":"Feature","geometry":{"type":"Point","coordinates":[-84.334464,40.935091]}},{"properties":{"city":"Fort Jennings","status":"Active","ppv":"Yes","zip":"45844","region":"Ft. Jennings","service packages":"IP Expanded,HD Basic","township":null,"last":"Grone","stbs allowed":5,"geo_score":0.902,"first":"Jim","ppv limit":100,"customer id":null,"phone":4192862283,"whdvr":"No","id":"abjw57el4teg","address":"30 Oak St","login":1234,"password":1234,"geo_precision":"range","state":"OH","pin":1234},"type":"Feature","geometry":{"type":"Point","coordinates":[-84.296562,40.908945]}},{"properties":{"city":"Fort Jennings","status":"Active","ppv":"Yes","zip":"45844","region":"Ft. Jennings","service packages":"IP Expanded,HD Basic","township":null,"last":"Grothouse","stbs allowed":5,"geo_score":0.707,"first":"Nicole","ppv limit":100,"customer id":null,"phone":4192862073,"whdvr":"No","id":"abjw57cvaza4","address":"21009 Rd 21","login":1234,"password":1234,"geo_precision":"street","state":"OH","pin":1234},"type":"Feature","geometry":{"type":"Point","coordinates":[-84.26278,40.893074]}},{"properties":{"city":"Fort Jennings","status":"Active","ppv":"Yes","zip":"45844","region":"Ft. Jennings","service packages":"IP Expanded,HD Basic","township":null,"last":"Haehn","stbs allowed":5,"geo_score":0.902,"first":"Dan","ppv limit":100,"customer id":null,"phone":4190026927,"whdvr":"No","id":"abjw56zrswqz","address":"21222 Rd V","login":1234,"password":1234,"geo_precision":"range","state":"OH","pin":1234},"type":"Feature","geometry":{"type":"Point","coordinates":[-84.26675,40.859768]}},{"properties":{"city":"Fort Jennings","status":"Active","ppv":"Yes","zip":"45844","region":"Ft. Jennings","service packages":"IP Expanded,HD Basic","township":null,"last":"Hedrick","stbs allowed":5,"geo_score":0.745,"first":"Matt","ppv limit":100,"customer id":null,"phone":4190016453,"whdvr":"No","id":"abjw57fohqxz","address":"16847 SR 190","login":1234,"password":1234,"geo_precision":"range","state":"OH","pin":1234},"type":"Feature","geometry":{"type":"Point","coordinates":[-84.274922,40.933727]}},{"properties":{"city":"Delphos","status":"Active","ppv":"Yes","zip":"45833","region":"Ft. Jennings","service packages":"IP Expanded,HD Basic","township":null,"last":"Hellman","stbs allowed":5,"geo_score":0.577,"first":"Sandra","ppv limit":100,"customer id":null,"phone":4196920197,"whdvr":"No","id":"abjw57esdg29","address":"1310 Rose Anna Street","login":1234,"password":1234,"geo_precision":"street","state":"OH","pin":1234},"type":"Feature","geometry":{"type":"Point","coordinates":[-84.35507,40.851704]}},{"properties":{"city":"Fort Jennings","status":"Active","ppv":"No","zip":"45844","region":"Ft. Jennings","service packages":"IP Expanded,HD Basic","township":null,"last":"Hobkirk","stbs allowed":5,"geo_score":0.87,"first":"Robert","ppv limit":1,"customer id":null,"phone":4192865836,"whdvr":"No","id":"abjw57els1pn","address":"235 N Main St","login":1234,"password":1234,"geo_precision":"range","state":"OH","pin":1234},"type":"Feature","geometry":{"type":"Point","coordinates":[-84.336301,40.934399]}},{"properties":{"city":"Fort Jennings","status":"Active","ppv":"Yes","zip":"45844","region":"Ft. Jennings","service packages":"IP Basic,HD Basic","township":null,"last":"Jackson","stbs allowed":5,"geo_score":0.902,"first":"Ed","ppv limit":100,"customer id":null,"phone":4192862861,"whdvr":"No","id":"abjw5733umyy","address":"18964 Road 21","login":1234,"password":1234,"geo_precision":"range","state":"OH","pin":1234},"type":"Feature","geometry":{"type":"Point","coordinates":[-84.263567,40.904213]}},{"properties":{"city":"Fort Jennings","status":"Active","ppv":"Yes","zip":"45844","region":"Ft. Jennings","service packages":"HBO,IP Basic,HD Basic","township":null,"last":"Kehres","stbs allowed":5,"geo_score":0.745,"first":"Andrew","ppv limit":100,"customer id":null,"phone":4192863162,"whdvr":"No","id":"abjw577o1aeg","address":"17048 SR 190","login":1234,"password":1234,"geo_precision":"range","state":"OH","pin":1234},"type":"Feature","geometry":{"type":"Point","coordinates":[-84.275574,40.931925]}},{"properties":{"city":"Delphos","status":"Active","ppv":"Yes","zip":"45833","region":"Ft. Jennings","service packages":"IP Expanded,HD Basic","township":null,"last":"Kill","stbs allowed":5,"geo_score":0.902,"first":"Ken","ppv limit":100,"customer id":null,"phone":4190012915,"whdvr":"No","id":"abjw5721rjjf","address":"24550 Road T","login":1234,"password":1234,"geo_precision":"range","state":"OH","pin":1234},"type":"Feature","geometry":{"type":"Point","coordinates":[-84.33098,40.888377]}},{"properties":{"city":"Fort Jennings","status":"Active","ppv":"Yes","zip":"45844","region":"Ft. Jennings","service packages":"IP Basic,HD Basic","township":null,"last":"Kimmet","stbs allowed":5,"geo_score":0.902,"first":"Shawn","ppv limit":100,"customer id":null,"phone":4190029535,"whdvr":"Yes","id":"abjw57f3fidw","address":"8433 N Defiance Trail","login":1234,"password":1234,"geo_precision":"range","state":"OH","pin":1234},"type":"Feature","geometry":{"type":"Point","coordinates":[-84.290271,40.849805]}},{"properties":{"city":"Fort Jennings","status":"Active","ppv":"Yes","zip":"45844","region":"Ft. Jennings","service packages":"IP Expanded,HD Basic,STARZ/Encore HD","township":null,"last":"Kleman","stbs allowed":5,"geo_score":0.902,"first":"Rick","ppv limit":100,"customer id":null,"phone":4192862670,"whdvr":"No","id":"abjw5757lp5a","address":"19028 Rd 20P","login":1234,"password":1234,"geo_precision":"range","state":"OH","pin":1234},"type":"Feature","geometry":{"type":"Point","coordinates":[-84.276993,40.903309]}},{"properties":{"city":"Fort Jennings","status":"Active","ppv":"Yes","zip":"45844","region":"Ft. Jennings","service packages":"IP Expanded,HD Basic","township":null,"last":"Klima","stbs allowed":5,"geo_score":0.745,"first":"Brad &amp; Leslie","ppv limit":100,"customer id":null,"phone":4190016208,"whdvr":"No","id":"abjw57fku2zg","address":"23242 SR 189","login":1234,"password":1234,"geo_precision":"range","state":"OH","pin":1234},"type":"Feature","geometry":{"type":"Point","coordinates":[-84.316299,40.918009]}},{"properties":{"city":"Fort Jennings","status":"Active","ppv":"Yes","zip":"45844","region":"Ft. Jennings","service packages":"IP Basic,HD Basic","township":null,"last":"Knippen","stbs allowed":5,"geo_score":0.902,"first":"Mark","ppv limit":100,"customer id":null,"phone":4192865073,"whdvr":"No","id":"abjw57b9donq","address":"23960 Rd R","login":1234,"password":1234,"geo_precision":"range","state":"OH","pin":1234},"type":"Feature","geometry":{"type":"Point","coordinates":[-84.319718,40.918194]}},{"properties":{"city":"Fort Jennings","status":"Active","ppv":"Yes","zip":"45844","region":"Ft. Jennings","service packages":"First Month,IP Expanded,HD Basic","township":null,"last":"Korte","stbs allowed":5,"geo_score":0.902,"first":"Anthony","ppv limit":100,"customer id":null,"phone":4190019988,"whdvr":"No","id":"abjw572olh5s","address":"220 Maple Lane","login":1234,"password":1234,"geo_precision":"range","state":"OH","pin":1234},"type":"Feature","geometry":{"type":"Point","coordinates":[-84.300807,40.907263]}},{"properties":{"city":"Fort Jennings","status":"Active","ppv":"Yes","zip":"45844","region":"Ft. Jennings","service packages":"IP Expanded,HD Basic","township":null,"last":"Kraft","stbs allowed":5,"geo_score":0.902,"first":"Chris","ppv limit":100,"customer id":null,"phone":4190012732,"whdvr":"No","id":"abjw578iobr8","address":"20277 Rd P","login":1234,"password":1234,"geo_precision":"range","state":"OH","pin":1234},"type":"Feature","geometry":{"type":"Point","coordinates":[-84.250425,40.947131]}},{"properties":{"city":"Fort Jennings","status":"Active","ppv":"Yes","zip":"45844","region":"Ft. Jennings","service packages":"HBO,CINEMAX,IP Expanded,SHO Unlimited HD,STARZ/Encore HD","township":null,"last":"Kramer","stbs allowed":5,"geo_score":0.902,"first":"Paul","ppv limit":100,"customer id":null,"phone":4196425294,"whdvr":"No","id":"abjw575qi1sd","address":"20600 Road 19","login":1234,"password":1234,"geo_precision":"range","state":"OH","pin":1234},"type":"Feature","geometry":{"type":"Point","coordinates":[-84.225143,40.878584]}},{"properties":{"city":"Fort Jennings","status":"Active","ppv":"No","zip":"45844","region":"Ft. Jennings","service packages":"IP Basic,HD Basic","township":null,"last":"Kramer","stbs allowed":5,"geo_score":0.902,"first":"Alfred","ppv limit":1,"customer id":null,"phone":4192862967,"whdvr":"No","id":"abjw578rtvlu","address":"20916 Rd Q","login":1234,"password":1234,"geo_precision":"range","state":"OH","pin":1234},"type":"Feature","geometry":{"type":"Point","coordinates":[-84.25646,40.932821]}},{"properties":{"city":"Fort Jennings","status":"Active","ppv":"Yes","zip":"45844","region":"Ft. Jennings","service packages":"IP Expanded,HD Basic","township":null,"last":"Krietemeyer","stbs allowed":5,"geo_score":0.745,"first":"Harold","ppv limit":100,"customer id":null,"phone":4192862547,"whdvr":"No","id":"abjw5754al0w","address":"18515 SR 190","login":1234,"password":1234,"geo_precision":"range","state":"OH","pin":1234},"type":"Feature","geometry":{"type":"Point","coordinates":[-84.286699,40.908967]}},{"properties":{"city":"Fort Jennings","status":"Active","ppv":"Yes","zip":"45844","region":"Ft. Jennings","service packages":"IP Expanded,HD Basic","township":null,"last":"Krietemeyer","stbs allowed":5,"geo_score":0.526,"first":"Eric","ppv limit":100,"customer id":null,"phone":4190010211,"whdvr":"Yes","id":"abjw570bkbv9","address":"20821 Rd 23-T","login":1234,"password":1234,"geo_precision":"street","state":"OH","pin":1234},"type":"Feature","geometry":{"type":"Point","coordinates":[-84.330351,40.903715]}},{"properties":{"city":"Fort Jennings","status":"Active","ppv":"Yes","zip":"45844","region":"Ft. Jennings","service packages":"IP Expanded,HD Basic","township":null,"last":"Kunz","stbs allowed":5,"geo_score":0.488,"first":"Steve","ppv limit":100,"customer id":null,"phone":4192862357,"whdvr":"No","id":"abjw57cuuacq","address":"21927 Rd U-20","login":1234,"password":1234,"geo_precision":"zip","state":"OH","pin":1234},"type":"Feature","geometry":{"type":"Point","coordinates":[-84.253283,40.874217]}},{"properties":{"city":"Fort Jennings","status":"Active","ppv":"Yes","zip":"45844","region":"Ft. Jennings","service packages":"Max","township":null,"last":"Landwehr","stbs allowed":5,"geo_score":0.745,"first":"Carl","ppv limit":100,"customer id":null,"phone":4192862195,"whdvr":"No","id":"abjw575b4cmi","address":"16955 SR 634","login":1234,"password":1234,"geo_precision":"range","state":"OH","pin":1234},"type":"Feature","geometry":{"type":"Point","coordinates":[-84.291982,40.933977]}},{"properties":{"city":"Fort Jennings","status":"Active","ppv":"Yes","zip":"45844","region":"Ft. Jennings","service packages":"IP Basic,HD Basic","township":null,"last":"Laudick","stbs allowed":5,"geo_score":0.902,"first":"Justin","ppv limit":100,"customer id":null,"phone":4190012909,"whdvr":"No","id":"abjw576sjgxp","address":"160 Charles St","login":1234,"password":1234,"geo_precision":"range","state":"OH","pin":1234},"type":"Feature","geometry":{"type":"Point","coordinates":[-84.296616,40.907717]}},{"properties":{"city":"Fort Jennings","status":"Active","ppv":"Yes","zip":"45844","region":"Ft. Jennings","service packages":"IP Basic,HD Basic","township":null,"last":"Lindeman","stbs allowed":5,"geo_score":0.756,"first":"Paul","ppv limit":100,"customer id":null,"phone":4192862695,"whdvr":"No","id":"abjw573kbvab","address":"235 W First St","login":1234,"password":1234,"geo_precision":"range","state":"OH","pin":1234},"type":"Feature","geometry":{"type":"Point","coordinates":[-84.301097,40.904592]}},{"properties":{"city":"Fort Jennings","status":"Active","ppv":"Yes","zip":"45844","region":"Ft. Jennings","service packages":"IP Expanded,HD Basic","township":null,"last":"Lowe","stbs allowed":5,"geo_score":0.87,"first":"Mark","ppv limit":100,"customer id":null,"phone":4192867446,"whdvr":"No","id":"abjw578yym42","address":"485 N Main St","login":1234,"password":1234,"geo_precision":"range","state":"OH","pin":1234},"type":"Feature","geometry":{"type":"Point","coordinates":[-84.332293,40.936172]}},{"properties":{"city":"Fort Jennings","status":"Active","ppv":"Yes","zip":"45844","region":"Ft. Jennings","service packages":"IP Basic","township":null,"last":"Lucke","stbs allowed":5,"geo_score":0.707,"first":"Ruth","ppv limit":100,"customer id":null,"phone":4192862700,"whdvr":"No","id":"abjw574zptzy","address":"20626 Rd 21","login":1234,"password":1234,"geo_precision":"street","state":"OH","pin":1234},"type":"Feature","geometry":{"type":"Point","coordinates":[-84.26278,40.893074]}},{"properties":{"city":"Fort Jennings","status":"Inactive","ppv":"Yes","zip":"45844","region":"Ft. Jennings","service packages":"IP Expanded,HD Basic","township":null,"last":"Maag","stbs allowed":5,"geo_score":0.707,"first":"Mark","ppv limit":100,"customer id":null,"phone":4192864835,"whdvr":"No","id":"abjw579z72ut","address":"19480 Road R","login":1234,"password":1234,"geo_precision":"street","state":"OH","pin":1234},"type":"Feature","geometry":{"type":"Point","coordinates":[-84.272403,40.91888]}},{"properties":{"city":"Fort Jennings","status":"Active","ppv":"Yes","zip":"45844","region":"Ft. Jennings","service packages":"IP Basic,HD Basic","township":null,"last":"Maag","stbs allowed":5,"geo_score":0.902,"first":"Charlie","ppv limit":100,"customer id":null,"phone":4190018092,"whdvr":"No","id":"abjw572fpgm9","address":"125 Charles St","login":1234,"password":1234,"geo_precision":"range","state":"OH","pin":1234},"type":"Feature","geometry":{"type":"Point","coordinates":[-84.298185,40.907088]}},{"properties":{"city":"Fort Jennings","status":"Active","ppv":"Yes","zip":"45844","region":"Ft. Jennings","service packages":"IP Expanded,HD Basic","township":null,"last":"Maye","stbs allowed":5,"geo_score":0.902,"first":"Daniel","ppv limit":100,"customer id":null,"phone":4196923304,"whdvr":"No","id":"abjw571cl1cb","address":"21122 Rd V","login":1234,"password":1234,"geo_precision":"range","state":"OH","pin":1234},"type":"Feature","geometry":{"type":"Point","coordinates":[-84.264511,40.859764]}},{"properties":{"city":"Columbus Grove","status":"Active","ppv":"Yes","zip":"45830","region":"Ft. Jennings","service packages":"HBO,CINEMAX,IP Expanded,HD Basic,SHO Unlimited HD,STARZ/Encore HD","township":null,"last":"McKinnie","stbs allowed":5,"geo_score":0.902,"first":"Tina","ppv limit":100,"customer id":null,"phone":4196425055,"whdvr":"No","id":"abjw5744x9sj","address":"19981 Rd 18-R","login":1234,"password":1234,"geo_precision":"range","state":"OH","pin":1234},"type":"Feature","geometry":{"type":"Point","coordinates":[-84.211425,40.88842]}},{"properties":{"city":"Fort Jennings","status":"Active","ppv":"Yes","zip":"45844","region":"Ft. Jennings","service packages":"HBO,IP Basic,HD Basic","township":null,"last":"Menke","stbs allowed":5,"geo_score":0.565,"first":"Zeke","ppv limit":100,"customer id":null,"phone":4192862837,"whdvr":"No","id":"abjw57eagvmv","address":"85 W Sixth St","login":1234,"password":1234,"geo_precision":"street","state":"OH","pin":1234},"type":"Feature","geometry":{"type":"Point","coordinates":[-84.294392,40.906925]}},{"properties":{"city":"Fort Jennings","status":"Active","ppv":"Yes","zip":"45844","region":"Ft. Jennings","service packages":"IP Basic,HD Basic","township":null,"last":"Menke","stbs allowed":5,"geo_score":0.707,"first":"Eugene","ppv limit":100,"customer id":null,"phone":4190012456,"whdvr":"No","id":"abjw57dvruxn","address":"24266 Road T","login":1234,"password":1234,"geo_precision":"street","state":"OH","pin":1234},"type":"Feature","geometry":{"type":"Point","coordinates":[-84.291361,40.888427]}},{"properties":{"city":"Delphos","status":"Active","ppv":"No","zip":"45833","region":"Ft. Jennings","service packages":"HBO,IP Expanded,HD Basic,STARZ/Encore HD","township":null,"last":"Mericle","stbs allowed":5,"geo_score":0.861,"first":"Brenda","ppv limit":100,"customer id":null,"phone":4190012036,"whdvr":"No","id":"abjw5717vbrl","address":"20799 Rd 24T","login":1234,"password":1234,"geo_precision":"range","state":"OH","pin":1234},"type":"Feature","geometry":{"type":"Point","coordinates":[-84.336997,40.880883]}},{"properties":{"city":"Fort Jennings","status":"Active","ppv":"Yes","zip":"45844","region":"Ft. Jennings","service packages":"IP Expanded,HD Basic,SHO Unlimited HD,STARZ/Encore HD","township":null,"last":"Metzger","stbs allowed":5,"geo_score":0.756,"first":"Mike","ppv limit":100,"customer id":null,"phone":4192862710,"whdvr":"Yes","id":"abjw579f52js","address":"65 W First St","login":1234,"password":1234,"geo_precision":"range","state":"OH","pin":1234},"type":"Feature","geometry":{"type":"Point","coordinates":[-84.29952,40.903958]}},{"properties":{"city":"Fort Jennings","status":"Active","ppv":"No","zip":"45844","region":"Ft. Jennings","service packages":"IP Expanded,HD Basic","township":null,"last":"Metzger","stbs allowed":5,"geo_score":0.745,"first":"Eugene","ppv limit":1,"customer id":null,"phone":4192862756,"whdvr":"No","id":"abjw576rpxxn","address":"17912 SR 190","login":1234,"password":1234,"geo_precision":"range","state":"OH","pin":1234},"type":"Feature","geometry":{"type":"Point","coordinates":[-84.280187,40.919349]}},{"properties":{"city":"Fort Jennings","status":"Active","ppv":"Yes","zip":"45844","region":"Ft. Jennings","service packages":"IP Expanded,HD Basic","township":null,"last":"Metzger","stbs allowed":5,"geo_score":0.902,"first":"Rick","ppv limit":100,"customer id":null,"phone":4192862729,"whdvr":"No","id":"abjw579oomm6","address":"21386 Rd 22-S","login":1234,"password":1234,"geo_precision":"range","state":"OH","pin":1234},"type":"Feature","geometry":{"type":"Point","coordinates":[-84.290136,40.868924]}},{"properties":{"city":"Fort Jennings","status":"Active","ppv":"Yes","zip":"45844","region":"Ft. Jennings","service packages":"IP Expanded,HD Basic","township":null,"last":"Miehls","stbs allowed":5,"geo_score":0.745,"first":"Ruth","ppv limit":100,"customer id":null,"phone":4192862043,"whdvr":"No","id":"abjw575sa8qq","address":"16687 SR 634","login":1234,"password":1234,"geo_precision":"range","state":"OH","pin":1234},"type":"Feature","geometry":{"type":"Point","coordinates":[-84.291983,40.937014]}},{"properties":{"city":"Columbus Grove","status":"Active","ppv":"Yes","zip":"45830","region":"Ft. Jennings","service packages":"IP Expanded,HD Basic","township":null,"last":"Miller","stbs allowed":5,"geo_score":0.745,"first":"Gloria","ppv limit":100,"customer id":null,"phone":4196425485,"whdvr":"No","id":"abjw570192xl","address":"18282 SR 189","login":1234,"password":1234,"geo_precision":"range","state":"OH","pin":1234},"type":"Feature","geometry":{"type":"Point","coordinates":[-84.20397,40.881111]}},{"properties":{"city":"Fort Jennings","status":"Active","ppv":"Yes","zip":"45844","region":"Ft. Jennings","service packages":"IP Basic,HD Basic,Encore HD","township":null,"last":"Moore","stbs allowed":5,"geo_score":0.902,"first":"Larry","ppv limit":100,"customer id":null,"phone":4192862988,"whdvr":"No","id":"abjw5791s8ir","address":"17587 Rd 20Q","login":1234,"password":1234,"geo_precision":"range","state":"OH","pin":1234},"type":"Feature","geometry":{"type":"Point","coordinates":[-84.253846,40.921561]}},{"properties":{"city":"Fort Jennings","status":"Active","ppv":"No","zip":"45844","region":"Ft. Jennings","service packages":"IP Expanded,HD Basic","township":null,"last":"Murphy","stbs allowed":5,"geo_score":0.902,"first":"Craig","ppv limit":1,"customer id":null,"phone":4192869881,"whdvr":"No","id":"abjw57ckj7p0","address":"21485 Road T","login":1234,"password":1234,"geo_precision":"range","state":"OH","pin":1234},"type":"Feature","geometry":{"type":"Point","coordinates":[-84.271855,40.888587]}},{"properties":{"city":"Fort Jennings","status":"Active","ppv":"Yes","zip":"45844","region":"Ft. Jennings","service packages":"Max","township":null,"last":"Neidert","stbs allowed":5,"geo_score":0.805,"first":"Craig","ppv limit":100,"customer id":null,"phone":4192862576,"whdvr":"Yes","id":"abjw5721pfwf","address":"19599 Road S","login":1234,"password":1234,"geo_precision":"range","state":"OH","pin":1234},"type":"Feature","geometry":{"type":"Point","coordinates":[-84.235892,40.903841]}},{"properties":{"city":"Fort Jennings","status":"Active","ppv":"Yes","zip":"45844","region":"Ft. Jennings","service packages":"IP Expanded,HD Basic","township":null,"last":"Nussbaum","stbs allowed":5,"geo_score":0.902,"first":"Brent","ppv limit":100,"customer id":null,"phone":4190019366,"whdvr":"Yes","id":"abjw57f7gc35","address":"21062 Road T","login":1234,"password":1234,"geo_precision":"range","state":"OH","pin":1234},"type":"Feature","geometry":{"type":"Point","coordinates":[-84.26375,40.888747]}},{"properties":{"city":"Delphos","status":"Active","ppv":"No","zip":"45833","region":"Ft. Jennings","service packages":"HBO,IP Basic,HD Basic","township":null,"last":"Ostendorf","stbs allowed":5,"geo_score":0.647,"first":"Jason &amp; Allisha","ppv limit":1,"customer id":null,"phone":4192862726,"whdvr":"No","id":"abjw577ql5h0","address":"20235 SR 190","login":1234,"password":1234,"geo_precision":"street","state":"OH","pin":1234},"type":"Feature","geometry":{"type":"Point","coordinates":[-84.325073,40.87963]}},{"properties":{"city":"Fort Jennings","status":"Active","ppv":"Yes","zip":"45844","region":"Ft. Jennings","service packages":"HBO,IP Expanded,HD Basic","township":null,"last":"Paddubny","stbs allowed":5,"geo_score":0.624,"first":"Jerry","ppv limit":100,"customer id":null,"phone":4192862225,"whdvr":"No","id":"abjw57al1k0z","address":"19658 Rd 23-T","login":1234,"password":1234,"geo_precision":"street","state":"OH","pin":1234},"type":"Feature","geometry":{"type":"Point","coordinates":[-84.330351,40.903715]}},{"properties":{"city":"Fort Jennings","status":"Active","ppv":"Yes","zip":"45844","region":"Ft. Jennings","service packages":"IP Basic,HD Basic","township":null,"last":"Pence","stbs allowed":5,"geo_score":0.561,"first":"Mercede","ppv limit":100,"customer id":null,"phone":4190017118,"whdvr":"No","id":"abjw570md0kn","address":"19453 Road 23T","login":1234,"password":1234,"geo_precision":"street","state":"OH","pin":1234},"type":"Feature","geometry":{"type":"Point","coordinates":[-84.330351,40.903715]}},{"properties":{"city":"Fort Jennings","status":"Active","ppv":"Yes","zip":"45844","region":"Ft. Jennings","service packages":"IP Expanded,HD Basic","township":null,"last":"Predmore","stbs allowed":5,"geo_score":0.902,"first":"Robert","ppv limit":100,"customer id":null,"phone":5677651225,"whdvr":"Yes","id":"abjw57366auj","address":"20396 Rd U","login":1234,"password":1234,"geo_precision":"range","state":"OH","pin":1234},"type":"Feature","geometry":{"type":"Point","coordinates":[-84.249568,40.874273]}},{"properties":{"city":"Fort Jennings","status":"Active","ppv":"Yes","zip":"45844","region":"Ft. Jennings","service packages":"IP Expanded,HD Basic","township":null,"last":"Ralston","stbs allowed":5,"geo_score":0.745,"first":"Kevin","ppv limit":100,"customer id":null,"phone":4192861423,"whdvr":"No","id":"abjw57enl04r","address":"18489 SR 190","login":1234,"password":1234,"geo_precision":"range","state":"OH","pin":1234},"type":"Feature","geometry":{"type":"Point","coordinates":[-84.286186,40.909102]}},{"properties":{"city":"Columbus Grove","status":"Active","ppv":"Yes","zip":"45830","region":"Ft. Jennings","service packages":"IP Basic,HD Basic","township":null,"last":"Recker","stbs allowed":5,"geo_score":0.902,"first":"Denny","ppv limit":100,"customer id":null,"phone":4196425221,"whdvr":"No","id":"abjw5759nq4p","address":"20209 Rd 18-R","login":1234,"password":1234,"geo_precision":"range","state":"OH","pin":1234},"type":"Feature","geometry":{"type":"Point","coordinates":[-84.211394,40.886477]}},{"properties":{"city":"Fort Jennings","status":"Active","ppv":"Yes","zip":"45844","region":"Ft. Jennings","service packages":"IP Basic,HD Basic","township":null,"last":"Rex","stbs allowed":5,"geo_score":0.488,"first":"Roger","ppv limit":100,"customer id":null,"phone":4192862662,"whdvr":"No","id":"abjw571p9qsl","address":"20 S High St","login":1234,"password":1234,"geo_precision":"zip","state":"OH","pin":1234},"type":"Feature","geometry":{"type":"Point","coordinates":[-84.253283,40.874217]}},{"properties":{"city":"Delphos","status":"Active","ppv":"Yes","zip":"45833","region":"Ft. Jennings","service packages":"IP Expanded,HD Basic","township":null,"last":"Rhoads","stbs allowed":5,"geo_score":0.537,"first":"David","ppv limit":100,"customer id":null,"phone":4196922234,"whdvr":"No","id":"abjw574xx8bj","address":"1211 Christina St","login":1234,"password":1234,"geo_precision":"street","state":"OH","pin":1234},"type":"Feature","geometry":{"type":"Point","coordinates":[-83.596306,41.068166]}},{"properties":{"city":"Fort Jennings","status":"Active","ppv":"No","zip":"45844","region":"Ft. Jennings","service packages":"Basic","township":null,"last":"Ricker","stbs allowed":5,"geo_score":0.745,"first":"Leonard","ppv limit":1,"customer id":null,"phone":4192862647,"whdvr":"No","id":"abjw571ww8ki","address":"20087 SR 189","login":1234,"password":1234,"geo_precision":"range","state":"OH","pin":1234},"type":"Feature","geometry":{"type":"Point","coordinates":[-84.248761,40.885553]}},{"properties":{"city":"Delphos","status":"Active","ppv":"Yes","zip":"45833","region":"Ft. Jennings","service packages":"IP Basic,HD Basic","township":null,"last":"Riley","stbs allowed":5,"geo_score":0.902,"first":"Chanda","ppv limit":100,"customer id":null,"phone":4190023242,"whdvr":"No","id":"abjw572y6kh3","address":"1400 Marsh Ave","login":1234,"password":1234,"geo_precision":"range","state":"OH","pin":1234},"type":"Feature","geometry":{"type":"Point","coordinates":[-84.323929,40.85715]}},{"properties":{"city":"Fort Jennings","status":"Active","ppv":"Yes","zip":"45844","region":"Ft. Jennings","service packages":"IP Expanded,HD Basic","township":null,"last":"Rode","stbs allowed":5,"geo_score":0.861,"first":"Todd &amp; Sarah","ppv limit":100,"customer id":null,"phone":4192867663,"whdvr":"No","id":"abjw575d2xsw","address":"20911 Rd 20-S","login":1234,"password":1234,"geo_precision":"range","state":"OH","pin":1234},"type":"Feature","geometry":{"type":"Point","coordinates":[-84.253109,40.886327]}},{"properties":{"city":"Fort Jennings","status":"Active","ppv":"Yes","zip":"45844","region":"Ft. Jennings","service packages":"IP Basic,HD Basic","township":null,"last":"Schimmoeller","stbs allowed":5,"geo_score":0.745,"first":"Larry","ppv limit":100,"customer id":null,"phone":4192862170,"whdvr":"No","id":"abjw570d3b1c","address":"17940 SR 190","login":1234,"password":1234,"geo_precision":"range","state":"OH","pin":1234},"type":"Feature","geometry":{"type":"Point","coordinates":[-84.280309,40.918983]}},{"properties":{"city":"FORT JENNINGS","status":"Active","ppv":"Yes","zip":"45844","region":"Ft. Jennings","service packages":"IP Expanded,HD Basic","township":null,"last":"Schroeder","stbs allowed":5,"geo_score":0.861,"first":"Todd","ppv limit":100,"customer id":null,"phone":4190012363,"whdvr":"Yes","id":"abjw579k5kzy","address":"17719 Road 20-P","login":1234,"password":1234,"geo_precision":"range","state":"OH","pin":1234},"type":"Feature","geometry":{"type":"Point","coordinates":[-84.269943,40.922624]}},{"properties":{"city":"Fort Jennings","status":"Active","ppv":"Yes","zip":"45844","region":"Ft. Jennings","service packages":"IP Expanded,HD Basic","township":null,"last":"Schroeder","stbs allowed":5,"geo_score":0.756,"first":"Daryl","ppv limit":100,"customer id":null,"phone":4190012334,"whdvr":"No","id":"abjw574wgioj","address":"215 W Fourth St","login":1234,"password":1234,"geo_precision":"range","state":"OH","pin":1234},"type":"Feature","geometry":{"type":"Point","coordinates":[-84.297841,40.906364]}},{"properties":{"city":"Fort Jennings","status":"Active","ppv":"Yes","zip":"45844","region":"Ft. Jennings","service packages":"IP Expanded,HD Basic","township":null,"last":"Schweller","stbs allowed":5,"geo_score":0.756,"first":"Ron","ppv limit":100,"customer id":null,"phone":4192862192,"whdvr":"No","id":"abjw57651q8d","address":"240 W Fourth St","login":1234,"password":1234,"geo_precision":"range","state":"OH","pin":1234},"type":"Feature","geometry":{"type":"Point","coordinates":[-84.29876,40.906966]}},{"properties":{"city":"Fort Jennings","status":"Active","ppv":"Yes","zip":"45844","region":"Ft. Jennings","service packages":"IP Basic,HD Basic,Showtime HD","township":null,"last":"Siebeneck","stbs allowed":5,"geo_score":0.861,"first":"Jane","ppv limit":100,"customer id":null,"phone":4192860030,"whdvr":"No","id":"abjw57f3a1k7","address":"17622 Road 20-P","login":1234,"password":1234,"geo_precision":"range","state":"OH","pin":1234},"type":"Feature","geometry":{"type":"Point","coordinates":[-84.269885,40.924154]}},{"properties":{"city":"Delphos","status":"Active","ppv":"Yes","zip":"45833","region":"Ft. Jennings","service packages":"IP Basic,HD Basic","township":null,"last":"Siefker","stbs allowed":5,"geo_score":0.488,"first":"Gene","ppv limit":100,"customer id":null,"phone":4190025657,"whdvr":"No","id":"abjw576h5hs7","address":"1305 Hedrick St","login":1234,"password":1234,"geo_precision":"zip","state":"OH","pin":1234},"type":"Feature","geometry":{"type":"Point","coordinates":[-84.272729,40.817828]}},{"properties":{"city":"Fort Jennings","status":"Active","ppv":"Yes","zip":"45844","region":"Ft. Jennings","service packages":"IP Basic,HD Basic","township":null,"last":"Siefker","stbs allowed":5,"geo_score":0.756,"first":"Brandon","ppv limit":100,"customer id":null,"phone":4190014667,"whdvr":"No","id":"abjw573li8it","address":"290 W 4th St","login":1234,"password":1234,"geo_precision":"range","state":"OH","pin":1234},"type":"Feature","geometry":{"type":"Point","coordinates":[-84.298536,40.906842]}},{"properties":{"city":"Delphos","status":"Active","ppv":"Yes","zip":"45833","region":"Ft. Jennings","service packages":"IP Expanded,HD Basic,SHO Unlimited HD","township":null,"last":"Sisinger","stbs allowed":5,"geo_score":0.745,"first":"Floyd","ppv limit":100,"customer id":null,"phone":4196922976,"whdvr":"No","id":"abjw572z29tp","address":"1730 SR 190","login":1234,"password":1234,"geo_precision":"range","state":"OH","pin":1234},"type":"Feature","geometry":{"type":"Point","coordinates":[-84.32952,40.857738]}},{"properties":{"city":"Fort Jennings","status":"Active","ppv":"Yes","zip":"45844","region":"Ft. Jennings","service packages":"IP Expanded","township":null,"last":"Smith","stbs allowed":5,"geo_score":0.707,"first":"Dave","ppv limit":100,"customer id":null,"phone":4196425735,"whdvr":"No","id":"abjw575byw44","address":"21761 Rd 21","login":1234,"password":1234,"geo_precision":"street","state":"OH","pin":1234},"type":"Feature","geometry":{"type":"Point","coordinates":[-84.26278,40.893074]}},{"properties":{"city":"Fort Jennings","status":"Active","ppv":"Yes","zip":"45844","region":"Ft. Jennings","service packages":"HBO,IP Basic,HD Basic","township":null,"last":"Stennett","stbs allowed":5,"geo_score":0.756,"first":"Gary","ppv limit":100,"customer id":null,"phone":4192862315,"whdvr":"No","id":"abjw578jh23g","address":"135 W Fourth St","login":1234,"password":1234,"geo_precision":"range","state":"OH","pin":1234},"type":"Feature","geometry":{"type":"Point","coordinates":[-84.298255,40.906594]}},{"properties":{"city":"Fort Jennings","status":"Active","ppv":"Yes","zip":"45844","region":"Ft. Jennings","service packages":"IP Basic,HD Basic","township":null,"last":"Streets","stbs allowed":5,"geo_score":0.902,"first":"Larry","ppv limit":100,"customer id":null,"phone":4192862153,"whdvr":"No","id":"abjw571vmhfq","address":"120 Charles St","login":1234,"password":1234,"geo_precision":"range","state":"OH","pin":1234},"type":"Feature","geometry":{"type":"Point","coordinates":[-84.29656,40.907771]}},{"properties":{"city":"Columbus Grove","status":"Active","ppv":"Yes","zip":"45830","region":"Ft. Jennings","service packages":"IP Basic,HD Basic","township":null,"last":"Vargo","stbs allowed":5,"geo_score":0.902,"first":"Josh","ppv limit":100,"customer id":null,"phone":4190020154,"whdvr":"No","id":"abjw579i3ew5","address":"20223 Rd 18-R","login":1234,"password":1234,"geo_precision":"range","state":"OH","pin":1234},"type":"Feature","geometry":{"type":"Point","coordinates":[-84.211393,40.886366]}},{"properties":{"city":"Fort Jennings","status":"Active","ppv":"Yes","zip":"45844","region":"Ft. Jennings","service packages":"IP Expanded,HD Basic","township":null,"last":"Vetter","stbs allowed":5,"geo_score":0.902,"first":"Gerald","ppv limit":100,"customer id":null,"phone":4192862057,"whdvr":"No","id":"abjw57dw129n","address":"22578 Road R","login":1234,"password":1234,"geo_precision":"range","state":"OH","pin":1234},"type":"Feature","geometry":{"type":"Point","coordinates":[-84.289413,40.918256]}},{"properties":{"city":"Fort Jennings","status":"Active","ppv":"Yes","zip":"45844","region":"Ft. Jennings","service packages":"IP Expanded,HD Basic","township":null,"last":"Von Lehmden","stbs allowed":5,"geo_score":0.805,"first":"Ron","ppv limit":100,"customer id":null,"phone":4192862906,"whdvr":"No","id":"abjw578g7xox","address":"19620 Road S","login":1234,"password":1234,"geo_precision":"range","state":"OH","pin":1234},"type":"Feature","geometry":{"type":"Point","coordinates":[-84.236237,40.90399]}},{"properties":{"city":"Fort Jennings","status":"Active","ppv":"Yes","zip":"45844","region":"Ft. Jennings","service packages":"IP Expanded,HD Basic","township":null,"last":"Von Sossan","stbs allowed":5,"geo_score":0.861,"first":"Todd &amp; Jodi","ppv limit":100,"customer id":null,"phone":4192862881,"whdvr":"No","id":"abjw57di0atu","address":"18234 Rd 20-P","login":1234,"password":1234,"geo_precision":"range","state":"OH","pin":1234},"type":"Feature","geometry":{"type":"Point","coordinates":[-84.271668,40.914829]}},{"properties":{"city":"Cloverdale","status":"Active","ppv":"Yes","zip":"45844","region":"Ft. Jennings","service packages":"IP Basic,HD Basic","township":null,"last":"Wagner","stbs allowed":5,"geo_score":0.689,"first":"Dan","ppv limit":100,"customer id":null,"phone":4192864209,"whdvr":"No","id":"abjw571ebsav","address":"22703 Rd N","login":1234,"password":1234,"geo_precision":"range","state":"OH","pin":1234},"type":"Feature","geometry":{"type":"Point","coordinates":[-84.295841,40.975838]}},{"properties":{"city":"Fort Jennings","status":"Active","ppv":"Yes","zip":"45844","region":"Ft. Jennings","service packages":"IP Basic,HD Basic,Encore HD","township":null,"last":"Weyrauch","stbs allowed":5,"geo_score":0.745,"first":"Adrian","ppv limit":100,"customer id":null,"phone":4192862688,"whdvr":"No","id":"abjw5734gwx7","address":"20288 SR 189","login":1234,"password":1234,"geo_precision":"range","state":"OH","pin":1234},"type":"Feature","geometry":{"type":"Point","coordinates":[-84.251455,40.887021]}},{"properties":{"city":"Fort Jennings","status":"Active","ppv":"Yes","zip":"45844","region":"Ft. Jennings","service packages":"IP Basic","township":null,"last":"Wiechart","stbs allowed":5,"geo_score":0.902,"first":"Gary","ppv limit":100,"customer id":null,"phone":4192862083,"whdvr":"No","id":"abjw56zw19pp","address":"20636 Road 22-S","login":1234,"password":1234,"geo_precision":"range","state":"OH","pin":1234},"type":"Feature","geometry":{"type":"Point","coordinates":[-84.290902,40.879329]}},{"properties":{"city":"Fort Jennings","status":"Active","ppv":"Yes","zip":"45844","region":"Ft. Jennings","service packages":"IP Expanded","township":null,"last":"Wilhelm","stbs allowed":5,"geo_score":0.902,"first":"Ruth","ppv limit":100,"customer id":null,"phone":4190021042,"whdvr":"No","id":"abjw579t3kl8","address":"21086 Rd V","login":1234,"password":1234,"geo_precision":"range","state":"OH","pin":1234},"type":"Feature","geometry":{"type":"Point","coordinates":[-84.264013,40.859762]}},{"properties":{"city":"Fort Jennings","status":"Active","ppv":"Yes","zip":"45844","region":"Ft. Jennings","service packages":"Max","township":null,"last":"Will","stbs allowed":5,"geo_score":0.902,"first":"Dave","ppv limit":100,"customer id":null,"phone":4192862498,"whdvr":"Yes","id":"abjw57926vff","address":"19766 Road 22-S","login":1234,"password":1234,"geo_precision":"range","state":"OH","pin":1234},"type":"Feature","geometry":{"type":"Point","coordinates":[-84.292372,40.891448]}},{"properties":{"city":"Delphos","status":"Active","ppv":"No","zip":"45833","region":"Ft. Jennings","service packages":"IP Basic","township":null,"last":"Wiltsie","stbs allowed":5,"geo_score":0.902,"first":"Dianne","ppv limit":1,"customer id":null,"phone":4190023219,"whdvr":"No","id":"abjw57drgsh4","address":"10905 Lincoln Hwy","login":1234,"password":1234,"geo_precision":"range","state":"OH","pin":1234},"type":"Feature","geometry":{"type":"Point","coordinates":[-84.309458,40.846909]}},{"properties":{"city":"Fort Jennings","status":"Active","ppv":"Yes","zip":"45844","region":"Ft. Jennings","service packages":"IP Expanded,HD Basic","township":null,"last":"Wittler","stbs allowed":5,"geo_score":0.902,"first":"Neil","ppv limit":100,"customer id":null,"phone":4192862552,"whdvr":"No","id":"abjw57esj6cq","address":"19284 Rd 20","login":1234,"password":1234,"geo_precision":"range","state":"OH","pin":1234},"type":"Feature","geometry":{"type":"Point","coordinates":[-84.243963,40.898537]}},{"properties":{"city":"Delphos","status":"Active","ppv":"Yes","zip":"45833","region":"Ft. Jennings","service packages":"IP Basic,HD Basic","township":null,"last":"Wurst","stbs allowed":5,"geo_score":0.488,"first":"Andy","ppv limit":100,"customer id":null,"phone":4190026320,"whdvr":"No","id":"abjw57c5qac0","address":"23269 Road U-20","login":1234,"password":1234,"geo_precision":"zip","state":"OH","pin":1234},"type":"Feature","geometry":{"type":"Point","coordinates":[-84.272729,40.817828]}}],"is_temporal":false,"author":{"url":"","metadata":null,"contact_name":null,"contact_address":null,"source":null,"contact_phone":null},"source":"","pagination":{"sort":null,"start":0,"total":106,"limit":1000000},"state":"complete","tags":"","published":"2014-08-16T15:58:21-04:00","id":312377}