{"type":"FeatureCollection","data_type":"Dataset","url_type":null,"permissions":[{"permissions":{"download":true,"view":true},"group_id":"everyone"}],"classification":null,"title":"Copy of IPTV-TSC-Jan-16-2013 - Copy","count":329,"stream_id":312390,"contributor":{"url":"http://geocommons.com/users/59404","name":"KatieEtgen"},"data_attributes":null,"calculation_params":null,"icon_link":null,"link":"http://geocommons.com/overlays/312390.json","extent":[-92.2836,40.3907,-80.6907,46.575],"geometry_types":["point"],"unique_name":null,"name":"Copy of IPTV-TSC-Jan-16-2013 - Copy","feature_count":329,"description":"","next_feature":null,"is_raster":false,"short_classification":"Y","stats":{"stbs allowed":{"max":20,"mean":5.03039513677812,"variance":1.59663429461042,"stdev":1.26357995180773,"median":5,"min":1},"phone":{"max":9374077051,"mean":4238503175.9848,"variance":1.19978335116585e+17,"stdev":346378889.536567,"median":4197381189,"min":4192032343},"password":{"max":9981,"mean":5449.64024390244,"variance":7852616.88547027,"stdev":2802.25210954872,"median":5549,"min":0},"login":{"max":41973988414,"mean":4379306108.18598,"variance":9.18628014212433e+18,"stdev":3030887682.20209,"median":4197381157,"min":2103},"pin":{"max":9981,"mean":5449.64024390244,"variance":7852616.88547027,"stdev":2802.25210954872,"median":5549,"min":0}},"features":[{"properties":{"city":"ST MARYS","status":"Active","ppv":"Yes","zip":"45885","region":"St. Mary's","service packages":"Tier 2,Basic St marys,HD 1 St Marys,Music St Marys,Expanded Basic SM","township":null,"last":"ACKLEY","stbs allowed":5,"geo_score":0.876,"first":"WALTER L","ppv limit":"Unlimited","customer id":"20028837","phone":4193947385,"whdvr":"No","id":"abjw6u8tpu4q","address":"12002 COUNTY ROAD 66A","login":4193947385,"password":7385,"geo_precision":"range","state":"OH","pin":7385},"type":"Feature","geometry":{"type":"Point","coordinates":[-84.388286,40.521746]}},{"properties":{"city":"ST MARYS","status":"Active","ppv":"Yes","zip":"45885","region":"St. Mary's","service packages":"Tier 2,Basic St marys,HD 1 St Marys,Music St Marys,Expanded Basic SM","township":null,"last":"ALEXANDER","stbs allowed":5,"geo_score":0.788,"first":"JASON","ppv limit":"Unlimited","customer id":"20028806","phone":4193003629,"whdvr":"No","id":"abjw6u6gp9n0","address":"920 S WAYNE","login":4193003629,"password":3629,"geo_precision":"range","state":"OH","pin":3629},"type":"Feature","geometry":{"type":"Point","coordinates":[-84.389586,40.533473]}},{"properties":{"city":"LIMA","status":"Active","ppv":"Yes","zip":"45805","region":"Allen County","service packages":"Basic Allen,HD 1,Tier 2 Allen,Music Allen,Expanded Basic Allen","township":null,"last":"ALLER","stbs allowed":5,"geo_score":0.616,"first":"RON","ppv limit":"Unlimited","customer id":"00002986-5","phone":4192230095,"whdvr":"No","id":"abjw6tywrc52","address":"3008 MORNING SUN DR","login":4192230095,"password":95,"geo_precision":"street","state":"OH","pin":95},"type":"Feature","geometry":{"type":"Point","coordinates":[-83.973789,40.609857]}},{"properties":{"city":"WAPAKONETA","status":"Active","ppv":"Yes","zip":"45895","region":"Wapakoneta","service packages":"Basic Wapak,Music Wapak,Tier 2 Wapak,Expanded basic Wapak","township":null,"last":"AMERICAN INDUSTRIAL PARTNERS","stbs allowed":5,"geo_score":0.772,"first":null,"ppv limit":"Unlimited","customer id":"20021957","phone":4197381802,"whdvr":"No","id":"abjw6u7twoy1","address":"711 GIBBS","login":4197381802,"password":1802,"geo_precision":"range","state":"OH","pin":1802},"type":"Feature","geometry":{"type":"Point","coordinates":[-84.189683,40.563034]}},{"properties":{"city":"LIMA","status":"Active","ppv":"Yes","zip":"45805","region":"Allen County","service packages":"Basic Allen,HD 1,Tier 2 Allen,Music Allen,Expanded Basic Allen","township":null,"last":"ART'S ROLLOFFS","stbs allowed":5,"geo_score":0.902,"first":"ART'S ROLLOFFS","ppv limit":"Unlimited","customer id":"99640033502","phone":4199913730,"whdvr":"No","id":"abjw6u5c9sku","address":"2563 BREEZEWOOD LN","login":4199913730,"password":3730,"geo_precision":"range","state":"OH","pin":3730},"type":"Feature","geometry":{"type":"Point","coordinates":[-84.155298,40.705308]}},{"properties":{"city":"ST MARYS","status":"Active","ppv":"Yes","zip":"45885","region":"St. Mary's","service packages":"Tier 2,Basic St marys,HD 1 St Marys,Music St Marys,Expanded Basic SM","township":null,"last":"AXE","stbs allowed":5,"geo_score":0.796,"first":"DAVID","ppv limit":"Unlimited","customer id":"99310008905","phone":4193004427,"whdvr":"No","id":"abjw6ttj1k25","address":"626 W SPRING","login":4193004427,"password":4427,"geo_precision":"range","state":"OH","pin":4427},"type":"Feature","geometry":{"type":"Point","coordinates":[-84.394469,40.540788]}},{"properties":{"city":"ST MARYS","status":"Active","ppv":"Yes","zip":"45885","region":"St. Mary's","service packages":"Tier 2,Basic St marys,HD 1 St Marys,Music St Marys,Expanded Basic SM","township":null,"last":"AXE","stbs allowed":5,"geo_score":0.795,"first":"DEAN","ppv limit":"Unlimited","customer id":"99310095987","phone":4192347904,"whdvr":"No","id":"abjw6u4yc4qr","address":"166 SOUTHMOOR SHRS","login":4192347904,"password":7904,"geo_precision":"range","state":"OH","pin":7904},"type":"Feature","geometry":{"type":"Point","coordinates":[-84.431443,40.515006]}},{"properties":{"city":"ST MARYS","status":"Active","ppv":"Yes","zip":"45885","region":"St. Mary's","service packages":"Tier 2,Basic St marys,HD 1 St Marys,Music St Marys,Expanded Basic SM","township":null,"last":"AXE","stbs allowed":5,"geo_score":0.488,"first":"STEVE","ppv limit":"Unlimited","customer id":"20029569","phone":4193948588,"whdvr":"No","id":"abjw6tyr8xy2","address":"617 W HIGH","login":4193948588,"password":8588,"geo_precision":"zip","state":"OH","pin":8588},"type":"Feature","geometry":{"type":"Point","coordinates":[-84.424675,40.545325]}},{"properties":{"city":"ST MARYS","status":"Active","ppv":"Yes","zip":"45885","region":"St. Mary's","service packages":"ENC/Starz,Tier 2,Basic St marys,HD 1 St Marys,Music St Marys,Expanded Basic SM","township":null,"last":"AXE","stbs allowed":5,"geo_score":0.766,"first":"DWAYNE","ppv limit":"Unlimited","customer id":"99310007829","phone":4193008499,"whdvr":"No","id":"abjw6u71htj3","address":"228 S ASH","login":4193008499,"password":8499,"geo_precision":"range","state":"OH","pin":8499},"type":"Feature","geometry":{"type":"Point","coordinates":[-84.393235,40.539451]}},{"properties":{"city":"LIMA","status":"Active","ppv":"Yes","zip":"45805","region":"Allen County","service packages":"Basic Allen,HD 1,Tier 2 Allen,Music Allen,Expanded Basic Allen","township":null,"last":"AYERS","stbs allowed":5,"geo_score":0.902,"first":"THOMAS","ppv limit":"Unlimited","customer id":"99640030697","phone":4192271722,"whdvr":"No","id":"abjw6u04gqdw","address":"2889 STONEYBROOK DR","login":4192271722,"password":1722,"geo_precision":"range","state":"OH","pin":1722},"type":"Feature","geometry":{"type":"Point","coordinates":[-84.158957,40.70313]}},{"properties":{"city":"ST MARYS","status":"Active","ppv":"Yes","zip":"45885","region":"St. Mary's","service packages":"Tier 2,Basic St marys,HD 1 St Marys,Music St Marys,Expanded Basic SM","township":null,"last":"BADER","stbs allowed":5,"geo_score":0.803,"first":"CAROLYN","ppv limit":"Unlimited","customer id":"99310015042","phone":4193940563,"whdvr":"No","id":"abjw6tt5de59","address":"1125 LANE AVE","login":4193940563,"password":563,"geo_precision":"range","state":"OH","pin":563},"type":"Feature","geometry":{"type":"Point","coordinates":[-84.406078,40.547985]}},{"properties":{"city":"ST MARYS","status":"Active","ppv":"Yes","zip":"45885","region":"St. Mary's","service packages":"Tier 2,Basic St marys,HD 1 St Marys,Music St Marys,Expanded Basic SM","township":null,"last":"BALL","stbs allowed":5,"geo_score":0.766,"first":"DEB","ppv limit":"Unlimited","customer id":"20028573","phone":4197339432,"whdvr":"No","id":"abjw6tut5h79","address":"201 MAPLE","login":4197339432,"password":9432,"geo_precision":"range","state":"OH","pin":9432},"type":"Feature","geometry":{"type":"Point","coordinates":[-84.377696,40.545425]}},{"properties":{"city":"ST MARYS","status":"Inactive","ppv":"Yes","zip":"45885","region":"St. Mary's","service packages":"Tier 2,Basic St marys,HBO St Marys,HD 1 St Marys,HD 2 St Marys,Music St Marys,Showtime St Marys,Expanded Basic SM","township":null,"last":"BALL","stbs allowed":5,"geo_score":0.778,"first":"STACY","ppv limit":"Unlimited","customer id":"99310007231","phone":4193943039,"whdvr":"No","id":"abjw6u7aw9q7","address":"118 S VINE","login":4193943039,"password":3039,"geo_precision":"range","state":"OH","pin":3039},"type":"Feature","geometry":{"type":"Point","coordinates":[-84.380625,40.545816]}},{"properties":{"city":"ST MARYS","status":"Active","ppv":"Yes","zip":"45885","region":"St. Mary's","service packages":"Tier 2,Basic St marys,HD 1 St Marys,Music St Marys,Expanded Basic SM","township":null,"last":"BALLWEG","stbs allowed":5,"geo_score":0.681,"first":"KAYLA","ppv limit":"Unlimited","customer id":"99510094694","phone":4197333087,"whdvr":"No","id":"abjw6u3trnzc","address":"222 N WEST","login":4197333087,"password":3087,"geo_precision":"range","state":"OH","pin":3087},"type":"Feature","geometry":{"type":"Point","coordinates":[-84.396348,40.54224]}},{"properties":{"city":"SAT MARYS","status":"Active","ppv":"Yes","zip":"45885","region":"St. Mary's","service packages":"ENC/Starz,Basic St marys,HD 1 St Marys,Music St Marys,Expanded Basic SM","township":null,"last":"BARHORST","stbs allowed":5,"geo_score":0.787,"first":"JAMES","ppv limit":"Unlimited","customer id":"99740015020","phone":4193948481,"whdvr":"No","id":"abjw6tuaf1qe","address":"301 DIEKER","login":4193948481,"password":8481,"geo_precision":"range","state":"OH","pin":8481},"type":"Feature","geometry":{"type":"Point","coordinates":[-84.396463,40.546423]}},{"properties":{"city":"WAPAKONETA","status":"Active","ppv":"Yes","zip":"45895","region":"Wapakoneta","service packages":"Basic Wapak,Music Wapak,Tier 2 Wapak,HD 1 Wapak,Expanded basic Wapak","township":null,"last":"BARHORST","stbs allowed":5,"geo_score":0.716,"first":"RANDALL","ppv limit":"Unlimited","customer id":"99510049660","phone":4197382465,"whdvr":"No","id":"abjw6u74e9lb","address":"10301 S DIXIE 25A","login":4197382465,"password":2465,"geo_precision":"range","state":"OH","pin":2465},"type":"Feature","geometry":{"type":"Point","coordinates":[-84.186627,40.503544]}},{"properties":{"city":"WAPAKONETA","status":"Active","ppv":"Yes","zip":"45895","region":"Wapakoneta","service packages":"Basic Wapak,Music Wapak,Tier 2 Wapak,Expanded basic Wapak","township":null,"last":"BARRIENTES","stbs allowed":5,"geo_score":0.885,"first":"DIANA","ppv limit":"120","customer id":"129819-1","phone":4197398800,"whdvr":"No","id":"abjw6u2n68qb","address":"11566 WAPAK FREYBURG RD","login":4197398800,"password":8800,"geo_precision":"range","state":"OH","pin":8800},"type":"Feature","geometry":{"type":"Point","coordinates":[-84.145225,40.520674]}},{"properties":{"city":"WAPAKONETA","status":"Active","ppv":"Yes","zip":"44589","region":"Wapakoneta","service packages":"Basic Wapak,Music Wapak,Tier 2 Wapak,Expanded basic Wapak","township":null,"last":"BECKER CO","stbs allowed":5,"geo_score":0.561,"first":"JL","ppv limit":"Unlimited","customer id":"20017514","phone":4197383450,"whdvr":"No","id":"abjw6tzzjzvr","address":"15286 ST RT 67","login":4197383450,"password":3450,"geo_precision":"street","state":"OH","pin":3450},"type":"Feature","geometry":{"type":"Point","coordinates":[-80.690719,41.029305]}},{"properties":{"city":"WAPAKONETA","status":"Active","ppv":"Yes","zip":"45895","region":"Wapakoneta","service packages":"Basic Wapak,Music Wapak,Tier 2 Wapak,HD 1 Wapak,Expanded basic Wapak","township":null,"last":"BELL","stbs allowed":5,"geo_score":0.805,"first":"KENNETH","ppv limit":"Unlimited","customer id":"20018688","phone":4197384897,"whdvr":"No","id":"abjw6u8gbtcz","address":"16975 ST RT 67","login":4197384897,"password":4897,"geo_precision":"range","state":"OH","pin":4897},"type":"Feature","geometry":{"type":"Point","coordinates":[-84.130267,40.599607]}},{"properties":{"city":"WAPAKONETA","status":"Active","ppv":"Yes","zip":"45895","region":"Wapakoneta","service packages":"Basic Wapak,Music Wapak,Tier 2 Wapak,Expanded basic Wapak","township":null,"last":"BERG COMMODITIES","stbs allowed":5,"geo_score":0.902,"first":null,"ppv limit":"Unlimited","customer id":"20018931","phone":4197385240,"whdvr":"No","id":"abjw6u8f1s3k","address":"15 WILLIPIE ST","login":4197385240,"password":5240,"geo_precision":"range","state":"OH","pin":5240},"type":"Feature","geometry":{"type":"Point","coordinates":[-84.194059,40.570414]}},{"properties":{"city":"WAPAKONETA","status":"Active","ppv":"Yes","zip":"45895","region":"Wapakoneta","service packages":"Basic Wapak,Music Wapak,Tier 2 Wapak,Expanded basic Wapak","township":null,"last":"BERLET","stbs allowed":5,"geo_score":0.902,"first":"NED","ppv limit":"Unlimited","customer id":"20021076","phone":4197388059,"whdvr":"No","id":"abjw6twpiu5s","address":"13396 BAY RD","login":4197388059,"password":8059,"geo_precision":"range","state":"OH","pin":8059},"type":"Feature","geometry":{"type":"Point","coordinates":[-84.277971,40.541925]}},{"properties":{"city":"ST MARYS","status":"Active","ppv":"Yes","zip":"45885","region":"St. Mary's","service packages":"ENC/Starz,Tier 2,Basic St marys,HBO St Marys,HD 1 St Marys,Music St Marys,Showtime St Marys,Expanded Basic SM","township":null,"last":"BERNARD","stbs allowed":5,"geo_score":0.834,"first":"MICHAEL","ppv limit":"Unlimited","customer id":"20028160","phone":4193003242,"whdvr":"No","id":"abjw6u6krj59","address":"686 COVENTRY GRN","login":4193003242,"password":3242,"geo_precision":"range","state":"OH","pin":3242},"type":"Feature","geometry":{"type":"Point","coordinates":[-84.388231,40.552288]}},{"properties":{"city":"Wapakoneta","status":"Active","ppv":"Yes","zip":"45895","region":"Wapakoneta","service packages":"Basic Wapak,Music Wapak,Tier 2 Wapak,Expanded basic Wapak","township":null,"last":"Berning","stbs allowed":2,"geo_score":0.528,"first":"Jack","ppv limit":"Unlimited","customer id":"20016188","phone":4197381299,"whdvr":"No","id":"abjw6tyf3wmq","address":"15630 Blackhoof Creek Rd","login":4197381299,"password":1299,"geo_precision":"street","state":"OH","pin":1299},"type":"Feature","geometry":{"type":"Point","coordinates":[-83.555798,40.898241]}},{"properties":{"city":"WAPAKONETA","status":"Active","ppv":"Yes","zip":"45895","region":"Wapakoneta","service packages":"Basic Wapak,Music Wapak,Expanded basic Wapak","township":null,"last":"BIGELOW","stbs allowed":5,"geo_score":0.849,"first":"MARIE","ppv limit":"Unlimited","customer id":"00062340-1","phone":4197398817,"whdvr":"No","id":"abjw6u3njprj","address":"402 ASHLAND A3","login":4197398817,"password":8817,"geo_precision":"range","state":"OH","pin":8817},"type":"Feature","geometry":{"type":"Point","coordinates":[-84.199885,40.558595]}},{"properties":{"city":"WAPAKONETA","status":"Inactive","ppv":"Yes","zip":"45895","region":"Wapakoneta","service packages":"Basic Wapak","township":null,"last":"BILLINGS","stbs allowed":5,"geo_score":0.739,"first":"BETHANY","ppv limit":"Unlimited","customer id":"00119836-1","phone":4197398912,"whdvr":"No","id":"abjw6u1nixfn","address":"402 ASHLAND AVE BLDG A APT 12","login":4197398912,"password":8912,"geo_precision":"range","state":"OH","pin":8912},"type":"Feature","geometry":{"type":"Point","coordinates":[-84.199885,40.558595]}},{"properties":{"city":"WAPAKONETA","status":"Active","ppv":"Yes","zip":"45895","region":"Wapakoneta","service packages":"Basic Wapak,Music Wapak,Tier 2 Wapak,HD 1 Wapak,Expanded basic Wapak","township":null,"last":"BLAUSEY","stbs allowed":5,"geo_score":0.707,"first":"SHAWNDA","ppv limit":"Unlimited","customer id":"99430073587","phone":9374077051,"whdvr":"No","id":"abjw6u5dwc7e","address":"12A AMY AVE","login":9374077051,"password":7051,"geo_precision":"street","state":"OH","pin":7051},"type":"Feature","geometry":{"type":"Point","coordinates":[-84.197739,40.770479]}},{"properties":{"city":"ST MARYS","status":"Active","ppv":"Yes","zip":"45885","region":"St. Mary's","service packages":"Tier 2,Basic St marys,HD 1 St Marys,Music St Marys,Expanded Basic SM","township":null,"last":"BLOCK","stbs allowed":5,"geo_score":0.788,"first":"DANIEL","ppv limit":"Unlimited","customer id":"99310101286","phone":4193009349,"whdvr":"No","id":"abjw6twq0dxk","address":"425 N FRONT","login":4193009349,"password":9349,"geo_precision":"range","state":"OH","pin":9349},"type":"Feature","geometry":{"type":"Point","coordinates":[-84.391473,40.545596]}},{"properties":{"city":"ST MARYS","status":"Active","ppv":"Yes","zip":"45885","region":"St. Mary's","service packages":"Tier 2,Basic St marys,HD 1 St Marys,Music St Marys,Expanded Basic SM","township":null,"last":"BONIFAS","stbs allowed":5,"geo_score":0.796,"first":"BRIAN","ppv limit":"Unlimited","customer id":"20028334","phone":4193056641,"whdvr":"No","id":"abjw6u2hb37o","address":"216 N SPRUCE","login":4193056641,"password":6641,"geo_precision":"range","state":"OH","pin":6641},"type":"Feature","geometry":{"type":"Point","coordinates":[-84.384973,40.547061]}},{"properties":{"city":"ST MARYS","status":"Active","ppv":"Yes","zip":"45885","region":"St. Mary's","service packages":"Tier 2,Basic St marys,HD 1 St Marys,Music St Marys,Expanded Basic SM","township":null,"last":"BOOS","stbs allowed":5,"geo_score":0.876,"first":"JOSHUA","ppv limit":"Unlimited","customer id":"99310044122","phone":4193009090,"whdvr":"No","id":"abjw6u57oy47","address":"909 ROYAL OAK DR","login":4193009090,"password":9090,"geo_precision":"range","state":"OH","pin":9090},"type":"Feature","geometry":{"type":"Point","coordinates":[-84.412891,40.547435]}},{"properties":{"city":"WAPAKONETA","status":"Active","ppv":"Yes","zip":"45895","region":"Wapakoneta","service packages":"Basic Wapak,Music Wapak,Tier 2 Wapak,Expanded basic Wapak","township":null,"last":"BORNHORST - HYDRA BOX","stbs allowed":5,"geo_score":0.716,"first":"GLENN","ppv limit":"Unlimited","customer id":"20017937","phone":4197383972,"whdvr":"No","id":"abjw6u379etf","address":"10139 S DIXIE 25A","login":4197383972,"password":3972,"geo_precision":"range","state":"OH","pin":3972},"type":"Feature","geometry":{"type":"Point","coordinates":[-84.186192,40.49999]}},{"properties":{"city":"WAPAKONETA","status":"Active","ppv":"Yes","zip":"45895","region":"Wapakoneta","service packages":"Basic Wapak,Music Wapak,Tier 2 Wapak,Expanded basic Wapak","township":null,"last":"BOWERSOCK","stbs allowed":5,"geo_score":0.805,"first":"JOHN","ppv limit":"Unlimited","customer id":"20021653","phone":4197388790,"whdvr":"No","id":"abjw6u39fd8z","address":"16793 ST RT 67","login":4197388790,"password":8790,"geo_precision":"range","state":"OH","pin":8790},"type":"Feature","geometry":{"type":"Point","coordinates":[-84.131209,40.599589]}},{"properties":{"city":"ST MARYS","status":"Active","ppv":"Yes","zip":"45885","region":"St. Mary's","service packages":"ENC/Starz,Tier 2,Basic St marys,HBO St Marys,HD 1 St Marys,Music St Marys,Showtime St Marys,Expanded Basic SM","township":null,"last":"BRADLEY","stbs allowed":5,"geo_score":0.796,"first":"JAMES","ppv limit":"Unlimited","customer id":"20028224","phone":4193946531,"whdvr":"No","id":"abjw6u4o3ius","address":"532 N SPRUCE","login":4193946531,"password":6531,"geo_precision":"range","state":"OH","pin":6531},"type":"Feature","geometry":{"type":"Point","coordinates":[-84.384548,40.54954]}},{"properties":{"city":"ST MARYS","status":"Active","ppv":"Yes","zip":"45885","region":"St. Mary's","service packages":"ENC/Starz,Tier 2,Basic St marys,HBO St Marys,HD 1 St Marys,Music St Marys,Showtime St Marys,Expanded Basic SM","township":null,"last":"BRAUN","stbs allowed":5,"geo_score":0.75,"first":"MICHAEL","ppv limit":"Unlimited","customer id":"99310013315","phone":4193945215,"whdvr":"No","id":"abjw6tso0zgx","address":"117 OHIO","login":4193945215,"password":5215,"geo_precision":"range","state":"OH","pin":5215},"type":"Feature","geometry":{"type":"Point","coordinates":[-84.401084,40.539926]}},{"properties":{"city":"WAPAKONETA","status":"Active","ppv":"Yes","zip":"45895","region":"Wapakoneta","service packages":"Basic Wapak,Music Wapak,Tier 2 Wapak,Expanded basic Wapak","township":null,"last":"BRAUN","stbs allowed":5,"geo_score":0.902,"first":"JOHN","ppv limit":"Unlimited","customer id":"99430076674","phone":4197398816,"whdvr":"No","id":"abjw6ty3u08f","address":"10622 RUPERT RD","login":4197398816,"password":8816,"geo_precision":"range","state":"OH","pin":8816},"type":"Feature","geometry":{"type":"Point","coordinates":[-84.153217,40.506768]}},{"properties":{"city":"WAPAKONETA","status":"Active","ppv":"Yes","zip":"44589","region":"Wapakoneta","service packages":"Basic Wapak,Tier 2 Wapak,HD 1 Wapak,Expanded basic Wapak","township":null,"last":"BRAUTIGAM","stbs allowed":5,"geo_score":0.61,"first":"JIM","ppv limit":"Unlimited","customer id":"20021101","phone":4197388087,"whdvr":"No","id":"abjw6u7z9lb6","address":"10140 COUNTY ROAD 33A","login":4197388087,"password":8087,"geo_precision":"street","state":"OH","pin":8087},"type":"Feature","geometry":{"type":"Point","coordinates":[-92.283616,46.575042]}},{"properties":{"city":"WAPAKONETA","status":"Active","ppv":"Yes","zip":"45895","region":"Wapakoneta","service packages":"Basic Wapak","township":null,"last":"BRENNEMAN","stbs allowed":5,"geo_score":0.766,"first":"MARK","ppv limit":"120","customer id":"00048290-0","phone":4197398845,"whdvr":"No","id":"abjw6u4w9923","address":"1 PERRY ST APT 45","login":4197398845,"password":8845,"geo_precision":"range","state":"OH","pin":8845},"type":"Feature","geometry":{"type":"Point","coordinates":[-84.194764,40.570592]}},{"properties":{"city":"CRIDERSVILLE","status":"Active","ppv":"Yes","zip":"45806","region":"Wapakoneta","service packages":"Basic Wapak,Music Wapak,HBO Wapak,Showtime Wapak,Expanded basic Wapak","township":null,"last":"BREWER","stbs allowed":5,"geo_score":0.652,"first":"MARY","ppv limit":"Unlimited","customer id":"99510091464","phone":4196455836,"whdvr":"No","id":"abjw6u2gs0ug","address":"19839 REICHELDERFER","login":4196455836,"password":5836,"geo_precision":"street","state":"OH","pin":5836},"type":"Feature","geometry":{"type":"Point","coordinates":[-84.150842,40.651212]}},{"properties":{"city":"ST MARYS","status":"Active","ppv":"Yes","zip":"45885","region":"St. Mary's","service packages":"Basic St marys,HD 1 St Marys,Expanded Basic SM","township":null,"last":"BREWER","stbs allowed":5,"geo_score":0.671,"first":"ETHEL","ppv limit":"Unlimited","customer id":"99740008077","phone":4193943041,"whdvr":"No","id":"abjw6tu6yleh","address":"712 W NORTH","login":4193943041,"password":3041,"geo_precision":"range","state":"OH","pin":3041},"type":"Feature","geometry":{"type":"Point","coordinates":[-84.396698,40.542452]}},{"properties":{"city":"ST MARYS","status":"Active","ppv":"Yes","zip":"45885","region":"St. Mary's","service packages":"Tier 2,Basic St marys,HD 1 St Marys,HD 2 St Marys,Music St Marys,Expanded Basic SM","township":null,"last":"BREWER","stbs allowed":5,"geo_score":0.788,"first":"DAVID","ppv limit":"Unlimited","customer id":"99560004089","phone":4193947507,"whdvr":"No","id":"abjw6u3vv8aw","address":"446 N PERRY","login":4193947507,"password":7507,"geo_precision":"range","state":"OH","pin":7507},"type":"Feature","geometry":{"type":"Point","coordinates":[-84.395997,40.546029]}},{"properties":{"city":"ST MARYS","status":"Active","ppv":"Yes","zip":"45885","region":"St. Mary's","service packages":"ENC/Starz,Tier 2,Basic St marys,HBO St Marys,HD 1 St Marys,Music St Marys,Showtime St Marys,Expanded Basic SM","township":null,"last":"BREWER","stbs allowed":5,"geo_score":0.488,"first":"DEB","ppv limit":"Unlimited","customer id":"99310026548","phone":4193005365,"whdvr":"No","id":"abjw6u4cji4i","address":"806 W HIGH","login":4193005365,"password":5365,"geo_precision":"zip","state":"OH","pin":5365},"type":"Feature","geometry":{"type":"Point","coordinates":[-84.424675,40.545325]}},{"properties":{"city":"WAPAKONETA","status":"Active","ppv":"Yes","zip":"45895","region":"Wapakoneta","service packages":"Basic Wapak,Music Wapak,Tier 2 Wapak,Expanded basic Wapak","township":null,"last":"BRITT","stbs allowed":5,"geo_score":0.744,"first":"BRAD","ppv limit":"Unlimited","customer id":"00030499-4","phone":4197398793,"whdvr":"No","id":"abjw6tuht8mj","address":"402 ASHLAND AVE BLDG E APT 2","login":4197398793,"password":8793,"geo_precision":"range","state":"OH","pin":8793},"type":"Feature","geometry":{"type":"Point","coordinates":[-84.199885,40.558595]}},{"properties":{"city":"ST MARYS","status":"Active","ppv":"Yes","zip":"45885","region":"St. Mary's","service packages":"ENC/Starz,Tier 2,Basic St marys,HBO St Marys,HD 1 St Marys,Music St Marys,Showtime St Marys,Expanded Basic SM","township":null,"last":"BROCK","stbs allowed":5,"geo_score":0.796,"first":"KELLY","ppv limit":"Unlimited","customer id":"99310104291","phone":4193009778,"whdvr":"No","id":"abjw6tzc0vbb","address":"455 DEFIANCE","login":4193009778,"password":9778,"geo_precision":"range","state":"OH","pin":9778},"type":"Feature","geometry":{"type":"Point","coordinates":[-84.396509,40.551434]}},{"properties":{"city":"Wapakoneta","status":"Active","ppv":"Yes","zip":"45895","region":"Wapakoneta","service packages":"Basic Wapak,Expanded basic Wapak","township":null,"last":"Brown","stbs allowed":5,"geo_score":0.902,"first":"Jeff","ppv limit":"Unlimited","customer id":"20020207","phone":4197386932,"whdvr":"No","id":"abjw6u6kcf4t","address":"12992 Freyburg Dr","login":4197386932,"password":6932,"geo_precision":"range","state":"OH","pin":6932},"type":"Feature","geometry":{"type":"Point","coordinates":[-84.196211,40.511345]}},{"properties":{"city":"Wapakoneta","status":"Active","ppv":"Yes","zip":"45895","region":"Wapakoneta","service packages":"Basic Wapak,Expanded basic Wapak","township":null,"last":"Brown","stbs allowed":5,"geo_score":0.902,"first":"Ralph","ppv limit":"Unlimited","customer id":"00055595-3","phone":4197398951,"whdvr":"No","id":"abjw6tyxt3ek","address":"14685 Freyburg Dr","login":4197398951,"password":8951,"geo_precision":"range","state":"OH","pin":8951},"type":"Feature","geometry":{"type":"Point","coordinates":[-84.173547,40.511598]}},{"properties":{"city":"Lima","status":"Active","ppv":"Yes","zip":"45801","region":"Allen County","service packages":"Basic Allen,HD 1,Expanded Basic Allen","township":null,"last":"BRP","stbs allowed":5,"geo_score":0.488,"first":"MANUFACTURING","ppv limit":"Unlimited","customer id":"00102174-5","phone":4192225010,"whdvr":"No","id":"abjw6tyhv26t","address":"637 N Jackson St","login":4192225010,"password":5010,"geo_precision":"zip","state":"OH","pin":5010},"type":"Feature","geometry":{"type":"Point","coordinates":[-84.0471,40.772147]}},{"properties":{"city":"ST MARYS","status":"Active","ppv":"Yes","zip":"45885","region":"St. Mary's","service packages":"ENC/Starz,Basic St marys,HBO St Marys,HD 1 St Marys,Music St Marys,Showtime St Marys,Expanded Basic SM","township":null,"last":"BURDEN","stbs allowed":5,"geo_score":0.778,"first":"DENNIS","ppv limit":"Unlimited","customer id":"99560004576","phone":4193004334,"whdvr":"No","id":"abjw6u7vmovm","address":"328 S MAIN","login":4193004334,"password":4334,"geo_precision":"range","state":"OH","pin":4334},"type":"Feature","geometry":{"type":"Point","coordinates":[-84.388564,40.539592]}},{"properties":{"city":"ST MARYS","status":"Active","ppv":"Yes","zip":"45885","region":"St. Mary's","service packages":"Tier 2,Basic St marys,HD 1 St Marys,Music St Marys,Expanded Basic SM","township":null,"last":"BURKE","stbs allowed":5,"geo_score":0.766,"first":"JOSEPH","ppv limit":"Unlimited","customer id":"20028289","phone":4193948310,"whdvr":"No","id":"abjw6u91yzx1","address":"825 GORDON GRV","login":4193948310,"password":8310,"geo_precision":"range","state":"OH","pin":8310},"type":"Feature","geometry":{"type":"Point","coordinates":[-84.387113,40.551437]}},{"properties":{"city":"WAPAKONETA","status":"Active","ppv":"Yes","zip":"45895","region":"Wapakoneta","service packages":"Basic Wapak,Music Wapak,Tier 2 Wapak,Expanded basic Wapak","township":null,"last":"BUTCHER","stbs allowed":5,"geo_score":0.87,"first":"TIM","ppv limit":"Unlimited","customer id":"20019203","phone":4197385649,"whdvr":"No","id":"abjw6u2alfb3","address":"10863 SHELBY-FRYBURG RD","login":4197385649,"password":5649,"geo_precision":"range","state":"OH","pin":5649},"type":"Feature","geometry":{"type":"Point","coordinates":[-84.137154,40.507574]}},{"properties":{"city":"WAPAKONETA","status":"Active","ppv":"Yes","zip":"45895","region":"Wapakoneta","service packages":"Basic Wapak,HD 1 Wapak,Expanded basic Wapak","township":null,"last":"BYRNE","stbs allowed":5,"geo_score":0.902,"first":"PAUL D","ppv limit":"75","customer id":"00007456-4","phone":4197385489,"whdvr":"Yes","id":"abjw6u0dce2d","address":"10635 GLYNWOOD RD","login":4197385489,"password":5489,"geo_precision":"range","state":"OH","pin":5489},"type":"Feature","geometry":{"type":"Point","coordinates":[-84.24713,40.583078]}},{"properties":{"city":"Wapakoneta","status":"Active","ppv":"Yes","zip":"45895","region":"Wapakoneta","service packages":"Basic Wapak,Expanded basic Wapak","township":null,"last":"Carter","stbs allowed":5,"geo_score":0.488,"first":"Jerrilyn","ppv limit":"Unlimited","customer id":"99420137087","phone":4192360531,"whdvr":"No","id":"abjw6tuuwbp2","address":"18746 Mudsock Rd","login":4192360531,"password":531,"geo_precision":"zip","state":"OH","pin":531},"type":"Feature","geometry":{"type":"Point","coordinates":[-84.152138,40.582252]}},{"properties":{"city":"ST MARYS","status":"Active","ppv":"Yes","zip":"45885","region":"St. Mary's","service packages":"Tier 2,Basic St marys,HD 1 St Marys,Music St Marys,Expanded Basic SM","township":null,"last":"CARTWRIGHT","stbs allowed":5,"geo_score":0.796,"first":"KATRINA","ppv limit":"Unlimited","customer id":"99740002344","phone":4193053619,"whdvr":"No","id":"abjw6u0zgz3q","address":"962 E SPRING","login":4193053619,"password":3619,"geo_precision":"range","state":"OH","pin":3619},"type":"Feature","geometry":{"type":"Point","coordinates":[-84.377083,40.546278]}},{"properties":{"city":"ST MARYS","status":"Active","ppv":"Yes","zip":"45885","region":"St. Mary's","service packages":"ENC/Starz,Tier 2,Basic St marys,HD 1 St Marys,Music St Marys,Expanded Basic SM","township":null,"last":"CHILES","stbs allowed":5,"geo_score":0.681,"first":"KENDRA","ppv limit":"Unlimited","customer id":"99310026107","phone":4193948551,"whdvr":"No","id":"abjw6u3acfyt","address":"1110 HAWTHORNE","login":4193948551,"password":8551,"geo_precision":"range","state":"OH","pin":8551},"type":"Feature","geometry":{"type":"Point","coordinates":[-84.413916,40.548402]}},{"properties":{"city":"Wapakoneta","status":"Active","ppv":"Yes","zip":"45895","region":"Wapakoneta","service packages":"Basic Wapak,Music Wapak,Tier 2 Wapak,HD 1 Wapak,HD 2 Wapak,Expanded basic Wapak,Stars Super Pack,Showtime Unlimited,Total HBO,NFL RedZone","township":null,"last":"Clowers","stbs allowed":5,"geo_score":0.829,"first":"Nathan","ppv limit":"120","customer id":"00063407-3","phone":4197381025,"whdvr":"No","id":"abjw6u5j40e6","address":"303 Jefferson","login":4197381025,"password":1025,"geo_precision":"range","state":"OH","pin":1025},"type":"Feature","geometry":{"type":"Point","coordinates":[-84.196985,40.560708]}},{"properties":{"city":"ST MARYS","status":"Active","ppv":"Yes","zip":"45885","region":"St. Mary's","service packages":"Tier 2,Basic St marys,HD 1 St Marys,HD 2 St Marys,Music St Marys,Expanded Basic SM","township":null,"last":"COLLINS","stbs allowed":5,"geo_score":0.876,"first":"KARA","ppv limit":"Unlimited","customer id":"99560055395","phone":4197334860,"whdvr":"No","id":"abjw6u4f7uo9","address":"213 CONCORD AVE","login":4197334860,"password":4860,"geo_precision":"range","state":"OH","pin":4860},"type":"Feature","geometry":{"type":"Point","coordinates":[-84.40111,40.541906]}},{"properties":{"city":"WAPAKONETA","status":"Active","ppv":"Yes","zip":"45895","region":"Wapakoneta","service packages":"Basic Wapak,Expanded basic Wapak","township":"Duchouquet Township","last":"COLLINS","stbs allowed":5,"geo_score":0.488,"first":"ROSS","ppv limit":"Unlimited","customer id":"20023478","phone":4197381643,"whdvr":"No","id":"abjw6tw9bty6","address":"18505 MUDSOCK RD","login":4197381643,"password":1643,"geo_precision":"zip","state":"OH","pin":1643},"type":"Feature","geometry":{"type":"Point","coordinates":[-84.152138,40.582252]}},{"properties":{"city":"ST MARYS","status":"Active","ppv":"Yes","zip":"45885","region":"St. Mary's","service packages":"Tier 2,Basic St marys,HD 1 St Marys,Music St Marys,Expanded Basic SM","township":null,"last":"COMBS","stbs allowed":5,"geo_score":0.788,"first":"BRUCE","ppv limit":"Unlimited","customer id":"99310013280","phone":4193948229,"whdvr":"No","id":"abjw6u5ynwp4","address":"901 EDWARDS","login":4193948229,"password":8229,"geo_precision":"range","state":"OH","pin":8229},"type":"Feature","geometry":{"type":"Point","coordinates":[-84.402964,40.545674]}},{"properties":{"city":"LIMA","status":"Active","ppv":"Yes","zip":"45806","region":"Allen County","service packages":"Basic Allen,HD 1,Tier 2 Allen,Music Allen,Expanded Basic Allen","township":null,"last":"COMPSTON","stbs allowed":5,"geo_score":0.835,"first":"BRENDA","ppv limit":"Unlimited","customer id":"99260020844","phone":4196455124,"whdvr":"No","id":"abjw6u2kfncr","address":"1905 HUNTINGTON","login":4196455124,"password":5124,"geo_precision":"range","state":"OH","pin":5124},"type":"Feature","geometry":{"type":"Point","coordinates":[-84.137378,40.660528]}},{"properties":{"city":"Wapakoneta","status":"Active","ppv":"Yes","zip":"45895","region":"Wapakoneta","service packages":"Basic Wapak,Music Wapak,Tier 2 Wapak,Expanded basic Wapak","township":null,"last":"Conley","stbs allowed":5,"geo_score":0.61,"first":"Robert J","ppv limit":"Unlimited","customer id":"00010561-9","phone":4197398883,"whdvr":"No","id":"abjw6ty835u2","address":"26 1/2 E Auglaize St","login":4197398883,"password":8883,"geo_precision":"range","state":"OH","pin":8883},"type":"Feature","geometry":{"type":"Point","coordinates":[-84.194764,40.570592]}},{"properties":{"city":"LIMA","status":"Active","ppv":"Yes","zip":"45804","region":"Allen County","service packages":"Basic Allen,Expanded Basic Allen","township":null,"last":"CORPORATE SUPPORT","stbs allowed":5,"geo_score":0.488,"first":null,"ppv limit":"Unlimited","customer id":"00015779-1","phone":4192212571,"whdvr":"No","id":"abjw6tvmx6y2","address":"750 BUCKEYE RD","login":4192212571,"password":2571,"geo_precision":"zip","state":"OH","pin":2571},"type":"Feature","geometry":{"type":"Point","coordinates":[-84.063491,40.694996]}},{"properties":{"city":"Wapakoneta","status":"Active","ppv":"Yes","zip":"45895","region":"Wapakoneta","service packages":"Basic Wapak,Music Wapak,Tier 2 Wapak,HD 1 Wapak,Expanded basic Wapak","township":null,"last":"Craft","stbs allowed":5,"geo_score":0.707,"first":"Roger","ppv limit":"Unlimited","customer id":"20018672","phone":4197384876,"whdvr":"No","id":"abjw6tytlsq3","address":"10263 S Dixie Hwy 25A","login":4197384876,"password":4876,"geo_precision":"range","state":"OH","pin":4876},"type":"Feature","geometry":{"type":"Point","coordinates":[-84.186672,40.504015]}},{"properties":{"city":"Wapakoneta","status":"Active","ppv":"Yes","zip":"45895","region":"Wapakoneta","service packages":"Basic Wapak,Music Wapak,Enc/Starz,Tier 2 Wapak,HBO Wapak,HD 1 Wapak,HD 2 Wapak,Showtime Wapak,Expanded basic Wapak,Showtime w/HD,Showtime wo/HD,Stars Super Pack,Stars Super Pack SD only ,Showtime Unlimited,Showtime Unlimited SD Only,Total HBO,Total HBO SD Only","township":null,"last":"Crawford","stbs allowed":2,"geo_score":0.902,"first":"Chris","ppv limit":"Unlimited","customer id":"99510012294","phone":4197384700,"whdvr":"Yes","id":"abjw6u15b3qq","address":"430 Defiance St","login":4197384700,"password":4700,"geo_precision":"range","state":"OH","pin":4700},"type":"Feature","geometry":{"type":"Point","coordinates":[-84.200377,40.575977]}},{"properties":{"city":"WAPAKONETA","status":"Active","ppv":"Yes","zip":"45895","region":"Wapakoneta","service packages":"Basic Wapak,Expanded basic Wapak","township":null,"last":"CUMMINS","stbs allowed":5,"geo_score":0.601,"first":"H C INPUT VIDEO 3","ppv limit":"Unlimited","customer id":"20021274","phone":4197388322,"whdvr":"No","id":"abjw6u6yepoo","address":"13984 HARDIN PIKE","login":4197388322,"password":8322,"geo_precision":"street","state":"OH","pin":8322},"type":"Feature","geometry":{"type":"Point","coordinates":[-84.622214,40.48869]}},{"properties":{"city":"WAPAKONETA","status":"Active","ppv":"Yes","zip":"45895","region":"Wapakoneta","service packages":"Basic Wapak,Music Wapak,Tier 2 Wapak,HD 1 Wapak,Expanded basic Wapak","township":null,"last":"DANNER","stbs allowed":5,"geo_score":0.848,"first":"EDWIN H  III","ppv limit":"Unlimited","customer id":"20017642","phone":4197383605,"whdvr":"No","id":"abjw6u5pxbzs","address":"17721 GOLDEN BRIDGE RD","login":4197383605,"password":3605,"geo_precision":"range","state":"OH","pin":3605},"type":"Feature","geometry":{"type":"Point","coordinates":[-84.141009,40.609788]}},{"properties":{"city":"ST MARYS","status":"Active","ppv":"Yes","zip":"45885","region":"St. Mary's","service packages":"Basic St marys,HD 1 St Marys,Expanded Basic SM","township":null,"last":"DARR","stbs allowed":5,"geo_score":0.577,"first":"KRIS","ppv limit":"Unlimited","customer id":"99310039204","phone":4193948423,"whdvr":"No","id":"abjw6u24nxyp","address":"1218 KENT CT","login":4193948423,"password":8423,"geo_precision":"street","state":"OH","pin":8423},"type":"Feature","geometry":{"type":"Point","coordinates":[-84.198312,40.556632]}},{"properties":{"city":"ST MARYS","status":"Active","ppv":"Yes","zip":"45885","region":"St. Mary's","service packages":"ENC/Starz,Tier 2,Basic St marys,HBO St Marys,HD 1 St Marys,Music St Marys,Showtime St Marys,Expanded Basic SM","township":null,"last":"DAUGHERTY","stbs allowed":5,"geo_score":0.488,"first":"CHARLOTTE","ppv limit":"Unlimited","customer id":"20028669","phone":4193944091,"whdvr":"No","id":"abjw6u60c7dy","address":"1620 S KNOXVILLE AVE","login":4193944091,"password":4091,"geo_precision":"zip","state":"OH","pin":4091},"type":"Feature","geometry":{"type":"Point","coordinates":[-84.424675,40.545325]}},{"properties":{"city":"ST MARYS","status":"Active","ppv":"Yes","zip":"45885","region":"St. Mary's","service packages":"Tier 2,Basic St marys,HD 1 St Marys,Music St Marys,Expanded Basic SM","township":null,"last":"DAVIS","stbs allowed":5,"geo_score":0.876,"first":"STANLEY","ppv limit":"Unlimited","customer id":"99740011771","phone":4193945549,"whdvr":"No","id":"abjw6u59ogbd","address":"1125 ROBIN RD","login":4193945549,"password":5549,"geo_precision":"range","state":"OH","pin":5549},"type":"Feature","geometry":{"type":"Point","coordinates":[-84.403486,40.54886]}},{"properties":{"city":"WAPAKONETA","status":"Active","ppv":"Yes","zip":"45895","region":"Wapakoneta","service packages":"Basic Wapak,Music Wapak,Tier 2 Wapak,HD 1 Wapak,Expanded basic Wapak","township":null,"last":"DAVIS","stbs allowed":5,"geo_score":0.463,"first":"MATT","ppv limit":"Unlimited","customer id":"20020451","phone":4196456886,"whdvr":"No","id":"abjw6tzzm6b9","address":"15780 BUCKLAND HOLDEN DR","login":4196456886,"password":6886,"geo_precision":"street","state":"OH","pin":6886},"type":"Feature","geometry":{"type":"Point","coordinates":[-83.617381,41.055495]}},{"properties":{"city":"WAPAKONETA","status":"Active","ppv":"Yes","zip":"45895","region":"Wapakoneta","service packages":"Basic Wapak,Expanded basic Wapak","township":null,"last":"DEGEN","stbs allowed":5,"geo_score":0.832,"first":"JAMES","ppv limit":"Unlimited","customer id":"00024357-0","phone":4197387209,"whdvr":"No","id":"abjw6u7eot5w","address":"15397 SANTA FE NEW KNOX RD","login":4197387209,"password":7209,"geo_precision":"range","state":"OH","pin":7209},"type":"Feature","geometry":{"type":"Point","coordinates":[-84.159194,40.496987]}},{"properties":{"city":"ST MARYS","status":"Active","ppv":"Yes","zip":"45885","region":"St. Mary's","service packages":"Tier 2,Basic St marys,HD 1 St Marys,Music St Marys,Expanded Basic SM","township":null,"last":"DIERINGER","stbs allowed":5,"geo_score":0.488,"first":"MICHAEL","ppv limit":"Unlimited","customer id":"20028544","phone":4193947339,"whdvr":"No","id":"abjw6u3sqqo4","address":"1295 S KNOXVILLE AVE","login":4193947339,"password":7339,"geo_precision":"zip","state":"OH","pin":7339},"type":"Feature","geometry":{"type":"Point","coordinates":[-84.424675,40.545325]}},{"properties":{"city":"Wapakoneta","status":"Active","ppv":"Yes","zip":"45895","region":"Wapakoneta","service packages":"Basic Wapak,Music Wapak,Tier 2 Wapak,Expanded basic Wapak","township":null,"last":"Dingledine","stbs allowed":5,"geo_score":0.744,"first":"Jessica","ppv limit":"Unlimited","customer id":"99260117014","phone":4197398747,"whdvr":"No","id":"abjw6tyuk1ez","address":"402 Ashland Ave BLdg C Apt 5","login":4197398747,"password":8747,"geo_precision":"range","state":"OH","pin":8747},"type":"Feature","geometry":{"type":"Point","coordinates":[-84.199885,40.558595]}},{"properties":{"city":"ST MARYS","status":"Active","ppv":"Yes","zip":"45885","region":"St. Mary's","service packages":"ENC/Starz,Basic St marys,HBO St Marys,HD 1 St Marys,Showtime St Marys,Expanded Basic SM","township":null,"last":"DINGLEDINE","stbs allowed":5,"geo_score":0.766,"first":"JANET C","ppv limit":"Unlimited","customer id":"20028574","phone":4193945891,"whdvr":"No","id":"abjw6tvzwcft","address":"219 BEECH","login":4193945891,"password":5891,"geo_precision":"range","state":"OH","pin":5891},"type":"Feature","geometry":{"type":"Point","coordinates":[-84.378859,40.544945]}},{"properties":{"city":"ST MARYS","status":"Active","ppv":"Yes","zip":"45885","region":"St. Mary's","service packages":"Basic St marys,Expanded Basic SM","township":null,"last":"DULL","stbs allowed":5,"geo_score":0.796,"first":"MARY","ppv limit":"Unlimited","customer id":"20028451","phone":4193002518,"whdvr":"No","id":"abjw6u1iphfg","address":"721 COLUMBIA","login":4193002518,"password":2518,"geo_precision":"range","state":"OH","pin":2518},"type":"Feature","geometry":{"type":"Point","coordinates":[-84.380818,40.547288]}},{"properties":{"city":"WAPAKONETA","status":"Inactive","ppv":"Yes","zip":"45895","region":"Wapakoneta","service packages":"Basic Wapak,Tier 2 Wapak,Expanded basic Wapak","township":null,"last":"DUVERNAY","stbs allowed":5,"geo_score":0.902,"first":"CRAIG","ppv limit":"Unlimited","customer id":"00060229-1","phone":4197383222,"whdvr":"No","id":"abjw6u7cjsea","address":"12808 CANNING FACTORY RD","login":4197383222,"password":3222,"geo_precision":"range","state":"OH","pin":3222},"type":"Feature","geometry":{"type":"Point","coordinates":[-84.206216,40.555025]}},{"properties":{"city":"ST MARYS","status":"Active","ppv":"Yes","zip":"45885","region":"St. Mary's","service packages":"Basic St marys,HD 1 St Marys,Expanded Basic SM","township":null,"last":"DZALAMANOW","stbs allowed":5,"geo_score":0.766,"first":"RICHARD","ppv limit":"Unlimited","customer id":"20032213","phone":4193944154,"whdvr":"No","id":"abjw6u67z3pb","address":"322 N ASH","login":4193944154,"password":4154,"geo_precision":"range","state":"OH","pin":4154},"type":"Feature","geometry":{"type":"Point","coordinates":[-84.395527,40.543095]}},{"properties":{"city":"Wapakoneta","status":"Active","ppv":"Yes","zip":"45895","region":"Wapakoneta","service packages":"Basic Wapak,Music Wapak,Tier 2 Wapak,HD 1 Wapak,Expanded basic Wapak","township":null,"last":"Early","stbs allowed":5,"geo_score":0.557,"first":"Jason &amp; Michelle","ppv limit":"Unlimited","customer id":"20027337","phone":4192040391,"whdvr":"No","id":"abjw6u53tkye","address":"15922 Buckland - Holden","login":4192040391,"password":391,"geo_precision":"street","state":"OH","pin":391},"type":"Feature","geometry":{"type":"Point","coordinates":[-83.619885,41.054159]}},{"properties":{"city":"LIMA","status":"Active","ppv":"Yes","zip":"45806","region":"Allen County","service packages":"Basic Allen,HD 1,Tier 2 Allen,Music Allen,Expanded Basic Allen","township":null,"last":"ELGERT","stbs allowed":5,"geo_score":0.902,"first":"FREDERICK","ppv limit":"Unlimited","customer id":"20014202","phone":5672048165,"whdvr":"No","id":"abjw6txblmnr","address":"1930 LYN GROVE DR","login":5672048165,"password":8165,"geo_precision":"range","state":"OH","pin":8165},"type":"Feature","geometry":{"type":"Point","coordinates":[-84.137087,40.659677]}},{"properties":{"city":"ST MARYS","status":"Active","ppv":"Yes","zip":"45885","region":"St. Mary's","service packages":"Tier 2,Basic St marys,HD 1 St Marys,Music St Marys,Expanded Basic SM","township":null,"last":"ELLIS","stbs allowed":5,"geo_score":0.796,"first":"TRAVIS","ppv limit":"Unlimited","customer id":"20028962","phone":4193940909,"whdvr":"No","id":"abjw6tu4fq8v","address":"415 N SPRUCE","login":4193940909,"password":909,"geo_precision":"range","state":"OH","pin":909},"type":"Feature","geometry":{"type":"Point","coordinates":[-84.385045,40.548841]}},{"properties":{"city":"WAPAKONETA","status":"Active","ppv":"Yes","zip":"45895","region":"Wapakoneta","service packages":"Basic Wapak,Expanded basic Wapak","township":null,"last":"ERB","stbs allowed":5,"geo_score":0.799,"first":"MICHAEL","ppv limit":"Unlimited","customer id":"99740122876","phone":4197398737,"whdvr":"Yes","id":"abjw6u4l0iy1","address":"402 ASHLAND AVE APT D1","login":4197398737,"password":8737,"geo_precision":"range","state":"OH","pin":8737},"type":"Feature","geometry":{"type":"Point","coordinates":[-84.199885,40.558595]}},{"properties":{"city":"WAPAKONETA","status":"Active","ppv":"Yes","zip":"45895","region":"Wapakoneta","service packages":"Basic Wapak,Expanded basic Wapak","township":null,"last":"ERB","stbs allowed":5,"geo_score":0.567,"first":"EVONDA","ppv limit":"Unlimited","customer id":"20019355","phone":4197385871,"whdvr":"No","id":"abjw6tw82hi2","address":"16790 TOWNLINE LIMA RD","login":4197385871,"password":5871,"geo_precision":"street","state":"OH","pin":5871},"type":"Feature","geometry":{"type":"Point","coordinates":[-84.107852,40.651122]}},{"properties":{"city":"ST MARYS","status":"Active","ppv":"Yes","zip":"45885","region":"St. Mary's","service packages":"Tier 2,Basic St marys,HD 1 St Marys,Music St Marys,Expanded Basic SM","township":null,"last":"ESMONDE","stbs allowed":5,"geo_score":0.766,"first":"ALAN","ppv limit":"Unlimited","customer id":"20036191","phone":4193009426,"whdvr":"No","id":"abjw6u6espgu","address":"132 BEECH","login":4193009426,"password":9426,"geo_precision":"range","state":"OH","pin":9426},"type":"Feature","geometry":{"type":"Point","coordinates":[-84.379287,40.54588]}},{"properties":{"city":"WAPAKONETA","status":"Active","ppv":"Yes","zip":"45895","region":"Wapakoneta","service packages":"Basic Wapak,Expanded basic Wapak","township":null,"last":"ETGEN","stbs allowed":5,"geo_score":0.902,"first":"JAMES","ppv limit":"Unlimited","customer id":"20019685","phone":4197386298,"whdvr":"No","id":"abjw6u8e33m4","address":"9168 GLYNWOOD RD","login":4197386298,"password":6298,"geo_precision":"range","state":"OH","pin":6298},"type":"Feature","geometry":{"type":"Point","coordinates":[-84.273968,40.579792]}},{"properties":{"city":"ST MARYS","status":"Active","ppv":"Yes","zip":"45885","region":"St. Mary's","service packages":"Tier 2,Basic St marys,HBO St Marys,HD 1 St Marys,HD 2 St Marys,Music St Marys,Expanded Basic SM","township":null,"last":"EVANS","stbs allowed":5,"geo_score":0.744,"first":"NANCY","ppv limit":"Unlimited","customer id":"99310096480","phone":4193009545,"whdvr":"Yes","id":"abjw6txc5l66","address":"521 ST MARYS RIVER RD","login":4193009545,"password":9545,"geo_precision":"street","state":"OH","pin":9545},"type":"Feature","geometry":{"type":"Point","coordinates":[-84.395124,40.554945]}},{"properties":{"city":"WAPAKONETA","status":"Active","ppv":"Yes","zip":"45895","region":"Wapakoneta","service packages":"Basic Wapak,Music Wapak,Tier 2 Wapak,Expanded basic Wapak","township":null,"last":"FEISTER","stbs allowed":5,"geo_score":0.488,"first":"SELMA","ppv limit":"Unlimited","customer id":"32563-7","phone":4199411193,"whdvr":"No","id":"abjw6u3kf8yv","address":"18887 MUDSOCK RD","login":4199411193,"password":1193,"geo_precision":"zip","state":"OH","pin":1193},"type":"Feature","geometry":{"type":"Point","coordinates":[-84.152138,40.582252]}},{"properties":{"city":"ST MARYS","status":"Active","ppv":"Yes","zip":"45885","region":"St. Mary's","service packages":"Tier 2,Basic St marys,HD 1 St Marys,Music St Marys,Expanded Basic SM","township":null,"last":"FELVER","stbs allowed":5,"geo_score":0.796,"first":"STEVE","ppv limit":"Unlimited","customer id":"98640007227","phone":4199530517,"whdvr":"No","id":"abjw6tx13hcx","address":"855 N SPRUCE","login":4199530517,"password":517,"geo_precision":"range","state":"OH","pin":517},"type":"Feature","geometry":{"type":"Point","coordinates":[-84.38326,40.552422]}},{"properties":{"city":"WAPAKONETA","status":"Active","ppv":"Yes","zip":"45895","region":"Wapakoneta","service packages":"Basic Wapak,Music Wapak,Tier 2 Wapak,Expanded basic Wapak","township":null,"last":"FERRY","stbs allowed":5,"geo_score":0.886,"first":"STEVE","ppv limit":"Unlimited","customer id":"20023341","phone":4197399001,"whdvr":"No","id":"abjw6tttq629","address":"10587 SHELBY-FREYBURG RD","login":4197399001,"password":9001,"geo_precision":"range","state":"OH","pin":9001},"type":"Feature","geometry":{"type":"Point","coordinates":[-84.135738,40.504381]}},{"properties":{"city":"ST MARYS","status":"Active","ppv":"Yes","zip":"45885","region":"St. Mary's","service packages":"Tier 2,Basic St marys,HD 1 St Marys,Music St Marys,Expanded Basic SM","township":null,"last":"FINKE","stbs allowed":5,"geo_score":0.488,"first":"CONSTANCE","ppv limit":"Unlimited","customer id":"99560007298","phone":4193008010,"whdvr":"No","id":"abjw6tst9l1o","address":"918 JACKSON","login":4193008010,"password":8010,"geo_precision":"zip","state":"OH","pin":8010},"type":"Feature","geometry":{"type":"Point","coordinates":[-84.424675,40.545325]}},{"properties":{"city":"WAPAKONETA","status":"Active","ppv":"Yes","zip":"45895","region":"Wapakoneta","service packages":"Basic Wapak,Music Wapak,Tier 2 Wapak,HD 1 Wapak,Expanded basic Wapak","township":null,"last":"FISHER","stbs allowed":5,"geo_score":0.87,"first":"VENARD","ppv limit":"Unlimited","customer id":"20019521","phone":4197386098,"whdvr":"No","id":"abjw6ttaewkg","address":"10319 SHELBY-FRYBURG RD","login":4197386098,"password":6098,"geo_precision":"range","state":"OH","pin":6098},"type":"Feature","geometry":{"type":"Point","coordinates":[-84.135755,40.501795]}},{"properties":{"city":"ST MARYS","status":"Active","ppv":"Yes","zip":"45885","region":"St. Mary's","service packages":"Tier 2,Basic St marys,HD 1 St Marys,Music St Marys,Expanded Basic SM","township":null,"last":"FLEAGLE","stbs allowed":5,"geo_score":0.796,"first":"TODD","ppv limit":"Unlimited","customer id":"99740010414","phone":4193945156,"whdvr":"No","id":"abjw6tzdcwh4","address":"1001 W SPRING","login":4193945156,"password":5156,"geo_precision":"range","state":"OH","pin":5156},"type":"Feature","geometry":{"type":"Point","coordinates":[-84.399622,40.539311]}},{"properties":{"city":"ST MARYS","status":"Active","ppv":"Yes","zip":"45885","region":"St. Mary's","service packages":"ENC/Starz,Tier 2,Basic St marys,HBO St Marys,HD 1 St Marys,Music St Marys,Expanded Basic SM","township":null,"last":"FLEDDERJOHANN","stbs allowed":5,"geo_score":0.876,"first":"KEITH","ppv limit":"Unlimited","customer id":"20036684","phone":4193948624,"whdvr":"No","id":"abjw6tta06i5","address":"601 BRIARCLIFF DR","login":4193948624,"password":8624,"geo_precision":"range","state":"OH","pin":8624},"type":"Feature","geometry":{"type":"Point","coordinates":[-84.399716,40.553504]}},{"properties":{"city":"LIMA","status":"Active","ppv":"Yes","zip":"45805","region":"Allen County","service packages":"Basic Allen,HD 1,Tier 2 Allen,Music Allen,Expanded Basic Allen","township":null,"last":"FOTOUHI","stbs allowed":5,"geo_score":0.616,"first":"FARZIN","ppv limit":"120","customer id":"99640034065","phone":4192244871,"whdvr":"No","id":"abjw6u0siavz","address":"2906 MORNING SUN DR","login":4192244871,"password":4871,"geo_precision":"street","state":"OH","pin":4871},"type":"Feature","geometry":{"type":"Point","coordinates":[-83.973789,40.609857]}},{"properties":{"city":"ST MARYS","status":"Active","ppv":"Yes","zip":"45885","region":"St. Mary's","service packages":"Tier 2,Basic St marys,HD 1 St Marys,HD 2 St Marys,Music St Marys,Expanded Basic SM","township":null,"last":"FREEWALT","stbs allowed":5,"geo_score":0.488,"first":"DAVID","ppv limit":"Unlimited","customer id":"20028560","phone":4193008379,"whdvr":"No","id":"abjw6u7u437e","address":"832 HACKNEY","login":4193008379,"password":8379,"geo_precision":"street","state":"OH","pin":8379},"type":"Feature","geometry":{"type":"Point","coordinates":[-84.792406,40.74505]}},{"properties":{"city":"ST MARYS","status":"Active","ppv":"Yes","zip":"45885","region":"St. Mary's","service packages":"ENC/Starz,Basic St marys,HD 1 St Marys,Music St Marys,Expanded Basic SM","township":null,"last":"FREYTAG","stbs allowed":5,"geo_score":0.796,"first":"PENNY L","ppv limit":"Unlimited","customer id":"20028376","phone":4193007025,"whdvr":"No","id":"abjw6ttcog8k","address":"1026 COLUMBIA","login":4193007025,"password":7025,"geo_precision":"range","state":"OH","pin":7025},"type":"Feature","geometry":{"type":"Point","coordinates":[-84.372695,40.547394]}},{"properties":{"city":"Wapakoneta","status":"Active","ppv":"Yes","zip":"45895","region":"Wapakoneta","service packages":"Basic Wapak,Music Wapak,Tier 2 Wapak,Expanded basic Wapak","township":null,"last":"Friend","stbs allowed":5,"geo_score":0.902,"first":"Dave","ppv limit":"Unlimited","customer id":"00012569-1","phone":4197383209,"whdvr":"No","id":"abjw6ttbwcf9","address":"10499 Shelby Freyburg Rd","login":4197383209,"password":3209,"geo_precision":"range","state":"OH","pin":3209},"type":"Feature","geometry":{"type":"Point","coordinates":[-84.135741,40.505963]}},{"properties":{"city":"Wapakoneta","status":"Active","ppv":"Yes","zip":"45895","region":"Wapakoneta","service packages":"Basic Wapak,Music Wapak,Tier 2 Wapak,HD 1 Wapak,Expanded basic Wapak","township":null,"last":"Fry","stbs allowed":5,"geo_score":0.488,"first":"Michael","ppv limit":"Unlimited","customer id":"20015355","phone":4196455823,"whdvr":"No","id":"abjw6u2tjzrs","address":"13991 Buckland-Holden Rd","login":5823,"password":5823,"geo_precision":"zip","state":"OH","pin":5823},"type":"Feature","geometry":{"type":"Point","coordinates":[-84.152138,40.582252]}},{"properties":{"city":"WAPAKONETA","status":"Active","ppv":"Yes","zip":"45895","region":"Wapakoneta","service packages":"Basic Wapak,Music Wapak,Tier 2 Wapak,HD 1 Wapak,Expanded basic Wapak","township":null,"last":"FUERST","stbs allowed":5,"geo_score":0.902,"first":"STEVEN","ppv limit":"Unlimited","customer id":"20027582","phone":4196049163,"whdvr":"No","id":"abjw6tv10mgx","address":"18390 HAUSS RD","login":4196049163,"password":9163,"geo_precision":"range","state":"OH","pin":9163},"type":"Feature","geometry":{"type":"Point","coordinates":[-84.164745,40.618913]}},{"properties":{"city":"ST MARYS","status":"Active","ppv":"Yes","zip":"45885","region":"St. Mary's","service packages":"Tier 2,Basic St marys,HD 1 St Marys,Music St Marys,Expanded Basic SM","township":null,"last":"GABES","stbs allowed":5,"geo_score":0.876,"first":"MICHAEL","ppv limit":"Unlimited","customer id":"99310089497","phone":4193942894,"whdvr":"No","id":"abjw6u2iaz1k","address":"133 LAGO VUE CT","login":4193942894,"password":2894,"geo_precision":"range","state":"OH","pin":2894},"type":"Feature","geometry":{"type":"Point","coordinates":[-84.430964,40.511638]}},{"properties":{"city":"Lima","status":"Active","ppv":"Yes","zip":"45804","region":"Allen County","service packages":"Basic Allen,Expanded Basic Allen","township":null,"last":"Gard","stbs allowed":5,"geo_score":0.902,"first":"Thermal","ppv limit":"Unlimited","customer id":"00083488-2","phone":4192294273,"whdvr":"No","id":"abjw6tycwsnb","address":"216 E Kibby St","login":4192294273,"password":4273,"geo_precision":"range","state":"OH","pin":4273},"type":"Feature","geometry":{"type":"Point","coordinates":[-84.102345,40.730217]}},{"properties":{"city":"St Marys","status":"Active","ppv":"Yes","zip":"45885","region":"St. Mary's","service packages":"Tier 2,Basic St marys,HD 1 St Marys,Music St Marys,Expanded Basic SM","township":null,"last":"Gayer","stbs allowed":5,"geo_score":0.876,"first":"Kenneth","ppv limit":"Unlimited","customer id":"00060044-8","phone":4193944748,"whdvr":"No","id":"abjw6u2z47ha","address":"505 Southway Drive","login":4193944748,"password":4748,"geo_precision":"range","state":"OH","pin":4748},"type":"Feature","geometry":{"type":"Point","coordinates":[-84.423161,40.544788]}},{"properties":{"city":"WAPAKONETA","status":"Active","ppv":"Yes","zip":"45895","region":"Wapakoneta","service packages":"Basic Wapak,Music Wapak,Tier 2 Wapak,Expanded basic Wapak","township":null,"last":"GEIS","stbs allowed":5,"geo_score":0.87,"first":"THOMAS","ppv limit":"Unlimited","customer id":"20031696","phone":4197383036,"whdvr":"No","id":"abjw6u2ud13v","address":"10130 SHELBY-FRYBURG RD","login":4197383036,"password":3036,"geo_precision":"range","state":"OH","pin":3036},"type":"Feature","geometry":{"type":"Point","coordinates":[-84.135606,40.501384]}},{"properties":{"city":"WAPAKONETA","status":"Active","ppv":"Yes","zip":"45895","region":"Wapakoneta","service packages":"Basic Wapak,Music Wapak,Tier 2 Wapak,Expanded basic Wapak","township":null,"last":"GEREN","stbs allowed":5,"geo_score":0.805,"first":"GARY","ppv limit":"Unlimited","customer id":"20021993","phone":4197384739,"whdvr":"No","id":"abjw6tyw0mmd","address":"15398 ST RT 67","login":4197384739,"password":4739,"geo_precision":"range","state":"OH","pin":4739},"type":"Feature","geometry":{"type":"Point","coordinates":[-84.157006,40.590038]}},{"properties":{"city":"ST MARYS","status":"Active","ppv":"Yes","zip":"45885","region":"St. Mary's","service packages":"ENC/Starz,Basic St marys,HBO St Marys,HD 1 St Marys,Showtime St Marys,Expanded Basic SM","township":null,"last":"GIBBS","stbs allowed":5,"geo_score":0.876,"first":"TERRY","ppv limit":"Unlimited","customer id":"99640019994","phone":4193008457,"whdvr":"No","id":"abjw6u7iyfao","address":"866 TOWNVIEW DR","login":4193008457,"password":8457,"geo_precision":"range","state":"OH","pin":8457},"type":"Feature","geometry":{"type":"Point","coordinates":[-84.386179,40.533949]}},{"properties":{"city":"ST MARYS","status":"Active","ppv":"No","zip":"45885","region":"St. Mary's","service packages":"Tier 2,Basic St marys,HD 1 St Marys,Music St Marys,Expanded Basic SM","township":null,"last":"GILBERT","stbs allowed":5,"geo_score":0.796,"first":"DANA","ppv limit":"Unlimited","customer id":"00018316-8","phone":4193009434,"whdvr":"No","id":"abjw6u1y33ck","address":"849 W SPRING","login":4193009434,"password":9434,"geo_precision":"range","state":"OH","pin":9434},"type":"Feature","geometry":{"type":"Point","coordinates":[-84.397652,40.539472]}},{"properties":{"city":"ST MARYS","status":"Active","ppv":"Yes","zip":"45885","region":"St. Mary's","service packages":"Tier 2,Basic St marys,HBO St Marys,HD 1 St Marys,Music St Marys,Expanded Basic SM","township":null,"last":"GILL","stbs allowed":5,"geo_score":0.876,"first":"ROBERT","ppv limit":"Unlimited","customer id":"99310065444","phone":4193942712,"whdvr":"No","id":"abjw6tyoany4","address":"104 MEADOWBROOK LN","login":4193942712,"password":2712,"geo_precision":"range","state":"OH","pin":2712},"type":"Feature","geometry":{"type":"Point","coordinates":[-84.35015,40.546364]}},{"properties":{"city":"ST MARYS","status":"Active","ppv":"Yes","zip":"45885","region":"St. Mary's","service packages":"Tier 2,Basic St marys,HD 1 St Marys,Music St Marys,Expanded Basic SM","township":null,"last":"GLASER","stbs allowed":5,"geo_score":0.876,"first":"DONALD","ppv limit":"Unlimited","customer id":"20028142","phone":4193945408,"whdvr":"No","id":"abjw6u6m48zq","address":"855 DOROTHY LN","login":4193945408,"password":5408,"geo_precision":"range","state":"OH","pin":5408},"type":"Feature","geometry":{"type":"Point","coordinates":[-84.384646,40.552422]}},{"properties":{"city":"ST MARYS","status":"Active","ppv":"Yes","zip":"45885","region":"St. Mary's","service packages":"Basic St marys,Music St Marys,Expanded Basic SM","township":null,"last":"GLASS","stbs allowed":5,"geo_score":0.876,"first":"JAN","ppv limit":"Unlimited","customer id":"98640010463","phone":4192032343,"whdvr":"No","id":"abjw6u7cmqgp","address":"1927 KINGSBURY DR","login":4192032343,"password":2343,"geo_precision":"range","state":"OH","pin":2343},"type":"Feature","geometry":{"type":"Point","coordinates":[-84.41502,40.550658]}},{"properties":{"city":"Wapakoneta","status":"Active","ppv":"Yes","zip":"45895","region":"Wapakoneta","service packages":"Basic Wapak,Music Wapak,Tier 2 Wapak,HD 1 Wapak,Expanded basic Wapak","township":null,"last":"Grand Plaza Banquet Hall","stbs allowed":5,"geo_score":0.823,"first":null,"ppv limit":"Unlimited","customer id":"99740104316","phone":4197398766,"whdvr":"No","id":"abjw6u2889il","address":"913 Defiance","login":4197398766,"password":8766,"geo_precision":"range","state":"OH","pin":8766},"type":"Feature","geometry":{"type":"Point","coordinates":[-84.203258,40.579744]}},{"properties":{"city":"WAPAKONETA","status":"Active","ppv":"Yes","zip":"45895","region":"Wapakoneta","service packages":"Basic Wapak,Music Wapak,Tier 2 Wapak,Expanded basic Wapak","township":null,"last":"GREEN","stbs allowed":5,"geo_score":0.87,"first":"JAMES","ppv limit":"Unlimited","customer id":"20021040","phone":4197388014,"whdvr":"No","id":"abjw6txcfcbw","address":"10457 SHELBY-FRYBURG RD","login":4197388014,"password":8014,"geo_precision":"range","state":"OH","pin":8014},"type":"Feature","geometry":{"type":"Point","coordinates":[-84.13574,40.503949]}},{"properties":{"city":"WAPAKONETA","status":"Active","ppv":"Yes","zip":"45895","region":"Wapakoneta","service packages":"Basic Wapak,Expanded basic Wapak","township":null,"last":"GREVE","stbs allowed":5,"geo_score":0.716,"first":"NELSON","ppv limit":"Unlimited","customer id":"00005666-4","phone":4197386185,"whdvr":"No","id":"abjw6tui35sb","address":"11875 S DIXIE 25A","login":4197386185,"password":6185,"geo_precision":"range","state":"OH","pin":6185},"type":"Feature","geometry":{"type":"Point","coordinates":[-84.189466,40.525868]}},{"properties":{"city":"WAPAKONETA","status":"Active","ppv":"Yes","zip":"45895","region":"Wapakoneta","service packages":"Basic Wapak,Tier 2 Wapak,HD 1 Wapak,Expanded basic Wapak","township":null,"last":"GREVE","stbs allowed":5,"geo_score":0.902,"first":"JEFFREY","ppv limit":"120","customer id":"20018875","phone":4197385148,"whdvr":"No","id":"abjw6tzup5j0","address":"17768 HAUSS RD","login":4197385148,"password":5148,"geo_precision":"range","state":"OH","pin":5148},"type":"Feature","geometry":{"type":"Point","coordinates":[-84.164701,40.609831]}},{"properties":{"city":"WAPAKONETA","status":"Active","ppv":"Yes","zip":"45895","region":"Wapakoneta","service packages":"Basic Wapak,Tier 2 Wapak,Expanded basic Wapak","township":null,"last":"GREYNOLDS","stbs allowed":5,"geo_score":0.744,"first":"GREGORY","ppv limit":"Unlimited","customer id":"00098335-9","phone":4197398792,"whdvr":"No","id":"abjw6txhcew9","address":"402 ASHLAND AVE BLDG E APT 4","login":4197398792,"password":8792,"geo_precision":"range","state":"OH","pin":8792},"type":"Feature","geometry":{"type":"Point","coordinates":[-84.199885,40.558595]}},{"properties":{"city":"CRIDERSVILLE","status":"Active","ppv":"Yes","zip":"45806","region":"Wapakoneta","service packages":"Basic Wapak,Music Wapak,Tier 2 Wapak,Expanded basic Wapak","township":null,"last":"HAMPP","stbs allowed":5,"geo_score":0.619,"first":"WENDELL","ppv limit":"Unlimited","customer id":"20014428","phone":4196454517,"whdvr":"No","id":"abjw6u3zjn9b","address":"19483 S DIXIE 25A","login":4196454517,"password":4517,"geo_precision":"range","state":"OH","pin":4517},"type":"Feature","geometry":{"type":"Point","coordinates":[-84.138826,40.635675]}},{"properties":{"city":"ST MARYS","status":"Active","ppv":"Yes","zip":"45885","region":"St. Mary's","service packages":"ENC/Starz,Tier 2,Basic St marys,HBO St Marys,HD 1 St Marys,Music St Marys,Showtime St Marys,Expanded Basic SM","township":null,"last":"HANCE","stbs allowed":5,"geo_score":0.796,"first":"KEVIN","ppv limit":"Unlimited","customer id":"99740018930","phone":4193008094,"whdvr":"No","id":"abjw6tyy5sn1","address":"2001 CHESHIRE","login":4193008094,"password":8094,"geo_precision":"range","state":"OH","pin":8094},"type":"Feature","geometry":{"type":"Point","coordinates":[-84.415242,40.54931]}},{"properties":{"city":"ST MARYS","status":"Active","ppv":"Yes","zip":"45885","region":"St. Mary's","service packages":"Tier 2,Basic St marys,HD 1 St Marys,HD 2 St Marys,Music St Marys,Expanded Basic SM","township":null,"last":"HANSON","stbs allowed":5,"geo_score":0.795,"first":"MARK","ppv limit":"Unlimited","customer id":"99560049908","phone":4193009757,"whdvr":"No","id":"abjw6u5qygl5","address":"168 SOUTHMOOR SHRS","login":4193009757,"password":9757,"geo_precision":"range","state":"OH","pin":9757},"type":"Feature","geometry":{"type":"Point","coordinates":[-84.43153,40.514931]}},{"properties":{"city":"Wapakoneta","status":"Active","ppv":"Yes","zip":"45895","region":"Wapakoneta","service packages":"Basic Wapak,Music Wapak,Tier 2 Wapak,Expanded basic Wapak","township":null,"last":"HARDESTY","stbs allowed":4,"geo_score":0.488,"first":"RUSS","ppv limit":"Unlimited","customer id":"20019147","phone":4197385570,"whdvr":"No","id":"abjw6u6ksrfp","address":"16903 BUCKLAND-HOLDEN RD","login":4197385570,"password":5570,"geo_precision":"zip","state":"OH","pin":5570},"type":"Feature","geometry":{"type":"Point","coordinates":[-84.152138,40.582252]}},{"properties":{"city":"ST MARYS","status":"Active","ppv":"Yes","zip":"45885","region":"St. Mary's","service packages":"ENC/Starz,Basic St marys,HBO St Marys,HD 1 St Marys,HD 2 St Marys,Music St Marys,Showtime St Marys,Expanded Basic SM","township":null,"last":"HARRUFF","stbs allowed":5,"geo_score":0.729,"first":"RODNEY","ppv limit":"Unlimited","customer id":"99310042087","phone":4199532829,"whdvr":"No","id":"abjw6u0uvf5v","address":"515 OIL","login":4199532829,"password":2829,"geo_precision":"range","state":"OH","pin":2829},"type":"Feature","geometry":{"type":"Point","coordinates":[-84.382605,40.549793]}},{"properties":{"city":"LIMA","status":"Active","ppv":"Yes","zip":"45805","region":"Allen County","service packages":"Basic Allen,HD 1,Tier 2 Allen,Music Allen,Expanded Basic Allen","township":null,"last":"HEISTAN","stbs allowed":5,"geo_score":0.648,"first":"JEFF","ppv limit":"120","customer id":"99640033313","phone":4199915165,"whdvr":"No","id":"abjw6tvdlpiv","address":"2957 STONEYBROOK","login":4199915165,"password":5165,"geo_precision":"street","state":"OH","pin":5165},"type":"Feature","geometry":{"type":"Point","coordinates":[-84.159419,40.703157]}},{"properties":{"city":"WAPAKONETA","status":"Active","ppv":"Yes","zip":"45895","region":"Wapakoneta","service packages":"Basic Wapak,Music Wapak,Tier 2 Wapak,Expanded basic Wapak","township":null,"last":"HEITZ","stbs allowed":5,"geo_score":0.902,"first":"DAVID","ppv limit":"Unlimited","customer id":"20016512","phone":4197382233,"whdvr":"No","id":"abjw6u2fbx3v","address":"16119 HENGSTLER RD","login":4197382233,"password":2233,"geo_precision":"range","state":"OH","pin":2233},"type":"Feature","geometry":{"type":"Point","coordinates":[-84.147362,40.60671]}},{"properties":{"city":"Wapakoneta","status":"Active","ppv":"Yes","zip":"45895","region":"Wapakoneta","service packages":"Basic Wapak,Expanded basic Wapak","township":null,"last":"Heitz","stbs allowed":5,"geo_score":0.902,"first":"Robert","ppv limit":"Unlimited","customer id":"20021098","phone":4197388084,"whdvr":"No","id":"abjw6tsqm7io","address":"16919 Hauss Rd","login":4197388084,"password":8084,"geo_precision":"range","state":"OH","pin":8084},"type":"Feature","geometry":{"type":"Point","coordinates":[-84.164782,40.597788]}},{"properties":{"city":"LIMA","status":"Active","ppv":"Yes","zip":"45806","region":"Allen County","service packages":"Basic Allen,HD 1,Tier 2 Allen,Music Allen,Expanded Basic Allen","township":null,"last":"HEMMELGARN","stbs allowed":5,"geo_score":0.902,"first":"JOSHUA","ppv limit":"Unlimited","customer id":"99510067915","phone":4196455543,"whdvr":"No","id":"abjw6tyvye8u","address":"1840 LYN GROVE DR","login":4196455543,"password":5543,"geo_precision":"range","state":"OH","pin":5543},"type":"Feature","geometry":{"type":"Point","coordinates":[-84.135117,40.659697]}},{"properties":{"city":"LIMA","status":"Active","ppv":"Yes","zip":"45806","region":"Allen County","service packages":"Basic Allen,HD 1,Expanded Basic Allen","township":null,"last":"HENDERSON","stbs allowed":5,"geo_score":0.488,"first":"TERRI","ppv limit":"Unlimited","customer id":"79131-3","phone":4192306177,"whdvr":"No","id":"abjw6u8r1nc8","address":"2865 RIVERWALK BLVD","login":4192306177,"password":6177,"geo_precision":"zip","state":"OH","pin":6177},"type":"Feature","geometry":{"type":"Point","coordinates":[-84.071057,40.687273]}},{"properties":{"city":"WAPAKONETA","status":"Active","ppv":"Yes","zip":"45895","region":"Wapakoneta","service packages":"Basic Wapak,Music Wapak,Tier 2 Wapak,Expanded basic Wapak","township":null,"last":"HERN","stbs allowed":5,"geo_score":0.902,"first":"EDWARD N","ppv limit":"Unlimited","customer id":"20020147","phone":4197386862,"whdvr":"No","id":"abjw6u6149b6","address":"13891 KETTLERSVILLE RD","login":4197386862,"password":6862,"geo_precision":"range","state":"OH","pin":6862},"type":"Feature","geometry":{"type":"Point","coordinates":[-84.259908,40.551838]}},{"properties":{"city":"ST MARYS","status":"Active","ppv":"Yes","zip":"45885","region":"St. Mary's","service packages":"Tier 2,Basic St marys,HBO St Marys,HD 1 St Marys,Music St Marys,Expanded Basic SM","township":null,"last":"HILE","stbs allowed":5,"geo_score":0.876,"first":"RICHARD","ppv limit":"Unlimited","customer id":"99310024512","phone":4193948079,"whdvr":"No","id":"abjw6u6mr6ai","address":"1406 OAKVIEW DR","login":4193948079,"password":8079,"geo_precision":"range","state":"OH","pin":8079},"type":"Feature","geometry":{"type":"Point","coordinates":[-84.411949,40.552472]}},{"properties":{"city":"ST MARYS","status":"Active","ppv":"Yes","zip":"45885","region":"St. Mary's","service packages":"Tier 2,Basic St marys,HD 1 St Marys,Music St Marys,Expanded Basic SM","township":null,"last":"HINKLE","stbs allowed":5,"geo_score":0.481,"first":"LISA","ppv limit":"Unlimited","customer id":"99640013150","phone":4193023070,"whdvr":"No","id":"abjw6tx1vbov","address":"200 N KNOXVILLE AVE LOT 35","login":4193023070,"password":3070,"geo_precision":"street","state":"OH","pin":3070},"type":"Feature","geometry":{"type":"Point","coordinates":[-83.842361,40.791174]}},{"properties":{"city":"ST MARYS","status":"Active","ppv":"Yes","zip":"45885","region":"St. Mary's","service packages":"ENC/Starz,Tier 2,Basic St marys,HD 1 St Marys,Music St Marys,Expanded Basic SM","township":null,"last":"HOBLER","stbs allowed":5,"geo_score":0.796,"first":"BOB","ppv limit":"Unlimited","customer id":"20028779","phone":4193004082,"whdvr":"Yes","id":"abjw6ttcgtp0","address":"523 N SPRUCE","login":4193004082,"password":4082,"geo_precision":"range","state":"OH","pin":4082},"type":"Feature","geometry":{"type":"Point","coordinates":[-84.38465,40.54969]}},{"properties":{"city":"WAPAKONETA","status":"Active","ppv":"Yes","zip":"45895","region":"Wapakoneta","service packages":"Basic Wapak,Music Wapak,Tier 2 Wapak,Expanded basic Wapak","township":null,"last":"HOEL","stbs allowed":5,"geo_score":0.463,"first":"STEPHANIE","ppv limit":"Unlimited","customer id":"99510052596","phone":4197398846,"whdvr":"Yes","id":"abjw6tzyg5gc","address":"17340 BUCKLAND HOLDEN RD","login":4197398846,"password":8846,"geo_precision":"street","state":"OH","pin":8846},"type":"Feature","geometry":{"type":"Point","coordinates":[-83.617381,41.055495]}},{"properties":{"city":"WAPAKONETA","status":"Active","ppv":"No","zip":"45895","region":"TSC Test","service packages":"Test TSC","township":null,"last":"HOLTZ","stbs allowed":5,"geo_score":0.721,"first":"AARON","ppv limit":"Unlimited","customer id":"20019444","phone":4197386007,"whdvr":"Yes","id":"abjw6tvol4hv","address":"1112 Timber Trail","login":4197386007,"password":6007,"geo_precision":"street","state":"OH","pin":6007},"type":"Feature","geometry":{"type":"Point","coordinates":[-84.218809,40.583709]}},{"properties":{"city":"ST MARYS","status":"Active","ppv":"Yes","zip":"45885","region":"St. Mary's","service packages":"ENC/Starz,Tier 2,Basic St marys,HBO St Marys,HD 1 St Marys,Music St Marys,Expanded Basic SM","township":null,"last":"HOWARD","stbs allowed":5,"geo_score":0.803,"first":"ROBERT","ppv limit":"Unlimited","customer id":"99310030079","phone":4193945629,"whdvr":"No","id":"abjw6u2o3f6g","address":"714 HAWTHORNE","login":4193945629,"password":5629,"geo_precision":"range","state":"OH","pin":5629},"type":"Feature","geometry":{"type":"Point","coordinates":[-84.413815,40.547667]}},{"properties":{"city":"WAPAKONETA","status":"Active","ppv":"No","zip":"45895","region":"Wapakoneta","service packages":"Basic Wapak,Expanded basic Wapak","township":null,"last":"HUDNALL","stbs allowed":5,"geo_score":0.902,"first":"KIMBERLY","ppv limit":"Unlimited","customer id":"20019315","phone":4197381116,"whdvr":"No","id":"abjw6u85c0kx","address":"14166 PUSHETA RD","login":4197381116,"password":1116,"geo_precision":"range","state":"OH","pin":1116},"type":"Feature","geometry":{"type":"Point","coordinates":[-84.180696,40.526005]}},{"properties":{"city":"WAPAKONETA","status":"Active","ppv":"Yes","zip":"45895","region":"Wapakoneta","service packages":"Basic Wapak,Expanded basic Wapak","township":null,"last":"HUEBNER","stbs allowed":5,"geo_score":0.902,"first":"ROBERT","ppv limit":"Unlimited","customer id":"20021148","phone":4197388153,"whdvr":"No","id":"abjw6tu3s44b","address":"14004 KETTLERSVILLE RD","login":4197388153,"password":8153,"geo_precision":"range","state":"OH","pin":8153},"type":"Feature","geometry":{"type":"Point","coordinates":[-84.259747,40.561041]}},{"properties":{"city":"WAPAKONETA","status":"Active","ppv":"Yes","zip":"45895","region":"Wapakoneta","service packages":"Basic Wapak,Music Wapak,Tier 2 Wapak,Expanded basic Wapak","township":null,"last":"HULL","stbs allowed":5,"geo_score":0.653,"first":"STEVE","ppv limit":"Unlimited","customer id":"20016494","phone":4197382211,"whdvr":"No","id":"abjw6u26715n","address":"14981 GOLDEN BRIDGE RD","login":4197382211,"password":2211,"geo_precision":"street","state":"OH","pin":2211},"type":"Feature","geometry":{"type":"Point","coordinates":[-84.140897,40.602931]}},{"properties":{"city":"Wapakoneta","status":"Active","ppv":"Yes","zip":"45895","region":"Wapakoneta","service packages":"Basic Wapak,Music Wapak,Tier 2 Wapak,Expanded basic Wapak","township":null,"last":"Hunsaker","stbs allowed":5,"geo_score":0.805,"first":"Keith","ppv limit":"Unlimited","customer id":"20022379","phone":4197389825,"whdvr":"No","id":"abjw6u3rrgp8","address":"16621 ST Rt 67","login":4197389825,"password":9825,"geo_precision":"range","state":"OH","pin":9825},"type":"Feature","geometry":{"type":"Point","coordinates":[-84.139082,40.599415]}},{"properties":{"city":"Lima","status":"Active","ppv":"No","zip":"45804","region":"Allen County","service packages":"Basic Allen,HD 1,Tier 2 Allen,Music Allen,Expanded Basic Allen","township":null,"last":"HUSKY ENERGY","stbs allowed":5,"geo_score":0.707,"first":null,"ppv limit":"Unlimited","customer id":null,"phone":4192357998,"whdvr":"No","id":"abjw6u0m4432","address":"1150 S Metcalf","login":4192357998,"password":7998,"geo_precision":"range","state":"OH","pin":7998},"type":"Feature","geometry":{"type":"Point","coordinates":[-84.113191,40.722029]}},{"properties":{"city":"ST MARYS","status":"Active","ppv":"Yes","zip":"45885","region":"St. Mary's","service packages":"ENC/Starz,Basic St marys,HD 1 St Marys,Expanded Basic SM","township":null,"last":"JAMES","stbs allowed":5,"geo_score":0.488,"first":"DENNIS","ppv limit":"Unlimited","customer id":"99310005721","phone":4193002277,"whdvr":"No","id":"abjw6tyoie94","address":"427 JACKSON","login":4193002277,"password":2277,"geo_precision":"zip","state":"OH","pin":2277},"type":"Feature","geometry":{"type":"Point","coordinates":[-84.424675,40.545325]}},{"properties":{"city":"WAPAKONETA","status":"Active","ppv":"Yes","zip":"45895","region":"Wapakoneta","service packages":"Basic Wapak,Expanded basic Wapak","township":null,"last":"JARRELLS","stbs allowed":5,"geo_score":0.805,"first":"PAM","ppv limit":"Unlimited","customer id":"99510026127","phone":4197386651,"whdvr":"No","id":"abjw6ttt76fz","address":"18835 ST RT 33","login":4197386651,"password":6651,"geo_precision":"range","state":"OH","pin":6651},"type":"Feature","geometry":{"type":"Point","coordinates":[-84.094875,40.556307]}},{"properties":{"city":"WAPAKONETA","status":"Active","ppv":"Yes","zip":"45895","region":"Wapakoneta","service packages":"Basic Wapak,Music Wapak,Tier 2 Wapak,HD 1 Wapak,Expanded basic Wapak","township":null,"last":"JEANNERET","stbs allowed":5,"geo_score":0.829,"first":"DENNIS","ppv limit":"Unlimited","customer id":"20019717","phone":4197386340,"whdvr":"No","id":"abjw6tzdz9di","address":"16801 FRYBURG EAST RD","login":4197386340,"password":6340,"geo_precision":"range","state":"OH","pin":6340},"type":"Feature","geometry":{"type":"Point","coordinates":[-84.128965,40.511855]}},{"properties":{"city":"Lima","status":"Active","ppv":"No","zip":"45805","region":"Allen County","service packages":"Basic Allen,HD 1,Tier 2 Allen,Music Allen,Expanded Basic Allen","township":null,"last":"Jensen","stbs allowed":5,"geo_score":0.669,"first":"Scott","ppv limit":"Unlimited","customer id":"99640033563","phone":5672041436,"whdvr":"No","id":"abjw6tw8cpv0","address":"2907 Stoneybrook","login":5672041436,"password":1436,"geo_precision":"street","state":"OH","pin":1436},"type":"Feature","geometry":{"type":"Point","coordinates":[-84.159419,40.703157]}},{"properties":{"city":"WAPAKONETA","status":"Active","ppv":"Yes","zip":"45895","region":"Wapakoneta","service packages":"Basic Wapak,Expanded basic Wapak,Total HBO SD Only","township":null,"last":"JOHNS","stbs allowed":5,"geo_score":0.488,"first":"PAUL","ppv limit":"Unlimited","customer id":"20020603","phone":4197387424,"whdvr":"No","id":"abjw6u4at3ff","address":"18910 WEIMERT RD","login":4197387424,"password":7424,"geo_precision":"zip","state":"OH","pin":7424},"type":"Feature","geometry":{"type":"Point","coordinates":[-84.152138,40.582252]}},{"properties":{"city":"WAPAKONETA","status":"Active","ppv":"Yes","zip":"45895","region":"Wapakoneta","service packages":"Basic Wapak,Music Wapak,Tier 2 Wapak,Expanded basic Wapak","township":null,"last":"JOLLY","stbs allowed":5,"geo_score":0.848,"first":"VINCENT","ppv limit":"Unlimited","customer id":"20019666","phone":4197386273,"whdvr":"No","id":"abjw6u5rott9","address":"17972 GOLDEN BRIDGE RD","login":4197386273,"password":6273,"geo_precision":"range","state":"OH","pin":6273},"type":"Feature","geometry":{"type":"Point","coordinates":[-84.140905,40.613129]}},{"properties":{"city":"WAPAKONETA","status":"Active","ppv":"Yes","zip":"45895","region":"Wapakoneta","service packages":"Basic Wapak,Music Wapak,Tier 2 Wapak,Expanded basic Wapak","township":null,"last":"JUMP","stbs allowed":5,"geo_score":0.739,"first":"BETH","ppv limit":"Unlimited","customer id":"99510124537","phone":4197385231,"whdvr":"No","id":"abjw6u7o0rmx","address":"402 ASHLAND AVE \tBLDG B APT 1","login":4197385231,"password":5231,"geo_precision":"range","state":"OH","pin":5231},"type":"Feature","geometry":{"type":"Point","coordinates":[-84.199885,40.558595]}},{"properties":{"city":"WAPAKNOETA","status":"Active","ppv":"Yes","zip":"45895","region":"Wapakoneta","service packages":"Basic Wapak,Expanded basic Wapak","township":null,"last":"JUROSIC","stbs allowed":5,"geo_score":0.789,"first":"WILLIAM","ppv limit":"75","customer id":"00076834-7","phone":4197398955,"whdvr":"No","id":"abjw6tub5qoc","address":"402 ASHLAND AVE APT C4","login":4197398955,"password":8955,"geo_precision":"range","state":"OH","pin":8955},"type":"Feature","geometry":{"type":"Point","coordinates":[-84.199885,40.558595]}},{"properties":{"city":"WAPAKONETA","status":"Active","ppv":"Yes","zip":"45895","region":"Wapakoneta","service packages":"Basic Wapak,Music Wapak,Tier 2 Wapak,Expanded basic Wapak","township":null,"last":"KAECK","stbs allowed":5,"geo_score":0.812,"first":"DAN","ppv limit":"Unlimited","customer id":"99740120637","phone":4197385420,"whdvr":"No","id":"abjw6u5yytzz","address":"14683 FRYBURG DR RD","login":4197385420,"password":5420,"geo_precision":"range","state":"OH","pin":5420},"type":"Feature","geometry":{"type":"Point","coordinates":[-84.173519,40.511598]}},{"properties":{"city":"WAPAKONETA","status":"Inactive","ppv":"Yes","zip":"45895","region":"Wapakoneta","service packages":"Basic Wapak,Expanded basic Wapak","township":null,"last":"KANORR","stbs allowed":5,"geo_score":0.902,"first":"REX","ppv limit":"Unlimited","customer id":"20025832","phone":4197398841,"whdvr":"No","id":"abjw6u46e7af","address":"14233 MOULTON-FT AMANDA RD","login":41973988414,"password":8841,"geo_precision":"range","state":"OH","pin":8841},"type":"Feature","geometry":{"type":"Point","coordinates":[-84.298333,40.557703]}},{"properties":{"city":"ST MARYS","status":"Active","ppv":"Yes","zip":"45885","region":"St. Mary's","service packages":"Tier 2,Basic St marys,HD 1 St Marys,Music St Marys,Expanded Basic SM","township":null,"last":"KANTNER","stbs allowed":5,"geo_score":0.856,"first":"VIRGINIA","ppv limit":"Unlimited","customer id":"20033854","phone":4193947459,"whdvr":"No","id":"abjw6tswrgqa","address":"153 WATERCREST AVE","login":4193947459,"password":7459,"geo_precision":"range","state":"OH","pin":7459},"type":"Feature","geometry":{"type":"Point","coordinates":[-84.430019,40.545517]}},{"properties":{"city":"WAPAKONETA","status":"Active","ppv":"Yes","zip":"45895","region":"Wapakoneta","service packages":"Basic Wapak,Music Wapak,Tier 2 Wapak,Expanded basic Wapak","township":null,"last":"KATTER","stbs allowed":5,"geo_score":0.902,"first":"MARVIN","ppv limit":"Unlimited","customer id":"20020262","phone":4197386993,"whdvr":"No","id":"abjw6u0puh0u","address":"9385 GLYNWOOD RD","login":4197386993,"password":6993,"geo_precision":"range","state":"OH","pin":6993},"type":"Feature","geometry":{"type":"Point","coordinates":[-84.273334,40.579869]}},{"properties":{"city":"Cridersville","status":"Active","ppv":"Yes","zip":"45806","region":"Wapakoneta","service packages":"Basic Wapak,Music Wapak,Tier 2 Wapak,HD 1 Wapak,Expanded basic Wapak","township":null,"last":"Kauffman","stbs allowed":3,"geo_score":0.707,"first":"Jerry","ppv limit":"Unlimited","customer id":"20014014","phone":4196454006,"whdvr":"No","id":"abjw6tzk2gn9","address":"19459 Reichelderfer Rd","login":4006,"password":4006,"geo_precision":"street","state":"OH","pin":4006},"type":"Feature","geometry":{"type":"Point","coordinates":[-84.150842,40.651212]}},{"properties":{"city":"ST MARYS","status":"Active","ppv":"Yes","zip":"45885","region":"St. Mary's","service packages":"ENC/Starz,Tier 2,Basic St marys,HBO St Marys,HD 1 St Marys,Music St Marys,Showtime St Marys,Expanded Basic SM","township":null,"last":"KELLER","stbs allowed":5,"geo_score":0.488,"first":"ROBERT LEE","ppv limit":"Unlimited","customer id":"20028913","phone":4193944890,"whdvr":"No","id":"abjw6tyxid2e","address":"219 HICKORY","login":4193944890,"password":4890,"geo_precision":"zip","state":"OH","pin":4890},"type":"Feature","geometry":{"type":"Point","coordinates":[-84.424675,40.545325]}},{"properties":{"city":"WAPAKONETA","status":"Active","ppv":"Yes","zip":"45895","region":"Wapakoneta","service packages":"Basic Wapak,Expanded basic Wapak","township":null,"last":"KENTNER","stbs allowed":5,"geo_score":0.902,"first":"THOMAS","ppv limit":"Unlimited","customer id":"00027676-2","phone":4197384232,"whdvr":"No","id":"abjw6u10u0w9","address":"10827 GLYNWOOD RD","login":4197384232,"password":4232,"geo_precision":"range","state":"OH","pin":4232},"type":"Feature","geometry":{"type":"Point","coordinates":[-84.246793,40.582999]}},{"properties":{"city":"ST MARYS","status":"Active","ppv":"Yes","zip":"45885","region":"St. Mary's","service packages":"Tier 2,Basic St marys,HD 1 St Marys,Music St Marys,Expanded Basic SM","township":null,"last":"KING","stbs allowed":5,"geo_score":0.876,"first":"JEFF","ppv limit":"Unlimited","customer id":"20028887","phone":4193008017,"whdvr":"No","id":"abjw6tzeu8n1","address":"419 WOODWARD","login":4193008017,"password":8017,"geo_precision":"range","state":"OH","pin":8017},"type":"Feature","geometry":{"type":"Point","coordinates":[-84.387729,40.532743]}},{"properties":{"city":"ST MARYS","status":"Active","ppv":"Yes","zip":"45885","region":"St. Mary's","service packages":"Tier 2,Basic St marys,HD 1 St Marys,HD 2 St Marys,Music St Marys,Expanded Basic SM","township":null,"last":"KISTLER","stbs allowed":5,"geo_score":0.729,"first":"JOAN","ppv limit":"Unlimited","customer id":"00003978-7","phone":4193000981,"whdvr":"No","id":"abjw6ty7s6ax","address":"830 LAKE","login":4193000981,"password":981,"geo_precision":"range","state":"OH","pin":981},"type":"Feature","geometry":{"type":"Point","coordinates":[-84.393842,40.535712]}},{"properties":{"city":"Cridersville","status":"Active","ppv":"Yes","zip":"45806","region":"Allen County","service packages":"Basic Allen,Expanded Basic Allen","township":null,"last":"Klaus","stbs allowed":5,"geo_score":0.521,"first":"John","ppv limit":"Unlimited","customer id":"20023459","phone":4196456808,"whdvr":"No","id":"abjw6u6myj8i","address":"19566 S Dixie 25A","login":4196456808,"password":6808,"geo_precision":"street","state":"OH","pin":6808},"type":"Feature","geometry":{"type":"Point","coordinates":[-84.142406,40.629959]}},{"properties":{"city":"CRIDERSVILLE","status":"Active","ppv":"Yes","zip":"45806","region":"Allen County","service packages":"Basic Allen,Expanded Basic Allen","township":null,"last":"KLAUS","stbs allowed":5,"geo_score":0.498,"first":"TIM","ppv limit":"120","customer id":"00028945-0","phone":4196455765,"whdvr":"No","id":"abjw6u7t7o5n","address":"19668 Wapak Cridersville Rd","login":4196455765,"password":5765,"geo_precision":"street","state":"OH","pin":5765},"type":"Feature","geometry":{"type":"Point","coordinates":[-84.203539,40.66099]}},{"properties":{"city":"WAPAKONETA","status":"Active","ppv":"Yes","zip":"45865","region":"Wapakoneta","service packages":"Basic Wapak,Music Wapak,Enc/Starz,Tier 2 Wapak,Expanded basic Wapak","township":null,"last":"KLOPFENSTEIN","stbs allowed":5,"geo_score":0.587,"first":"ANGELA K","ppv limit":"Unlimited","customer id":"20025420","phone":4197387018,"whdvr":"No","id":"abjw6u4copm7","address":"402 ASHLAND AVE \tBLDG E APT 3","login":4197387018,"password":7018,"geo_precision":"range","state":"OH","pin":7018},"type":"Feature","geometry":{"type":"Point","coordinates":[-84.372775,40.390699]}},{"properties":{"city":"ST MARYS","status":"Active","ppv":"Yes","zip":"45885","region":"St. Mary's","service packages":"Basic St marys,HD 1 St Marys,Expanded Basic SM","township":null,"last":"KLOSTERMAN","stbs allowed":5,"geo_score":0.788,"first":"CHAD","ppv limit":"Unlimited","customer id":"99740009755","phone":4193000308,"whdvr":"No","id":"abjw6u189ns8","address":"418 N PERRY","login":4193000308,"password":308,"geo_precision":"range","state":"OH","pin":308},"type":"Feature","geometry":{"type":"Point","coordinates":[-84.395294,40.544856]}},{"properties":{"city":"ST MARYS","status":"Active","ppv":"Yes","zip":"45885","region":"St. Mary's","service packages":"Basic St marys,HD 1 St Marys,Expanded Basic SM","township":null,"last":"KLOSTERMAN","stbs allowed":5,"geo_score":0.766,"first":"CATHERINE","ppv limit":"Unlimited","customer id":"99310029439","phone":4193002320,"whdvr":"No","id":"abjw6u4i8nr5","address":"1802 NAGEL","login":4193002320,"password":2320,"geo_precision":"range","state":"OH","pin":2320},"type":"Feature","geometry":{"type":"Point","coordinates":[-84.413605,40.546552]}},{"properties":{"city":"WAPAKONETA","status":"Active","ppv":"Yes","zip":"45895","region":"Wapakoneta","service packages":"Basic Wapak,Expanded basic Wapak","township":null,"last":"KNIGHTS OF COLUMBUS","stbs allowed":5,"geo_score":0.488,"first":null,"ppv limit":"Unlimited","customer id":"00000278-4","phone":4197382218,"whdvr":"No","id":"abjw6u2qmwnx","address":"614 N DIXIE HWY","login":4197382218,"password":2218,"geo_precision":"zip","state":"OH","pin":2218},"type":"Feature","geometry":{"type":"Point","coordinates":[-84.152138,40.582252]}},{"properties":{"city":"St Marys","status":"Active","ppv":"Yes","zip":"45885","region":"St. Mary's","service packages":"Basic St marys,HD 1 St Marys,Music St Marys,Showtime St Marys,Expanded Basic SM","township":null,"last":"KNOUS","stbs allowed":5,"geo_score":0.488,"first":"MARK","ppv limit":"Unlimited","customer id":"99290057856","phone":4193948873,"whdvr":"No","id":"abjw6u1g4qoh","address":"628 E HIGH","login":4193948873,"password":8873,"geo_precision":"zip","state":"OH","pin":8873},"type":"Feature","geometry":{"type":"Point","coordinates":[-84.424675,40.545325]}},{"properties":{"city":"WAPAKONETA","status":"Active","ppv":"Yes","zip":"45895","region":"Wapakoneta","service packages":"Basic Wapak,Music Wapak,Tier 2 Wapak,HD 1 Wapak,Expanded basic Wapak","township":null,"last":"KNUEVE","stbs allowed":5,"geo_score":0.812,"first":"PAUL","ppv limit":"Unlimited","customer id":"20018540","phone":4197384718,"whdvr":"No","id":"abjw6twedjhp","address":"13418 FRYBURG DR RD","login":4197384718,"password":4718,"geo_precision":"range","state":"OH","pin":4718},"type":"Feature","geometry":{"type":"Point","coordinates":[-84.18982,40.511376]}},{"properties":{"city":"ST MARYS","status":"Active","ppv":"Yes","zip":"45885","region":"St. Mary's","service packages":"Tier 2,Basic St marys,Music St Marys,Expanded Basic SM","township":null,"last":"KNUTZEN","stbs allowed":5,"geo_score":0.653,"first":"EARL","ppv limit":"Unlimited","customer id":"99560039658","phone":4193943865,"whdvr":"No","id":"abjw6tz4j85z","address":"11470 EAST DR","login":4193943865,"password":3865,"geo_precision":"street","state":"OH","pin":3865},"type":"Feature","geometry":{"type":"Point","coordinates":[-84.422876,40.516307]}},{"properties":{"city":"WAPAKONETA","status":"Active","ppv":"Yes","zip":"45895","region":"Wapakoneta","service packages":"Basic Wapak,Music Wapak,Tier 2 Wapak,Expanded basic Wapak","township":null,"last":"KOHLRIESER","stbs allowed":5,"geo_score":0.805,"first":"DARRYL","ppv limit":"Unlimited","customer id":"20021339","phone":4197388398,"whdvr":"No","id":"abjw6ttdlz35","address":"16937 ST RT 67","login":4197388398,"password":8398,"geo_precision":"range","state":"OH","pin":8398},"type":"Feature","geometry":{"type":"Point","coordinates":[-84.12929,40.599618]}},{"properties":{"city":"ST MARYS","status":"Inactive","ppv":"Yes","zip":"45885","region":"St. Mary's","service packages":"Tier 2,Basic St marys,HD 1 St Marys,Music St Marys,Expanded Basic SM","township":null,"last":"KORN","stbs allowed":5,"geo_score":0.876,"first":"KEITH","ppv limit":"Unlimited","customer id":"20036674","phone":4193940584,"whdvr":"No","id":"abjw6u7em4p7","address":"111 MARBELLO CT","login":4193940584,"password":584,"geo_precision":"range","state":"OH","pin":584},"type":"Feature","geometry":{"type":"Point","coordinates":[-84.430247,40.514196]}},{"properties":{"city":"ST MARYS","status":"Active","ppv":"Yes","zip":"45885","region":"St. Mary's","service packages":"Tier 2,Basic St marys,HBO St Marys,HD 1 St Marys,HD 2 St Marys,Music St Marys,Expanded Basic SM","township":null,"last":"KOVERMAN","stbs allowed":5,"geo_score":0.766,"first":"KENNETH","ppv limit":"Unlimited","customer id":"99560007366","phone":4193941214,"whdvr":"No","id":"abjw6u64vvdh","address":"1128 HOLLY","login":4193941214,"password":1214,"geo_precision":"range","state":"OH","pin":1214},"type":"Feature","geometry":{"type":"Point","coordinates":[-84.406054,40.550299]}},{"properties":{"city":"ST MARYS","status":"Active","ppv":"Yes","zip":"45885","region":"St. Mary's","service packages":"ENC/Starz,Tier 2,Basic St marys,HD 1 St Marys,Music St Marys,Expanded Basic SM","township":null,"last":"KRUGH","stbs allowed":5,"geo_score":0.585,"first":"JANETTA","ppv limit":"Unlimited","customer id":"20028397","phone":4193944828,"whdvr":"No","id":"abjw6tuncuvp","address":"813 MCKINLEY RD","login":4193944828,"password":4828,"geo_precision":"street","state":"OH","pin":4828},"type":"Feature","geometry":{"type":"Point","coordinates":[-84.444687,40.699424]}},{"properties":{"city":"ST MARYS","status":"Active","ppv":"Yes","zip":"45885","region":"St. Mary's","service packages":"Tier 2,Basic St marys,HD 1 St Marys,Music St Marys,Expanded Basic SM","township":null,"last":"LARKIN","stbs allowed":5,"geo_score":0.876,"first":"KAREN","ppv limit":"Unlimited","customer id":"99310077945","phone":4193942208,"whdvr":"No","id":"abjw6tybkzcu","address":"1505 OAKVIEW DR","login":4193942208,"password":2208,"geo_precision":"range","state":"OH","pin":2208},"type":"Feature","geometry":{"type":"Point","coordinates":[-84.412118,40.553328]}},{"properties":{"city":"ST MARYS","status":"Active","ppv":"Yes","zip":"45885","region":"St. Mary's","service packages":"Tier 2,Basic St marys,HD 1 St Marys,HD 2 St Marys,Music St Marys,Expanded Basic SM","township":null,"last":"LAUTH","stbs allowed":5,"geo_score":0.75,"first":"JAMES","ppv limit":"Unlimited","customer id":"99310011404","phone":4193942931,"whdvr":"No","id":"abjw6u3nj3dr","address":"1127 MOTZ","login":41939429361,"password":2931,"geo_precision":"range","state":"OH","pin":2931},"type":"Feature","geometry":{"type":"Point","coordinates":[-84.405151,40.546405]}},{"properties":{"city":"ST MARYS","status":"Active","ppv":"Yes","zip":"45885","region":"St. Mary's","service packages":"Tier 2,Basic St marys,HD 1 St Marys,HD 2 St Marys,Music St Marys,Expanded Basic SM","township":null,"last":"LAUTH","stbs allowed":5,"geo_score":0.788,"first":"DENNY","ppv limit":"Unlimited","customer id":"20031334","phone":4193947121,"whdvr":"No","id":"abjw6u1rh3yc","address":"224 S WAYNE","login":4193947121,"password":7121,"geo_precision":"range","state":"OH","pin":7121},"type":"Feature","geometry":{"type":"Point","coordinates":[-84.390769,40.540422]}},{"properties":{"city":"Wapakoneta","status":"Active","ppv":"Yes","zip":"45895","region":"Wapakoneta","service packages":"Basic Wapak,HD 1 Wapak,Expanded basic Wapak,Stars Super Pack","township":null,"last":"LENHART","stbs allowed":5,"geo_score":0.902,"first":"DAVE","ppv limit":"Unlimited","customer id":"00001577-8","phone":4197388439,"whdvr":"No","id":"abjw6u52xays","address":"10460 Glynwood Rd","login":4197388439,"password":8439,"geo_precision":"range","state":"OH","pin":8439},"type":"Feature","geometry":{"type":"Point","coordinates":[-84.250024,40.582079]}},{"properties":{"city":"LIMA","status":"Active","ppv":"Yes","zip":"45805","region":"Allen County","service packages":"Basic Allen,HD 1,HD 2,Tier 2 Allen,Music Allen,Expanded Basic Allen","township":null,"last":"LIGHT","stbs allowed":5,"geo_score":0.71,"first":"STEPHEN","ppv limit":"Unlimited","customer id":"99640032810","phone":4199911067,"whdvr":"No","id":"abjw6u2uiwbw","address":"2974 STONEYBROOK DR","login":4199911067,"password":1067,"geo_precision":"street","state":"OH","pin":1067},"type":"Feature","geometry":{"type":"Point","coordinates":[-84.159419,40.703157]}},{"properties":{"city":"WAPAKONETA","status":"Active","ppv":"Yes","zip":"45895","region":"Wapakoneta","service packages":"Basic Wapak,Music Wapak,Tier 2 Wapak,HD 1 Wapak,Expanded basic Wapak","township":null,"last":"LIMBERT","stbs allowed":5,"geo_score":0.902,"first":"JOHN","ppv limit":"Unlimited","customer id":"20020234","phone":4197386962,"whdvr":"No","id":"abjw6tvrxgve","address":"15261 MIDDLE PIKE","login":4197386962,"password":6962,"geo_precision":"range","state":"OH","pin":6962},"type":"Feature","geometry":{"type":"Point","coordinates":[-84.149991,40.570228]}},{"properties":{"city":"WAPAKONETA","status":"Active","ppv":"Yes","zip":"45895","region":"Wapakoneta","service packages":"Basic Wapak,HD 1 Wapak,Expanded basic Wapak","township":null,"last":"LIMBERT","stbs allowed":5,"geo_score":0.902,"first":"JEFF","ppv limit":"120","customer id":"00014874-5","phone":4197381139,"whdvr":"No","id":"abjw6u5be01o","address":"10096 GLYNWOOD RD","login":4197381139,"password":1139,"geo_precision":"range","state":"OH","pin":1139},"type":"Feature","geometry":{"type":"Point","coordinates":[-84.257359,40.579908]}},{"properties":{"city":"WAPAKONETA","status":"Active","ppv":"Yes","zip":"45895","region":"Wapakoneta","service packages":"Basic Wapak,Music Wapak,Tier 2 Wapak,Expanded basic Wapak","township":null,"last":"LIMON","stbs allowed":5,"geo_score":0.823,"first":"JUSTENE","ppv limit":"Unlimited","customer id":"00056982-4","phone":4197381181,"whdvr":"No","id":"abjw6u1bdi4w","address":"402 ASHLAND C2","login":4197381181,"password":1181,"geo_precision":"range","state":"OH","pin":1181},"type":"Feature","geometry":{"type":"Point","coordinates":[-84.199885,40.558595]}},{"properties":{"city":"CRIDERSVILLE","status":"Active","ppv":"Yes","zip":"45806","region":"Wapakoneta","service packages":"Basic Wapak,Music Wapak,Tier 2 Wapak,Expanded basic Wapak","township":null,"last":"LOUTH","stbs allowed":5,"geo_score":0.498,"first":"DEBRA K","ppv limit":"Unlimited","customer id":"20025325","phone":4196455148,"whdvr":"No","id":"abjw6tukv2nn","address":"19076 WAPAK CRIDERSVILLE RD","login":4196455148,"password":5148,"geo_precision":"street","state":"OH","pin":5148},"type":"Feature","geometry":{"type":"Point","coordinates":[-84.203539,40.66099]}},{"properties":{"city":"WAPAKONETA","status":"Active","ppv":"Yes","zip":"45895","region":"Wapakoneta","service packages":"Basic Wapak,Music Wapak,Tier 2 Wapak,Expanded basic Wapak","township":null,"last":"LOWRY","stbs allowed":5,"geo_score":0.805,"first":"GREGORY A","ppv limit":"Unlimited","customer id":"20019120","phone":4197385534,"whdvr":"No","id":"abjw6u05ggz8","address":"15257 ST RT 67","login":4197385534,"password":5534,"geo_precision":"range","state":"OH","pin":5534},"type":"Feature","geometry":{"type":"Point","coordinates":[-84.154682,40.591872]}},{"properties":{"city":"WAPAKONETA","status":"Active","ppv":"Yes","zip":"45895","region":"Wapakoneta","service packages":"Basic Wapak,Music Wapak,Tier 2 Wapak,Expanded basic Wapak","township":null,"last":"LOWTHER","stbs allowed":5,"geo_score":0.823,"first":"ERIC","ppv limit":"Unlimited","customer id":"388301-3","phone":4197387854,"whdvr":"No","id":"abjw6u5zgwnv","address":"402 ASHLAND C11","login":4197387854,"password":7854,"geo_precision":"range","state":"OH","pin":7854},"type":"Feature","geometry":{"type":"Point","coordinates":[-84.199885,40.558595]}},{"properties":{"city":"WAPAKONETA","status":"Inactive","ppv":"Yes","zip":"45895","region":"Wapakoneta","service packages":"Basic Wapak,Expanded basic Wapak","township":null,"last":"LUCHINI","stbs allowed":5,"geo_score":0.464,"first":"KAYLA A","ppv limit":"Unlimited","customer id":"00117277-0","phone":4197398941,"whdvr":"No","id":"abjw6ttwueht","address":"402 ASKLAND AVE BLDG D APT 7","login":4197398941,"password":8941,"geo_precision":"street","state":"OH","pin":8941},"type":"Feature","geometry":{"type":"Point","coordinates":[-84.190872,40.57049]}},{"properties":{"city":"Wapakoneta","status":"Active","ppv":"Yes","zip":"45895","region":"Wapakoneta","service packages":"Basic Wapak,Music Wapak,Tier 2 Wapak,HD 1 Wapak,Expanded basic Wapak","township":null,"last":"Ludwig","stbs allowed":5,"geo_score":0.902,"first":"Eric","ppv limit":"Unlimited","customer id":"20026726","phone":4197397259,"whdvr":"No","id":"abjw6tza8krp","address":"911 SPRINGWOOD LN","login":4197397259,"password":7259,"geo_precision":"range","state":"OH","pin":7259},"type":"Feature","geometry":{"type":"Point","coordinates":[-84.205779,40.562037]}},{"properties":{"city":"ST MARYS","status":"Active","ppv":"Yes","zip":"45885","region":"St. Mary's","service packages":"Basic St marys,HD 1 St Marys,Expanded Basic SM","township":null,"last":"LUEDEKE","stbs allowed":5,"geo_score":0.808,"first":"CASEY","ppv limit":"Unlimited","customer id":"99310081147","phone":4193009697,"whdvr":"No","id":"abjw6u42kio4","address":"608 N AUGUSTUS","login":4193009697,"password":9697,"geo_precision":"range","state":"OH","pin":9697},"type":"Feature","geometry":{"type":"Point","coordinates":[-84.39792,40.545598]}},{"properties":{"city":"Wapakoneta","status":"Active","ppv":"Yes","zip":"45895","region":"Wapakoneta","service packages":"Basic Wapak,Expanded basic Wapak","township":null,"last":"Lunz","stbs allowed":5,"geo_score":0.707,"first":"George E","ppv limit":"Unlimited","customer id":"20017262","phone":4197383143,"whdvr":"No","id":"abjw6twd1wyh","address":"11326 S Dixie Hwy 25A","login":4197383143,"password":3143,"geo_precision":"range","state":"OH","pin":3143},"type":"Feature","geometry":{"type":"Point","coordinates":[-84.188312,40.517581]}},{"properties":{"city":"LIMA","status":"Active","ppv":"Yes","zip":"45805","region":"Allen County","service packages":"Basic Allen,HD 1,Tier 2 Allen,Music Allen,Expanded Basic Allen","township":null,"last":"LUTHMAN","stbs allowed":5,"geo_score":0.902,"first":"REBECCA","ppv limit":"Unlimited","customer id":"74523-7","phone":5679400025,"whdvr":"Yes","id":"abjw6u1fi4e6","address":"2650 BREEZEWOOD LN","login":5679400025,"password":25,"geo_precision":"range","state":"OH","pin":25},"type":"Feature","geometry":{"type":"Point","coordinates":[-84.155176,40.702457]}},{"properties":{"city":"WAPAKONETA","status":"Active","ppv":"Yes","zip":"45895","region":"Wapakoneta","service packages":"Basic Wapak,Music Wapak,Tier 2 Wapak,HD 1 Wapak,Expanded basic Wapak","township":null,"last":"MADDY","stbs allowed":5,"geo_score":0.902,"first":"ROBERT","ppv limit":"Unlimited","customer id":"20027392","phone":4197387468,"whdvr":"No","id":"abjw6tsr80rp","address":"16780 COUNTY ROAD 25A","login":4197387468,"password":7468,"geo_precision":"range","state":"OH","pin":7468},"type":"Feature","geometry":{"type":"Point","coordinates":[-84.163919,40.59714]}},{"properties":{"city":"ST MARYS","status":"Active","ppv":"Yes","zip":"45885","region":"St. Mary's","service packages":"Basic St marys,HBO St Marys,HD 1 St Marys,Showtime St Marys,Expanded Basic SM","township":null,"last":"MARTIN","stbs allowed":5,"geo_score":0.766,"first":"JOHN","ppv limit":"Unlimited","customer id":"99740009522","phone":4193051798,"whdvr":"No","id":"abjw6u2u7m42","address":"111 N ASH","login":4193051798,"password":1798,"geo_precision":"range","state":"OH","pin":1798},"type":"Feature","geometry":{"type":"Point","coordinates":[-84.394815,40.541703]}},{"properties":{"city":"WAPAKONETA","status":"Active","ppv":"Yes","zip":"45895","region":"Wapakoneta","service packages":"Basic Wapak,Music Wapak,Tier 2 Wapak,HD 1 Wapak,Expanded basic Wapak","township":null,"last":"MARTIN","stbs allowed":5,"geo_score":0.744,"first":"PHYLLIS","ppv limit":"Unlimited","customer id":"99740114518","phone":4197382411,"whdvr":"No","id":"abjw6txv202r","address":"402 ASHLAND AVE BLDG F APT 6","login":4197382411,"password":2411,"geo_precision":"range","state":"OH","pin":2411},"type":"Feature","geometry":{"type":"Point","coordinates":[-84.199885,40.558595]}},{"properties":{"city":"WAPAKONETA","status":"Active","ppv":"Yes","zip":"45895","region":"Wapakoneta","service packages":"Basic Wapak,Music Wapak,Tier 2 Wapak,Expanded basic Wapak","township":null,"last":"MASON","stbs allowed":5,"geo_score":0.902,"first":"TRACY","ppv limit":"Unlimited","customer id":"99340025233","phone":4197398785,"whdvr":"No","id":"abjw6tx1w687","address":"15131 BAY RD","login":4197398785,"password":8785,"geo_precision":"range","state":"OH","pin":8785},"type":"Feature","geometry":{"type":"Point","coordinates":[-84.277757,40.571918]}},{"properties":{"city":"Wapakoneta","status":"Active","ppv":"Yes","zip":"45895","region":"Wapakoneta","service packages":"Basic Wapak,Expanded basic Wapak","township":null,"last":"MAYSES","stbs allowed":5,"geo_score":0.902,"first":"TOWING","ppv limit":"Unlimited","customer id":"00039743-9","phone":4197382055,"whdvr":"No","id":"abjw6tw6d0lg","address":"14617 Kettlersville Rd","login":4197382055,"password":2055,"geo_precision":"range","state":"OH","pin":2055},"type":"Feature","geometry":{"type":"Point","coordinates":[-84.259836,40.563632]}},{"properties":{"city":"LIMA","status":"Active","ppv":"Yes","zip":"45805","region":"Allen County","service packages":"Basic Allen,HD 1,Tier 2 Allen,Music Allen,Expanded Basic Allen","township":null,"last":"MCCAIN","stbs allowed":5,"geo_score":0.61,"first":"ROSS","ppv limit":"120","customer id":"98540014900","phone":4199916941,"whdvr":"No","id":"abjw6ty3dmgp","address":"2688 FOX CREEK DR","login":4199916941,"password":6941,"geo_precision":"street","state":"OH","pin":6941},"type":"Feature","geometry":{"type":"Point","coordinates":[-83.555798,40.898241]}},{"properties":{"city":"WAPAKONETA","status":"Active","ppv":"Yes","zip":"45895","region":"Wapakoneta","service packages":"Basic Wapak,Expanded basic Wapak","township":null,"last":"MCCANN","stbs allowed":5,"geo_score":0.849,"first":"REV PAUL D","ppv limit":"Unlimited","customer id":"38049-6","phone":4197384567,"whdvr":"No","id":"abjw6ttr6rdb","address":"402 ASHLAND E8","login":4197384567,"password":4567,"geo_precision":"range","state":"OH","pin":4567},"type":"Feature","geometry":{"type":"Point","coordinates":[-84.199885,40.558595]}},{"properties":{"city":"ST MARYS","status":"Active","ppv":"Yes","zip":"45885","region":"St. Mary's","service packages":"Tier 2,Basic St marys,HD 1 St Marys,Music St Marys,Showtime St Marys,Expanded Basic SM","township":null,"last":"MCCOLLUM","stbs allowed":5,"geo_score":0.876,"first":"LARRY","ppv limit":"Unlimited","customer id":"20028229","phone":4193059135,"whdvr":"No","id":"abjw6tuyh7q7","address":"542 SOUTHWAY DR","login":4193059135,"password":9135,"geo_precision":"range","state":"OH","pin":9135},"type":"Feature","geometry":{"type":"Point","coordinates":[-84.422703,40.544748]}},{"properties":{"city":"WAPAKONETA","status":"Active","ppv":"Yes","zip":"45895","region":"Wapakoneta","service packages":"Basic Wapak,Music Wapak,Tier 2 Wapak,HBO Wapak,HD 1 Wapak,Showtime Wapak,Expanded basic Wapak","township":null,"last":"MCDANIEL","stbs allowed":5,"geo_score":0.716,"first":"JEFF","ppv limit":"Unlimited","customer id":"20016769","phone":4197382541,"whdvr":"No","id":"abjw6u5sy6tj","address":"18583 N DIXIE 25A","login":4197382541,"password":2541,"geo_precision":"range","state":"OH","pin":2541},"type":"Feature","geometry":{"type":"Point","coordinates":[-84.144957,40.626332]}},{"properties":{"city":"ST MARYS","status":"Active","ppv":"Yes","zip":"45885","region":"St. Mary's","service packages":"ENC/Starz,Tier 2,Basic St marys,HBO St Marys,HD 1 St Marys,HD 2 St Marys,Music St Marys,Showtime St Marys,Expanded Basic SM","township":null,"last":"MCDONALD","stbs allowed":5,"geo_score":0.488,"first":"TONY","ppv limit":"Unlimited","customer id":"99560066856","phone":4193008518,"whdvr":"No","id":"abjw6tznglfw","address":"701 ROLLING HILLS DR","login":4193008518,"password":8518,"geo_precision":"zip","state":"OH","pin":8518},"type":"Feature","geometry":{"type":"Point","coordinates":[-84.424675,40.545325]}},{"properties":{"city":"LIMA","status":"Active","ppv":"Yes","zip":"45806","region":"Allen County","service packages":"Basic Allen,HD 1,Expanded Basic Allen","township":null,"last":"MCGUE","stbs allowed":5,"geo_score":0.805,"first":"ROBERT","ppv limit":"Unlimited","customer id":"89540009606","phone":4193027670,"whdvr":"No","id":"abjw6twecp1u","address":"1860 SARA LEE","login":4193027670,"password":7670,"geo_precision":"range","state":"OH","pin":7670},"type":"Feature","geometry":{"type":"Point","coordinates":[-84.134986,40.658791]}},{"properties":{"city":"ST MARYS","status":"Active","ppv":"Yes","zip":"45885","region":"St. Mary's","service packages":"Basic St marys,HD 1 St Marys,Expanded Basic SM","township":null,"last":"MCNETT","stbs allowed":5,"geo_score":0.876,"first":"WAYNE","ppv limit":"Unlimited","customer id":"99310028686","phone":4193944334,"whdvr":"No","id":"abjw6ty37yqc","address":"905 KIMBERLY DR","login":4193944334,"password":4334,"geo_precision":"range","state":"OH","pin":4334},"type":"Feature","geometry":{"type":"Point","coordinates":[-84.410858,40.547367]}},{"properties":{"city":"ST MARYS","status":"Active","ppv":"Yes","zip":"45885","region":"St. Mary's","service packages":"Tier 2,Basic St marys,HD 1 St Marys,Music St Marys,Expanded Basic SM","township":null,"last":"MENCHHOFER","stbs allowed":5,"geo_score":0.488,"first":"KYLE","ppv limit":"Unlimited","customer id":"99310030741","phone":4193949698,"whdvr":"No","id":"abjw6u1p5bl3","address":"2005 OXFORD DR","login":4193949698,"password":9698,"geo_precision":"zip","state":"OH","pin":9698},"type":"Feature","geometry":{"type":"Point","coordinates":[-84.424675,40.545325]}},{"properties":{"city":"ST MARYS","status":"Active","ppv":"Yes","zip":"45885","region":"St. Mary's","service packages":"Tier 2,Basic St marys,HD 1 St Marys,HD 2 St Marys,Music St Marys,Expanded Basic SM","township":null,"last":"MENKER","stbs allowed":5,"geo_score":0.788,"first":"TOM","ppv limit":"Unlimited","customer id":"99560008728","phone":4193944631,"whdvr":"No","id":"abjw6u8ahyeh","address":"119 N WAYNE","login":4193944631,"password":4631,"geo_precision":"range","state":"OH","pin":4631},"type":"Feature","geometry":{"type":"Point","coordinates":[-84.391973,40.542022]}},{"properties":{"city":"WAPAKONETA","status":"Active","ppv":"Yes","zip":"45895","region":"Wapakoneta","service packages":"Basic Wapak,Tier 2 Wapak,HD 1 Wapak,Expanded basic Wapak","township":null,"last":"MESSICK","stbs allowed":5,"geo_score":0.805,"first":"PHILLIP","ppv limit":"Unlimited","customer id":"101660","phone":4197381172,"whdvr":"No","id":"abjw6tya9w4t","address":"15 WILLIPIE APT 3R","login":4197381172,"password":1172,"geo_precision":"range","state":"OH","pin":1172},"type":"Feature","geometry":{"type":"Point","coordinates":[-84.194059,40.570414]}},{"properties":{"city":"ST MARYS","status":"Active","ppv":"Yes","zip":"45885","region":"St. Mary's","service packages":"Basic St marys,HBO St Marys,HD 1 St Marys,Expanded Basic SM","township":null,"last":"MEYER","stbs allowed":5,"geo_score":0.766,"first":"MARIE","ppv limit":"Unlimited","customer id":"99310027787","phone":4193945292,"whdvr":"No","id":"abjw6u50qvnm","address":"101 S ASH","login":4193945292,"password":5292,"geo_precision":"range","state":"OH","pin":5292},"type":"Feature","geometry":{"type":"Point","coordinates":[-84.394156,40.540827]}},{"properties":{"city":"WAPAKONETA","status":"Active","ppv":"Yes","zip":"45895","region":"Wapakoneta","service packages":"Basic Wapak,HD 1 Wapak,Expanded basic Wapak","township":null,"last":"MILLER","stbs allowed":5,"geo_score":0.812,"first":"CATHY","ppv limit":"120","customer id":"99260153820","phone":4197383633,"whdvr":"No","id":"abjw6u7v4cry","address":"402 ASHLAND APT D3","login":4197383633,"password":3633,"geo_precision":"range","state":"OH","pin":3633},"type":"Feature","geometry":{"type":"Point","coordinates":[-84.199885,40.558595]}},{"properties":{"city":"ST MARYS","status":"Active","ppv":"Yes","zip":"45885","region":"St. Mary's","service packages":"Tier 2,Basic St marys,HD 1 St Marys,Music St Marys,Expanded Basic SM","township":null,"last":"MINNICH","stbs allowed":5,"geo_score":0.729,"first":"TIM","ppv limit":"Unlimited","customer id":"20028947","phone":4193944467,"whdvr":"No","id":"abjw6u85fiia","address":"728 JAY","login":4193944467,"password":4467,"geo_precision":"range","state":"OH","pin":4467},"type":"Feature","geometry":{"type":"Point","coordinates":[-84.394181,40.537546]}},{"properties":{"city":"ST MARYS","status":"Active","ppv":"Yes","zip":"45885","region":"St. Mary's","service packages":"Tier 2,Basic St marys,HD 1 St Marys,Music St Marys,Expanded Basic SM","township":null,"last":"MOELLER","stbs allowed":5,"geo_score":0.876,"first":"MICHAEL","ppv limit":"Unlimited","customer id":"99560074081","phone":4199535366,"whdvr":"No","id":"abjw6twe3nl4","address":"1223 KIMBERLY DR","login":4199535366,"password":5366,"geo_precision":"range","state":"OH","pin":5366},"type":"Feature","geometry":{"type":"Point","coordinates":[-84.410559,40.551699]}},{"properties":{"city":"ST MARYS","status":"Active","ppv":"Yes","zip":"45885","region":"St. Mary's","service packages":"ENC/Starz,Tier 2,Basic St marys,HBO St Marys,HD 1 St Marys,HD 2 St Marys,Music St Marys,Showtime St Marys,Expanded Basic SM","township":null,"last":"MORSE","stbs allowed":5,"geo_score":0.876,"first":"EUGENE","ppv limit":"Unlimited","customer id":"00033934-8","phone":5676443581,"whdvr":"No","id":"abjw6u2hsjy7","address":"217 N PERRY ST","login":5676443581,"password":3581,"geo_precision":"range","state":"OH","pin":3581},"type":"Feature","geometry":{"type":"Point","coordinates":[-84.394293,40.543064]}},{"properties":{"city":"WAPAKONETA","status":"Active","ppv":"Yes","zip":"45895","region":"Wapakoneta","service packages":"Basic Wapak,Music Wapak,HBO Wapak,HD 1 Wapak,Expanded basic Wapak","township":null,"last":"MORT","stbs allowed":5,"geo_score":0.716,"first":"GORDON","ppv limit":"Unlimited","customer id":"20021697","phone":4197382519,"whdvr":"No","id":"abjw6u4j42eh","address":"17437 N DIXIE 25A","login":4197382519,"password":2519,"geo_precision":"range","state":"OH","pin":2519},"type":"Feature","geometry":{"type":"Point","coordinates":[-84.159548,40.604126]}},{"properties":{"city":"Wapakoneta","status":"Active","ppv":"No","zip":"45895","region":"Wapakoneta","service packages":"Basic Wapak,Music Wapak,Tier 2 Wapak,Expanded basic Wapak","township":null,"last":"MOYLER","stbs allowed":5,"geo_score":0.528,"first":"ROBERT","ppv limit":"Unlimited","customer id":"20020303","phone":4197387042,"whdvr":"No","id":"abjw6u4hiucm","address":"16121 Blackhoof Creek Rd","login":4197387042,"password":7042,"geo_precision":"street","state":"OH","pin":7042},"type":"Feature","geometry":{"type":"Point","coordinates":[-83.555798,40.898241]}},{"properties":{"city":"ST MARYS","status":"Active","ppv":"Yes","zip":"45885","region":"St. Mary's","service packages":"Tier 2,Basic St marys,HD 1 St Marys,Music St Marys,Expanded Basic SM","township":null,"last":"MULLINS","stbs allowed":5,"geo_score":0.834,"first":"BILLY","ppv limit":"Unlimited","customer id":"99560007216","phone":4199536368,"whdvr":"No","id":"abjw6u5hwbjg","address":"407 MCLAIN","login":4199536368,"password":6368,"geo_precision":"range","state":"OH","pin":6368},"type":"Feature","geometry":{"type":"Point","coordinates":[-84.387713,40.531924]}},{"properties":{"city":"Wapakoneta","status":"Active","ppv":"Yes","zip":"45895","region":"Wapakoneta","service packages":"Basic Wapak,Expanded basic Wapak","township":null,"last":"Murray","stbs allowed":5,"geo_score":0.902,"first":"Raymond C","ppv limit":"Unlimited","customer id":"20024916","phone":4197386748,"whdvr":"No","id":"abjw6u6qfzh8","address":"13251 Ashburn Rd","login":4197386748,"password":6748,"geo_precision":"range","state":"OH","pin":6748},"type":"Feature","geometry":{"type":"Point","coordinates":[-84.088573,40.554216]}},{"properties":{"city":"ST MARYS","status":"Active","ppv":"Yes","zip":"45885","region":"St. Mary's","service packages":"Tier 2,Basic St marys,HD 1 St Marys,Music St Marys,Expanded Basic SM","township":null,"last":"NAGEL","stbs allowed":5,"geo_score":0.796,"first":"ANDREW","ppv limit":"Unlimited","customer id":"99310051193","phone":4197333021,"whdvr":"No","id":"abjw6u2zvgm1","address":"516 COLUMBIA","login":4197333021,"password":3021,"geo_precision":"range","state":"OH","pin":3021},"type":"Feature","geometry":{"type":"Point","coordinates":[-84.383504,40.547429]}},{"properties":{"city":"WAPAKONETA","status":"Active","ppv":"Yes","zip":"45895","region":"Wapakoneta","service packages":"Basic Wapak,Expanded basic Wapak","township":null,"last":"NAPA","stbs allowed":5,"geo_score":0.622,"first":"FIRST CALL AUTO SUPPLY","ppv limit":"Unlimited","customer id":"20018302","phone":4197388960,"whdvr":"No","id":"abjw6u0kxgjm","address":"10 E PEARL","login":4197388960,"password":8960,"geo_precision":"street","state":"OH","pin":8960},"type":"Feature","geometry":{"type":"Point","coordinates":[-84.192726,40.567841]}},{"properties":{"city":"ST MARYS","status":"Active","ppv":"Yes","zip":"45885","region":"St. Mary's","service packages":"Tier 2,Basic St marys,HD 1 St Marys,HD 2 St Marys,Music St Marys,Expanded Basic SM","township":null,"last":"NEARY","stbs allowed":5,"geo_score":0.796,"first":"BRIAN","ppv limit":"Unlimited","customer id":"99310154732","phone":4193711663,"whdvr":"No","id":"abjw6ty4id3n","address":"255 N SPRUCE","login":4193711663,"password":1663,"geo_precision":"range","state":"OH","pin":1663},"type":"Feature","geometry":{"type":"Point","coordinates":[-84.385116,40.546344]}},{"properties":{"city":"WAPAKONETA","status":"Active","ppv":"Yes","zip":"45895","region":"Wapakoneta","service packages":"Basic Wapak,Music Wapak,Tier 2 Wapak,Expanded basic Wapak","township":null,"last":"NESTER","stbs allowed":5,"geo_score":0.902,"first":"WAYNE","ppv limit":"Unlimited","customer id":"20020264","phone":4197398781,"whdvr":"No","id":"abjw6u7pm1bb","address":"9544 County Road 33A","login":4197398781,"password":8781,"geo_precision":"range","state":"OH","pin":8781},"type":"Feature","geometry":{"type":"Point","coordinates":[-84.267508,40.560065]}},{"properties":{"city":"WAPAKONETA","status":"Active","ppv":"Yes","zip":"45895","region":"Wapakoneta","service packages":"Basic Wapak,Music Wapak,Tier 2 Wapak,HD 1 Wapak,Expanded basic Wapak","township":null,"last":"NEUMEIER","stbs allowed":5,"geo_score":0.902,"first":"JASON","ppv limit":"Unlimited","customer id":"20018882","phone":4197385158,"whdvr":"No","id":"abjw6txb1oqk","address":"825 HELEN DR","login":5158,"password":5158,"geo_precision":"range","state":"OH","pin":5158},"type":"Feature","geometry":{"type":"Point","coordinates":[-84.209267,40.573048]}},{"properties":{"city":"ST MARYS","status":"Active","ppv":"Yes","zip":"45885","region":"St. Mary's","service packages":"Tier 2,Basic St marys,HD 1 St Marys,Music St Marys,Expanded Basic SM","township":null,"last":"NORTON","stbs allowed":5,"geo_score":0.876,"first":"DONNA","ppv limit":"Unlimited","customer id":"99560008062","phone":4193943753,"whdvr":"No","id":"abjw6ty40m8b","address":"505 LINDEN AVE","login":4193943753,"password":3753,"geo_precision":"range","state":"OH","pin":3753},"type":"Feature","geometry":{"type":"Point","coordinates":[-84.40304,40.545648]}},{"properties":{"city":"Lima","status":"Active","ppv":"Yes","zip":"45806","region":"Allen County","service packages":"Basic Allen,HD 1,Tier 2 Allen,Music Allen,Expanded Basic Allen","township":null,"last":"O Black","stbs allowed":5,"geo_score":0.829,"first":"Charles","ppv limit":"Unlimited","customer id":"20014965","phone":4196455227,"whdvr":"No","id":"abjw6u5fw3tn","address":"1901 Lyn Grove","login":4196455227,"password":5227,"geo_precision":"range","state":"OH","pin":5227},"type":"Feature","geometry":{"type":"Point","coordinates":[-84.137475,40.659596]}},{"properties":{"city":"LIMA","status":"Active","ppv":"Yes","zip":"45804","region":"Allen County","service packages":"Basic Allen,Expanded Basic Allen","township":null,"last":"OHIO WAREHOUSE &amp; TRANSPORTS","stbs allowed":5,"geo_score":0.777,"first":"OHIO WAREHOUSE","ppv limit":"Unlimited","customer id":"122650-4","phone":4192223560,"whdvr":"No","id":"abjw6u51f9b2","address":"1200 E KIBBY BLDG 8","login":4192223560,"password":3560,"geo_precision":"range","state":"OH","pin":3560},"type":"Feature","geometry":{"type":"Point","coordinates":[-84.084109,40.730546]}},{"properties":{"city":"WAPAKONETA","status":"Active","ppv":"Yes","zip":"45895","region":"Wapakoneta","service packages":"Basic Wapak,Music Wapak,Tier 2 Wapak,HD 1 Wapak,Expanded basic Wapak","township":null,"last":"OWSLEY","stbs allowed":5,"geo_score":0.488,"first":"R B","ppv limit":"Unlimited","customer id":"20021065","phone":4197388046,"whdvr":"No","id":"abjw6txyq4e6","address":"18723 MUDSOCK RD","login":4197388046,"password":8046,"geo_precision":"zip","state":"OH","pin":8046},"type":"Feature","geometry":{"type":"Point","coordinates":[-84.152138,40.582252]}},{"properties":{"city":"WAPAKONETA","status":"Inactive","ppv":"Yes","zip":"45895","region":"Wapakoneta","service packages":"Basic Wapak,Music Wapak,Tier 2 Wapak,Expanded basic Wapak","township":null,"last":"PAPAY","stbs allowed":5,"geo_score":0.636,"first":"NICOLLE","ppv limit":"Unlimited","customer id":"00026787-4","phone":4197398928,"whdvr":"No","id":"abjw6u7xne8o","address":"202 EASTOWN DR APT 35","login":4197398928,"password":8928,"geo_precision":"street","state":"OH","pin":8928},"type":"Feature","geometry":{"type":"Point","coordinates":[-84.176463,40.568128]}},{"properties":{"city":"ST MARYS","status":"Inactive","ppv":"Yes","zip":"45885","region":"St. Mary's","service packages":"Tier 2,Basic St marys,HD 1 St Marys,Music St Marys,Expanded Basic SM","township":null,"last":"PATTON","stbs allowed":5,"geo_score":0.709,"first":"DONALD","ppv limit":"Unlimited","customer id":"99310013885","phone":4193005004,"whdvr":"No","id":"abjw6tz83od8","address":"926 WOODRIDGE DR","login":4193005004,"password":5004,"geo_precision":"street","state":"OH","pin":5004},"type":"Feature","geometry":{"type":"Point","coordinates":[-84.160219,40.651928]}},{"properties":{"city":"WAPAKONETA","status":"Active","ppv":"Yes","zip":"45895","region":"Wapakoneta","service packages":"Basic Wapak,Music Wapak,Tier 2 Wapak,HBO Wapak,HD 1 Wapak,HD 2 Wapak,Expanded basic Wapak,Total HBO,Total HBO SD Only,NFL RedZone","township":null,"last":"PEDERSEN","stbs allowed":4,"geo_score":0.894,"first":"LONNIE","ppv limit":"Unlimited","customer id":"20016782","phone":4197382555,"whdvr":"Yes","id":"abjw6ttzjdce","address":"820 GLYNWOOD RD","login":4197382555,"password":2555,"geo_precision":"range","state":"OH","pin":2555},"type":"Feature","geometry":{"type":"Point","coordinates":[-84.204252,40.575827]}},{"properties":{"city":"Wapakoneta","status":"Active","ppv":"Yes","zip":"45895","region":"TSC Test","service packages":"Basic TSC,HBO TSC,Basic Test TSC,Exspanded Basic TSC,Music TSC,Expanded Basic TSC,HD1 TSC,HD2 TSC,Showtime TSC,Teir 2 TSC,Encor/Starz TSC,Test TSC,NFL RedZone","township":null,"last":"Petersen","stbs allowed":5,"geo_score":0.902,"first":"Frank","ppv limit":"Unlimited","customer id":null,"phone":4197392245,"whdvr":"No","id":"abjw6u07m2mn","address":"2 Willipie St.","login":4197392245,"password":2245,"geo_precision":"range","state":"OH","pin":2245},"type":"Feature","geometry":{"type":"Point","coordinates":[-84.193981,40.570562]}},{"properties":{"city":"WAPAKONETA","status":"Active","ppv":"Yes","zip":"45895","region":"Wapakoneta","service packages":"Basic Wapak,Music Wapak,Tier 2 Wapak,Expanded basic Wapak","township":null,"last":"PHIPPS","stbs allowed":5,"geo_score":0.744,"first":"RAY","ppv limit":"Unlimited","customer id":"674381","phone":4197381157,"whdvr":"No","id":"abjw6u2w9uce","address":"402 ASHLAND AVE BLDG F APT 5","login":4197381157,"password":1157,"geo_precision":"range","state":"OH","pin":1157},"type":"Feature","geometry":{"type":"Point","coordinates":[-84.199885,40.558595]}},{"properties":{"city":"St Marys","status":"Active","ppv":"Yes","zip":"45885","region":"St. Mary's","service packages":"Tier 2,Basic St marys,HD 1 St Marys,Music St Marys,Expanded Basic SM","township":null,"last":"Pittman","stbs allowed":5,"geo_score":0.876,"first":"Alex","ppv limit":"Unlimited","customer id":"00007022-0","phone":4193942064,"whdvr":"No","id":"abjw6twmkrod","address":"1822 Cheshire Dr","login":4193942064,"password":2064,"geo_precision":"range","state":"OH","pin":2064},"type":"Feature","geometry":{"type":"Point","coordinates":[-84.413415,40.551039]}},{"properties":{"city":"ST MARYS","status":"Inactive","ppv":"Yes","zip":"45895","region":"St. Mary's","service packages":"Tier 2,Basic St marys,HD 1 St Marys,Music St Marys,Expanded Basic SM","township":null,"last":"POEPPELMAN","stbs allowed":5,"geo_score":0.902,"first":"SANDRA","ppv limit":"Unlimited","customer id":"20040833","phone":4193943750,"whdvr":"No","id":"abjw6tt4l1sv","address":"854 LAKE AVE","login":4193943750,"password":3750,"geo_precision":"range","state":"OH","pin":3750},"type":"Feature","geometry":{"type":"Point","coordinates":[-84.393444,40.535715]}},{"properties":{"city":"WAPAKONETA","status":"Active","ppv":"Yes","zip":"45895","region":"Wapakoneta","service packages":"Basic Wapak,Music Wapak,Tier 2 Wapak,HD 1 Wapak,HD 2 Wapak,Expanded basic Wapak","township":null,"last":"PREMIER EVENT CONCEPTS","stbs allowed":5,"geo_score":0.488,"first":null,"ppv limit":"Unlimited","customer id":"99510099021","phone":4197397720,"whdvr":"No","id":"abjw6tyj649z","address":"502 N DIXIE","login":4197397720,"password":7720,"geo_precision":"zip","state":"OH","pin":7720},"type":"Feature","geometry":{"type":"Point","coordinates":[-84.152138,40.582252]}},{"properties":{"city":"ST MARYS","status":"Active","ppv":"Yes","zip":"45885","region":"St. Mary's","service packages":"Tier 2,Basic St marys,HD 1 St Marys,Music St Marys,Expanded Basic SM","township":null,"last":"PRICE","stbs allowed":5,"geo_score":0.778,"first":"RACHEL","ppv limit":"Unlimited","customer id":"99310049537","phone":4199531777,"whdvr":"No","id":"abjw6u2gmrk9","address":"409 N VINE","login":4199531777,"password":1777,"geo_precision":"range","state":"OH","pin":1777},"type":"Feature","geometry":{"type":"Point","coordinates":[-84.381394,40.548958]}},{"properties":{"city":"WAPAKONETA","status":"Active","ppv":"Yes","zip":"45895","region":"Allen County","service packages":"HBO Allen,Showtime Allen,Ecn/Starz Allen,Basic Allen,HD 1,HD 2,Tier 2 Allen,Music Allen,Expanded Basic Allen,NFL RedZone","township":null,"last":"PULLEY","stbs allowed":10,"geo_score":0.902,"first":"TERRY","ppv limit":"Unlimited","customer id":"20022957","phone":4197397657,"whdvr":"Yes","id":"abjw6tx3cunq","address":"816 HELEN DR","login":4197397657,"password":7657,"geo_precision":"range","state":"OH","pin":7657},"type":"Feature","geometry":{"type":"Point","coordinates":[-84.207251,40.572892]}},{"properties":{"city":"ST MARYS","status":"Active","ppv":"Yes","zip":"45885","region":"St. Mary's","service packages":"Basic St marys,HBO St Marys,HD 1 St Marys,Music St Marys,Expanded Basic SM","township":null,"last":"PUTMAN","stbs allowed":5,"geo_score":0.834,"first":"JANET","ppv limit":"Unlimited","customer id":"99560007694","phone":4193942043,"whdvr":"No","id":"abjw6tzt26b7","address":"413 MCLAIN","login":4193942043,"password":2043,"geo_precision":"range","state":"OH","pin":2043},"type":"Feature","geometry":{"type":"Point","coordinates":[-84.388094,40.531925]}},{"properties":{"city":"WAPAKONETA","status":"Active","ppv":"Yes","zip":"45895","region":"Wapakoneta","service packages":"Basic Wapak,Music Wapak,Tier 2 Wapak,Expanded basic Wapak","township":null,"last":"QUELLHORST","stbs allowed":4,"geo_score":0.716,"first":"TANNA","ppv limit":"Unlimited","customer id":"20022432","phone":4197389889,"whdvr":"Yes","id":"abjw6u2n5knw","address":"13626 S DIXIE 25A","login":4197389889,"password":9889,"geo_precision":"range","state":"OH","pin":9889},"type":"Feature","geometry":{"type":"Point","coordinates":[-84.192425,40.548536]}},{"properties":{"city":"Wapakoneta","status":"Active","ppv":"Yes","zip":"45895","region":"Wapakoneta","service packages":"Basic Wapak,Music Wapak,Tier 2 Wapak,Expanded basic Wapak,Stars Super Pack SD only","township":null,"last":"Rains","stbs allowed":2,"geo_score":0.902,"first":"Christine","ppv limit":"Unlimited","customer id":"99510050796","phone":4197386883,"whdvr":"No","id":"abjw6tzubs2w","address":"16991 Hengstler Rd","login":4197386883,"password":6883,"geo_precision":"range","state":"OH","pin":6883},"type":"Feature","geometry":{"type":"Point","coordinates":[-84.135314,40.606795]}},{"properties":{"city":"WAPAKONETA","status":"Active","ppv":"Yes","zip":"45895","region":"Wapakoneta","service packages":"Basic Wapak,Expanded basic Wapak","township":null,"last":"REDMAN","stbs allowed":5,"geo_score":0.636,"first":"KENNETH","ppv limit":"120","customer id":"00111643-2","phone":4197387945,"whdvr":"No","id":"abjw6tzj4uyh","address":"202 EASTOWN DR APT 52","login":4197387945,"password":7945,"geo_precision":"street","state":"OH","pin":7945},"type":"Feature","geometry":{"type":"Point","coordinates":[-84.176463,40.568128]}},{"properties":{"city":"Wapakoneta","status":"Active","ppv":"Yes","zip":"45895","region":"Wapakoneta","service packages":"Basic Wapak,Music Wapak,Tier 2 Wapak,Expanded basic Wapak","township":null,"last":"Redman","stbs allowed":5,"geo_score":0.636,"first":"Scott","ppv limit":"Unlimited","customer id":"00074270-1","phone":4197381163,"whdvr":"No","id":"abjw6u5qyfz3","address":"202 Eastown Dr Apt 34","login":4197381163,"password":1163,"geo_precision":"street","state":"OH","pin":1163},"type":"Feature","geometry":{"type":"Point","coordinates":[-84.176463,40.568128]}},{"properties":{"city":"LIMA","status":"Active","ppv":"Yes","zip":"45805","region":"Allen County","service packages":"Basic Allen,HD 1,Tier 2 Allen,Music Allen,Expanded Basic Allen","township":null,"last":"RETTIG","stbs allowed":5,"geo_score":0.709,"first":"LISA","ppv limit":"Unlimited","customer id":"113178","phone":4199991158,"whdvr":"No","id":"abjw6u703abv","address":"3058 STONEYBROOK DR","login":4199991158,"password":1158,"geo_precision":"street","state":"OH","pin":1158},"type":"Feature","geometry":{"type":"Point","coordinates":[-84.159419,40.703157]}},{"properties":{"city":"WAPAKONETA","status":"Active","ppv":"Yes","zip":"45895","region":"Wapakoneta","service packages":"Basic Wapak,Music Wapak,Tier 2 Wapak,Expanded basic Wapak,Total HBO SD Only","township":null,"last":"RHOADS","stbs allowed":5,"geo_score":0.805,"first":"JOHN &amp; DANA","ppv limit":"Unlimited","customer id":"99420116059","phone":4197386361,"whdvr":"No","id":"abjw6tt1mubm","address":"16754 ST RT 67","login":4197386361,"password":6361,"geo_precision":"range","state":"OH","pin":6361},"type":"Feature","geometry":{"type":"Point","coordinates":[-84.131712,40.599426]}},{"properties":{"city":"WAPAKONETA","status":"Active","ppv":"Yes","zip":"45895","region":"TSC Test","service packages":"Test TSC,NFL RedZone","township":null,"last":"RICHARDS","stbs allowed":4,"geo_score":0.601,"first":"RODNEY","ppv limit":"Unlimited","customer id":"20025699","phone":4197383131,"whdvr":"Yes","id":"abjw6u61nfbn","address":"11931 HARDIN PIKE","login":3131,"password":3131,"geo_precision":"street","state":"OH","pin":3131},"type":"Feature","geometry":{"type":"Point","coordinates":[-84.622214,40.48869]}},{"properties":{"city":"CRIDERSVILLE","status":"Active","ppv":"Yes","zip":"45806","region":"Wapakoneta","service packages":"Basic Wapak,Music Wapak,Tier 2 Wapak,HD 1 Wapak,Expanded basic Wapak","township":null,"last":"RICKETTS","stbs allowed":5,"geo_score":0.707,"first":"CHAD","ppv limit":"Unlimited","customer id":"20015450","phone":4196456035,"whdvr":"Yes","id":"abjw6u5dh4n3","address":"19701 REICHELDERFER RD","login":4196456035,"password":6035,"geo_precision":"street","state":"OH","pin":6035},"type":"Feature","geometry":{"type":"Point","coordinates":[-84.150842,40.651212]}},{"properties":{"city":"ST MARYS","status":"Active","ppv":"Yes","zip":"45885","region":"St. Mary's","service packages":"Tier 2,Basic St marys,HD 1 St Marys,Music St Marys,Expanded Basic SM","township":null,"last":"RINKEL","stbs allowed":5,"geo_score":0.876,"first":"TONY","ppv limit":"Unlimited","customer id":"20042754","phone":4193947578,"whdvr":"No","id":"abjw6u2afzbd","address":"605 LINDEN AVE","login":4193947578,"password":7578,"geo_precision":"range","state":"OH","pin":7578},"type":"Feature","geometry":{"type":"Point","coordinates":[-84.403019,40.546456]}},{"properties":{"city":"WAPAKONETA","status":"Active","ppv":"Yes","zip":"45895","region":"Wapakoneta","service packages":"Basic Wapak,Music Wapak,Tier 2 Wapak,Expanded basic Wapak","township":null,"last":"ROBERTS","stbs allowed":5,"geo_score":0.488,"first":"BRIAN","ppv limit":"Unlimited","customer id":"20024081","phone":5673560710,"whdvr":"No","id":"abjw6u1tszp5","address":"18716 MUDSOCK RD","login":5673560710,"password":710,"geo_precision":"zip","state":"OH","pin":710},"type":"Feature","geometry":{"type":"Point","coordinates":[-84.152138,40.582252]}},{"properties":{"city":"WAPAKONETA","status":"Active","ppv":"Yes","zip":"45895","region":"Wapakoneta","service packages":"Basic Wapak,Music Wapak,Tier 2 Wapak,Expanded basic Wapak,Stars Super Pack SD only","township":null,"last":"RODGERS","stbs allowed":5,"geo_score":0.805,"first":"DELLA","ppv limit":"Unlimited","customer id":"00021169-6","phone":4197398854,"whdvr":"No","id":"abjw6u2svrcr","address":"15867 ST RT 67","login":4197398854,"password":8854,"geo_precision":"range","state":"OH","pin":8854},"type":"Feature","geometry":{"type":"Point","coordinates":[-84.152859,40.594358]}},{"properties":{"city":"WAPAKONETA","status":"Active","ppv":"Yes","zip":"45895","region":"Wapakoneta","service packages":"Basic Wapak,Music Wapak,Tier 2 Wapak,HD 1 Wapak,Expanded basic Wapak","township":null,"last":"ROESSNER","stbs allowed":5,"geo_score":0.631,"first":"DIANE","ppv limit":"120","customer id":"00072472-1","phone":4197398917,"whdvr":"No","id":"abjw6txj9gxv","address":"202 EASTOWN APT 51","login":4197398917,"password":8917,"geo_precision":"street","state":"OH","pin":8917},"type":"Feature","geometry":{"type":"Point","coordinates":[-84.176463,40.568128]}},{"properties":{"city":"WAPAKONETA","status":"Active","ppv":"Yes","zip":"45895","region":"Wapakoneta","service packages":"Basic Wapak,Expanded basic Wapak","township":null,"last":"ROHRBACH","stbs allowed":5,"geo_score":0.799,"first":"MARJORIE","ppv limit":"Unlimited","customer id":"00016196-8","phone":4197388821,"whdvr":"No","id":"abjw6u07bl0a","address":"402 ASHLAND AVE APT 4","login":4197388821,"password":8821,"geo_precision":"range","state":"OH","pin":8821},"type":"Feature","geometry":{"type":"Point","coordinates":[-84.199885,40.558595]}},{"properties":{"city":"LIMA","status":"Active","ppv":"Yes","zip":"45805","region":"Allen County","service packages":"Showtime Allen,Basic Allen,HD 1,Tier 2 Allen,Music Allen,Expanded Basic Allen","township":null,"last":"ROSI","stbs allowed":5,"geo_score":0.616,"first":"DAVID","ppv limit":"120","customer id":"00068890-8","phone":5679400062,"whdvr":"Yes","id":"abjw6u2wmx90","address":"2917 MORNING SUN DR","login":5679400062,"password":62,"geo_precision":"street","state":"OH","pin":62},"type":"Feature","geometry":{"type":"Point","coordinates":[-83.973789,40.609857]}},{"properties":{"city":"WAPAKONETA","status":"Active","ppv":"Yes","zip":"45895","region":"Wapakoneta","service packages":"Basic Wapak,Expanded basic Wapak","township":null,"last":"RUCK","stbs allowed":5,"geo_score":0.902,"first":"NATHAN","ppv limit":"Unlimited","customer id":"20019510","phone":4197386085,"whdvr":"No","id":"abjw6u0zt9g4","address":"12310 WAPAK-FREYBURG RD","login":4197386085,"password":6085,"geo_precision":"range","state":"OH","pin":6085},"type":"Feature","geometry":{"type":"Point","coordinates":[-84.145386,40.535166]}},{"properties":{"city":"ST MARYS","status":"Active","ppv":"Yes","zip":"45885","region":"St. Mary's","service packages":"ENC/Starz,Tier 2,Basic St marys,HD 1 St Marys,Music St Marys,Expanded Basic SM","township":null,"last":"RUNNION","stbs allowed":5,"geo_score":0.876,"first":"DANA","ppv limit":"Unlimited","customer id":"20040801","phone":4193943286,"whdvr":"No","id":"abjw6tvzx55c","address":"114 BAYSHORE CT","login":4193943286,"password":3286,"geo_precision":"range","state":"OH","pin":3286},"type":"Feature","geometry":{"type":"Point","coordinates":[-84.423584,40.544123]}},{"properties":{"city":"WAPAKONETA","status":"Active","ppv":"Yes","zip":"45895","region":"Wapakoneta","service packages":"Basic Wapak,Music Wapak,Tier 2 Wapak,Expanded basic Wapak","township":null,"last":"SCHEER","stbs allowed":7,"geo_score":0.902,"first":"PAUL N","ppv limit":"Unlimited","customer id":"20018574","phone":4197384766,"whdvr":"No","id":"abjw6u7ahibb","address":"10627 RUPERT RD","login":4197384766,"password":4766,"geo_precision":"range","state":"OH","pin":4766},"type":"Feature","geometry":{"type":"Point","coordinates":[-84.153381,40.506768]}},{"properties":{"city":"ST MARYS","status":"Active","ppv":"Yes","zip":"45885","region":"St. Mary's","service packages":"ENC/Starz,Tier 2,Basic St marys,HD 1 St Marys,Music St Marys,Expanded Basic SM","township":null,"last":"SCHELBY","stbs allowed":5,"geo_score":0.876,"first":"JAMES","ppv limit":"Unlimited","customer id":"20028830","phone":4193005742,"whdvr":"No","id":"abjw6tzgbjke","address":"420 WOODWARD","login":4193005742,"password":5742,"geo_precision":"range","state":"OH","pin":5742},"type":"Feature","geometry":{"type":"Point","coordinates":[-84.387768,40.532893]}},{"properties":{"city":"WAPAKONETA","status":"Active","ppv":"Yes","zip":"45895","region":"Wapakoneta","service packages":"Basic Wapak,HD 1 Wapak,Expanded basic Wapak","township":null,"last":"SCHLENKER","stbs allowed":8,"geo_score":0.902,"first":"CHRIS","ppv limit":"Unlimited","customer id":"00011052-5","phone":4197389526,"whdvr":"Yes","id":"abjw6tzem4kf","address":"10280 GLYNWOOD RD","login":4197389526,"password":9526,"geo_precision":"range","state":"OH","pin":9526},"type":"Feature","geometry":{"type":"Point","coordinates":[-84.251908,40.581378]}},{"properties":{"city":"Wapakoneta","status":"Active","ppv":"Yes","zip":"45895","region":"Wapakoneta","service packages":"Basic Wapak,Music Wapak,Tier 2 Wapak,Expanded basic Wapak","township":null,"last":"Schlosser Funeral Home","stbs allowed":2,"geo_score":0.488,"first":null,"ppv limit":"Unlimited","customer id":"99740081794","phone":4197393323,"whdvr":"No","id":"abjw6u1ox1wr","address":"615 N Dixie","login":4197393323,"password":3323,"geo_precision":"zip","state":"OH","pin":3323},"type":"Feature","geometry":{"type":"Point","coordinates":[-84.152138,40.582252]}},{"properties":{"city":"WAPAKONETA","status":"Inactive","ppv":"Yes","zip":"45895","region":"Wapakoneta","service packages":"Basic Wapak,Expanded basic Wapak","township":null,"last":"SCHMERGE","stbs allowed":5,"geo_score":0.799,"first":"DAVID","ppv limit":"Unlimited","customer id":"00012608-9","phone":4197386631,"whdvr":"No","id":"abjw6u02fvbo","address":"402 ASHLAND AVE APT 4","login":4197386631,"password":6631,"geo_precision":"range","state":"OH","pin":6631},"type":"Feature","geometry":{"type":"Point","coordinates":[-84.199885,40.558595]}},{"properties":{"city":"ST MARYS","status":"Active","ppv":"Yes","zip":"45885","region":"St. Mary's","service packages":"Tier 2,Basic St marys,HD 1 St Marys,Music St Marys,Expanded Basic SM","township":null,"last":"SCHMIDT","stbs allowed":5,"geo_score":0.876,"first":"LYNN","ppv limit":"Unlimited","customer id":"99560012786","phone":4193945914,"whdvr":"No","id":"abjw6u94b9jl","address":"1711 FENWAY CT","login":4193945914,"password":5914,"geo_precision":"range","state":"OH","pin":5914},"type":"Feature","geometry":{"type":"Point","coordinates":[-84.412419,40.551659]}},{"properties":{"city":"ST MARYS","status":"Active","ppv":"Yes","zip":"45885","region":"St. Mary's","service packages":"Basic St marys,HBO St Marys,HD 1 St Marys,Expanded Basic SM","township":null,"last":"SCHMIESING","stbs allowed":5,"geo_score":0.75,"first":"ANDREW","ppv limit":"Unlimited","customer id":"99310068597","phone":4197335133,"whdvr":"Yes","id":"abjw6tw7th95","address":"1106 MOTZ","login":4197335133,"password":5133,"geo_precision":"range","state":"OH","pin":5133},"type":"Feature","geometry":{"type":"Point","coordinates":[-84.403617,40.546482]}},{"properties":{"city":"WAPAKONETA","status":"Active","ppv":"Yes","zip":"45895","region":"Wapakoneta","service packages":"Basic Wapak,Music Wapak,Tier 2 Wapak,Expanded basic Wapak","township":null,"last":"SCHOOLER","stbs allowed":5,"geo_score":0.902,"first":"RONALD D","ppv limit":"Unlimited","customer id":"20021634","phone":4197388765,"whdvr":"No","id":"abjw6u80qbu9","address":"16018 HENGSTLER RD","login":4197388765,"password":8765,"geo_precision":"range","state":"OH","pin":8765},"type":"Feature","geometry":{"type":"Point","coordinates":[-84.146405,40.60657]}},{"properties":{"city":"ST MARYS","status":"Active","ppv":"Yes","zip":"45885","region":"St. Mary's","service packages":"Tier 2,Basic St marys,HD 1 St Marys,Music St Marys,Expanded Basic SM","township":null,"last":"SCHOONOVER","stbs allowed":5,"geo_score":0.876,"first":"SHANNON","ppv limit":"Unlimited","customer id":"98640028118","phone":4193008433,"whdvr":"No","id":"abjw6u83enja","address":"1113 ROBIN RD","login":4193008433,"password":8433,"geo_precision":"range","state":"OH","pin":8433},"type":"Feature","geometry":{"type":"Point","coordinates":[-84.404686,40.549392]}},{"properties":{"city":"Wapakoneta","status":"Active","ppv":"Yes","zip":"45895","region":"TSC Test","service packages":"Basic TSC,HBO TSC,Basic Test TSC,Exspanded Basic TSC,Music TSC,Expanded Basic TSC,HD1 TSC,HD2 TSC,Showtime TSC,Teir 2 TSC,Encor/Starz TSC,Test TSC","township":null,"last":"Schwartz","stbs allowed":5,"geo_score":0.463,"first":"Terry","ppv limit":"Unlimited","customer id":"20024967","phone":4196456055,"whdvr":"Yes","id":"abjw6u3suozp","address":"17051 Buckland Holden Rd","login":4196456055,"password":6055,"geo_precision":"street","state":"OH","pin":6055},"type":"Feature","geometry":{"type":"Point","coordinates":[-83.617381,41.055495]}},{"properties":{"city":"WAPAKONETA","status":"Active","ppv":"Yes","zip":"45895","region":"Wapakoneta","service packages":"Basic Wapak,Music Wapak,Tier 2 Wapak,Expanded basic Wapak","township":null,"last":"SEIPEL","stbs allowed":5,"geo_score":0.902,"first":"ANDREW","ppv limit":"Unlimited","customer id":"00056985-7","phone":4197398824,"whdvr":"No","id":"abjw6ttxu4vs","address":"9304 COUNTY ROAD 33A","login":4197398824,"password":8824,"geo_precision":"range","state":"OH","pin":8824},"type":"Feature","geometry":{"type":"Point","coordinates":[-84.27617,40.558869]}},{"properties":{"city":"WAPAKONETA","status":"Active","ppv":"Yes","zip":"45895","region":"Wapakoneta","service packages":"Basic Wapak,Music Wapak,Tier 2 Wapak,Expanded basic Wapak","township":null,"last":"SEITZ","stbs allowed":5,"geo_score":0.488,"first":"RAYMOND A","ppv limit":"Unlimited","customer id":"39583","phone":4197381189,"whdvr":"No","id":"abjw6tx1nrjp","address":"18981 MUDSOCK RD","login":4197381189,"password":1189,"geo_precision":"zip","state":"OH","pin":1189},"type":"Feature","geometry":{"type":"Point","coordinates":[-84.152138,40.582252]}},{"properties":{"city":"ST MARYS","status":"Active","ppv":"Yes","zip":"45885","region":"St. Mary's","service packages":"Tier 2,Basic St marys,HD 1 St Marys,Music St Marys,Expanded Basic SM","township":null,"last":"SHEIPLINE","stbs allowed":5,"geo_score":0.876,"first":"MATT","ppv limit":"Unlimited","customer id":"99560012704","phone":4193007734,"whdvr":"No","id":"abjw6tyzqlps","address":"1825 KINGSBURY DR","login":4193007734,"password":7734,"geo_precision":"range","state":"OH","pin":7734},"type":"Feature","geometry":{"type":"Point","coordinates":[-84.414452,40.550247]}},{"properties":{"city":"ST MARYS","status":"Active","ppv":"Yes","zip":"45801","region":"St. Mary's","service packages":"Tier 2,Basic St marys,HD 1 St Marys,Music St Marys,Expanded Basic SM","township":null,"last":"SIEFRING","stbs allowed":5,"geo_score":0.488,"first":"DONALD","ppv limit":"Unlimited","customer id":"099310022951","phone":4193943867,"whdvr":"No","id":"abjw6tu5m0cr","address":"902 MAGNOLIA","login":4193943867,"password":3867,"geo_precision":"street","state":"OH","pin":3867},"type":"Feature","geometry":{"type":"Point","coordinates":[-83.846569,40.703371]}},{"properties":{"city":"ST MARYS","status":"Active","ppv":"Yes","zip":"45885","region":"St. Mary's","service packages":"Tier 2,Basic St marys,HD 1 St Marys,HD 2 St Marys,Music St Marys,Expanded Basic SM","township":null,"last":"SILVER","stbs allowed":5,"geo_score":0.778,"first":"SEAN","ppv limit":"Unlimited","customer id":"00023622-0","phone":4193947524,"whdvr":"Yes","id":"abjw6u8ni3q8","address":"419 S MAIN","login":4193947524,"password":7524,"geo_precision":"range","state":"OH","pin":7524},"type":"Feature","geometry":{"type":"Point","coordinates":[-84.387997,40.53844]}},{"properties":{"city":"WAPAKONETA","status":"Active","ppv":"Yes","zip":"45895","region":"Wapakoneta","service packages":"Basic Wapak,Music Wapak,Tier 2 Wapak,Expanded basic Wapak","township":null,"last":"SIMPKO","stbs allowed":5,"geo_score":0.805,"first":"L A","ppv limit":"Unlimited","customer id":"20021367","phone":4197388435,"whdvr":"No","id":"abjw6txa7leq","address":"17387 ST RT 67","login":4197388435,"password":8435,"geo_precision":"range","state":"OH","pin":8435},"type":"Feature","geometry":{"type":"Point","coordinates":[-84.121115,40.599766]}},{"properties":{"city":"ST MARYS","status":"Active","ppv":"Yes","zip":"45885","region":"St. Mary's","service packages":"Basic St marys,HD 1 St Marys,Expanded Basic SM","township":null,"last":"SLEMMONS","stbs allowed":5,"geo_score":0.788,"first":"DARREN","ppv limit":"Unlimited","customer id":"20028899","phone":4193942943,"whdvr":"No","id":"abjw6tt6e9y7","address":"327 HUFFMAN","login":4193942943,"password":2943,"geo_precision":"range","state":"OH","pin":2943},"type":"Feature","geometry":{"type":"Point","coordinates":[-84.386576,40.535649]}},{"properties":{"city":"ST MARYS","status":"Active","ppv":"Yes","zip":"45885","region":"St. Mary's","service packages":"Basic St marys,HBO St Marys,HD 1 St Marys,Expanded Basic SM","township":null,"last":"SLONE","stbs allowed":5,"geo_score":0.778,"first":"JEFF","ppv limit":"Unlimited","customer id":"99560001956","phone":4193009981,"whdvr":"No","id":"abjw6tu4kyh8","address":"223 CHERRY","login":4193009981,"password":9981,"geo_precision":"range","state":"OH","pin":9981},"type":"Feature","geometry":{"type":"Point","coordinates":[-84.392726,40.547923]}},{"properties":{"city":"ST MARYS","status":"Active","ppv":"Yes","zip":"45885","region":"St. Mary's","service packages":"Tier 2,Basic St marys,HD 1 St Marys,Music St Marys,Expanded Basic SM","township":null,"last":"Slone","stbs allowed":5,"geo_score":0.796,"first":"Benjy","ppv limit":"100","customer id":"00015276-3","phone":4193716433,"whdvr":"No","id":"abjw6u0xar2w","address":"612 E SPRING","login":4193716433,"password":6433,"geo_precision":"range","state":"OH","pin":6433},"type":"Feature","geometry":{"type":"Point","coordinates":[-84.380939,40.546032]}},{"properties":{"city":"Lima","status":"Active","ppv":"Yes","zip":"45806","region":"Allen County","service packages":"HBO Allen,Basic Allen,HD 1,Tier 2 Allen,Music Allen,Expanded Basic Allen","township":null,"last":"Smith","stbs allowed":5,"geo_score":0.616,"first":"Richard","ppv limit":"120","customer id":"99640034537","phone":4192211832,"whdvr":"No","id":"abjw6tuip0dl","address":"2905 Morning Sun Dr","login":4192211832,"password":1832,"geo_precision":"street","state":"OH","pin":1832},"type":"Feature","geometry":{"type":"Point","coordinates":[-83.973789,40.609857]}},{"properties":{"city":"WAPAKONETA","status":"Active","ppv":"Yes","zip":"45895","region":"Wapakoneta","service packages":"Basic Wapak,Music Wapak,Tier 2 Wapak,HD 1 Wapak,Expanded basic Wapak","township":null,"last":"SMITH","stbs allowed":5,"geo_score":0.902,"first":"JEFFREY","ppv limit":"Unlimited","customer id":"20020893","phone":4197387815,"whdvr":"No","id":"abjw6tuwrym5","address":"14661 INFIRMARY RD","login":4197387815,"password":7815,"geo_precision":"range","state":"OH","pin":7815},"type":"Feature","geometry":{"type":"Point","coordinates":[-84.178493,40.591873]}},{"properties":{"city":"ST MARYS","status":"Active","ppv":"Yes","zip":"45885","region":"St. Mary's","service packages":"ENC/Starz,Tier 2,Basic St marys,HBO St Marys,HD 1 St Marys,Music St Marys,Expanded Basic SM","township":null,"last":"SMITH","stbs allowed":5,"geo_score":0.769,"first":"BLAINE","ppv limit":"Unlimited","customer id":"99740024404","phone":4193057388,"whdvr":"No","id":"abjw6tsp4kqf","address":"337 CONCORD","login":4193057388,"password":7388,"geo_precision":"range","state":"OH","pin":7388},"type":"Feature","geometry":{"type":"Point","coordinates":[-84.400902,40.54304]}},{"properties":{"city":"LIMA","status":"Active","ppv":"Yes","zip":"45805","region":"Allen County","service packages":"Basic Allen,HD 1,Tier 2 Allen,Music Allen,Expanded Basic Allen","township":null,"last":"SMITH","stbs allowed":5,"geo_score":0.595,"first":"REBECCA","ppv limit":"120","customer id":"99640033375","phone":4192292529,"whdvr":"No","id":"abjw6tzukn5f","address":"2999 MORNING SUN","login":4192292529,"password":2529,"geo_precision":"street","state":"OH","pin":2529},"type":"Feature","geometry":{"type":"Point","coordinates":[-84.193472,40.78102]}},{"properties":{"city":"ST MARYS","status":"Active","ppv":"Yes","zip":"45885","region":"St. Mary's","service packages":"Tier 2,Basic St marys,HD 1 St Marys,Music St Marys,Expanded Basic SM","township":null,"last":"SPRAGUE","stbs allowed":5,"geo_score":0.415,"first":"DAVID","ppv limit":"Unlimited","customer id":"20041690","phone":4193948616,"whdvr":"No","id":"abjw6u1sscv9","address":"625 W HIHG","login":4193948616,"password":8616,"geo_precision":"street","state":"OH","pin":8616},"type":"Feature","geometry":{"type":"Point","coordinates":[-84.528387,40.543274]}},{"properties":{"city":"WPAKONETA","status":"Active","ppv":"Yes","zip":"45895","region":"Wapakoneta","service packages":"Basic Wapak,Music Wapak,Tier 2 Wapak,Expanded basic Wapak","township":null,"last":"SPRINGER","stbs allowed":5,"geo_score":0.488,"first":"TOM","ppv limit":"Unlimited","customer id":"20021295","phone":4197388345,"whdvr":"No","id":"abjw6ttwtal6","address":"18209 MUDSOCK RD","login":4197388345,"password":8345,"geo_precision":"zip","state":"OH","pin":8345},"type":"Feature","geometry":{"type":"Point","coordinates":[-84.152138,40.582252]}},{"properties":{"city":"ST MARYS","status":"Active","ppv":"Yes","zip":"45885","region":"St. Mary's","service packages":"Tier 2,Basic St marys,HD 1 St Marys,Music St Marys,Expanded Basic SM","township":null,"last":"SPURLOCK","stbs allowed":5,"geo_score":0.729,"first":"TOM","ppv limit":"Unlimited","customer id":"99310017125","phone":4193000618,"whdvr":"No","id":"abjw6tvfcdqg","address":"814 OIL","login":4193000618,"password":618,"geo_precision":"range","state":"OH","pin":618},"type":"Feature","geometry":{"type":"Point","coordinates":[-84.379117,40.549959]}},{"properties":{"city":"Lima","status":"Active","ppv":"Yes","zip":"45805","region":"Allen County","service packages":"Basic Allen,HD 1,Tier 2 Allen,Music Allen,Expanded Basic Allen","township":null,"last":"Sreenan","stbs allowed":5,"geo_score":0.709,"first":"Mary","ppv limit":"120","customer id":"99640033261","phone":4192222707,"whdvr":"No","id":"abjw6u5hfixh","address":"2998 Stoneybrook Dr","login":4192222707,"password":2707,"geo_precision":"street","state":"OH","pin":2707},"type":"Feature","geometry":{"type":"Point","coordinates":[-84.159419,40.703157]}},{"properties":{"city":"LIMA","status":"Active","ppv":"Yes","zip":"45801","region":"Allen County","service packages":"Basic Allen,Expanded Basic Allen","township":null,"last":"SRPS","stbs allowed":5,"geo_score":0.823,"first":"SRPS","ppv limit":"Unlimited","customer id":"00102684-2","phone":4199965163,"whdvr":"No","id":"abjw6u6vxlf8","address":"300 W MARKET","login":4199965163,"password":5163,"geo_precision":"range","state":"OH","pin":5163},"type":"Feature","geometry":{"type":"Point","coordinates":[-84.1085,40.740007]}},{"properties":{"city":"Wapakoneta","status":"Active","ppv":"Yes","zip":"45895","region":"Wapakoneta","service packages":"Basic Wapak,Music Wapak,Tier 2 Wapak,Expanded basic Wapak","township":null,"last":"Stauffer","stbs allowed":2,"geo_score":0.689,"first":"Doug","ppv limit":"Unlimited","customer id":"20025293","phone":4197399198,"whdvr":"No","id":"abjw6u65lmkw","address":"17443 Townline Lima Rd","login":4197399198,"password":9198,"geo_precision":"street","state":"OH","pin":9198},"type":"Feature","geometry":{"type":"Point","coordinates":[-84.107852,40.651122]}},{"properties":{"city":"Wapakoneta","status":"Active","ppv":"Yes","zip":"45895","region":"Wapakoneta","service packages":"Basic Wapak,Expanded basic Wapak","township":null,"last":"Steffen-Pulfer","stbs allowed":5,"geo_score":0.902,"first":"Teresa J","ppv limit":"Unlimited","customer id":"99560076250","phone":4197398857,"whdvr":"No","id":"abjw6u4a35wf","address":"8902 County Road 33A","login":4197398857,"password":8857,"geo_precision":"range","state":"OH","pin":8857},"type":"Feature","geometry":{"type":"Point","coordinates":[-84.288692,40.557466]}},{"properties":{"city":"ST MARYS","status":"Active","ppv":"Yes","zip":"45885","region":"St. Mary's","service packages":"Basic St marys,HBO St Marys,HD 1 St Marys,Expanded Basic SM","township":null,"last":"STEINBERG","stbs allowed":5,"geo_score":0.876,"first":"LISA","ppv limit":"Unlimited","customer id":"99310087739","phone":4193948512,"whdvr":"No","id":"abjw6u5mf0t6","address":"136 LAGO VUE CT","login":4193948512,"password":8512,"geo_precision":"range","state":"OH","pin":8512},"type":"Feature","geometry":{"type":"Point","coordinates":[-84.431463,40.511697]}},{"properties":{"city":"WAPAKONETA","status":"Active","ppv":"Yes","zip":"45895","region":"TSC Test","service packages":"Test TSC","township":null,"last":"STEINKE","stbs allowed":2,"geo_score":0.512,"first":"ALAN","ppv limit":"Unlimited","customer id":"20022058","phone":4197389375,"whdvr":"No","id":"abjw6tw2v207","address":"15274 FOX RANCH RD","login":4197389375,"password":9375,"geo_precision":"street","state":"OH","pin":9375},"type":"Feature","geometry":{"type":"Point","coordinates":[-84.425423,40.622513]}},{"properties":{"city":"WAPAKONETA","status":"Active","ppv":"Yes","zip":"45895","region":"Wapakoneta","service packages":"Basic Wapak,Expanded basic Wapak","township":null,"last":"STEINKE","stbs allowed":5,"geo_score":0.488,"first":"DALE G","ppv limit":"120","customer id":"00034599-3","phone":4197387950,"whdvr":"No","id":"abjw6u92x85m","address":"17782 MUDSOCK RD","login":4197387950,"password":7950,"geo_precision":"zip","state":"OH","pin":7950},"type":"Feature","geometry":{"type":"Point","coordinates":[-84.152138,40.582252]}},{"properties":{"city":"ST MARYS","status":"Active","ppv":"Yes","zip":"45885","region":"St. Mary's","service packages":"Tier 2,Basic St marys,HD 1 St Marys,HD 2 St Marys,Music St Marys,Expanded Basic SM","township":null,"last":"STEPHENS","stbs allowed":5,"geo_score":0.788,"first":"STACEY","ppv limit":"Unlimited","customer id":"99740006824","phone":4193009713,"whdvr":"No","id":"abjw6ttbdd4e","address":"814 EDWARDS","login":4193009713,"password":9713,"geo_precision":"range","state":"OH","pin":9713},"type":"Feature","geometry":{"type":"Point","coordinates":[-84.399466,40.545752]}},{"properties":{"city":"ST MARYS","status":"Active","ppv":"Yes","zip":"45885","region":"St. Mary's","service packages":"ENC/Starz,Basic St marys,HD 1 St Marys,Expanded Basic SM","township":null,"last":"STINES","stbs allowed":5,"geo_score":0.766,"first":"JUNIOR","ppv limit":"Unlimited","customer id":"99740011321","phone":4193000041,"whdvr":"No","id":"abjw6u0vawb1","address":"1106 ROBIN","login":4193000041,"password":41,"geo_precision":"range","state":"OH","pin":41},"type":"Feature","geometry":{"type":"Point","coordinates":[-84.405361,40.549539]}},{"properties":{"city":"ST MARYS","status":"Active","ppv":"Yes","zip":"45885","region":"St. Mary's","service packages":"Tier 2,Basic St marys,HD 1 St Marys,Music St Marys,Expanded Basic SM","township":null,"last":"STIRN","stbs allowed":5,"geo_score":0.778,"first":"REBECCA","ppv limit":"Unlimited","customer id":"98640003912","phone":4199532006,"whdvr":"No","id":"abjw6u7aby0x","address":"147 WATERCREST","login":4199532006,"password":2006,"geo_precision":"range","state":"OH","pin":2006},"type":"Feature","geometry":{"type":"Point","coordinates":[-84.429839,40.546093]}},{"properties":{"city":"WAPAKONETA","status":"Active","ppv":"Yes","zip":"45895","region":"Wapakoneta","service packages":"Basic Wapak,Music Wapak,Tier 2 Wapak,Expanded basic Wapak","township":null,"last":"STOMBAUGH","stbs allowed":5,"geo_score":0.805,"first":"ROBERT","ppv limit":"Unlimited","customer id":"99310134983","phone":4197381789,"whdvr":"No","id":"abjw6tw5oxcb","address":"17886 ST RT 67","login":4197381789,"password":1789,"geo_precision":"range","state":"OH","pin":1789},"type":"Feature","geometry":{"type":"Point","coordinates":[-84.10851,40.599768]}},{"properties":{"city":"WAPAKONETA","status":"Active","ppv":"Yes","zip":"45895","region":"Wapakoneta","service packages":"Basic Wapak,HD 1 Wapak,Expanded basic Wapak","township":null,"last":"SUDMAN","stbs allowed":7,"geo_score":0.716,"first":"JOHN","ppv limit":"Unlimited","customer id":"20020448","phone":4197387225,"whdvr":"No","id":"abjw6u6khjbn","address":"16920 N DIXIE 25A","login":4197387225,"password":7225,"geo_precision":"range","state":"OH","pin":7225},"type":"Feature","geometry":{"type":"Point","coordinates":[-84.160777,40.601874]}},{"properties":{"city":"ST MARYS","status":"Active","ppv":"Yes","zip":"45885","region":"St. Mary's","service packages":"ENC/Starz,Basic St marys,HD 1 St Marys,Expanded Basic SM","township":null,"last":"TAYLOR","stbs allowed":5,"geo_score":0.796,"first":"CURT","ppv limit":"Unlimited","customer id":"99310013138","phone":4193009276,"whdvr":"No","id":"abjw6u25a9b8","address":"526 W SPRING","login":4193009276,"password":9276,"geo_precision":"range","state":"OH","pin":9276},"type":"Feature","geometry":{"type":"Point","coordinates":[-84.393325,40.541193]}},{"properties":{"city":"LIMA","status":"Active","ppv":"Yes","zip":"45805","region":"Allen County","service packages":"Basic Allen,Expanded Basic Allen","township":null,"last":"TERVEER DDS","stbs allowed":5,"geo_score":0.902,"first":"DR MICHAEL","ppv limit":"Unlimited","customer id":"00112416-9","phone":4192228243,"whdvr":"No","id":"abjw6tu3hnk2","address":"1331 W MARKET ST","login":4192228243,"password":8243,"geo_precision":"range","state":"OH","pin":8243},"type":"Feature","geometry":{"type":"Point","coordinates":[-84.131519,40.73994]}},{"properties":{"city":"WAPAKONETA","status":"Active","ppv":"Yes","zip":"45895","region":"Wapakoneta","service packages":"Basic Wapak,Music Wapak,Tier 2 Wapak,Expanded basic Wapak","township":null,"last":"TESTER","stbs allowed":5,"geo_score":0.902,"first":"JOSHUA","ppv limit":"Unlimited","customer id":"99260097036","phone":4197384736,"whdvr":"No","id":"abjw6tv8friw","address":"13904 BAY RD","login":4197384736,"password":4736,"geo_precision":"range","state":"OH","pin":4736},"type":"Feature","geometry":{"type":"Point","coordinates":[-84.277787,40.551327]}},{"properties":{"city":"Wapak","status":"Active","ppv":"Yes","zip":"45895","region":"Wapakoneta","service packages":"Basic Wapak,Music Wapak","township":null,"last":"TESTINGG","stbs allowed":5,"geo_score":0.496,"first":"CNI3","ppv limit":"Unlimited","customer id":null,"phone":4197393124,"whdvr":"No","id":"abjw6ttbi463","address":"555 PVR Better Work St.","login":null,"password":null,"geo_precision":"street","state":"OH","pin":null},"type":"Feature","geometry":{"type":"Point","coordinates":[-83.684508,41.077366]}},{"properties":{"city":"Lima","status":"Active","ppv":"Yes","zip":"45805","region":"Allen County","service packages":"Basic Allen,Tier 2 Allen,Music Allen,Expanded Basic Allen","township":null,"last":"Tribolet","stbs allowed":5,"geo_score":0.477,"first":"Lynda","ppv limit":"Unlimited","customer id":"00089628-4","phone":4192271877,"whdvr":"No","id":"abjw6u4zvj87","address":"2935 Fort Amanda Rd","login":4192271877,"password":1877,"geo_precision":"street","state":"OH","pin":1877},"type":"Feature","geometry":{"type":"Point","coordinates":[-84.119924,40.736008]}},{"properties":{"city":"ST MARYS","status":"Active","ppv":"Yes","zip":"45885","region":"St. Mary's","service packages":"Tier 2,Basic St marys,HD 1 St Marys,Music St Marys,Expanded Basic SM","township":null,"last":"TRIPLETT","stbs allowed":5,"geo_score":0.488,"first":"MATT","ppv limit":"Unlimited","customer id":"99560015576","phone":4193947059,"whdvr":"No","id":"abjw6twcbka5","address":"809 MAGNOLIA","login":4193947059,"password":7059,"geo_precision":"street","state":"OH","pin":7059},"type":"Feature","geometry":{"type":"Point","coordinates":[-83.846569,40.703371]}},{"properties":{"city":"LIMA","status":"Active","ppv":"Yes","zip":"45806","region":"Allen County","service packages":"HBO Allen,Basic Allen,HD 1,HD 2,Tier 2 Allen,Music Allen,Expanded Basic Allen","township":null,"last":"TRUESDALE JR","stbs allowed":5,"geo_score":0.902,"first":"JOHN","ppv limit":"Unlimited","customer id":"20015673","phone":4196456539,"whdvr":"No","id":"abjw6twpzboh","address":"1835 HUNTINGTON DR","login":4196456539,"password":6539,"geo_precision":"range","state":"OH","pin":6539},"type":"Feature","geometry":{"type":"Point","coordinates":[-84.135353,40.660508]}},{"properties":{"city":"Wapakoneta","status":"Active","ppv":"Yes","zip":"45895","region":"TSC Test","service packages":"Test TSC","township":null,"last":"TSC","stbs allowed":15,"geo_score":0.902,"first":"Lab","ppv limit":"Unlimited","customer id":"20023831","phone":4197392461,"whdvr":"No","id":"abjw6u1erpgb","address":"2 Willipie St.","login":2259,"password":2259,"geo_precision":"range","state":"OH","pin":2259},"type":"Feature","geometry":{"type":"Point","coordinates":[-84.193981,40.570562]}},{"properties":{"city":"Wapakoneta","status":"Active","ppv":"Yes","zip":"45895","region":"Wapakoneta","service packages":"Basic Wapak,Music Wapak,Tier 2 Wapak,HD 1 Wapak,HD 2 Wapak,Expanded basic Wapak","township":null,"last":"TSC","stbs allowed":10,"geo_score":0.902,"first":"HD Lounge","ppv limit":"Unlimited","customer id":null,"phone":4197392200,"whdvr":"Yes","id":"abjw6u6uvmhs","address":"2 Willipie St.","login":4197392200,"password":2200,"geo_precision":"range","state":"OH","pin":2200},"type":"Feature","geometry":{"type":"Point","coordinates":[-84.193981,40.570562]}},{"properties":{"city":"Cridersville","status":"Active","ppv":"Yes","zip":"45806","region":"TSC Test","service packages":"Test TSC","township":null,"last":"TSC","stbs allowed":5,"geo_score":0.857,"first":"Cridersville CO","ppv limit":"Unlimited","customer id":null,"phone":4196454091,"whdvr":"No","id":"abjw6u5vrulx","address":"N Waverly St","login":4196450000,"password":0,"geo_precision":"street","state":"OH","pin":0},"type":"Feature","geometry":{"type":"Point","coordinates":[-84.142245,40.655285]}},{"properties":{"city":"Wapakoneta","status":"Active","ppv":"Yes","zip":"45895","region":"Wapakoneta","service packages":"Basic Wapak,Music Wapak,Tier 2 Wapak,HD 1 Wapak,HD 2 Wapak,Expanded basic Wapak,Showtime w/HD,Showtime Unlimited,Total HBO","township":null,"last":"TSC","stbs allowed":20,"geo_score":0.902,"first":"PSC","ppv limit":"Unlimited","customer id":null,"phone":4197392103,"whdvr":"No","id":"abjw6tutldun","address":"402 Industrial Dr","login":2103,"password":2103,"geo_precision":"range","state":"OH","pin":2103},"type":"Feature","geometry":{"type":"Point","coordinates":[-84.18849,40.558418]}},{"properties":{"city":"St. Marys","status":"Active","ppv":"Yes","zip":"45885","region":"St. Mary's","service packages":"Tier 2,Basic St marys,HD 1 St Marys,HD 2 St Marys,Music St Marys,Expanded Basic SM","township":null,"last":"TSC","stbs allowed":3,"geo_score":0.714,"first":"St Marys","ppv limit":"Unlimited","customer id":null,"phone":4193002499,"whdvr":"No","id":"abjw6u2k67vd","address":"155 E. High Street","login":4193002499,"password":2499,"geo_precision":"zip","state":"OH","pin":2499},"type":"Feature","geometry":{"type":"Point","coordinates":[-84.424675,40.545325]}},{"properties":{"city":"Wapak","status":"Active","ppv":"Yes","zip":"45895","region":"Wapakoneta","service packages":"TSC TEST,Basic Wapak,Music Wapak,Enc/Starz,Tier 2 Wapak,HBO Wapak,HD 1 Wapak,HD 2 Wapak,Showtime Wapak,Expanded basic Wapak,Showtime w/HD,Showtime wo/HD,Stars Super Pack,Showtime Unlimited,Total HBO,NFL RedZone","township":null,"last":"TSC","stbs allowed":10,"geo_score":0.854,"first":"NOC","ppv limit":"Unlimited","customer id":null,"phone":4197392218,"whdvr":"No","id":"abjw6u6m3lfw","address":"2 Willipie St","login":4197392218,"password":2218,"geo_precision":"range","state":"OH","pin":2218},"type":"Feature","geometry":{"type":"Point","coordinates":[-84.193981,40.570562]}},{"properties":{"city":"WAPAKONETA","status":"Active","ppv":"Yes","zip":"45895","region":"TSC Test","service packages":"HD1 TSC,HD2 TSC,Test TSC","township":null,"last":"TSC TELEVISION","stbs allowed":5,"geo_score":0.902,"first":"TSCTV","ppv limit":"Unlimited","customer id":"20022520","phone":4197392100,"whdvr":"Yes","id":"abjw6ttkjfgm","address":"2 WILLIPIE ST","login":4197392100,"password":2100,"geo_precision":"range","state":"OH","pin":2100},"type":"Feature","geometry":{"type":"Point","coordinates":[-84.193981,40.570562]}},{"properties":{"city":"Wapakoneta","status":"Active","ppv":"Yes","zip":"45895","region":"St. Mary's","service packages":"ENC/Starz,Tier 2,Basic St marys,HBO St Marys,HD 1 St Marys,HD 2 St Marys,Music St Marys,Showtime St Marys,Expanded Basic SM","township":null,"last":"TSC VIDEO LAB","stbs allowed":5,"geo_score":0.823,"first":"ST MARYS","ppv limit":"Unlimited","customer id":null,"phone":4197392471,"whdvr":"No","id":"abjw6u0l31kz","address":"2 Willipie","login":4197392471,"password":2471,"geo_precision":"range","state":"OH","pin":2471},"type":"Feature","geometry":{"type":"Point","coordinates":[-84.193981,40.570562]}},{"properties":{"city":"Wapakoneta","status":"Active","ppv":"Yes","zip":"45895","region":"Allen County","service packages":"HBO Allen,Showtime Allen,Ecn/Starz Allen,Basic Allen,HD 1,HD 2,Tier 2 Allen,Music Allen,Expanded Basic Allen","township":null,"last":"TSC Video Lab","stbs allowed":5,"geo_score":0.823,"first":"Allen County","ppv limit":"Unlimited","customer id":null,"phone":4197392472,"whdvr":"No","id":"abjw6u5v5se0","address":"2 Willipie","login":4197392472,"password":2472,"geo_precision":"range","state":"OH","pin":2472},"type":"Feature","geometry":{"type":"Point","coordinates":[-84.193981,40.570562]}},{"properties":{"city":"WAPAKONETA","status":"Active","ppv":"Yes","zip":"45895","region":"Wapakoneta","service packages":"Basic Wapak,HD 1 Wapak,Expanded basic Wapak","township":null,"last":"TURNER","stbs allowed":5,"geo_score":0.636,"first":"BOB","ppv limit":"Unlimited","customer id":"99430076488","phone":4197398776,"whdvr":"No","id":"abjw6tvireog","address":"202 EASTOWN DR APT 21","login":4197398776,"password":8776,"geo_precision":"street","state":"OH","pin":8776},"type":"Feature","geometry":{"type":"Point","coordinates":[-84.176463,40.568128]}},{"properties":{"city":"ST MARYS","status":"Active","ppv":"No","zip":"45885","region":"St. Mary's","service packages":"ENC/Starz,Tier 2,Basic St marys,HBO St Marys,HD 1 St Marys,HD 2 St Marys,Music St Marys,Showtime St Marys,Expanded Basic SM,NFL RedZone","township":null,"last":"TURNER","stbs allowed":5,"geo_score":0.876,"first":"CLIFFORD","ppv limit":"Unlimited","customer id":"99560004982","phone":4193947192,"whdvr":"No","id":"abjw6u5ugpwc","address":"321 CONCORD AVE","login":4193947192,"password":7192,"geo_precision":"range","state":"OH","pin":7192},"type":"Feature","geometry":{"type":"Point","coordinates":[-84.400894,40.54332]}},{"properties":{"city":"Wapakoneta","status":"Active","ppv":"Yes","zip":"45895","region":"Wapakoneta","service packages":"Basic Wapak,Expanded basic Wapak,Stars Super Pack SD only","township":null,"last":"Tuttle","stbs allowed":5,"geo_score":0.78,"first":"Thomas","ppv limit":"Unlimited","customer id":"20021499","phone":4197388600,"whdvr":"No","id":"abjw6tvqo7az","address":"14329 Bay Rd","login":4197388600,"password":8600,"geo_precision":"range","state":"OH","pin":8600},"type":"Feature","geometry":{"type":"Point","coordinates":[-84.277739,40.562574]}},{"properties":{"city":"LIMA","status":"Active","ppv":"Yes","zip":"45805","region":"Allen County","service packages":"Basic Allen,HD 1,Tier 2 Allen,Music Allen,Expanded Basic Allen","township":null,"last":"ULM","stbs allowed":5,"geo_score":0.711,"first":"MICHAEL","ppv limit":"120","customer id":"99420150920","phone":4192342814,"whdvr":"No","id":"abjw6tynnlmq","address":"2956 STONEYBROOK DR","login":4192342814,"password":2814,"geo_precision":"street","state":"OH","pin":2814},"type":"Feature","geometry":{"type":"Point","coordinates":[-84.159419,40.703157]}},{"properties":{"city":"ST MARYS","status":"Active","ppv":"Yes","zip":"45885","region":"St. Mary's","service packages":"Tier 2,Basic St marys,HD 1 St Marys,Music St Marys,Expanded Basic SM","township":null,"last":"VANDERHORST","stbs allowed":5,"geo_score":0.778,"first":"MICHAEL","ppv limit":"Unlimited","customer id":"99740014264","phone":4197334577,"whdvr":"No","id":"abjw6tt6vido","address":"708 S MAIN","login":4197334577,"password":4577,"geo_precision":"range","state":"OH","pin":4577},"type":"Feature","geometry":{"type":"Point","coordinates":[-84.384459,40.533159]}},{"properties":{"city":"WAPAKONETA","status":"Active","ppv":"Yes","zip":"45895","region":"Wapakoneta","service packages":"Basic Wapak,Expanded basic Wapak","township":null,"last":"VAUBEL","stbs allowed":1,"geo_score":0.902,"first":"PETE","ppv limit":"120","customer id":"00094235-0","phone":4197381084,"whdvr":"No","id":"abjw6u7bhf4q","address":"10390 COUNTY ROAD 25A","login":4197381084,"password":1084,"geo_precision":"range","state":"OH","pin":1084},"type":"Feature","geometry":{"type":"Point","coordinates":[-84.186316,40.502443]}},{"properties":{"city":"WAPAKONETA","status":"Active","ppv":"Yes","zip":"45895","region":"Wapakoneta","service packages":"Basic Wapak,Expanded basic Wapak","township":null,"last":"WAGNER","stbs allowed":5,"geo_score":0.805,"first":"GEORGE E","ppv limit":"Unlimited","customer id":"1558","phone":4197382225,"whdvr":"No","id":"abjw6u451932","address":"17231 ST RT 67","login":4197382225,"password":2225,"geo_precision":"range","state":"OH","pin":2225},"type":"Feature","geometry":{"type":"Point","coordinates":[-84.125504,40.5997]}},{"properties":{"city":"ST MARYS","status":"Active","ppv":"Yes","zip":"45885","region":"St. Mary's","service packages":"Tier 2,Basic St marys,HD 1 St Marys,Music St Marys,Expanded Basic SM","township":null,"last":"WALE","stbs allowed":5,"geo_score":0.876,"first":"KIMMER","ppv limit":"Unlimited","customer id":"99310018869","phone":4193009611,"whdvr":"No","id":"abjw6u5zlgbr","address":"614 CAMDEN AVE","login":4193009611,"password":9611,"geo_precision":"range","state":"OH","pin":9611},"type":"Feature","geometry":{"type":"Point","coordinates":[-84.399237,40.554521]}},{"properties":{"city":"ST MARYS","status":"Active","ppv":"Yes","zip":"45885","region":"St. Mary's","service packages":"Tier 2,Basic St marys,HBO St Marys,HD 1 St Marys,HD 2 St Marys,Music St Marys,Expanded Basic SM","township":null,"last":"WALE","stbs allowed":5,"geo_score":0.876,"first":"DEAN","ppv limit":"Unlimited","customer id":"99310076129","phone":4193009957,"whdvr":"No","id":"abjw6u8y63nv","address":"621 INDIANA AVE","login":4193009957,"password":9957,"geo_precision":"range","state":"OH","pin":9957},"type":"Feature","geometry":{"type":"Point","coordinates":[-84.397824,40.546888]}},{"properties":{"city":"Wapakoneta","status":"Active","ppv":"Yes","zip":"45855","region":"Wapakoneta","service packages":"Basic Wapak,Expanded basic Wapak","township":null,"last":"Walters","stbs allowed":5,"geo_score":0.799,"first":"Harmon","ppv limit":"Unlimited","customer id":"00101408-6","phone":4197381286,"whdvr":"No","id":"abjw6ttmw5bp","address":"402 Ashland Ave Apt B8","login":4197381286,"password":1286,"geo_precision":"range","state":"OH","pin":1286},"type":"Feature","geometry":{"type":"Point","coordinates":[-84.199885,40.558595]}},{"properties":{"city":"WAPAKONETA","status":"Active","ppv":"Yes","zip":"45895","region":"Wapakoneta","service packages":"Basic Wapak","township":null,"last":"WAPAKONETA PUBLIC","stbs allowed":5,"geo_score":0.488,"first":"WORKS DEPT","ppv limit":"Unlimited","customer id":"00043183-0","phone":4197383223,"whdvr":"No","id":"abjw6tvss3mf","address":"110 E HARRISION","login":4197383223,"password":3223,"geo_precision":"zip","state":"OH","pin":3223},"type":"Feature","geometry":{"type":"Point","coordinates":[-84.152138,40.582252]}},{"properties":{"city":"WAPAKONETA","status":"Active","ppv":"Yes","zip":"45895","region":"Wapakoneta","service packages":"Basic Wapak,Music Wapak,Tier 2 Wapak,Expanded basic Wapak","township":null,"last":"WARD","stbs allowed":1,"geo_score":0.744,"first":"CHELSEA L","ppv limit":"Unlimited","customer id":"00098336-0","phone":4197398957,"whdvr":"No","id":"abjw6u3eg1n1","address":"402 ASHLAND AVE BLDG C APT 7","login":4197398957,"password":8957,"geo_precision":"range","state":"OH","pin":8957},"type":"Feature","geometry":{"type":"Point","coordinates":[-84.199885,40.558595]}},{"properties":{"city":"WAPAKONETA","status":"Active","ppv":"Yes","zip":"45895","region":"Wapakoneta","service packages":"Basic Wapak,Music Wapak,Tier 2 Wapak,Expanded basic Wapak","township":null,"last":"WATSON","stbs allowed":5,"geo_score":0.902,"first":"JAMES L","ppv limit":"Unlimited","customer id":"20017939","phone":4197383974,"whdvr":"No","id":"abjw6u8oe9id","address":"15099 BAY RD","login":4197383974,"password":3974,"geo_precision":"range","state":"OH","pin":3974},"type":"Feature","geometry":{"type":"Point","coordinates":[-84.277718,40.56697]}},{"properties":{"city":"WAPAKONETA","status":"Active","ppv":"Yes","zip":"45895","region":"Wapakoneta","service packages":"Basic Wapak,Music Wapak,Tier 2 Wapak,Expanded basic Wapak","township":null,"last":"WEBB","stbs allowed":5,"geo_score":0.805,"first":"RALPH D","ppv limit":"Unlimited","customer id":"20019539","phone":4197386122,"whdvr":"No","id":"abjw6u1acu5s","address":"16982 ST RT 67","login":4197386122,"password":6122,"geo_precision":"range","state":"OH","pin":6122},"type":"Feature","geometry":{"type":"Point","coordinates":[-84.130391,40.599454]}},{"properties":{"city":"WAPAKONETA","status":"Active","ppv":"Yes","zip":"45895","region":"Wapakoneta","service packages":"Basic Wapak,Expanded basic Wapak","township":null,"last":"WEBB","stbs allowed":5,"geo_score":0.567,"first":"DONALD W","ppv limit":"Unlimited","customer id":"20017184","phone":4197383048,"whdvr":"No","id":"abjw6u49x73a","address":"16720 TOWNLINE LIMA RD","login":4197383048,"password":3048,"geo_precision":"street","state":"OH","pin":3048},"type":"Feature","geometry":{"type":"Point","coordinates":[-84.107852,40.651122]}},{"properties":{"city":"Wapakoneta","status":"Active","ppv":"Yes","zip":"45895","region":"Wapakoneta","service packages":"Basic Wapak,Music Wapak,Tier 2 Wapak,Expanded basic Wapak","township":null,"last":"Werling","stbs allowed":5,"geo_score":0.902,"first":"Harry G","ppv limit":"Unlimited","customer id":"00045859-1","phone":4197386693,"whdvr":"No","id":"abjw6u128v0e","address":"18026 Town Line Road","login":4197386693,"password":6693,"geo_precision":"range","state":"OH","pin":6693},"type":"Feature","geometry":{"type":"Point","coordinates":[-84.107566,40.61736]}},{"properties":{"city":"WAPAKONETA","status":"Active","ppv":"Yes","zip":"45895","region":"Wapakoneta","service packages":"Basic Wapak,Music Wapak,HD 1 Wapak,Expanded basic Wapak","township":null,"last":"WHITE","stbs allowed":5,"geo_score":0.716,"first":"GARY","ppv limit":"Unlimited","customer id":"20020101","phone":4197386806,"whdvr":"No","id":"abjw6u2jsvx2","address":"18825 N DIXIE 25A","login":4197386806,"password":6806,"geo_precision":"range","state":"OH","pin":6806},"type":"Feature","geometry":{"type":"Point","coordinates":[-84.147287,40.622685]}},{"properties":{"city":"ST MARYS","status":"Active","ppv":"Yes","zip":"45885","region":"St. Mary's","service packages":"Tier 2,Basic St marys,HD 1 St Marys,Music St Marys,Expanded Basic SM","township":null,"last":"WIBBELER","stbs allowed":5,"geo_score":0.778,"first":"GARY","ppv limit":"Unlimited","customer id":"98640008593","phone":4193942595,"whdvr":"No","id":"abjw6u1canb2","address":"701 OLIVER","login":4193942595,"password":2595,"geo_precision":"range","state":"OH","pin":2595},"type":"Feature","geometry":{"type":"Point","coordinates":[-84.393886,40.536581]}},{"properties":{"city":"ST MARYS","status":"Active","ppv":"Yes","zip":"45885","region":"St. Mary's","service packages":"ENC/Starz,Tier 2,Basic St marys,HD 1 St Marys,Music St Marys,Expanded Basic SM","township":null,"last":"WICKER","stbs allowed":5,"geo_score":0.808,"first":"ED","ppv limit":"Unlimited","customer id":"99310022704","phone":4193008393,"whdvr":"No","id":"abjw6tsp6eiu","address":"126 N AUGUSTUS","login":4193008393,"password":8393,"geo_precision":"range","state":"OH","pin":8393},"type":"Feature","geometry":{"type":"Point","coordinates":[-84.398402,40.539564]}},{"properties":{"city":"ST MARYS","status":"Active","ppv":"Yes","zip":"45885","region":"St. Mary's","service packages":"Tier 2,Basic St marys,HD 1 St Marys,Music St Marys,Expanded Basic SM","township":null,"last":"WIEHE","stbs allowed":5,"geo_score":0.671,"first":"DENNIS","ppv limit":"Unlimited","customer id":"99740011229","phone":4193945844,"whdvr":"No","id":"abjw6u2ec7w5","address":"801 W SOUTH","login":4193945844,"password":5844,"geo_precision":"range","state":"OH","pin":5844},"type":"Feature","geometry":{"type":"Point","coordinates":[-84.395733,40.539009]}},{"properties":{"city":"ST MARYS","status":"Active","ppv":"Yes","zip":"45885","region":"St. Mary's","service packages":"ENC/Starz,Tier 2,Basic St marys,HD 1 St Marys,Music St Marys,Expanded Basic SM","township":null,"last":"WILLIAMS","stbs allowed":5,"geo_score":0.796,"first":"DANIEL","ppv limit":"Unlimited","customer id":"20028972","phone":4193000860,"whdvr":"No","id":"abjw6twv5g1m","address":"327 N SPRUCE","login":4193000860,"password":860,"geo_precision":"range","state":"OH","pin":860},"type":"Feature","geometry":{"type":"Point","coordinates":[-84.38511,40.54757]}},{"properties":{"city":"WAPAKONETA","status":"Active","ppv":"Yes","zip":"45895","region":"Wapakoneta","service packages":"Basic Wapak","township":null,"last":"WILLIAMS","stbs allowed":5,"geo_score":0.812,"first":"K M","ppv limit":"Unlimited","customer id":null,"phone":4197382281,"whdvr":"No","id":"abjw6u00gik0","address":"402 ASHLAND APT G3","login":4197382281,"password":2281,"geo_precision":"range","state":"OH","pin":2281},"type":"Feature","geometry":{"type":"Point","coordinates":[-84.199885,40.558595]}},{"properties":{"city":"ST MARYS","status":"Active","ppv":"Yes","zip":"45885","region":"St. Mary's","service packages":"Tier 2,Basic St marys,HD 1 St Marys,HD 2 St Marys,Music St Marys,Expanded Basic SM","township":null,"last":"WILSON","stbs allowed":5,"geo_score":0.642,"first":"ERIC","ppv limit":"Unlimited","customer id":"99310043049","phone":4193008555,"whdvr":"No","id":"abjw6u0ego3b","address":"109 OAKWOOD","login":4193008555,"password":8555,"geo_precision":"street","state":"OH","pin":8555},"type":"Feature","geometry":{"type":"Point","coordinates":[-84.35015,40.546364]}},{"properties":{"city":"Wapakoneta","status":"Active","ppv":"Yes","zip":"45895","region":"Wapakoneta","service packages":"Basic Wapak,Music Wapak,Tier 2 Wapak,Expanded basic Wapak","township":null,"last":"WINGET","stbs allowed":2,"geo_score":0.902,"first":"ALICIA","ppv limit":"Unlimited","customer id":"20016320","phone":4197381810,"whdvr":"No","id":"abjw6u8w1i1u","address":"16946 Blank Pike","login":4197381810,"password":1810,"geo_precision":"range","state":"OH","pin":1810},"type":"Feature","geometry":{"type":"Point","coordinates":[-84.129441,40.58492]}},{"properties":{"city":"ST MARYS","status":"Active","ppv":"Yes","zip":"45885","region":"St. Mary's","service packages":"ENC/Starz,Tier 2,Basic St marys,HBO St Marys,HD 1 St Marys,Music St Marys,Showtime St Marys,Expanded Basic SM","township":null,"last":"WINGET","stbs allowed":5,"geo_score":0.788,"first":"JAMES","ppv limit":"Unlimited","customer id":"99560006172","phone":4193942830,"whdvr":"No","id":"abjw6u1vk31w","address":"417 N WAYNE","login":4193942830,"password":2830,"geo_precision":"range","state":"OH","pin":2830},"type":"Feature","geometry":{"type":"Point","coordinates":[-84.394311,40.545762]}},{"properties":{"city":"LIMA","status":"Active","ppv":"Yes","zip":"45805","region":"Allen County","service packages":"Basic Allen,HD 1,Tier 2 Allen,Music Allen,Expanded Basic Allen","township":null,"last":"WISSER","stbs allowed":5,"geo_score":0.616,"first":"ROMI","ppv limit":"120","customer id":"99640034457","phone":4199910912,"whdvr":"Yes","id":"abjw6u18hfzk","address":"2980 MORNING SUN DR","login":4199910912,"password":912,"geo_precision":"street","state":"OH","pin":912},"type":"Feature","geometry":{"type":"Point","coordinates":[-83.973789,40.609857]}},{"properties":{"city":"LIMA","status":"Active","ppv":"Yes","zip":"45801","region":"Allen County","service packages":"Basic Allen,HD 1,Tier 2 Allen,Music Allen,Expanded Basic Allen","township":null,"last":"WLIO","stbs allowed":5,"geo_score":0.902,"first":"WLIO","ppv limit":"Unlimited","customer id":"99420120813","phone":4192297091,"whdvr":"No","id":"abjw6u5vr114","address":"1424 RICE AVE","login":4192297091,"password":7091,"geo_precision":"range","state":"OH","pin":7091},"type":"Feature","geometry":{"type":"Point","coordinates":[-84.132335,40.747254]}},{"properties":{"city":"ST MARYS","status":"Active","ppv":"Yes","zip":"45885","region":"St. Mary's","service packages":"Tier 2,Basic St marys,HBO St Marys,HD 1 St Marys,Music St Marys,Expanded Basic SM","township":null,"last":"WOLFE","stbs allowed":5,"geo_score":0.754,"first":"ERNEST","ppv limit":"Unlimited","customer id":"99740023589","phone":4193944785,"whdvr":"No","id":"abjw6ty4k2sy","address":"910 HEATHER DR","login":4193944785,"password":4785,"geo_precision":"range","state":"OH","pin":4785},"type":"Feature","geometry":{"type":"Point","coordinates":[-84.408956,40.547895]}},{"properties":{"city":"ST MARYS","status":"Active","ppv":"Yes","zip":"45885","region":"St. Mary's","service packages":"ENC/Starz,Basic St marys,HD 1 St Marys,Expanded Basic SM","township":null,"last":"WOLFE","stbs allowed":5,"geo_score":0.488,"first":"JERRY","ppv limit":"Unlimited","customer id":"00030558-6","phone":4193944509,"whdvr":"No","id":"abjw6tvko2vr","address":"124 S BUCKEYE","login":4193944509,"password":4509,"geo_precision":"zip","state":"OH","pin":4509},"type":"Feature","geometry":{"type":"Point","coordinates":[-84.424675,40.545325]}},{"properties":{"city":"ST MARYS","status":"Active","ppv":"Yes","zip":"45885","region":"St. Mary's","service packages":"Tier 2,Basic St marys,HD 1 St Marys,HD 2 St Marys,Music St Marys,Expanded Basic SM","township":null,"last":"WRIGHT","stbs allowed":5,"geo_score":0.876,"first":"ANTHONY","ppv limit":"Unlimited","customer id":"99310023339","phone":4197336193,"whdvr":"No","id":"abjw6tw430rw","address":"128 WINDSOR DR","login":4197336193,"password":6193,"geo_precision":"range","state":"OH","pin":6193},"type":"Feature","geometry":{"type":"Point","coordinates":[-84.406258,40.541806]}},{"properties":{"city":"Wapakoneta","status":"Active","ppv":"Yes","zip":"45895","region":"Wapakoneta","service packages":"Basic Wapak,Music Wapak,Tier 2 Wapak,HBO Wapak,Expanded basic Wapak","township":null,"last":"Yahl","stbs allowed":5,"geo_score":0.902,"first":"Michael","ppv limit":"Unlimited","customer id":"20018177","phone":4197384268,"whdvr":"No","id":"abjw6tw12p2l","address":"16497 Pusheta Rd","login":4268,"password":4268,"geo_precision":"range","state":"OH","pin":4268},"type":"Feature","geometry":{"type":"Point","coordinates":[-84.138289,40.526359]}},{"properties":{"city":"Wapakoneta","status":"Active","ppv":"Yes","zip":"45895","region":"Wapakoneta","service packages":"Basic Wapak,Music Wapak,Tier 2 Wapak,Expanded basic Wapak","township":null,"last":"Yocum","stbs allowed":5,"geo_score":0.854,"first":"Trell","ppv limit":"Unlimited","customer id":"20021741","phone":4197388913,"whdvr":"No","id":"abjw6u6tl2h7","address":"12146 Canning Factory","login":4197388913,"password":8913,"geo_precision":"range","state":"OH","pin":8913},"type":"Feature","geometry":{"type":"Point","coordinates":[-84.217591,40.554908]}},{"properties":{"city":"WAPAKONETA","status":"Active","ppv":"Yes","zip":"45895","region":"Wapakoneta","service packages":"Basic Wapak,Expanded basic Wapak","township":null,"last":"ZACHARIAH","stbs allowed":5,"geo_score":0.823,"first":"DOUGLAS","ppv limit":"Unlimited","customer id":"00109858-6","phone":4197398815,"whdvr":"No","id":"abjw6u5qs0xp","address":"402 ASHLAND C9","login":4197398815,"password":8815,"geo_precision":"range","state":"OH","pin":8815},"type":"Feature","geometry":{"type":"Point","coordinates":[-84.199885,40.558595]}},{"properties":{"city":"WAPAKONETA","status":"Active","ppv":"Yes","zip":"45895","region":"Wapakoneta","service packages":"Basic Wapak,Tier 2 Wapak,Expanded basic Wapak","township":null,"last":"ZINK","stbs allowed":5,"geo_score":0.902,"first":"RALPH &amp; SUSAN","ppv limit":"Unlimited","customer id":"20021277","phone":4197388326,"whdvr":"No","id":"abjw6ttpsy05","address":"16030 MIDDLE PIKE","login":4197388326,"password":8326,"geo_precision":"range","state":"OH","pin":8326},"type":"Feature","geometry":{"type":"Point","coordinates":[-84.14165,40.570142]}},{"properties":{"city":"WAPAKONETA","status":"Active","ppv":"Yes","zip":"45895","region":"Wapakoneta","service packages":"Basic Wapak,Music Wapak,Tier 2 Wapak,HD 1 Wapak,Expanded basic Wapak","township":null,"last":"ZINK","stbs allowed":5,"geo_score":0.902,"first":"DON","ppv limit":"Unlimited","customer id":"20017719","phone":4197383696,"whdvr":"No","id":"abjw6u0qdw6u","address":"14244 INFIRMARY RD","login":4197383696,"password":3696,"geo_precision":"range","state":"OH","pin":3696},"type":"Feature","geometry":{"type":"Point","coordinates":[-84.172256,40.591793]}},{"properties":{"city":"CRIDERSVILLE","status":"Active","ppv":"Yes","zip":"45806","region":"Wapakoneta","service packages":"Basic Wapak,Music Wapak,Tier 2 Wapak,Expanded basic Wapak","township":null,"last":"ZWIEBEL","stbs allowed":5,"geo_score":0.498,"first":"JAMES","ppv limit":"Unlimited","customer id":"20014719","phone":4196454869,"whdvr":"No","id":"abjw6ty7jkjo","address":"19143 WAPAK CRIDERSVILLE RD","login":4196454869,"password":4869,"geo_precision":"street","state":"OH","pin":4869},"type":"Feature","geometry":{"type":"Point","coordinates":[-84.203539,40.66099]}},{"properties":{"city":"Wapakonet","status":"Active","ppv":"Yes","zip":"45895","region":"Wapakoneta","service packages":"Basic Wapak,Music Wapak,Tier 2 Wapak,Expanded basic Wapak","township":null,"last":"Zwiebel","stbs allowed":5,"geo_score":0.893,"first":"Jeffrey P","ppv limit":"Unlimited","customer id":"20019199","phone":4197385643,"whdvr":"No","id":"abjw6u53ddo4","address":"14002 Pusheta Rd","login":4197385643,"password":5643,"geo_precision":"range","state":"OH","pin":5643},"type":"Feature","geometry":{"type":"Point","coordinates":[-84.177685,40.526017]}}],"is_temporal":false,"author":{"url":null,"metadata":null,"contact_name":null,"contact_address":null,"source":null,"contact_phone":null},"source":null,"pagination":{"sort":null,"start":0,"total":329,"limit":1000000},"state":"complete","tags":"","published":"2014-08-16T16:01:21-04:00","id":312390}