{"type":"FeatureCollection","data_type":"Dataset","url_type":null,"permissions":[{"permissions":{"download":true,"view":true},"group_id":"everyone"}],"classification":null,"title":"Pantry","count":263,"stream_id":312396,"contributor":{"url":"http://geocommons.com/users/53425","name":"annanelsonNIFB"},"data_attributes":null,"calculation_params":null,"icon_link":null,"link":"http://geocommons.com/overlays/312396.json","extent":[-89.8222,41.0755,-87.6204,42.5692],"geometry_types":["point"],"unique_name":null,"name":"Pantry","feature_count":263,"description":"","next_feature":null,"is_raster":false,"short_classification":"Y","stats":{"co fip":{"max":201,"mean":111.889733840304,"variance":3476.71680260065,"stdev":58.9636905442718,"min":3,"median":97}},"features":[{"properties":{"city":"Belvidere","code":"EFP","co fip":7,"type":"PANTRY","geo_score":0.671,"zip code":"61008","site":"Community Cupboard Food Pantry","id":"abjw789uchq1","address":"1320 East Avenue","geo_precision":"range"},"type":"Feature","geometry":{"type":"Point","coordinates":[-88.831953,42.245989]}},{"properties":{"city":"Capron","code":"EFP","co fip":7,"type":"PANTRY","geo_score":0.793,"zip code":"61012","site":"Belvidere Boone County Food Pantry","id":"abjw783kblz9","address":"200 South Fifth St","geo_precision":"range"},"type":"Feature","geometry":{"type":"Point","coordinates":[-88.742041,42.402757]}},{"properties":{"city":"Belvidere","code":"AGENCY","co fip":7,"type":"PANTRY","geo_score":0.476,"zip code":"61008-3740","site":"Salvation Army - Belvidere","id":"abjw784psfdl","address":"422 S. Main Street","geo_precision":"street"},"type":"Feature","geometry":{"type":"Point","coordinates":[-88.838512,42.257676]}},{"properties":{"city":"Hanover Park","code":"AGENCY","co fip":31,"type":"PANTRY","geo_score":0.902,"zip code":"60133","site":"Hanover Township Pantry","id":"abjw78a37unw","address":"7431 Astor Ave","geo_precision":"range"},"type":"Feature","geometry":{"type":"Point","coordinates":[-88.158735,42.007328]}},{"properties":{"city":"Schaumburg","code":"AGENCY","co fip":31,"type":"PANTRY","geo_score":0.452,"zip code":"60193","site":"SVDP - St. Marcelline Church","id":"abjw78956eav","address":"822 S. Springinsguth Road","geo_precision":"street"},"type":"Feature","geometry":{"type":"Point","coordinates":[-88.119159,42.02462]}},{"properties":{"city":"Kirkland","code":"EFP","co fip":37,"type":"PANTRY","geo_score":0.785,"zip code":"60146","site":"Kirkland Food Pantry","id":"abjw78bmoea0","address":"510 W South Street","geo_precision":"range"},"type":"Feature","geometry":{"type":"Point","coordinates":[-88.851148,42.091679]}},{"properties":{"city":"DeKalb","code":"EFP","co fip":37,"type":"PANTRY","geo_score":0.681,"zip code":"60115","site":"New Hope Missionary Baptist Food Pantry","id":"abjw78bvaleo","address":"1201 Twombly Road","geo_precision":"street"},"type":"Feature","geometry":{"type":"Point","coordinates":[-88.830276,41.95052]}},{"properties":{"city":"Lee","code":"EFP","co fip":37,"type":"PANTRY","geo_score":0.567,"zip code":"60530","site":"N.I.C.E.","id":"abjw785v32ab","address":"346 S County Line Road","geo_precision":"street"},"type":"Feature","geometry":{"type":"Point","coordinates":[-88.941548,41.750307]}},{"properties":{"city":"Somonauk","code":"EFP","co fip":37,"type":"PANTRY","geo_score":0.78,"zip code":"60552","site":"Our Sharing Food Pantry","id":"abjw781o9zll","address":"235 S Green Street","geo_precision":"street"},"type":"Feature","geometry":{"type":"Point","coordinates":[-88.684151,41.63187]}},{"properties":{"city":"DeKalb","code":"EFP","co fip":37,"type":"PANTRY","geo_score":0.902,"zip code":"60115","site":"Salvation Army DeKalb Area Food Pantry","id":"abjw786g0ok4","address":"830 Grove Street","geo_precision":"range"},"type":"Feature","geometry":{"type":"Point","coordinates":[-88.744865,41.926675]}},{"properties":{"city":"DeKalb","code":"EFP","co fip":37,"type":"PANTRY","geo_score":0.829,"zip code":"60115","site":"Bethlehem Feed My Sheep","id":"abjw78cfrqlt","address":"1915 N 1st St","geo_precision":"range"},"type":"Feature","geometry":{"type":"Point","coordinates":[-88.746386,41.95019]}},{"properties":{"city":"Sandwich","code":"AGENCY","co fip":37,"type":"PANTRY","geo_score":0.902,"zip code":"60548","site":"Cornerstone Church","id":"abjw784ppd2a","address":"17347 Pratt Road","geo_precision":"range"},"type":"Feature","geometry":{"type":"Point","coordinates":[-88.615593,41.665901]}},{"properties":{"city":"Sycamore","code":"AGENCY","co fip":37,"type":"PANTRY","geo_score":0.902,"zip code":"60178","site":"Sycamore UMC Food Pantry","id":"abjw78e0kwmv","address":"160 Johnson Avenue","geo_precision":"range"},"type":"Feature","geometry":{"type":"Point","coordinates":[-88.703873,41.98897]}},{"properties":{"city":"Sycamore","code":"AGENCY","co fip":37,"type":"PANTRY","geo_score":0.902,"zip code":"60178","site":"Salem Lutheran Church","id":"abjw786va2wt","address":"1145 DeKalb Avenue","geo_precision":"range"},"type":"Feature","geometry":{"type":"Point","coordinates":[-88.707867,41.980668]}},{"properties":{"city":"Hinckley","code":"AGENCY","co fip":37,"type":"PANTRY","geo_score":0.488,"zip code":"60520","site":"Hinckley Area Food Pantry","id":"abjw782zke58","address":"324 W McKinley Street","geo_precision":"zip"},"type":"Feature","geometry":{"type":"Point","coordinates":[-88.686052,41.740713]}},{"properties":{"city":"DeKalb","code":"EFP","co fip":37,"type":"PANTRY","geo_score":0.902,"zip code":"60115","site":"St. Vincent dePaul - DeKalb","id":"abjw78a5aqdv","address":"302 Fisk Avenue","geo_precision":"range"},"type":"Feature","geometry":{"type":"Point","coordinates":[-88.749203,41.933856]}},{"properties":{"city":"Sandwich","code":"AGENCY","co fip":37,"type":"PANTRY","geo_score":0.902,"zip code":"60548","site":"The Store At Harvest Chapel","id":"abjw783sipzs","address":"725 S County Line Road","geo_precision":"range"},"type":"Feature","geometry":{"type":"Point","coordinates":[-88.628628,41.63128]}},{"properties":{"city":"Addison","code":"AGENCY","co fip":43,"type":"PANTRY","geo_score":0.464,"zip code":"60101","site":"Addison Community Switchboard","id":"abjw789e4a1b","address":"193 W. Michael Lane","geo_precision":"street"},"type":"Feature","geometry":{"type":"Point","coordinates":[-87.989475,41.93779]}},{"properties":{"city":"Naperville","code":"AGENCY","co fip":43,"type":"PANTRY","geo_score":0.325,"zip code":"60544","site":"Calvary Church Pantry","id":"abjw787i3icn","address":"129 W. Benton","geo_precision":"street"},"type":"Feature","geometry":{"type":"Point","coordinates":[-88.35412,41.680759]}},{"properties":{"city":"Bensenville","code":"EFP","co fip":43,"type":"PANTRY","geo_score":0.476,"zip code":"60106","site":"Bensenville-Wood Dale Pantry","id":"abjw7834x69t","address":"192 S. Center Street","geo_precision":"street"},"type":"Feature","geometry":{"type":"Point","coordinates":[-87.941569,41.939434]}},{"properties":{"city":"Lombard","code":"AGENCY","co fip":43,"type":"PANTRY","geo_score":0.49,"zip code":"60148","site":"Christ The King - St Vincent DePaul","id":"abjw781hogkk","address":"1501 S. Main Street","geo_precision":"street"},"type":"Feature","geometry":{"type":"Point","coordinates":[-88.014243,41.904747]}},{"properties":{"city":"West Chicago","code":"AGENCY","co fip":43,"type":"PANTRY","geo_score":0.333,"zip code":"60185","site":"Church Of Christ Food Pantry","id":"abjw782025vn","address":"350 E. James Avenue","geo_precision":"street"},"type":"Feature","geometry":{"type":"Point","coordinates":[-88.147922,41.895508]}},{"properties":{"city":"Downers Grove","code":"AGENCY","co fip":43,"type":"PANTRY","geo_score":0.902,"zip code":"60515","site":"Fish Of Downers Grove","id":"abjw787vyve6","address":"4340 Prince Street","geo_precision":"range"},"type":"Feature","geometry":{"type":"Point","coordinates":[-88.013587,41.807368]}},{"properties":{"city":"Glen Ellyn","code":"AGENCY","co fip":43,"type":"PANTRY","geo_score":0.902,"zip code":"60137","site":"Glen Ellyn Food Pantry","id":"abjw78bbt4i1","address":"493 Forest Avenue","geo_precision":"range"},"type":"Feature","geometry":{"type":"Point","coordinates":[-88.064857,41.876976]}},{"properties":{"city":"Hinsdale","code":"EFP","co fip":43,"type":"PANTRY","geo_score":0.462,"zip code":"60521","site":"HCS Family Services","id":"abjw786dvylq","address":"19 E. Chicago Avenue","geo_precision":"street"},"type":"Feature","geometry":{"type":"Point","coordinates":[-87.931562,41.803601]}},{"properties":{"city":"Carol  Stream","code":"AGENCY","co fip":43,"type":"PANTRY","geo_score":0.453,"zip code":"60188","site":"Interfaith Food Pantry","id":"abjw78a0wq7b","address":"345 S. President Street","geo_precision":"street"},"type":"Feature","geometry":{"type":"Point","coordinates":[-88.094003,41.900531]}},{"properties":{"city":"Addison","code":"AGENCY","co fip":43,"type":"PANTRY","geo_score":0.468,"zip code":"60101","site":"Messiah Baptist - Addison","id":"abjw78h1snd7","address":"600 S. Villa Avenue","geo_precision":"street"},"type":"Feature","geometry":{"type":"Point","coordinates":[-87.975258,41.921094]}},{"properties":{"city":"Wheaton","code":"EFP","co fip":43,"type":"PANTRY","geo_score":0.49,"zip code":"60187","site":"Milton Township Pantry","id":"abjw78grokg0","address":"1492 N. Main Street","geo_precision":"street"},"type":"Feature","geometry":{"type":"Point","coordinates":[-88.106814,41.888918]}},{"properties":{"city":"Wheaton","code":"EFP","co fip":43,"type":"PANTRY","geo_score":0.457,"zip code":"60187","site":"People's Resource Center","id":"abjw78b12775","address":"201 S. Naperville Road","geo_precision":"street"},"type":"Feature","geometry":{"type":"Point","coordinates":[-88.102128,41.855165]}},{"properties":{"city":"Westmont","code":"EFP","co fip":43,"type":"PANTRY","geo_score":0.488,"zip code":"60559","site":"PRC-Southeast - Westmont","id":"abjw7857dh75","address":"649 Blackhawk Drive","geo_precision":"zip"},"type":"Feature","geometry":{"type":"Point","coordinates":[-87.970713,41.799876]}},{"properties":{"city":"Addison","code":"AGENCY","co fip":43,"type":"PANTRY","geo_score":0.319,"zip code":"60101","site":"St. Joseph Pantry - Addison","id":"abjw7882266w","address":"330 E. Fullerton Avenue","geo_precision":"street"},"type":"Feature","geometry":{"type":"Point","coordinates":[-87.971758,41.920204]}},{"properties":{"city":"Downers Grove","code":"EFP","co fip":43,"type":"PANTRY","geo_score":0.465,"zip code":"60515","site":"St. Joseph's - SVDP Downers Grove","id":"abjw78evnit7","address":"4824 Highland Avenue","geo_precision":"street"},"type":"Feature","geometry":{"type":"Point","coordinates":[-88.201952,41.685805]}},{"properties":{"city":"Naperville","code":"AGENCY","co fip":43,"type":"PANTRY","geo_score":0.902,"zip code":"60563","site":"St. Thomas The Apostle","id":"abjw784eu7p4","address":"1500 Brookdale Road","geo_precision":"range"},"type":"Feature","geometry":{"type":"Point","coordinates":[-88.190697,41.784276]}},{"properties":{"city":"West Chicago","code":"EFP","co fip":43,"type":"PANTRY","geo_score":0.522,"zip code":"60185-5122","site":"Wayne Township Pantry","id":"abjw78apm7w4","address":"27 W 031 North Avenue","geo_precision":"street"},"type":"Feature","geometry":{"type":"Point","coordinates":[-87.871395,41.898368]}},{"properties":{"city":"Elmhurst","code":"EFP","co fip":43,"type":"PANTRY","geo_score":0.545,"zip code":"60126","site":"Elmhurst-Yorkfield Food Pantry","id":"abjw787bdyat","address":"1083 York Road","geo_precision":"street"},"type":"Feature","geometry":{"type":"Point","coordinates":[-87.932918,41.868058]}},{"properties":{"city":"Villa Park","code":"EFP","co fip":43,"type":"PANTRY","geo_score":0.468,"zip code":"60181","site":"Disciples Food Pantry","id":"abjw7893dkok","address":"1336 S. Villa Avenue","geo_precision":"street"},"type":"Feature","geometry":{"type":"Point","coordinates":[-87.969157,41.887162]}},{"properties":{"city":"Naperville","code":"EFP","co fip":43,"type":"PANTRY","geo_score":0.4,"zip code":"60540","site":"Loaves + Fishes Community Pantry","id":"abjw784lkli5","address":"1871 High Grove Lane","geo_precision":"street"},"type":"Feature","geometry":{"type":"Point","coordinates":[-88.196103,41.827352]}},{"properties":{"city":"Lombard","code":"EFP","co fip":43,"type":"PANTRY","geo_score":0.476,"zip code":"60148","site":"York Township Pantry","id":"abjw78ey3ww2","address":"1502 S. Meyers Road","geo_precision":"street"},"type":"Feature","geometry":{"type":"Point","coordinates":[-87.992181,41.849814]}},{"properties":{"city":"Oakbrook Terrace","code":"EFP","co fip":43,"type":"PANTRY","geo_score":0.829,"zip code":"60181","site":"Salvation Army - Oakbrook","id":"abjw78gjr6vq","address":"1 South 415 Summit Avenue","geo_precision":"range"},"type":"Feature","geometry":{"type":"Point","coordinates":[-87.973727,41.887816]}},{"properties":{"city":"Woodridge","code":"EFP","co fip":43,"type":"PANTRY","geo_score":0.417,"zip code":"60517","site":"West Suburban Food Pantry","id":"abjw78gik8b6","address":"6809 Hobson Valley Dr. - 118","geo_precision":"street"},"type":"Feature","geometry":{"type":"Point","coordinates":[-88.055427,41.767797]}},{"properties":{"city":"Downers Grove","code":"AGENCY","co fip":43,"type":"PANTRY","geo_score":0.819,"zip code":"60516","site":"Christian Worship Center","id":"abjw7897o625","address":"1330  63rd Street","geo_precision":"range"},"type":"Feature","geometry":{"type":"Point","coordinates":[-88.01609,41.772958]}},{"properties":{"city":"Elmhurst","code":"AGENCY","co fip":43,"type":"PANTRY","geo_score":0.902,"zip code":"60126","site":"Elmhurst Walk-In Ministry","id":"abjw78hb21um","address":"134 Arthur Street","geo_precision":"range"},"type":"Feature","geometry":{"type":"Point","coordinates":[-87.941232,41.895976]}},{"properties":{"city":"West Chicago","code":"EFP","co fip":43,"type":"PANTRY","geo_score":0.902,"zip code":"60185","site":"New Life Bilingual Food Pantry","id":"abjw78aqde3t","address":"464 Ann Street","geo_precision":"range"},"type":"Feature","geometry":{"type":"Point","coordinates":[-88.213338,41.878082]}},{"properties":{"city":"Bartlett","code":"AGENCY","co fip":43,"type":"PANTRY","geo_score":0.464,"zip code":"60103","site":"Bartlett Baptist Church","id":"abjw78afgrsu","address":"1500 W. Stearns Road","geo_precision":"street"},"type":"Feature","geometry":{"type":"Point","coordinates":[-88.185065,41.973358]}},{"properties":{"city":"West Chicago","code":"AGENCY","co fip":43,"type":"PANTRY","geo_score":0.321,"zip code":"60185","site":"1st Assembly Of God - Wheaton","id":"abjw788c1q7s","address":"450 E. Roosevelt Road","geo_precision":"street"},"type":"Feature","geometry":{"type":"Point","coordinates":[-88.271512,41.884634]}},{"properties":{"city":"Lombard","code":"EFP","co fip":43,"type":"PANTRY","geo_score":0.49,"zip code":"60148","site":"Lombard-Villa Park Pantry","id":"abjw7889rhf6","address":"155 S. Main Street","geo_precision":"street"},"type":"Feature","geometry":{"type":"Point","coordinates":[-88.014243,41.904747]}},{"properties":{"city":"Lisle","code":"AGENCY","co fip":43,"type":"PANTRY","geo_score":0.488,"zip code":"60532","site":"R.E.A.C.H. Ministries Inc.","id":"abjw78b8mi7e","address":"4300 Yackley Avenue","geo_precision":"zip"},"type":"Feature","geometry":{"type":"Point","coordinates":[-88.037714,41.79818]}},{"properties":{"city":"Glendale Heights","code":"AGENCY","co fip":43,"type":"PANTRY","geo_score":0.902,"zip code":"60139","site":"Muslim Society, Inc.","id":"abjw7892xkcs","address":"1785 Bloomingdale Road","geo_precision":"range"},"type":"Feature","geometry":{"type":"Point","coordinates":[-88.081291,41.923886]}},{"properties":{"city":"Bloomingdale","code":"EFP","co fip":43,"type":"PANTRY","geo_score":0.805,"zip code":"60108","site":"St. Paul UCC - Bloomingdale","id":"abjw78ed5p2l","address":"118 First Street","geo_precision":"range"},"type":"Feature","geometry":{"type":"Point","coordinates":[-88.07993,41.956305]}},{"properties":{"city":"Aurora","code":"AGENCY","co fip":43,"type":"PANTRY","geo_score":0.464,"zip code":"60504","site":"Village Baptist Church","id":"abjw786826ir","address":"515 S. Frontenac Road","geo_precision":"street"},"type":"Feature","geometry":{"type":"Point","coordinates":[-88.230244,41.754511]}},{"properties":{"city":"Wheaton","code":"AGENCY","co fip":43,"type":"PANTRY","geo_score":0.316,"zip code":"60187","site":"Marian Park Food Pantry","id":"abjw788b4rvf","address":"2126 W. Roosevelt Road","geo_precision":"street"},"type":"Feature","geometry":{"type":"Point","coordinates":[-88.13008,41.858371]}},{"properties":{"city":"Lombard","code":"AGENCY","co fip":43,"type":"PANTRY","geo_score":0.464,"zip code":"60148","site":"St. Pius - St. Vincent Depaul Food Pantry","id":"abjw78fkx7mk","address":"1025 E. Madison Street","geo_precision":"street"},"type":"Feature","geometry":{"type":"Point","coordinates":[-88.01639,41.874725]}},{"properties":{"city":"Downers Grove","code":"AGENCY","co fip":43,"type":"PANTRY","geo_score":0.902,"zip code":"60515","site":"St. Mary of Gostyn - SVDP","id":"abjw78emr7ih","address":"444 Wilson Street","geo_precision":"range"},"type":"Feature","geometry":{"type":"Point","coordinates":[-87.996761,41.799569]}},{"properties":{"city":"Lisle","code":"AGENCY","co fip":3,"type":"PANTRY","geo_score":0.902,"zip code":"60532","site":"Thriftique-Chicagoland Church","id":"abjw788xmlna","address":"4725 Main Street","geo_precision":"range"},"type":"Feature","geometry":{"type":"Point","coordinates":[-88.074647,41.800854]}},{"properties":{"city":"Villa Park","code":"AGENCY","co fip":43,"type":"PANTRY","geo_score":0.429,"zip code":"60181","site":"Hand + Hand Food Pantry - Harvard Evang","id":"abjw78djkujv","address":"206 W. St. Charles Road","geo_precision":"street"},"type":"Feature","geometry":{"type":"Point","coordinates":[-87.975129,41.889851]}},{"properties":{"city":"Hanover Park","code":"EFP","co fip":43,"type":"PANTRY","geo_score":0.902,"zip code":"60133","site":"Hands Of Hope Food Pantry","id":"abjw78fzl2fo","address":"5700 Bartels Road","geo_precision":"range"},"type":"Feature","geometry":{"type":"Point","coordinates":[-88.129882,41.978272]}},{"properties":{"city":"Addison","code":"EFP","co fip":43,"type":"PANTRY","geo_score":0.79,"zip code":"60101","site":"Addison Township Pantry","id":"abjw783zjl1d","address":"50 East Oak Street site","geo_precision":"range"},"type":"Feature","geometry":{"type":"Point","coordinates":[-87.987511,41.933304]}},{"properties":{"city":"Itasca","code":"EFP","co fip":43,"type":"PANTRY","geo_score":0.849,"zip code":"60143","site":"Itasca Food Pantry","id":"abjw785auxf5","address":"336 Center Street","geo_precision":"range"},"type":"Feature","geometry":{"type":"Point","coordinates":[-88.008179,41.973105]}},{"properties":{"city":"Lisle","code":"EFP","co fip":43,"type":"PANTRY","geo_score":0.902,"zip code":"60532","site":"Lisle Township Pantry","id":"abjw783xelg1","address":"4711 Indiana Avenue","geo_precision":"range"},"type":"Feature","geometry":{"type":"Point","coordinates":[-88.096441,41.797814]}},{"properties":{"city":"Wayne","code":"EFP","co fip":43,"type":"PANTRY","geo_score":0.548,"zip code":"60184","site":"Neighborhood FP at Resurrection","id":"abjw78bxjxw2","address":"30W350 Army Trail Road","geo_precision":"street"},"type":"Feature","geometry":{"type":"Point","coordinates":[-88.225912,41.948155]}},{"properties":{"city":"West Chicago","code":"EFP","co fip":43,"type":"PANTRY","geo_score":0.5,"zip code":"60185","site":"Neighborhood FP at Crossroads","id":"abjw78hln8x8","address":"525 Neltnor ( Route 59)","geo_precision":"street"},"type":"Feature","geometry":{"type":"Point","coordinates":[-88.201658,41.853213]}},{"properties":{"city":"Carol Stream","code":"EFP","co fip":43,"type":"PANTRY","geo_score":0.49,"zip code":"60188","site":"Neighborhood FP at LCM","id":"abjw781ttv7l","address":"580 N. Kuhn Road","geo_precision":"street"},"type":"Feature","geometry":{"type":"Point","coordinates":[-88.140165,41.906532]}},{"properties":{"city":"Warrenville","code":"EFP","co fip":43,"type":"PANTRY","geo_score":0.538,"zip code":"60555","site":"Neighborhood FP at Immanuel","id":"abjw78gfsta7","address":"29W260 Batavia Road","geo_precision":"street"},"type":"Feature","geometry":{"type":"Point","coordinates":[-88.205598,41.833166]}},{"properties":{"city":"Minooka","code":"EFP","co fip":63,"type":"PANTRY","geo_score":0.805,"zip code":"60447","site":"Minooka Bible Church","id":"abjw78g7r9pz","address":"412 N Wabena Avenue","geo_precision":"street"},"type":"Feature","geometry":{"type":"Point","coordinates":[-88.261815,41.462457]}},{"properties":{"city":"Morris","code":"EFP","co fip":63,"type":"PANTRY","geo_score":0.716,"zip code":"60450","site":"We Care of Grundy County, Inc.","id":"abjw78fsjuk7","address":"520 W Illinois Ave.","geo_precision":"street"},"type":"Feature","geometry":{"type":"Point","coordinates":[-88.42754,41.356581]}},{"properties":{"city":"Coal City","code":"AGENCY","co fip":63,"type":"PANTRY","geo_score":0.902,"zip code":"60416","site":"Coal City Food Pantry","id":"abjw7868b0mw","address":"6805 E McArdle Road","geo_precision":"range"},"type":"Feature","geometry":{"type":"Point","coordinates":[-88.289479,41.294849]}},{"properties":{"city":"Gardner","code":"AGENCY","co fip":63,"type":"PANTRY","geo_score":0.823,"zip code":"60424","site":"Church Of Hope","id":"abjw78gre36u","address":"202 N Monroe","geo_precision":"range"},"type":"Feature","geometry":{"type":"Point","coordinates":[-88.309977,41.18849]}},{"properties":{"city":"Elgin","code":"AGENCY","co fip":89,"type":"PANTRY","geo_score":0.876,"zip code":"60120","site":"Bethesda C.O.G.I.C.","id":"abjw7848d12k","address":"457 Freemont Street","geo_precision":"range"},"type":"Feature","geometry":{"type":"Point","coordinates":[-88.272792,42.045108]}},{"properties":{"city":"Hampshire","code":"AGENCY","co fip":89,"type":"PANTRY","geo_score":0.902,"zip code":"60140","site":"Burlington-Hampshire Area Food Pantry","id":"abjw787uwyqb","address":"147 Mill Ave","geo_precision":"range"},"type":"Feature","geometry":{"type":"Point","coordinates":[-88.531588,42.099694]}},{"properties":{"city":"Batavia","code":"AGENCY","co fip":89,"type":"PANTRY","geo_score":0.829,"zip code":"60510","site":"Batavia Interfaith Food Pantry","id":"abjw788tzohu","address":"100 Flinn Drive","geo_precision":"range"},"type":"Feature","geometry":{"type":"Point","coordinates":[-88.308132,41.847165]}},{"properties":{"city":"Aurora","code":"EFP","co fip":89,"type":"PANTRY","geo_score":0.471,"zip code":"60506-4969","site":"Holy Angels Pantry","id":"abjw78dcyyyn","address":"180 S. Russell Avenue","geo_precision":"street"},"type":"Feature","geometry":{"type":"Point","coordinates":[-88.331092,41.778771]}},{"properties":{"city":"Geneva","code":"AGENCY","co fip":89,"type":"PANTRY","geo_score":0.902,"zip code":"60134","site":"St. Peter's Food Pantry","id":"abjw784kpnjj","address":"1891 Kaneville Road","geo_precision":"range"},"type":"Feature","geometry":{"type":"Point","coordinates":[-88.329241,41.885679]}},{"properties":{"city":"Elgin","code":"AGENCY","co fip":89,"type":"PANTRY","geo_score":0.468,"zip code":"60120","site":"Community Crisis Center","id":"abjw78570hz7","address":"37 S. Geneva St.","geo_precision":"street"},"type":"Feature","geometry":{"type":"Point","coordinates":[-88.279595,42.037219]}},{"properties":{"city":"Aurora","code":"EFP","co fip":89,"type":"PANTRY","geo_score":0.476,"zip code":"60505","site":"Salvation Army Aurora","id":"abjw78fuco3o","address":"437 E. Galena Boulevard","geo_precision":"street"},"type":"Feature","geometry":{"type":"Point","coordinates":[-88.288636,41.788148]}},{"properties":{"city":"Elgin","code":"EFP","co fip":89,"type":"PANTRY","geo_score":0.902,"zip code":"60120","site":"Salvation Army Elgin","id":"abjw785sez9c","address":"316 Douglas Avenue","geo_precision":"range"},"type":"Feature","geometry":{"type":"Point","coordinates":[-88.284013,42.043437]}},{"properties":{"city":"Aurora","code":"EFP","co fip":89,"type":"PANTRY","geo_score":0.902,"zip code":"60506","site":"Two Rivers Head Start Aurora","id":"abjw782o4p7v","address":"1661 Landmark Road","geo_precision":"range"},"type":"Feature","geometry":{"type":"Point","coordinates":[-88.34117,41.790081]}},{"properties":{"city":"Elgin","code":"EFP","co fip":89,"type":"PANTRY","geo_score":0.902,"zip code":"60123","site":"Two Rivers Head Start Elgin","id":"abjw78f1k871","address":"418 Airport Road","geo_precision":"range"},"type":"Feature","geometry":{"type":"Point","coordinates":[-88.288384,42.069887]}},{"properties":{"city":"Aurora","code":"AGENCY","co fip":89,"type":"PANTRY","geo_score":0.476,"zip code":"60505","site":"Bountiful Blessing Food Pantry","id":"abjw78eref4v","address":"901 E. Galena Blvd.","geo_precision":"street"},"type":"Feature","geometry":{"type":"Point","coordinates":[-88.288636,41.788148]}},{"properties":{"city":"Elgin","code":"AGENCY","co fip":89,"type":"PANTRY","geo_score":0.883,"zip code":"60123","site":"St. Thomas More Church-SVDP","id":"abjw787anh1s","address":"215 Thomas More Drive","geo_precision":"range"},"type":"Feature","geometry":{"type":"Point","coordinates":[-88.319859,42.039842]}},{"properties":{"city":"Elgin","code":"AGENCY","co fip":89,"type":"PANTRY","geo_score":0.468,"zip code":"60120","site":"Centro De Informacion","id":"abjw781s798d","address":"28 N. Grove Avenue","geo_precision":"street"},"type":"Feature","geometry":{"type":"Point","coordinates":[-88.28437,42.037229]}},{"properties":{"city":"Elgin","code":"EFP","co fip":89,"type":"PANTRY","geo_score":0.902,"zip code":"60123","site":"Food for Greater Elgin","id":"abjw783ghj6i","address":"1553 Commerce Drive","geo_precision":"range"},"type":"Feature","geometry":{"type":"Point","coordinates":[-88.295369,42.072044]}},{"properties":{"city":"Aurora","code":"EFP","co fip":89,"type":"PANTRY","geo_score":0.347,"zip code":"60507","site":"Aurora Interfaith Food Pantry","id":"abjw78abynf1","address":"659 S. River Street","geo_precision":"street"},"type":"Feature","geometry":{"type":"Point","coordinates":[-88.243119,41.69525]}},{"properties":{"city":"Carpentersville","code":"EFP","co fip":89,"type":"PANTRY","geo_score":0.464,"zip code":"60110","site":"Fish Pantry of Carpentersville","id":"abjw78epaekr","address":"150 S. Kennedy Dr  Unit 15A","geo_precision":"street"},"type":"Feature","geometry":{"type":"Point","coordinates":[-88.257882,42.121058]}},{"properties":{"city":"Aurora","code":"AGENCY","co fip":89,"type":"PANTRY","geo_score":0.443,"zip code":"60506","site":"Marie Wilkinson Foundation Food Pantry","id":"abjw78aitndr","address":"834 North Highland Avenue","geo_precision":"street"},"type":"Feature","geometry":{"type":"Point","coordinates":[-88.203698,41.684869]}},{"properties":{"city":"Aurora","code":"AGENCY","co fip":89,"type":"PANTRY","geo_score":0.462,"zip code":"60505","site":"Fox Valley Hispanic SDA Pantry","id":"abjw788zikz1","address":"505 E. New York Street","geo_precision":"street"},"type":"Feature","geometry":{"type":"Point","coordinates":[-88.314092,41.75904]}},{"properties":{"city":"Batavia","code":"AGENCY","co fip":89,"type":"PANTRY","geo_score":0.468,"zip code":"60510","site":"Assisi Homes Batavia Apts","id":"abjw781m22us","address":"1259 E. Wilson Street","geo_precision":"street"},"type":"Feature","geometry":{"type":"Point","coordinates":[-88.306787,41.850006]}},{"properties":{"city":"Elgin","code":"AGENCY","co fip":89,"type":"PANTRY","geo_score":0.464,"zip code":"60120-6509","site":"All Peoples Interfaith Food Pantry","id":"abjw78dz7i6q","address":"256 E. Chicago Street","geo_precision":"street"},"type":"Feature","geometry":{"type":"Point","coordinates":[-88.285546,42.037099]}},{"properties":{"city":"South Elgin","code":"AGENCY","co fip":89,"type":"PANTRY","geo_score":0.468,"zip code":"60177","site":"South Elgin Food Pantry","id":"abjw784k1jzx","address":"400 W. Spring Street","geo_precision":"street"},"type":"Feature","geometry":{"type":"Point","coordinates":[-88.298806,41.994968]}},{"properties":{"city":"Elgin","code":"AGENCY","co fip":89,"type":"PANTRY","geo_score":0.902,"zip code":"60123","site":"Church in the Word - Elgin","id":"abjw788qoy4t","address":"430 Airport Road","geo_precision":"range"},"type":"Feature","geometry":{"type":"Point","coordinates":[-88.288167,42.069314]}},{"properties":{"city":"Elgin","code":"AGENCY","co fip":89,"type":"PANTRY","geo_score":0.588,"zip code":"60121","site":"Westside Church Of Christ","id":"abjw7859plcz","address":"12N266 Randall Road","geo_precision":"street"},"type":"Feature","geometry":{"type":"Point","coordinates":[-88.335462,42.183324]}},{"properties":{"city":"Elgin","code":"AGENCY","co fip":89,"type":"PANTRY","geo_score":0.612,"zip code":"60123","site":"Harvest Bible Chapel","id":"abjw788njxje","address":"1000 N Randall Road","geo_precision":"street"},"type":"Feature","geometry":{"type":"Point","coordinates":[-88.341124,42.041754]}},{"properties":{"city":"Sugar Grove","code":"AGENCY","co fip":89,"type":"PANTRY","geo_score":0.902,"zip code":"60554","site":"Between Friends Food Pantry","id":"abjw781efpdx","address":"52 Wheeler Road","geo_precision":"range"},"type":"Feature","geometry":{"type":"Point","coordinates":[-88.444875,41.778482]}},{"properties":{"city":"Carpentersville","code":"AGENCY","co fip":89,"type":"PANTRY","geo_score":0.464,"zip code":"60110","site":"Salvation Army Carpentersville","id":"abjw784bwjjp","address":"150 S. Il Route 25, door 8b","geo_precision":"street"},"type":"Feature","geometry":{"type":"Point","coordinates":[-88.257882,42.121058]}},{"properties":{"city":"Elburn","code":"AGENCY","co fip":89,"type":"PANTRY","geo_score":0.902,"zip code":"60119","site":"Countryside Food Pantry, Inc.","id":"abjw78gh6ajy","address":"525 South Main St","geo_precision":"range"},"type":"Feature","geometry":{"type":"Point","coordinates":[-88.472377,41.887169]}},{"properties":{"city":"St. Charles","code":"AGENCY","co fip":89,"type":"PANTRY","geo_score":0.456,"zip code":"60174","site":"Salvation Army - St. Charles","id":"abjw78gu57tm","address":"1710 S. 7th Avenue","geo_precision":"street"},"type":"Feature","geometry":{"type":"Point","coordinates":[-88.321885,41.914259]}},{"properties":{"city":"Hoffman Estates","code":"AGENCY","co fip":89,"type":"PANTRY","geo_score":0.61,"zip code":"60195","site":"Life Changers Intl Church","id":"abjw78egtgge","address":"2500 Beverly Road","geo_precision":"street"},"type":"Feature","geometry":{"type":"Point","coordinates":[-88.223613,42.073828]}},{"properties":{"city":"Kankakee","code":"EFP","co fip":91,"type":"PANTRY","geo_score":0.829,"zip code":"60901","site":"Center Of Hope","id":"abjw78goybvj","address":"895 S Washington","geo_precision":"range"},"type":"Feature","geometry":{"type":"Point","coordinates":[-87.869528,41.111976]}},{"properties":{"city":"Kankakee","code":"EFP","co fip":91,"type":"PANTRY","geo_score":0.902,"zip code":"60901","site":"Open Bible Center","id":"abjw78d1ktv8","address":"410 S Small Avenue","geo_precision":"range"},"type":"Feature","geometry":{"type":"Point","coordinates":[-87.88563,41.11626]}},{"properties":{"city":"Kankakee","code":"EFP","co fip":91,"type":"PANTRY","geo_score":0.815,"zip code":"60901","site":"KCCSI-Kankakee County Community Service","id":"abjw789f48gj","address":"657 E Court Street","geo_precision":"range"},"type":"Feature","geometry":{"type":"Point","coordinates":[-87.857576,41.119711]}},{"properties":{"city":"Manteno","code":"EFP","co fip":91,"type":"PANTRY","geo_score":0.714,"zip code":"60950","site":"Manteno Food Pantry","id":"abjw7876ftys","address":"PO Box 744","geo_precision":"zip"},"type":"Feature","geometry":{"type":"Point","coordinates":[-87.974494,41.249476]}},{"properties":{"city":"Kankakee","code":"EFP","co fip":91,"type":"PANTRY","geo_score":0.863,"zip code":"60901","site":"St Vincent Depaul At St Teresa","id":"abjw78b6kor3","address":"361 N St Joseph Ave","geo_precision":"range"},"type":"Feature","geometry":{"type":"Point","coordinates":[-87.839612,41.123394]}},{"properties":{"city":"Hopkins Park","code":"EFP","co fip":91,"type":"PANTRY","geo_score":0.829,"zip code":"60964","site":"Lord's Lambs Ministry","id":"abjw785syjdi","address":"3400 S Main St","geo_precision":"range"},"type":"Feature","geometry":{"type":"Point","coordinates":[-87.620379,41.075515]}},{"properties":{"city":"Bourbonnais","code":"AGENCY","co fip":91,"type":"PANTRY","geo_score":0.87,"zip code":"60914","site":"Faith Baptist Church","id":"abjw78c04cz0","address":"1280 Armour Drive","geo_precision":"range"},"type":"Feature","geometry":{"type":"Point","coordinates":[-87.863017,41.162533]}},{"properties":{"city":"Yorkville","code":"EFP","co fip":93,"type":"PANTRY","geo_score":0.837,"zip code":"60560","site":"Kendall County Pantry","id":"abjw788e2sv0","address":"1204 A Deer Street","geo_precision":"range"},"type":"Feature","geometry":{"type":"Point","coordinates":[-88.443012,41.629478]}},{"properties":{"city":"Oswego","code":"AGENCY","co fip":93,"type":"PANTRY","geo_score":0.902,"zip code":"60543","site":"Harvest Baptist Food Pantry","id":"abjw78c05iqm","address":"5315 Douglas Road","geo_precision":"range"},"type":"Feature","geometry":{"type":"Point","coordinates":[-88.307931,41.645995]}},{"properties":{"city":"Newark","code":"AGENCY","co fip":93,"type":"PANTRY","geo_score":0.71,"zip code":"60541","site":"Helmar Lutheran Church Pantry","id":"abjw78dnmnru","address":"11935 Lisbon Road","geo_precision":"street"},"type":"Feature","geometry":{"type":"Point","coordinates":[-88.48378,41.54503]}},{"properties":{"city":"Paddock Lake","code":"AGENCY","co fip":93,"type":"PANTRY","geo_score":0.819,"zip code":"53168","site":"Westosha Lakes-Helping Hands","id":"abjw781zapb8","address":"24823 74th Street","geo_precision":"range"},"type":"Feature","geometry":{"type":"Point","coordinates":[-88.109558,42.569169]}},{"properties":{"city":"Lake Villa","code":"AGENCY","co fip":97,"type":"PANTRY","geo_score":0.902,"zip code":"60046","site":"Luke 3:11 Share Center","id":"abjw782wpgtd","address":"37510 North Fairfield Road","geo_precision":"range"},"type":"Feature","geometry":{"type":"Point","coordinates":[-88.107708,42.410925]}},{"properties":{"city":"Libertyville","code":"AGENCY","co fip":97,"type":"PANTRY","geo_score":0.468,"zip code":"60048","site":"HOPE Food Pantry","id":"abjw78dcdpa5","address":"125 W. Church Street","geo_precision":"street"},"type":"Feature","geometry":{"type":"Point","coordinates":[-87.956379,42.286829]}},{"properties":{"city":"Waukegan","code":"EFP","co fip":97,"type":"PANTRY","geo_score":0.861,"zip code":"60087","site":"Community Christian Church Food Pantry","id":"abjw78e7emyx","address":"1400 Yorkhouse Road","geo_precision":"range"},"type":"Feature","geometry":{"type":"Point","coordinates":[-87.847805,42.410078]}},{"properties":{"city":"Waukegan","code":"AGENCY","co fip":97,"type":"PANTRY","geo_score":0.902,"zip code":"60085","site":"Greater Faith Church Food Pantry","id":"abjw782rdfkg","address":"565 Powell Avenue","geo_precision":"range"},"type":"Feature","geometry":{"type":"Point","coordinates":[-87.841028,42.351583]}},{"properties":{"city":"Mundelein","code":"AGENCY","co fip":97,"type":"PANTRY","geo_score":0.468,"zip code":"60060","site":"Calvary Community Care Food Pantry","id":"abjw783satun","address":"1221 W. Maple Avenue","geo_precision":"street"},"type":"Feature","geometry":{"type":"Point","coordinates":[-88.009594,42.274479]}},{"properties":{"city":"North Chicago","code":"EFP","co fip":97,"type":"PANTRY","geo_score":0.902,"zip code":"60064","site":"Emmanuel Faith Bible Food Pantry","id":"abjw785418zb","address":"1840 Lincoln Street","geo_precision":"range"},"type":"Feature","geometry":{"type":"Point","coordinates":[-87.842649,42.325724]}},{"properties":{"city":"Ingleside","code":"AGENCY","co fip":97,"type":"PANTRY","geo_score":0.464,"zip code":"60041","site":"Grant Township Food Pantry","id":"abjw788tmyz8","address":"26725 W. Molidor Road","geo_precision":"street"},"type":"Feature","geometry":{"type":"Point","coordinates":[-88.157246,42.346489]}},{"properties":{"city":"Highland Park","code":"AGENCY","co fip":97,"type":"PANTRY","geo_score":0.902,"zip code":"60035","site":"Moraine Township Food Pantry","id":"abjw7834bfdy","address":"777 Central Avenue","geo_precision":"range"},"type":"Feature","geometry":{"type":"Point","coordinates":[-87.80575,42.1835]}},{"properties":{"city":"Libertyville","code":"AGENCY","co fip":97,"type":"PANTRY","geo_score":0.457,"zip code":"60048","site":"St. Joseph's Church","id":"abjw78gi8wsi","address":"112 N. Milwaukee Avenue","geo_precision":"street"},"type":"Feature","geometry":{"type":"Point","coordinates":[-87.953581,42.284161]}},{"properties":{"city":"Gurnee","code":"AGENCY","co fip":97,"type":"PANTRY","geo_score":0.462,"zip code":"60031","site":"Warren Township","id":"abjw7883p4to","address":"17801 W. Washington Street","geo_precision":"street"},"type":"Feature","geometry":{"type":"Point","coordinates":[-87.885585,42.35959]}},{"properties":{"city":"Lake Villa","code":"AGENCY","co fip":97,"type":"PANTRY","geo_score":0.459,"zip code":"60046","site":"Lake Villa Township Food Pantry","id":"abjw7872jv7i","address":"37908 N. Fairfield Road","geo_precision":"street"},"type":"Feature","geometry":{"type":"Point","coordinates":[-88.114149,42.392283]}},{"properties":{"city":"Waukegan","code":"AGENCY","co fip":97,"type":"PANTRY","geo_score":0.902,"zip code":"60085","site":"Christian Faith Fellowship-Gurnee","id":"abjw782ttbrq","address":"228 N County Street","geo_precision":"range"},"type":"Feature","geometry":{"type":"Point","coordinates":[-87.832594,42.363346]}},{"properties":{"city":"Lake Forest","code":"AGENCY","co fip":97,"type":"PANTRY","geo_score":0.459,"zip code":"60045","site":"Church Of The Holy Spirit-LF","id":"abjw789yqe4f","address":"400 E. Westminster Road","geo_precision":"street"},"type":"Feature","geometry":{"type":"Point","coordinates":[-87.842021,42.253]}},{"properties":{"city":"Lake Zurich","code":"EFP","co fip":97,"type":"PANTRY","geo_score":0.459,"zip code":"60047","site":"St. Vincent dePaul-St. Francis","id":"abjw78b2hx0x","address":"135 S. Buesching Road","geo_precision":"street"},"type":"Feature","geometry":{"type":"Point","coordinates":[-88.082293,42.199349]}},{"properties":{"city":"Ingleside","code":"AGENCY","co fip":97,"type":"PANTRY","geo_score":0.902,"zip code":"60041","site":"St. Vincent De Paul @ St. Bede Food Pantry","id":"abjw78gpivg6","address":"36455 N Wilson Road","geo_precision":"range"},"type":"Feature","geometry":{"type":"Point","coordinates":[-88.139784,42.391468]}},{"properties":{"city":"Lake Bluff","code":"AGENCY","co fip":97,"type":"PANTRY","geo_score":0.902,"zip code":"60044","site":"Shields Township","id":"abjw78b3hhzz","address":"906 Muir Avenue","geo_precision":"range"},"type":"Feature","geometry":{"type":"Point","coordinates":[-87.883644,42.286952]}},{"properties":{"city":"Libertyville","code":"AGENCY","co fip":97,"type":"PANTRY","geo_score":0.468,"zip code":"60048","site":"First Presbyterian Church","id":"abjw78gl56gk","address":"219 W. Maple Avenue","geo_precision":"street"},"type":"Feature","geometry":{"type":"Point","coordinates":[-87.955398,42.28496]}},{"properties":{"city":"Waukegan","code":"EFP","co fip":97,"type":"PANTRY","geo_score":0.902,"zip code":"60085","site":"St. Anastasia Food Pantry","id":"abjw78941a3d","address":"624 Douglas Avenue","geo_precision":"range"},"type":"Feature","geometry":{"type":"Point","coordinates":[-87.839379,42.376519]}},{"properties":{"city":"Ingleside","code":"AGENCY","co fip":97,"type":"PANTRY","geo_score":0.457,"zip code":"60041","site":"C.O.O.L. Food Pantry - WEST","id":"abjw78gqch97","address":"25519 W. Highway 134","geo_precision":"street"},"type":"Feature","geometry":{"type":"Point","coordinates":[-88.129246,42.367869]}},{"properties":{"city":"Waukegan","code":"AGENCY","co fip":97,"type":"PANTRY","geo_score":0.482,"zip code":"60085","site":"C.O.O.L. Food Pantry EAST","id":"abjw781nq9o1","address":"127 W. Water Street","geo_precision":"street"},"type":"Feature","geometry":{"type":"Point","coordinates":[-87.831376,42.358205]}},{"properties":{"city":"Round Lake Beach","code":"AGENCY","co fip":97,"type":"PANTRY","geo_score":0.741,"zip code":"60073","site":"Round Lake Church Of God","id":"abjw788yjt2n","address":"1202 Cedar Lake Road","geo_precision":"street"},"type":"Feature","geometry":{"type":"Point","coordinates":[-88.089919,42.360656]}},{"properties":{"city":"Zion","code":"AGENCY","co fip":97,"type":"PANTRY","geo_score":0.861,"zip code":"60099","site":"Our Lady Of Humility Food Pantry","id":"abjw78bc6umk","address":"10655 Wadsworth Road","geo_precision":"range"},"type":"Feature","geometry":{"type":"Point","coordinates":[-87.835129,42.42997]}},{"properties":{"city":"Zion","code":"AGENCY","co fip":97,"type":"PANTRY","geo_score":0.902,"zip code":"60099-2556","site":"Zion Bible Church Food Pantry","id":"abjw78frz5jx","address":"2633 Emmaus Ave.","geo_precision":"range"},"type":"Feature","geometry":{"type":"Point","coordinates":[-87.828396,42.4467]}},{"properties":{"city":"Libertyville","code":"AGENCY","co fip":97,"type":"PANTRY","geo_score":0.902,"zip code":"60048","site":"Libertyville Township Pantry","id":"abjw78ekolnh","address":"359 Merrill Court","geo_precision":"range"},"type":"Feature","geometry":{"type":"Point","coordinates":[-87.957975,42.292954]}},{"properties":{"city":"Waukegan","code":"AGENCY","co fip":97,"type":"PANTRY","geo_score":0.902,"zip code":"60085","site":"The UMMA Center","id":"abjw78hmk4pq","address":"221 Washington Street","geo_precision":"range"},"type":"Feature","geometry":{"type":"Point","coordinates":[-87.831351,42.359552]}},{"properties":{"city":"Round Lake Beach","code":"AGENCY","co fip":97,"type":"PANTRY","geo_score":0.849,"zip code":"60073","site":"P.L.A.N.","id":"abjw785lvnf2","address":"1892 Nicole Lane","geo_precision":"range"},"type":"Feature","geometry":{"type":"Point","coordinates":[-88.084029,42.381388]}},{"properties":{"city":"Barrington","code":"AGENCY","co fip":97,"type":"PANTRY","geo_score":0.769,"zip code":"60010","site":"Project Hope","id":"abjw78cxvzmy","address":"320 East Franklin","geo_precision":"range"},"type":"Feature","geometry":{"type":"Point","coordinates":[-88.131561,42.155715]}},{"properties":{"city":"Gurnee","code":"AGENCY","co fip":97,"type":"PANTRY","geo_score":0.468,"zip code":"60031","site":"ASSISI Homes Of Gurnee","id":"abjw788wojpy","address":"3495 W. Grand Avenue","geo_precision":"street"},"type":"Feature","geometry":{"type":"Point","coordinates":[-87.991075,42.385886]}},{"properties":{"city":"Grayslake","code":"AGENCY","co fip":97,"type":"PANTRY","geo_score":0.459,"zip code":"60030","site":"Lord of Glory Food Pantry","id":"abjw78bof16d","address":"607 W. Belvidere Road","geo_precision":"street"},"type":"Feature","geometry":{"type":"Point","coordinates":[-88.044918,42.338264]}},{"properties":{"city":"Indian Creek","code":"AGENCY","co fip":97,"type":"PANTRY","geo_score":0.357,"zip code":"60061","site":"SMV Sharing Hands Food Pantry","id":"abjw78gyet18","address":"236 U.S. Highway 45","geo_precision":"street"},"type":"Feature","geometry":{"type":"Point","coordinates":[-87.966895,42.220386]}},{"properties":{"city":"Antioch","code":"EFP","co fip":97,"type":"PANTRY","geo_score":0.49,"zip code":"60002","site":"Open Arms Mission","id":"abjw7895dali","address":"1548 S. Main Street","geo_precision":"street"},"type":"Feature","geometry":{"type":"Point","coordinates":[-88.094788,42.492315]}},{"properties":{"city":"Wadsworth","code":"AGENCY","co fip":97,"type":"PANTRY","geo_score":0.459,"zip code":"60083","site":"St. Patrick Catholic Church","id":"abjw78g2y24j","address":"15000 W. Wadsworth Road","geo_precision":"street"},"type":"Feature","geometry":{"type":"Point","coordinates":[-87.885382,42.428489]}},{"properties":{"city":"Highwood","code":"EFP","co fip":97,"type":"PANTRY","geo_score":0.772,"zip code":"60040","site":"St. James Church Food Pantry","id":"abjw78g3w49v","address":"134 North Ave","geo_precision":"range"},"type":"Feature","geometry":{"type":"Point","coordinates":[-87.81181,42.203478]}},{"properties":{"city":"Grayslake","code":"EFP","co fip":97,"type":"PANTRY","geo_score":0.592,"zip code":"60030","site":"The Chapel Of Lake County Food Pantry","id":"abjw78eydtc5","address":"25270 West Hwy 60","geo_precision":"range"},"type":"Feature","geometry":{"type":"Point","coordinates":[-88.115969,42.316478]}},{"properties":{"city":"Round Lake Park","code":"EFP","co fip":97,"type":"PANTRY","geo_score":0.457,"zip code":"60073","site":"Avon Township Food Pantry","id":"abjw783fgqhy","address":"433 E. Washington Avenue","geo_precision":"street"},"type":"Feature","geometry":{"type":"Point","coordinates":[-88.082732,42.358863]}},{"properties":{"city":"Zion","code":"EFP","co fip":97,"type":"PANTRY","geo_score":0.819,"zip code":"60099","site":"Christian Faith Fellowship","id":"abjw782vjro9","address":"1727 27th Street","geo_precision":"range"},"type":"Feature","geometry":{"type":"Point","coordinates":[-87.835625,42.446084]}},{"properties":{"city":"Waukegan","code":"EFP","co fip":97,"type":"PANTRY","geo_score":0.805,"zip code":"60085","site":"Holy Family Food Pantry","id":"abjw78hn2nff","address":"912 8th Street","geo_precision":"range"},"type":"Feature","geometry":{"type":"Point","coordinates":[-87.843392,42.344819]}},{"properties":{"city":"Waukegan","code":"EFP","co fip":97,"type":"PANTRY","geo_score":0.785,"zip code":"60085","site":"Lake County Community Action Food Pantry","id":"abjw783nwdgr","address":"574 McAlister","geo_precision":"range"},"type":"Feature","geometry":{"type":"Point","coordinates":[-87.836391,42.34977]}},{"properties":{"city":"North Chicago","code":"EFP","co fip":97,"type":"PANTRY","geo_score":0.819,"zip code":"60064","site":"Mt. Moriah Christian Center Food Pantry","id":"abjw78c57c7n","address":"523 10th Street","geo_precision":"range"},"type":"Feature","geometry":{"type":"Point","coordinates":[-87.837523,42.341193]}},{"properties":{"city":"North Chicago","code":"EFP","co fip":97,"type":"PANTRY","geo_score":0.902,"zip code":"60064","site":"Mount Sinai Baptist Church Food Pantry","id":"abjw7850cn60","address":"2401 Argonne Drive","geo_precision":"range"},"type":"Feature","geometry":{"type":"Point","coordinates":[-87.862164,42.324988]}},{"properties":{"city":"Waukegan","code":"EFP","co fip":97,"type":"PANTRY","geo_score":0.464,"zip code":"60085","site":"Shiloh Baptist Church Food Pantry","id":"abjw78gegxo1","address":"800 S. Genesee St.","geo_precision":"street"},"type":"Feature","geometry":{"type":"Point","coordinates":[-87.831376,42.358205]}},{"properties":{"city":"Waukegan","code":"EFP","co fip":97,"type":"PANTRY","geo_score":0.482,"zip code":"60085","site":"Catholic Charities Lake Co. Food Pantry","id":"abjw784emf3b","address":"671 S. Lewis Avenue","geo_precision":"street"},"type":"Feature","geometry":{"type":"Point","coordinates":[-87.85376,42.371063]}},{"properties":{"city":"Waukegan","code":"AGENCY","co fip":97,"type":"PANTRY","geo_score":0.482,"zip code":"60085","site":"Care Cupboard Of CC","id":"abjw78ensya0","address":"671 S. Lewis Avenue","geo_precision":"street"},"type":"Feature","geometry":{"type":"Point","coordinates":[-87.85376,42.371063]}},{"properties":{"city":"Grayslake","code":"AGENCY","co fip":97,"type":"PANTRY","geo_score":0.902,"zip code":"60030","site":"Wildwood Presbyterian Church","id":"abjw78e8g0t7","address":"18630 West Old Gages Lake Road","geo_precision":"range"},"type":"Feature","geometry":{"type":"Point","coordinates":[-87.995936,42.355987]}},{"properties":{"city":"Grayslake","code":"AGENCY","co fip":97,"type":"PANTRY","geo_score":0.464,"zip code":"60030","site":"Grace To Share","id":"abjw787v31io","address":"888 Belvidere Road, Unit 401","geo_precision":"street"},"type":"Feature","geometry":{"type":"Point","coordinates":[-88.053711,42.340918]}},{"properties":{"city":"Zion","code":"EFP","co fip":97,"type":"PANTRY","geo_score":0.902,"zip code":"60099","site":"Abiding Love Ministries Food Pantry","id":"abjw78ezsfad","address":"2929 Bethel Boulevard","geo_precision":"range"},"type":"Feature","geometry":{"type":"Point","coordinates":[-87.833418,42.441404]}},{"properties":{"city":"Winthrop Harbor","code":"AGENCY","co fip":97,"type":"PANTRY","geo_score":0.468,"zip code":"60096","site":"North Point Church Food Pantry","id":"abjw787gf9wn","address":"900 N. Lewis Avenue","geo_precision":"street"},"type":"Feature","geometry":{"type":"Point","coordinates":[-87.853169,42.483095]}},{"properties":{"city":"Mundelein","code":"AGENCY","co fip":97,"type":"PANTRY","geo_score":0.476,"zip code":"60060","site":"Santa Maria Del Popolo - SVDPS","id":"abjw78g69aus","address":"116 N. Lake Street","geo_precision":"street"},"type":"Feature","geometry":{"type":"Point","coordinates":[-88.004009,42.266073]}},{"properties":{"city":"Zion","code":"AGENCY","co fip":97,"type":"PANTRY","geo_score":0.819,"zip code":"60099","site":"Church Of Joy - Food Pantry","id":"abjw782nu9oi","address":"1312 27th Street","geo_precision":"range"},"type":"Feature","geometry":{"type":"Point","coordinates":[-87.828331,42.446179]}},{"properties":{"city":"Waukegan","code":"AGENCY","co fip":97,"type":"PANTRY","geo_score":0.902,"zip code":"60087","site":"Waukegan Baptist Bible Church","id":"abjw786024tp","address":"1500 Sunset Avenue","geo_precision":"range"},"type":"Feature","geometry":{"type":"Point","coordinates":[-87.850389,42.391952]}},{"properties":{"city":"Waukegan","code":"EFP","co fip":97,"type":"PANTRY","geo_score":0.714,"zip code":"60087","site":"El Puente Latino","id":"abjw78fxkc79","address":"2415 N. Butrick","geo_precision":"zip"},"type":"Feature","geometry":{"type":"Point","coordinates":[-87.868471,42.372921]}},{"properties":{"city":"North Chicago","code":"AGENCY","co fip":97,"type":"PANTRY","geo_score":0.902,"zip code":"60064","site":"Eternal Flame Food Pantry","id":"abjw78cowfj9","address":"1412 Greenfield Ave.","geo_precision":"range"},"type":"Feature","geometry":{"type":"Point","coordinates":[-87.847461,42.332573]}},{"properties":{"city":"Dwight","code":"AGENCY","co fip":105,"type":"PANTRY","geo_score":0.464,"zip code":"60420","site":"First Baptist Church","id":"abjw78ebw020","address":"401 N. Clinton St.","geo_precision":"street"},"type":"Feature","geometry":{"type":"Point","coordinates":[-88.43464,41.09333]}},{"properties":{"city":"Harvard","code":"EFP","co fip":111,"type":"PANTRY","geo_score":0.902,"zip code":"60033","site":"Harvard Community Food Pantry","id":"abjw78al6i1i","address":"6817 Harvard Hills Rd","geo_precision":"range"},"type":"Feature","geometry":{"type":"Point","coordinates":[-88.599102,42.42942]}},{"properties":{"city":"Marengo","code":"EFP","co fip":111,"type":"PANTRY","geo_score":0.902,"zip code":"60152-0564","site":"M.O.R.E. Center","id":"abjw789n40ic","address":"829 Greenlee St.","geo_precision":"range"},"type":"Feature","geometry":{"type":"Point","coordinates":[-88.599505,42.251489]}},{"properties":{"city":"Woodstock","code":"AGENCY","co fip":111,"type":"PANTRY","geo_score":0.902,"zip code":"60098","site":"Woodstock Food Pantry","id":"abjw78fpf98z","address":"1033 Lake Avenue","geo_precision":"range"},"type":"Feature","geometry":{"type":"Point","coordinates":[-88.43354,42.304304]}},{"properties":{"city":"Wonder Lake","code":"AGENCY","co fip":111,"type":"PANTRY","geo_score":0.902,"zip code":"60097","site":"Wonder Lake Church Of God","id":"abjw785dhr67","address":"4010 Westwood Drive","geo_precision":"range"},"type":"Feature","geometry":{"type":"Point","coordinates":[-88.3644,42.386796]}},{"properties":{"city":"Spring Grove","code":"EFP","co fip":111,"type":"PANTRY","geo_score":0.571,"zip code":"60081","site":"Helping Hands Food Pantry","id":"abjw781ofzrd","address":"2502 Spring Ridge Dr. Suite B","geo_precision":"street"},"type":"Feature","geometry":{"type":"Point","coordinates":[-88.234448,42.470348]}},{"properties":{"city":"Wonder Lake","code":"EFP","co fip":111,"type":"PANTRY","geo_score":0.455,"zip code":"60097","site":"Wonder Lake Neighbors Food Pantry","id":"abjw786syr8h","address":"3506 E. Wonder Lake Rd.","geo_precision":"street"},"type":"Feature","geometry":{"type":"Point","coordinates":[-88.345329,42.364731]}},{"properties":{"city":"Hebron","code":"AGENCY","co fip":111,"type":"PANTRY","geo_score":0.902,"zip code":"60034","site":"Hebron Community Food Pantry","id":"abjw784uiv27","address":"10317 Freeman Road","geo_precision":"range"},"type":"Feature","geometry":{"type":"Point","coordinates":[-88.432716,42.478824]}},{"properties":{"city":"McHenry","code":"EFP","co fip":111,"type":"PANTRY","geo_score":0.462,"zip code":"60051","site":"FISH Of McHenry County","id":"abjw783gs6hy","address":"3515 N. Richmond Road","geo_precision":"street"},"type":"Feature","geometry":{"type":"Point","coordinates":[-88.267321,42.351891]}},{"properties":{"city":"Huntley","code":"EFP","co fip":111,"type":"PANTRY","geo_score":0.873,"zip code":"60142","site":"Grafton Food Pantry","id":"abjw78444q91","address":"11481 Allison Court","geo_precision":"range"},"type":"Feature","geometry":{"type":"Point","coordinates":[-88.41865,42.154888]}},{"properties":{"city":"Hebron","code":"AGENCY","co fip":111,"type":"PANTRY","geo_score":0.78,"zip code":"60034","site":"Transitional Living Service","id":"abjw78gulhek","address":"10513 IL Route 47","geo_precision":"range"},"type":"Feature","geometry":{"type":"Point","coordinates":[-88.438077,42.477631]}},{"properties":{"city":"Cary","code":"EFP","co fip":111,"type":"PANTRY","geo_score":0.429,"zip code":"60013","site":"Cary Grove Food Pantry","id":"abjw783ov43u","address":"8901 S. Cary-Algonquin Road","geo_precision":"street"},"type":"Feature","geometry":{"type":"Point","coordinates":[-88.253677,42.212216]}},{"properties":{"city":"Lake in the Hills","code":"EFP","co fip":111,"type":"PANTRY","geo_score":0.902,"zip code":"60156","site":"Algonquin/Lake In The Hills Food Pantry","id":"abjw785sxjeq","address":"1113 Pyott Road","geo_precision":"range"},"type":"Feature","geometry":{"type":"Point","coordinates":[-88.310056,42.195266]}},{"properties":{"city":"Crystal Lake","code":"AGENCY","co fip":111,"type":"PANTRY","geo_score":0.452,"zip code":"60014","site":"Salvation Army - Crystal Lake","id":"abjw782s1u08","address":"290 W. Crystal Lake Ave.","geo_precision":"street"},"type":"Feature","geometry":{"type":"Point","coordinates":[-88.324362,42.241101]}},{"properties":{"city":"Harvard","code":"AGENCY","co fip":111,"type":"PANTRY","geo_score":0.462,"zip code":"60033","site":"New Life Pentecostal Church Food Pantry","id":"abjw781qyupw","address":"309 N. Division Street","geo_precision":"street"},"type":"Feature","geometry":{"type":"Point","coordinates":[-88.613537,42.417778]}},{"properties":{"city":"Spring Grove","code":"AGENCY","co fip":111,"type":"PANTRY","geo_score":0.78,"zip code":"60081","site":"The Manger Food Pantry","id":"abjw78e9ikuc","address":"7664 Wilmot Road","geo_precision":"range"},"type":"Feature","geometry":{"type":"Point","coordinates":[-88.218026,42.438347]}},{"properties":{"city":"Crystal Lake","code":"EFP","co fip":111,"type":"PANTRY","geo_score":0.902,"zip code":"60014","site":"Crystal Lake Food Pantry","id":"abjw78eq5n4i","address":"257 King Street","geo_precision":"range"},"type":"Feature","geometry":{"type":"Point","coordinates":[-88.336695,42.233701]}},{"properties":{"city":"McHenry","code":"AGENCY","co fip":111,"type":"PANTRY","geo_score":0.902,"zip code":"60050","site":"St. Vincent Depaul Society","id":"abjw78hmdyly","address":"5211 Bull Valley Road","geo_precision":"range"},"type":"Feature","geometry":{"type":"Point","coordinates":[-88.298257,42.320261]}},{"properties":{"city":"McHenry","code":"AGENCY","co fip":111,"type":"PANTRY","geo_score":0.805,"zip code":"60051","site":"Faith Acres Foundation Food Pantry","id":"abjw788ex2yw","address":"120 Dowell","geo_precision":"range"},"type":"Feature","geometry":{"type":"Point","coordinates":[-88.199239,42.297834]}},{"properties":{"city":"Harvard","code":"AGENCY","co fip":111,"type":"PANTRY","geo_score":0.902,"zip code":"60033","site":"Brown Bear Day Care &amp; Learning Center FP","id":"abjw78da06v9","address":"21007  McGuire Road","geo_precision":"range"},"type":"Feature","geometry":{"type":"Point","coordinates":[-88.612025,42.40729]}},{"properties":{"city":"Woodstock","code":"EFP","co fip":111,"type":"PANTRY","geo_score":0.462,"zip code":"60098","site":"Woodstock Bible Church Food Pantry","id":"abjw78d8vgaz","address":"770 E. Kimball Ave.","geo_precision":"street"},"type":"Feature","geometry":{"type":"Point","coordinates":[-88.45387,42.305626]}},{"properties":{"city":"Mount Morris","code":"EFP","co fip":141,"type":"PANTRY","geo_score":0.464,"zip code":"61054","site":"Loaves &amp; Fish Food Pantry","id":"abjw7885rx7p","address":"409 W. Brayton Road","geo_precision":"street"},"type":"Feature","geometry":{"type":"Point","coordinates":[-89.434675,42.044993]}},{"properties":{"city":"Lindenwood","code":"AGENCY","co fip":141,"type":"PANTRY","geo_score":0.863,"zip code":"61049","site":"Immanuel Lutheran Good Samaritan","id":"abjw78czpmye","address":"16060 Lindenwood Road","geo_precision":"range"},"type":"Feature","geometry":{"type":"Point","coordinates":[-89.045279,42.055842]}},{"properties":{"city":"Forreston","code":"AGENCY","co fip":141,"type":"PANTRY","geo_score":0.476,"zip code":"61030","site":"New Life Community Center","id":"abjw78fzbi3t","address":"205 E. Main, P.O. Box 66","geo_precision":"street"},"type":"Feature","geometry":{"type":"Point","coordinates":[-89.579172,42.126067]}},{"properties":{"city":"Stillman Valley","code":"EFP","co fip":141,"type":"PANTRY","geo_score":0.471,"zip code":"61084","site":"Bread Of Life  VECC","id":"abjw78b61dqj","address":"103 S. Maple Street","geo_precision":"street"},"type":"Feature","geometry":{"type":"Point","coordinates":[-89.177241,42.105771]}},{"properties":{"city":"Rochelle","code":"AGENCY","co fip":141,"type":"PANTRY","geo_score":0.462,"zip code":"61068","site":"Calvary Lighthouse","id":"abjw782lteh6","address":"14409 E. Hemstock Road","geo_precision":"street"},"type":"Feature","geometry":{"type":"Point","coordinates":[-89.140993,41.962191]}},{"properties":{"city":"Rochelle","code":"EFP","co fip":141,"type":"PANTRY","geo_score":0.902,"zip code":"61068","site":"Hand In Hand - Rochelle","id":"abjw781g1214","address":"414 Cherry Ave","geo_precision":"range"},"type":"Feature","geometry":{"type":"Point","coordinates":[-89.065236,41.922065]}},{"properties":{"city":"Oregon","code":"AGENCY","co fip":141,"type":"PANTRY","geo_score":0.482,"zip code":"61061","site":"Lifeline  Self+Help Project","id":"abjw789i7zt3","address":"201 N. 3rd St.","geo_precision":"street"},"type":"Feature","geometry":{"type":"Point","coordinates":[-89.331183,42.015647]}},{"properties":{"city":"Polo","code":"EFP","co fip":141,"type":"PANTRY","geo_score":0.471,"zip code":"61064","site":"Polo Lifeline","id":"abjw785sf8mk","address":"107 W. Mason","geo_precision":"street"},"type":"Feature","geometry":{"type":"Point","coordinates":[-89.578839,41.986146]}},{"properties":{"city":"Rochelle","code":"EFP","co fip":141,"type":"PANTRY","geo_score":0.468,"zip code":"61068","site":"Rochelle Christian","id":"abjw7865qngh","address":"770 W. Lincoln Ave.","geo_precision":"street"},"type":"Feature","geometry":{"type":"Point","coordinates":[-89.066302,41.921814]}},{"properties":{"city":"Davis","code":"AGENCY","co fip":177,"type":"PANTRY","geo_score":0.49,"zip code":"61019","site":"Faith Community Food Pantry","id":"abjw78d1x1lp","address":"212 West McKimmy St.","geo_precision":"street"},"type":"Feature","geometry":{"type":"Point","coordinates":[-88.849545,42.265795]}},{"properties":{"city":"Freeport","code":"EFP","co fip":177,"type":"PANTRY","geo_score":0.902,"zip code":"61032","site":"Hearts that Care, Inc.","id":"abjw78a809uu","address":"420 Challenge St.","geo_precision":"range"},"type":"Feature","geometry":{"type":"Point","coordinates":[-89.611394,42.281503]}},{"properties":{"city":"Freeport","code":"AGENCY","co fip":177,"type":"PANTRY","geo_score":0.468,"zip code":"61032","site":"Abundant Life Christian","id":"abjw78fhjl1g","address":"250 N. Westwood Avenue","geo_precision":"street"},"type":"Feature","geometry":{"type":"Point","coordinates":[-89.652043,42.293027]}},{"properties":{"city":"Freeport","code":"EFP","co fip":177,"type":"PANTRY","geo_score":0.468,"zip code":"61032","site":"Gospel Outreach Of Freeport","id":"abjw78fex7s3","address":"209 W. Spring Street","geo_precision":"street"},"type":"Feature","geometry":{"type":"Point","coordinates":[-89.620792,42.296088]}},{"properties":{"city":"Pecatonica","code":"AGENCY","co fip":177,"type":"PANTRY","geo_score":0.835,"zip code":"61063","site":"Pecatonica United Methodist","id":"abjw7827dtp1","address":"528 Washington","geo_precision":"range"},"type":"Feature","geometry":{"type":"Point","coordinates":[-89.357844,42.312524]}},{"properties":{"city":"Freeport","code":"AGENCY","co fip":177,"type":"PANTRY","geo_score":0.462,"zip code":"61032","site":"Freeport Area Church CO-OP","id":"abjw7821fx10","address":"514 S. Chicago","geo_precision":"street"},"type":"Feature","geometry":{"type":"Point","coordinates":[-89.618873,42.29687]}},{"properties":{"city":"Baileyville","code":"AGENCY","co fip":177,"type":"PANTRY","geo_score":0.471,"zip code":"61007","site":"German Valley Food Pantry","id":"abjw78cvtw88","address":"12878 N. Crane Grove Rd","geo_precision":"street"},"type":"Feature","geometry":{"type":"Point","coordinates":[-89.57096,42.185791]}},{"properties":{"city":"Lena","code":"EFP","co fip":177,"type":"PANTRY","geo_score":0.476,"zip code":"61048","site":"Lena-Winslow Food Pantry","id":"abjw786d69it","address":"511 W. Lena Street","geo_precision":"street"},"type":"Feature","geometry":{"type":"Point","coordinates":[-89.822199,42.379193]}},{"properties":{"city":"Freeport","code":"EFP","co fip":177,"type":"PANTRY","geo_score":0.714,"zip code":"61032","site":"Salvation Army-Freeport Food Pantry","id":"abjw782pw46j","address":"106 W. Exchange Street","geo_precision":"zip"},"type":"Feature","geometry":{"type":"Point","coordinates":[-89.527338,42.344462]}},{"properties":{"city":"Joliet","code":"AGENCY","co fip":197,"type":"PANTRY","geo_score":0.902,"zip code":"60436","site":"Fellowship Bible - Joliet","id":"abjw781qpspe","address":"122 Morris Street","geo_precision":"range"},"type":"Feature","geometry":{"type":"Point","coordinates":[-88.122199,41.52132]}},{"properties":{"city":"Lockport","code":"AGENCY","co fip":197,"type":"PANTRY","geo_score":0.823,"zip code":"60441","site":"First Baptist Church Pantry","id":"abjw788tlmuq","address":"800 Thornton","geo_precision":"range"},"type":"Feature","geometry":{"type":"Point","coordinates":[-88.041338,41.597388]}},{"properties":{"city":"Romeoville","code":"EFP","co fip":197,"type":"PANTRY","geo_score":0.902,"zip code":"60446","site":"We Care Of Romeoville","id":"abjw78a7doqg","address":"219 Arlington Drive","geo_precision":"range"},"type":"Feature","geometry":{"type":"Point","coordinates":[-88.089394,41.650312]}},{"properties":{"city":"Manhattan","code":"AGENCY","co fip":197,"type":"PANTRY","geo_score":0.902,"zip code":"60442","site":"Christ's Mission Church","id":"abjw78h8p21y","address":"22811 S Cedar Road","geo_precision":"range"},"type":"Feature","geometry":{"type":"Point","coordinates":[-87.964266,41.468624]}},{"properties":{"city":"Bolingbrook","code":"EFP","co fip":197,"type":"PANTRY","geo_score":0.902,"zip code":"60440","site":"New Song - Seeds Of Hope","id":"abjw78hchtyq","address":"151 E Briarcliff Road","geo_precision":"range"},"type":"Feature","geometry":{"type":"Point","coordinates":[-88.06739,41.698445]}},{"properties":{"city":"Lockport","code":"AGENCY","co fip":197,"type":"PANTRY","geo_score":0.829,"zip code":"60441","site":"Lockport Fish Food Pantry","id":"abjw782tqljx","address":"604 E 9th Street","geo_precision":"range"},"type":"Feature","geometry":{"type":"Point","coordinates":[-88.048401,41.587551]}},{"properties":{"city":"Joliet","code":"EFP","co fip":197,"type":"PANTRY","geo_score":0.902,"zip code":"60436","site":"Warren Sharpe Community Center","id":"abjw7831hp8i","address":"454 S Joliet St","geo_precision":"range"},"type":"Feature","geometry":{"type":"Point","coordinates":[-88.083946,41.514554]}},{"properties":{"city":"Joliet","code":"EFP","co fip":197,"type":"PANTRY","geo_score":0.725,"zip code":"60434","site":"Mt Zion Lift Him Up Ministries","id":"abjw785a5flw","address":"351 N Ottawa","geo_precision":"range"},"type":"Feature","geometry":{"type":"Point","coordinates":[-88.083174,41.531455]}},{"properties":{"city":"Joliet","code":"EFP","co fip":197,"type":"PANTRY","geo_score":0.902,"zip code":"60435","site":"St John the Baptist Food Pantry","id":"abjw78941clp","address":"260 Division Street","geo_precision":"range"},"type":"Feature","geometry":{"type":"Point","coordinates":[-88.090339,41.530898]}},{"properties":{"city":"Joliet","code":"EFP","co fip":197,"type":"PANTRY","geo_score":0.902,"zip code":"60432","site":"Spanish Community Center","id":"abjw789radz4","address":"309 N Eastern Ave","geo_precision":"range"},"type":"Feature","geometry":{"type":"Point","coordinates":[-88.074951,41.531403]}},{"properties":{"city":"Wilmington","code":"EFP","co fip":197,"type":"PANTRY","geo_score":0.902,"zip code":"60481","site":"Kuzma Care Cottage","id":"abjw78ddjykf","address":"635 S Main Street","geo_precision":"range"},"type":"Feature","geometry":{"type":"Point","coordinates":[-88.143543,41.304126]}},{"properties":{"city":"Joliet","code":"AGENCY","co fip":197,"type":"PANTRY","geo_score":0.488,"zip code":"60436","site":"Will County Baptist Temple","id":"abjw785guabw","address":"625 McDonough Street","geo_precision":"zip"},"type":"Feature","geometry":{"type":"Point","coordinates":[-88.15716,41.48843]}},{"properties":{"city":"Romeoville","code":"EFP","co fip":197,"type":"PANTRY","geo_score":0.902,"zip code":"60446","site":"Dupage Township","id":"abjw784gcgsi","address":"719 Parkwood Ave","geo_precision":"range"},"type":"Feature","geometry":{"type":"Point","coordinates":[-88.07645,41.654817]}},{"properties":{"city":"Bolingbrook","code":"AGENCY","co fip":197,"type":"PANTRY","geo_score":0.902,"zip code":"60440","site":"Bolingbrook 7Th Day Advent Food Pantry","id":"abjw7846005m","address":"301 East Boughton Road","geo_precision":"range"},"type":"Feature","geometry":{"type":"Point","coordinates":[-88.063587,41.712671]}},{"properties":{"city":"New Lenox","code":"AGENCY","co fip":197,"type":"PANTRY","geo_score":0.849,"zip code":"60451","site":"Crossroads Comm Church Pantry","id":"abjw78ahyfk2","address":"1501 South Gougar Road","geo_precision":"range"},"type":"Feature","geometry":{"type":"Point","coordinates":[-88.003712,41.493824]}},{"properties":{"city":"Joliet","code":"EFP","co fip":197,"type":"PANTRY","geo_score":0.805,"zip code":"60433","site":"Life Line Food Pantry","id":"abjw786caur9","address":"503 S Water Street","geo_precision":"range"},"type":"Feature","geometry":{"type":"Point","coordinates":[-88.145081,41.304605]}},{"properties":{"city":"Joliet","code":"AGENCY","co fip":197,"type":"PANTRY","geo_score":0.902,"zip code":"60432","site":"Blessing Bench Pantry","id":"abjw785p7hyr","address":"55 W Benton Street","geo_precision":"range"},"type":"Feature","geometry":{"type":"Point","coordinates":[-88.084071,41.52976]}},{"properties":{"city":"Lockport","code":"EFP","co fip":197,"type":"PANTRY","geo_score":0.902,"zip code":"60441","site":"Fairmont Food Pantry","id":"abjw783sokr9","address":"525 Barry Avenue","geo_precision":"range"},"type":"Feature","geometry":{"type":"Point","coordinates":[-88.061483,41.557928]}},{"properties":{"city":"Braidwood","code":"EFP","co fip":197,"type":"PANTRY","geo_score":0.902,"zip code":"60408","site":"Community Care Center - Braidwood","id":"abjw781wwh62","address":"112 S Center Street","geo_precision":"range"},"type":"Feature","geometry":{"type":"Point","coordinates":[-88.217381,41.26413]}},{"properties":{"city":"Joliet","code":"AGENCY","co fip":197,"type":"PANTRY","geo_score":0.902,"zip code":"60436","site":"Lebanon Dist. Laymen Ministry","id":"abjw78gaoh13","address":"402 Singleton Place","geo_precision":"range"},"type":"Feature","geometry":{"type":"Point","coordinates":[-88.090513,41.498463]}},{"properties":{"city":"Joliet","code":"AGENCY","co fip":197,"type":"PANTRY","geo_score":0.815,"zip code":"60432","site":"New Testament Fellowship","id":"abjw78821rul","address":"515 N Scott","geo_precision":"range"},"type":"Feature","geometry":{"type":"Point","coordinates":[-88.08043,41.533956]}},{"properties":{"city":"Joliet","code":"EFP","co fip":197,"type":"PANTRY","geo_score":0.902,"zip code":"60432","site":"Ridgewood United Comm Pantry","id":"abjw78bweo51","address":"301 Fairbanks Ave.","geo_precision":"range"},"type":"Feature","geometry":{"type":"Point","coordinates":[-88.049176,41.532011]}},{"properties":{"city":"Plainfield","code":"AGENCY","co fip":197,"type":"PANTRY","geo_score":0.434,"zip code":"60544","site":"Life Spring Community Church","id":"abjw78eo834j","address":"1000 Hacker Ave","geo_precision":"street"},"type":"Feature","geometry":{"type":"Point","coordinates":[-88.195816,41.557044]}},{"properties":{"city":"Plainfield","code":"AGENCY","co fip":197,"type":"PANTRY","geo_score":0.0,"zip code":"60585","site":"Green Harvest Food Pantry","id":"abjw789jss5o","address":"25448 Ruff Street","geo_precision":"unmatched"},"type":"Feature","geometry":null},{"properties":{"city":"Romeoville","code":"AGENCY","co fip":197,"type":"PANTRY","geo_score":0.902,"zip code":"60446","site":"Good Shepherd Pantry","id":"abjw788y0ma0","address":"2 Belmont Dr","geo_precision":"range"},"type":"Feature","geometry":{"type":"Point","coordinates":[-88.080766,41.64749]}},{"properties":{"city":"Shorewood","code":"AGENCY","co fip":197,"type":"PANTRY","geo_score":0.0,"zip code":"60404","site":"Restoration Christian Church","id":"abjw788dxjlj","address":"114 Channahon Street","geo_precision":"unmatched"},"type":"Feature","geometry":null},{"properties":{"city":"Peotone","code":"AGENCY","co fip":197,"type":"PANTRY","geo_score":0.835,"zip code":"60468","site":"Helping Hands - Peotone","id":"abjw784jwaom","address":"200 West Crawford","geo_precision":"range"},"type":"Feature","geometry":{"type":"Point","coordinates":[-87.793804,41.335446]}},{"properties":{"city":"Joliet","code":"AGENCY","co fip":197,"type":"PANTRY","geo_score":0.902,"zip code":"60433","site":"True Tabernacle Christian","id":"abjw78g72yox","address":"1220 Pawnee St.","geo_precision":"range"},"type":"Feature","geometry":{"type":"Point","coordinates":[-88.057965,41.502695]}},{"properties":{"city":"Bolingbrook","code":"AGENCY","co fip":197,"type":"PANTRY","geo_score":0.805,"zip code":"60440","site":"First Baptist Church Bolingbrook","id":"abjw786sztoa","address":"314 E Briarcliff Rd","geo_precision":"street"},"type":"Feature","geometry":{"type":"Point","coordinates":[-88.05536,41.698786]}},{"properties":{"city":"New Lenox","code":"AGENCY","co fip":197,"type":"PANTRY","geo_score":0.429,"zip code":"60451","site":"New Life Church - New Lenox","id":"abjw7846zk9x","address":"500 S. Gougar Road","geo_precision":"street"},"type":"Feature","geometry":{"type":"Point","coordinates":[-88.004521,41.514053]}},{"properties":{"city":"Frankfort","code":"AGENCY","co fip":197,"type":"PANTRY","geo_score":0.687,"zip code":"60423","site":"Peace Community Church","id":"abjw78hrdz3d","address":"21300 S LaGrange Road","geo_precision":"street"},"type":"Feature","geometry":{"type":"Point","coordinates":[-87.868102,41.491821]}},{"properties":{"city":"Channahon","code":"AGENCY","co fip":197,"type":"PANTRY","geo_score":0.876,"zip code":"60410","site":"Living Manna Food Ministry","id":"abjw78360h1f","address":"25124 S Fryer St","geo_precision":"range"},"type":"Feature","geometry":{"type":"Point","coordinates":[-88.226714,41.425431]}},{"properties":{"city":"Joliet","code":"AGENCY","co fip":197,"type":"PANTRY","geo_score":0.902,"zip code":"60436","site":"St. Patrick's Food Pantry","id":"abjw78bg9yo1","address":"710 W Marion Street","geo_precision":"range"},"type":"Feature","geometry":{"type":"Point","coordinates":[-88.099868,41.521725]}},{"properties":{"city":"Joliet","code":"AGENCY","co fip":197,"type":"PANTRY","geo_score":0.463,"zip code":"60435","site":"Soul Food Pantry","id":"abjw781q57ne","address":"2800 Black Road","geo_precision":"street"},"type":"Feature","geometry":{"type":"Point","coordinates":[-88.239267,41.238763]}},{"properties":{"city":"Joliet","code":"EFP","co fip":197,"type":"PANTRY","geo_score":0.902,"zip code":"60436","site":"Second Baptist Food Pantry","id":"abjw78g9n1zj","address":"156 S Joliet Street","geo_precision":"range"},"type":"Feature","geometry":{"type":"Point","coordinates":[-88.084139,41.520648]}},{"properties":{"city":"Joliet","code":"EFP","co fip":197,"type":"PANTRY","geo_score":0.708,"zip code":"60435","site":"St John Lutheran Church","id":"abjw782ryb6v","address":"2650 Plainfield Road","geo_precision":"street"},"type":"Feature","geometry":{"type":"Point","coordinates":[-88.119503,41.550706]}},{"properties":{"city":"Joliet","code":"AGENCY","co fip":197,"type":"PANTRY","geo_score":0.78,"zip code":"60433","site":"Christ Temple Food Pantry","id":"abjw78gc17vp","address":"212 Richards Street","geo_precision":"street"},"type":"Feature","geometry":{"type":"Point","coordinates":[-88.074238,41.517018]}},{"properties":{"city":"University Park","code":"AGENCY","co fip":197,"type":"PANTRY","geo_score":0.488,"zip code":"60466","site":"Pilgrimage Protestant","id":"abjw78b4rz6r","address":"1100 Exchange Pkwy","geo_precision":"zip"},"type":"Feature","geometry":{"type":"Point","coordinates":[-87.685325,41.592257]}},{"properties":{"city":"Plainfield","code":"EFP","co fip":197,"type":"PANTRY","geo_score":0.488,"zip code":"60544","site":"Plainfield Area Interfaith","id":"abjw78gz35dh","address":"22525 W Lockport St","geo_precision":"zip"},"type":"Feature","geometry":{"type":"Point","coordinates":[-88.181452,41.590308]}},{"properties":{"city":"Joliet","code":"AGENCY","co fip":197,"type":"PANTRY","geo_score":0.902,"zip code":"60432","site":"Glory Tabernacle Church","id":"abjw781e7uq3","address":"459 N Ottawa St","geo_precision":"range"},"type":"Feature","geometry":{"type":"Point","coordinates":[-88.082047,41.533125]}},{"properties":{"city":"Joliet","code":"AGENCY","co fip":197,"type":"PANTRY","geo_score":0.902,"zip code":"60432","site":"Greater Bible Way Apostolic","id":"abjw781fukw5","address":"1214 Brown Ave.","geo_precision":"range"},"type":"Feature","geometry":{"type":"Point","coordinates":[-88.04939,41.531011]}},{"properties":{"city":"Crest Hill","code":"EFP","co fip":197,"type":"PANTRY","geo_score":0.46,"zip code":"60435","site":"Family Outreach Program Inc","id":"abjw789eisp0","address":"Ship to: 2223 Plainfield Road","geo_precision":"street"},"type":"Feature","geometry":{"type":"Point","coordinates":[-88.119503,41.550706]}},{"properties":{"city":"Joliet","code":"AGENCY","co fip":197,"type":"PANTRY","geo_score":0.462,"zip code":"60435","site":"Lively Hope Church Of God","id":"abjw78he1d7q","address":"308 N. Midland","geo_precision":"street"},"type":"Feature","geometry":{"type":"Point","coordinates":[-88.115184,41.523796]}},{"properties":{"city":"Joliet","code":"AGENCY","co fip":197,"type":"PANTRY","geo_score":0.819,"zip code":"60433","site":"Salvation Army - Joliet","id":"abjw78gnmogn","address":"300 Third Ave","geo_precision":"range"},"type":"Feature","geometry":{"type":"Point","coordinates":[-88.072969,41.51886]}},{"properties":{"city":"Rockton","code":"AGENCY","co fip":201,"type":"PANTRY","geo_score":0.873,"zip code":"61072","site":"Harrison Bible Baptist Church","id":"abjw78bqbdva","address":"11878 Genesee St.","geo_precision":"range"},"type":"Feature","geometry":{"type":"Point","coordinates":[-89.193788,42.425686]}},{"properties":{"city":"Rockford","code":"AGENCY","co fip":201,"type":"PANTRY","geo_score":0.902,"zip code":"61101","site":"Berean Baptist Church Pantry","id":"abjw7865sfco","address":"5626 Safford Road","geo_precision":"range"},"type":"Feature","geometry":{"type":"Point","coordinates":[-89.149587,42.302493]}},{"properties":{"city":"Rockford","code":"EFP","co fip":201,"type":"PANTRY","geo_score":0.488,"zip code":"61102","site":"Rock River Valley Food Pantry","id":"abjw78ho9eh7","address":"421 South Rockton Avenue","geo_precision":"zip"},"type":"Feature","geometry":{"type":"Point","coordinates":[-89.155825,42.22974]}},{"properties":{"city":"Rockford","code":"EFP","co fip":201,"type":"PANTRY","geo_score":0.902,"zip code":"61104","site":"Rock River Valley","id":"abjw783lj67u","address":"1100 Broadway","geo_precision":"range"},"type":"Feature","geometry":{"type":"Point","coordinates":[-89.078913,42.252371]}},{"properties":{"city":"Rockford","code":"EFP","co fip":201,"type":"PANTRY","geo_score":0.476,"zip code":"61102","site":"St. Elizabeth's Center Food Pantry","id":"abjw786r6zak","address":"1505 S. Main St.","geo_precision":"street"},"type":"Feature","geometry":{"type":"Point","coordinates":[-89.100546,42.260896]}},{"properties":{"city":"Rockford","code":"AGENCY","co fip":201,"type":"PANTRY","geo_score":0.819,"zip code":"61109","site":"Life Church - South Campus","id":"abjw7844ahah","address":"4312 20th St","geo_precision":"range"},"type":"Feature","geometry":{"type":"Point","coordinates":[-89.057526,42.218548]}},{"properties":{"city":"Roscoe","code":"AGENCY","co fip":201,"type":"PANTRY","geo_score":0.902,"zip code":"61073","site":"Life Church North Campus","id":"abjw784g8ldm","address":"5910 Elevator Road","geo_precision":"range"},"type":"Feature","geometry":{"type":"Point","coordinates":[-89.002697,42.427696]}},{"properties":{"city":"Rockford","code":"AGENCY","co fip":201,"type":"PANTRY","geo_score":0.824,"zip code":"61111","site":"St. Bridget's Church","id":"abjw7885iom8","address":"704 Clifford Avenue","geo_precision":"range"},"type":"Feature","geometry":{"type":"Point","coordinates":[-89.051394,42.317945]}},{"properties":{"city":"Rockford","code":"AGENCY","co fip":201,"type":"PANTRY","geo_score":0.519,"zip code":"61105","site":"God's Glory Food Pantry","id":"abjw785lcoap","address":"1250 South Perryville Rd (church)","geo_precision":"street"},"type":"Feature","geometry":{"type":"Point","coordinates":[-89.097794,42.269065]}},{"properties":{"city":"Rockford","code":"AGENCY","co fip":201,"type":"PANTRY","geo_score":0.902,"zip code":"61102","site":"Christ The Carpenter","id":"abjw7859vzvl","address":"1121 South Winnebago St.","geo_precision":"range"},"type":"Feature","geometry":{"type":"Point","coordinates":[-89.104964,42.261483]}},{"properties":{"city":"Rockford","code":"EFP","co fip":201,"type":"PANTRY","geo_score":0.902,"zip code":"61107","site":"Cornucopia Food Pantry","id":"abjw781e4swq","address":"402 Market Street","geo_precision":"range"},"type":"Feature","geometry":{"type":"Point","coordinates":[-89.087354,42.268977]}},{"properties":{"city":"Rockford","code":"AGENCY","co fip":201,"type":"PANTRY","geo_score":0.819,"zip code":"61104","site":"Emmanuel Lutheran Food Pantry","id":"abjw78fv9n0l","address":"920 3rd Ave.","geo_precision":"range"},"type":"Feature","geometry":{"type":"Point","coordinates":[-89.082594,42.263786]}},{"properties":{"city":"Rockford","code":"AGENCY","co fip":201,"type":"PANTRY","geo_score":0.902,"zip code":"61109","site":"Gentle Shepherd Pantry","id":"abjw78bzfv0q","address":"2905 Bildahl Street","geo_precision":"range"},"type":"Feature","geometry":{"type":"Point","coordinates":[-89.075945,42.230383]}},{"properties":{"city":"Rockford","code":"AGENCY","co fip":201,"type":"PANTRY","geo_score":0.805,"zip code":"61102","site":"Living Word Ministries","id":"abjw78b4ffmm","address":"4426 Virginia Avenue","geo_precision":"range"},"type":"Feature","geometry":{"type":"Point","coordinates":[-89.151632,42.285895]}},{"properties":{"city":"Rockford","code":"AGENCY","co fip":201,"type":"PANTRY","geo_score":0.464,"zip code":"61104","site":"Salvation Army Rockford","id":"abjw78b59ebg","address":"416 S. Madison","geo_precision":"street"},"type":"Feature","geometry":{"type":"Point","coordinates":[-89.090018,42.268878]}},{"properties":{"city":"Rockford","code":"EFP","co fip":201,"type":"PANTRY","geo_score":0.819,"zip code":"61104","site":"Zion Lutheran Food Pantry","id":"abjw7887dfqr","address":"925 5th Avenue","geo_precision":"range"},"type":"Feature","geometry":{"type":"Point","coordinates":[-89.082636,42.261449]}},{"properties":{"city":"Rockford","code":"AGENCY","co fip":201,"type":"PANTRY","geo_score":0.429,"zip code":"61109","site":"Soul's Harbor Church","id":"abjw781zhqxv","address":"2802 - 11th Street","geo_precision":"street"},"type":"Feature","geometry":{"type":"Point","coordinates":[-89.072177,42.236094]}},{"properties":{"city":"Rockford","code":"EFP","co fip":201,"type":"PANTRY","geo_score":0.902,"zip code":"61102","site":"Life Center Food Pantry","id":"abjw78htffuk","address":"921 West State Street","geo_precision":"range"},"type":"Feature","geometry":{"type":"Point","coordinates":[-89.103754,42.275003]}},{"properties":{"city":"Rockton","code":"AGENCY","co fip":201,"type":"PANTRY","geo_score":0.551,"zip code":"61072","site":"St. Peter's Church Food Pantry","id":"abjw78dnepjp","address":"13537 Mary Lynne Drive (mail)","geo_precision":"street"},"type":"Feature","geometry":{"type":"Point","coordinates":[-89.049957,42.461387]}},{"properties":{"city":"Machesney Park","code":"AGENCY","co fip":201,"type":"PANTRY","geo_score":0.902,"zip code":"61115","site":"Helping Hands Food Pantry","id":"abjw786eve3t","address":"7620 Elm Avenue","geo_precision":"range"},"type":"Feature","geometry":{"type":"Point","coordinates":[-89.046353,42.336115]}},{"properties":{"city":"Rockford","code":"AGENCY","co fip":201,"type":"PANTRY","geo_score":0.459,"zip code":"61101","site":"Greater Emmanuel Pentecostal","id":"abjw784oh17k","address":"2425 W. Jefferson St.","geo_precision":"street"},"type":"Feature","geometry":{"type":"Point","coordinates":[-89.092366,42.272861]}}],"is_temporal":false,"author":{"url":"","metadata":"","contact_name":"","contact_address":"","source":"","contact_phone":""},"source":"","pagination":{"sort":null,"start":0,"total":263,"limit":1000000},"state":"complete","tags":"","published":"2014-08-16T16:01:51-04:00","id":312396}