{"type":"FeatureCollection","data_type":"Dataset","url_type":null,"permissions":[{"permissions":{"download":true,"view":true},"group_id":"everyone"}],"classification":null,"title":"MapData2011","count":48,"stream_id":312636,"contributor":{"url":"http://geocommons.com/users/59142","name":"jesseinsureon"},"data_attributes":null,"calculation_params":null,"icon_link":null,"link":"http://geocommons.com/overlays/312636.json","extent":[0.0,0.0,0.0,0.0],"geometry_types":null,"unique_name":null,"name":"MapData2011","feature_count":48,"description":"","next_feature":null,"is_raster":false,"short_classification":"Y","features":[{"properties":{"average num employees":"2","premium per employee":"558","premium per $1000 revenue":"0.87","id":"abkmobka9owp","average premium":"616","state":"AL"},"type":"Feature","geometry":null},{"properties":{"average num employees":"1","premium per employee":"709","premium per $1000 revenue":"0.78","id":"abkmobfuv3a3","average premium":"736","state":"AR"},"type":"Feature","geometry":null},{"properties":{"average num employees":"1","premium per employee":"587","premium per $1000 revenue":"0.56","id":"abkmobgw6k4d","average premium":"630","state":"AZ"},"type":"Feature","geometry":null},{"properties":{"average num employees":"2","premium per employee":"677","premium per $1000 revenue":"0.90","id":"abkmoba9mfn9","average premium":"804","state":"CA"},"type":"Feature","geometry":null},{"properties":{"average num employees":"1","premium per employee":"617","premium per $1000 revenue":"0.71","id":"abkmobdl91dl","average premium":"669","state":"CO"},"type":"Feature","geometry":null},{"properties":{"average num employees":"1","premium per employee":"586","premium per $1000 revenue":"0.75","id":"abkmobcq0bti","average premium":"608","state":"CT"},"type":"Feature","geometry":null},{"properties":{"average num employees":"1","premium per employee":"1,059","premium per $1000 revenue":"1.04","id":"abkmoba5gzkm","average premium":"1,094","state":"DC"},"type":"Feature","geometry":null},{"properties":{"average num employees":"3","premium per employee":"543","premium per $1000 revenue":"0.75","id":"abkmobnd4yxw","average premium":"695","state":"DE"},"type":"Feature","geometry":null},{"properties":{"average num employees":"1","premium per employee":"557","premium per $1000 revenue":"0.58","id":"abkmobigdkwv","average premium":"557","state":"FL"},"type":"Feature","geometry":null},{"properties":{"average num employees":"1","premium per employee":"648","premium per $1000 revenue":"0.89","id":"abkmob95p3e0","average premium":"678","state":"GA"},"type":"Feature","geometry":null},{"properties":{"average num employees":"1","premium per employee":"568","premium per $1000 revenue":"0.47","id":"abkmobof7l65","average premium":"580","state":"IA"},"type":"Feature","geometry":null},{"properties":{"average num employees":"4","premium per employee":"441","premium per $1000 revenue":"0.83","id":"abkmobipw45m","average premium":"612","state":"ID"},"type":"Feature","geometry":null},{"properties":{"average num employees":"2","premium per employee":"663","premium per $1000 revenue":"0.97","id":"abkmobbi1cwo","average premium":"808","state":"IL"},"type":"Feature","geometry":null},{"properties":{"average num employees":"1","premium per employee":"563","premium per $1000 revenue":"0.68","id":"abkmoba7tpg3","average premium":"645","state":"IN"},"type":"Feature","geometry":null},{"properties":{"average num employees":"2","premium per employee":"629","premium per $1000 revenue":"0.69","id":"abkmobkajcag","average premium":"688","state":"KS"},"type":"Feature","geometry":null},{"properties":{"average num employees":"1","premium per employee":"611","premium per $1000 revenue":"1.29","id":"abkmobmvxiwj","average premium":"636","state":"KY"},"type":"Feature","geometry":null},{"properties":{"average num employees":"3","premium per employee":"485","premium per $1000 revenue":"0.35","id":"abkmobmesd2x","average premium":"1,170","state":"LA"},"type":"Feature","geometry":null},{"properties":{"average num employees":"2","premium per employee":"657","premium per $1000 revenue":"0.56","id":"abkmobhm89wv","average premium":"742","state":"MA"},"type":"Feature","geometry":null},{"properties":{"average num employees":"2","premium per employee":"597","premium per $1000 revenue":"0.56","id":"abkmobi8awur","average premium":"672","state":"MD"},"type":"Feature","geometry":null},{"properties":{"average num employees":"1","premium per employee":"902","premium per $1000 revenue":"0.74","id":"abkmobjzgerr","average premium":"902","state":"ME"},"type":"Feature","geometry":null},{"properties":{"average num employees":"2","premium per employee":"590","premium per $1000 revenue":"1.06","id":"abkmobb7ojkh","average premium":"681","state":"MI"},"type":"Feature","geometry":null},{"properties":{"average num employees":"1","premium per employee":"596","premium per $1000 revenue":"0.85","id":"abkmobdjpb3l","average premium":"708","state":"MN"},"type":"Feature","geometry":null},{"properties":{"average num employees":"1","premium per employee":"742","premium per $1000 revenue":"2.46","id":"abkmobaafmy3","average premium":"775","state":"MO"},"type":"Feature","geometry":null},{"properties":{"average num employees":"1","premium per employee":"668","premium per $1000 revenue":"0.49","id":"abkmobk4nkip","average premium":"668","state":"MS"},"type":"Feature","geometry":null},{"properties":{"average num employees":"1","premium per employee":"511","premium per $1000 revenue":"2.45","id":"abkmobkzdrbn","average premium":"511","state":"MT"},"type":"Feature","geometry":null},{"properties":{"average num employees":"2","premium per employee":"614","premium per $1000 revenue":"0.88","id":"abkmob9uof8p","average premium":"704","state":"NC"},"type":"Feature","geometry":null},{"properties":{"average num employees":"3","premium per employee":"517","premium per $1000 revenue":"0.67","id":"abkmobblh6lh","average premium":"718","state":"NE"},"type":"Feature","geometry":null},{"properties":{"average num employees":"1","premium per employee":"607","premium per $1000 revenue":"0.89","id":"abkmobcerrsa","average premium":"660","state":"NH"},"type":"Feature","geometry":null},{"properties":{"average num employees":"2","premium per employee":"657","premium per $1000 revenue":"41.91","id":"abkmobh51m2t","average premium":"757","state":"NJ"},"type":"Feature","geometry":null},{"properties":{"average num employees":"1","premium per employee":"697","premium per $1000 revenue":"0.70","id":"abkmobo9ojzm","average premium":"730","state":"NM"},"type":"Feature","geometry":null},{"properties":{"average num employees":"2","premium per employee":"632","premium per $1000 revenue":"0.59","id":"abkmobeb47sw","average premium":"704","state":"NV"},"type":"Feature","geometry":null},{"properties":{"average num employees":"2","premium per employee":"715","premium per $1000 revenue":"0.95","id":"abkmobiqjf4h","average premium":"846","state":"NY"},"type":"Feature","geometry":null},{"properties":{"average num employees":"1","premium per employee":"713","premium per $1000 revenue":"0.51","id":"abkmobooc8wk","average premium":"806","state":"OH"},"type":"Feature","geometry":null},{"properties":{"average num employees":"1","premium per employee":"596","premium per $1000 revenue":"0.46","id":"abkmob8xf5rw","average premium":"649","state":"OK"},"type":"Feature","geometry":null},{"properties":{"average num employees":"1","premium per employee":"624","premium per $1000 revenue":"0.58","id":"abkmobdev23q","average premium":"691","state":"OR"},"type":"Feature","geometry":null},{"properties":{"average num employees":"2","premium per employee":"724","premium per $1000 revenue":"0.96","id":"abkmobcn7eiv","average premium":"797","state":"PA"},"type":"Feature","geometry":null},{"properties":{"average num employees":"1","premium per employee":"606","premium per $1000 revenue":"0.51","id":"abkmobn09e3s","average premium":"606","state":"RI"},"type":"Feature","geometry":null},{"properties":{"average num employees":"1","premium per employee":"606","premium per $1000 revenue":"0.52","id":"abkmob9q1sc8","average premium":"652","state":"SC"},"type":"Feature","geometry":null},{"properties":{"average num employees":"1","premium per employee":"630","premium per $1000 revenue":"0.53","id":"abkmobnm6faj","average premium":"630","state":"SD"},"type":"Feature","geometry":null},{"properties":{"average num employees":"2","premium per employee":"620","premium per $1000 revenue":"41.47","id":"abkmob8jcx7s","average premium":"735","state":"TN"},"type":"Feature","geometry":null},{"properties":{"average num employees":"2","premium per employee":"616","premium per $1000 revenue":"0.91","id":"abkmobeuy6xl","average premium":"739","state":"TX"},"type":"Feature","geometry":null},{"properties":{"average num employees":"1","premium per employee":"466","premium per $1000 revenue":"0.39","id":"abkmoboaqkjn","average premium":"534","state":"UT"},"type":"Feature","geometry":null},{"properties":{"average num employees":"2","premium per employee":"592","premium per $1000 revenue":"0.74","id":"abkmobfrfp63","average premium":"654","state":"VA"},"type":"Feature","geometry":null},{"properties":{"average num employees":"3","premium per employee":"559","premium per $1000 revenue":"0.23","id":"abkmobj92026","average premium":"897","state":"VT"},"type":"Feature","geometry":null},{"properties":{"average num employees":"1","premium per employee":"613","premium per $1000 revenue":"0.68","id":"abkmobc8padu","average premium":"702","state":"WA"},"type":"Feature","geometry":null},{"properties":{"average num employees":"1","premium per employee":"690","premium per $1000 revenue":"0.94","id":"abkmobigjhjw","average premium":"748","state":"WI"},"type":"Feature","geometry":null},{"properties":{"average num employees":"1","premium per employee":"1,671","premium per $1000 revenue":"6.82","id":"abkmobfqz1te","average premium":"1,671","state":"WV"},"type":"Feature","geometry":null},{"properties":{"average num employees":"1","premium per employee":"2,247","premium per $1000 revenue":"0.31","id":"abkmobbw6chj","average premium":"2,247","state":"WY"},"type":"Feature","geometry":null}],"is_temporal":false,"author":{"url":"","metadata":null,"contact_name":null,"contact_address":null,"source":null,"contact_phone":null},"source":"","pagination":{"sort":null,"start":0,"total":48,"limit":1000000},"state":"parsed","tags":"","published":"2014-08-16T16:23:10-04:00","id":312636}