{"type":"FeatureCollection","data_type":"Dataset","url_type":null,"permissions":[{"permissions":{"download":true,"view":true},"group_id":"everyone"}],"classification":null,"title":"InboundRaw","count":1009,"stream_id":312802,"contributor":{"url":"http://geocommons.com/users/59474","name":"tmeagle2"},"data_attributes":null,"calculation_params":null,"icon_link":null,"link":"http://geocommons.com/overlays/312802.json","extent":[0.0,0.0,0.0,0.0],"geometry_types":["point"],"unique_name":null,"name":"InboundRaw","feature_count":1009,"description":"","next_feature":null,"is_raster":false,"short_classification":"Y","stats":{"3digit":{"max":456,"variance":5406.9082896786,"mean":211.356788899901,"stdev":73.5316822171137,"min":137,"median":190},"inzips":{"max":456,"variance":5406.9082896786,"mean":211.356788899901,"stdev":73.5316822171137,"min":137,"median":190}},"features":[{"properties":{"zip":"13730","3digit":"137","inzips":"137","primary_city":"Afton","id":"abkwzqg8q77q","state":"NY"},"type":"Feature","geometry":null},{"properties":{"zip":"13731","3digit":"137","inzips":"137","primary_city":"Andes","id":"abkwzqlvydy2","state":"NY"},"type":"Feature","geometry":null},{"properties":{"zip":"13732","3digit":"137","inzips":"137","primary_city":"Apalachin","id":"abkwzqhynm04","state":"NY"},"type":"Feature","geometry":null},{"properties":{"zip":"13733","3digit":"137","inzips":"137","primary_city":"Bainbridge","id":"abkwzqd6vh1s","state":"NY"},"type":"Feature","geometry":null},{"properties":{"zip":"13734","3digit":"137","inzips":"137","primary_city":"Barton","id":"abkwzqpgzyvi","state":"NY"},"type":"Feature","geometry":null},{"properties":{"zip":"13736","3digit":"137","inzips":"137","primary_city":"Berkshire","id":"abkwzqcl7hxk","state":"NY"},"type":"Feature","geometry":null},{"properties":{"zip":"13737","3digit":"137","inzips":"137","primary_city":"Bible School Park","id":"abkwzqi11o8z","state":"NY"},"type":"Feature","geometry":null},{"properties":{"zip":"13738","3digit":"137","inzips":"137","primary_city":"Blodgett Mills","id":"abkwzqstaf5m","state":"NY"},"type":"Feature","geometry":null},{"properties":{"zip":"13739","3digit":"137","inzips":"137","primary_city":"Bloomville","id":"abkwzqjjqzu4","state":"NY"},"type":"Feature","geometry":null},{"properties":{"zip":"13740","3digit":"137","inzips":"137","primary_city":"Bovina Center","id":"abkwzql0fucg","state":"NY"},"type":"Feature","geometry":null},{"properties":{"zip":"13743","3digit":"137","inzips":"137","primary_city":"Candor","id":"abkwzqmfzrr9","state":"NY"},"type":"Feature","geometry":null},{"properties":{"zip":"13744","3digit":"137","inzips":"137","primary_city":"Castle Creek","id":"abkwzqo2gncj","state":"NY"},"type":"Feature","geometry":null},{"properties":{"zip":"13745","3digit":"137","inzips":"137","primary_city":"Chenango Bridge","id":"abkwzqixqvys","state":"NY"},"type":"Feature","geometry":null},{"properties":{"zip":"13746","3digit":"137","inzips":"137","primary_city":"Chenango Forks","id":"abkwzqh2dgjq","state":"NY"},"type":"Feature","geometry":null},{"properties":{"zip":"13747","3digit":"137","inzips":"137","primary_city":"Colliersville","id":"abkwzqgodlyf","state":"NY"},"type":"Feature","geometry":null},{"properties":{"zip":"13748","3digit":"137","inzips":"137","primary_city":"Conklin","id":"abkwzqiumrgu","state":"NY"},"type":"Feature","geometry":null},{"properties":{"zip":"13749","3digit":"137","inzips":"137","primary_city":"Corbettsville","id":"abkwzqejwaeq","state":"NY"},"type":"Feature","geometry":null},{"properties":{"zip":"13750","3digit":"137","inzips":"137","primary_city":"Davenport","id":"abkwzqqb6fag","state":"NY"},"type":"Feature","geometry":null},{"properties":{"zip":"13751","3digit":"137","inzips":"137","primary_city":"Davenport Center","id":"abkwzqmyyxxc","state":"NY"},"type":"Feature","geometry":null},{"properties":{"zip":"13752","3digit":"137","inzips":"137","primary_city":"Delancey","id":"abkwzqpg4p8p","state":"NY"},"type":"Feature","geometry":null},{"properties":{"zip":"13753","3digit":"137","inzips":"137","primary_city":"Delhi","id":"abkwzqlkox32","state":"NY"},"type":"Feature","geometry":null},{"properties":{"zip":"13754","3digit":"137","inzips":"137","primary_city":"Deposit","id":"abkwzqdupozj","state":"NY"},"type":"Feature","geometry":null},{"properties":{"zip":"13755","3digit":"137","inzips":"137","primary_city":"Downsville","id":"abkwzqolijpm","state":"NY"},"type":"Feature","geometry":null},{"properties":{"zip":"13756","3digit":"137","inzips":"137","primary_city":"East Branch","id":"abkwzqpii2fm","state":"NY"},"type":"Feature","geometry":null},{"properties":{"zip":"13757","3digit":"137","inzips":"137","primary_city":"East Meredith","id":"abkwzqreom3m","state":"NY"},"type":"Feature","geometry":null},{"properties":{"zip":"13758","3digit":"137","inzips":"137","primary_city":"East Pharsalia","id":"abkwzqmc68qv","state":"NY"},"type":"Feature","geometry":null},{"properties":{"zip":"13760","3digit":"137","inzips":"137","primary_city":"Endicott","id":"abkwzqsl2eqa","state":"NY"},"type":"Feature","geometry":null},{"properties":{"zip":"13761","3digit":"137","inzips":"137","primary_city":"Endicott","id":"abkwzqimthk2","state":"NY"},"type":"Feature","geometry":null},{"properties":{"zip":"13762","3digit":"137","inzips":"137","primary_city":"Endwell","id":"abkwzqn4wadr","state":"NY"},"type":"Feature","geometry":null},{"properties":{"zip":"13763","3digit":"137","inzips":"137","primary_city":"Endicott","id":"abkwzqknqlpr","state":"NY"},"type":"Feature","geometry":null},{"properties":{"zip":"13774","3digit":"137","inzips":"137","primary_city":"Fishs Eddy","id":"abkwzqnenxdw","state":"NY"},"type":"Feature","geometry":null},{"properties":{"zip":"13775","3digit":"137","inzips":"137","primary_city":"Franklin","id":"abkwzqi8t8go","state":"NY"},"type":"Feature","geometry":null},{"properties":{"zip":"13776","3digit":"137","inzips":"137","primary_city":"Gilbertsville","id":"abkwzqjkjb4a","state":"NY"},"type":"Feature","geometry":null},{"properties":{"zip":"13777","3digit":"137","inzips":"137","primary_city":"Glen Aubrey","id":"abkwzqj2z9uz","state":"NY"},"type":"Feature","geometry":null},{"properties":{"zip":"13778","3digit":"137","inzips":"137","primary_city":"Greene","id":"abkwzqn2b4ls","state":"NY"},"type":"Feature","geometry":null},{"properties":{"zip":"13780","3digit":"137","inzips":"137","primary_city":"Guilford","id":"abkwzqicp1oi","state":"NY"},"type":"Feature","geometry":null},{"properties":{"zip":"13782","3digit":"137","inzips":"137","primary_city":"Hamden","id":"abkwzqiy63av","state":"NY"},"type":"Feature","geometry":null},{"properties":{"zip":"13783","3digit":"137","inzips":"137","primary_city":"Hancock","id":"abkwzqe5uqi6","state":"NY"},"type":"Feature","geometry":null},{"properties":{"zip":"13784","3digit":"137","inzips":"137","primary_city":"Harford","id":"abkwzql336ue","state":"NY"},"type":"Feature","geometry":null},{"properties":{"zip":"13786","3digit":"137","inzips":"137","primary_city":"Harpersfield","id":"abkwzqn5vs2c","state":"NY"},"type":"Feature","geometry":null},{"properties":{"zip":"13787","3digit":"137","inzips":"137","primary_city":"Harpursville","id":"abkwzqdi5cty","state":"NY"},"type":"Feature","geometry":null},{"properties":{"zip":"13788","3digit":"137","inzips":"137","primary_city":"Hobart","id":"abkwzqded0wp","state":"NY"},"type":"Feature","geometry":null},{"properties":{"zip":"13790","3digit":"137","inzips":"137","primary_city":"Johnson City","id":"abkwzqh63b24","state":"NY"},"type":"Feature","geometry":null},{"properties":{"zip":"13794","3digit":"137","inzips":"137","primary_city":"Killawog","id":"abkwzqfjdm0r","state":"NY"},"type":"Feature","geometry":null},{"properties":{"zip":"13795","3digit":"137","inzips":"137","primary_city":"Kirkwood","id":"abkwzqmul45m","state":"NY"},"type":"Feature","geometry":null},{"properties":{"zip":"13796","3digit":"137","inzips":"137","primary_city":"Laurens","id":"abkwzqdte1p6","state":"NY"},"type":"Feature","geometry":null},{"properties":{"zip":"13797","3digit":"137","inzips":"137","primary_city":"Lisle","id":"abkwzqfdlbpi","state":"NY"},"type":"Feature","geometry":null},{"properties":{"zip":"14201","3digit":"142","inzips":"142","primary_city":"Buffalo","id":"abkwzqfg7mm6","state":"NY"},"type":"Feature","geometry":null},{"properties":{"zip":"14202","3digit":"142","inzips":"142","primary_city":"Buffalo","id":"abkwzqdcu2b5","state":"NY"},"type":"Feature","geometry":null},{"properties":{"zip":"14203","3digit":"142","inzips":"142","primary_city":"Buffalo","id":"abkwzqmhtjxg","state":"NY"},"type":"Feature","geometry":null},{"properties":{"zip":"14204","3digit":"142","inzips":"142","primary_city":"Buffalo","id":"abkwzqpezcrr","state":"NY"},"type":"Feature","geometry":null},{"properties":{"zip":"14205","3digit":"142","inzips":"142","primary_city":"Buffalo","id":"abkwzqsqxgzy","state":"NY"},"type":"Feature","geometry":null},{"properties":{"zip":"14206","3digit":"142","inzips":"142","primary_city":"Buffalo","id":"abkwzqjd4xea","state":"NY"},"type":"Feature","geometry":null},{"properties":{"zip":"14207","3digit":"142","inzips":"142","primary_city":"Buffalo","id":"abkwzqjmb8jt","state":"NY"},"type":"Feature","geometry":null},{"properties":{"zip":"14208","3digit":"142","inzips":"142","primary_city":"Buffalo","id":"abkwzqjfo3oc","state":"NY"},"type":"Feature","geometry":null},{"properties":{"zip":"14209","3digit":"142","inzips":"142","primary_city":"Buffalo","id":"abkwzql0pie6","state":"NY"},"type":"Feature","geometry":null},{"properties":{"zip":"14210","3digit":"142","inzips":"142","primary_city":"Buffalo","id":"abkwzqe3ukdm","state":"NY"},"type":"Feature","geometry":null},{"properties":{"zip":"14211","3digit":"142","inzips":"142","primary_city":"Buffalo","id":"abkwzqs986ge","state":"NY"},"type":"Feature","geometry":null},{"properties":{"zip":"14212","3digit":"142","inzips":"142","primary_city":"Buffalo","id":"abkwzqkzxhri","state":"NY"},"type":"Feature","geometry":null},{"properties":{"zip":"14213","3digit":"142","inzips":"142","primary_city":"Buffalo","id":"abkwzqnt7gom","state":"NY"},"type":"Feature","geometry":null},{"properties":{"zip":"14214","3digit":"142","inzips":"142","primary_city":"Buffalo","id":"abkwzqrgkfs1","state":"NY"},"type":"Feature","geometry":null},{"properties":{"zip":"14215","3digit":"142","inzips":"142","primary_city":"Buffalo","id":"abkwzqdp15ga","state":"NY"},"type":"Feature","geometry":null},{"properties":{"zip":"14216","3digit":"142","inzips":"142","primary_city":"Buffalo","id":"abkwzqgxi7kf","state":"NY"},"type":"Feature","geometry":null},{"properties":{"zip":"14217","3digit":"142","inzips":"142","primary_city":"Buffalo","id":"abkwzqewv8p5","state":"NY"},"type":"Feature","geometry":null},{"properties":{"zip":"14218","3digit":"142","inzips":"142","primary_city":"Buffalo","id":"abkwzqmuk1iv","state":"NY"},"type":"Feature","geometry":null},{"properties":{"zip":"14219","3digit":"142","inzips":"142","primary_city":"Buffalo","id":"abkwzqnoldxk","state":"NY"},"type":"Feature","geometry":null},{"properties":{"zip":"14220","3digit":"142","inzips":"142","primary_city":"Buffalo","id":"abkwzqklrmdg","state":"NY"},"type":"Feature","geometry":null},{"properties":{"zip":"14221","3digit":"142","inzips":"142","primary_city":"Buffalo","id":"abkwzqcsbrt2","state":"NY"},"type":"Feature","geometry":null},{"properties":{"zip":"14222","3digit":"142","inzips":"142","primary_city":"Buffalo","id":"abkwzqmllhjv","state":"NY"},"type":"Feature","geometry":null},{"properties":{"zip":"14223","3digit":"142","inzips":"142","primary_city":"Buffalo","id":"abkwzqqu999l","state":"NY"},"type":"Feature","geometry":null},{"properties":{"zip":"14224","3digit":"142","inzips":"142","primary_city":"Buffalo","id":"abkwzqf6xxtt","state":"NY"},"type":"Feature","geometry":null},{"properties":{"zip":"14225","3digit":"142","inzips":"142","primary_city":"Buffalo","id":"abkwzqdrl2ih","state":"NY"},"type":"Feature","geometry":null},{"properties":{"zip":"14226","3digit":"142","inzips":"142","primary_city":"Buffalo","id":"abkwzqcyl9ip","state":"NY"},"type":"Feature","geometry":null},{"properties":{"zip":"14227","3digit":"142","inzips":"142","primary_city":"Buffalo","id":"abkwzqgidldr","state":"NY"},"type":"Feature","geometry":null},{"properties":{"zip":"14228","3digit":"142","inzips":"142","primary_city":"Buffalo","id":"abkwzqezghkn","state":"NY"},"type":"Feature","geometry":null},{"properties":{"zip":"14231","3digit":"142","inzips":"142","primary_city":"Buffalo","id":"abkwzqj8enyi","state":"NY"},"type":"Feature","geometry":null},{"properties":{"zip":"14233","3digit":"142","inzips":"142","primary_city":"Buffalo","id":"abkwzqqvvk81","state":"NY"},"type":"Feature","geometry":null},{"properties":{"zip":"14240","3digit":"142","inzips":"142","primary_city":"Buffalo","id":"abkwzqop3a4e","state":"NY"},"type":"Feature","geometry":null},{"properties":{"zip":"14241","3digit":"142","inzips":"142","primary_city":"Buffalo","id":"abkwzqgfuvhz","state":"NY"},"type":"Feature","geometry":null},{"properties":{"zip":"14260","3digit":"142","inzips":"142","primary_city":"Buffalo","id":"abkwzqm1bu13","state":"NY"},"type":"Feature","geometry":null},{"properties":{"zip":"14261","3digit":"142","inzips":"142","primary_city":"Buffalo","id":"abkwzqq43iag","state":"NY"},"type":"Feature","geometry":null},{"properties":{"zip":"14263","3digit":"142","inzips":"142","primary_city":"Buffalo","id":"abkwzqff096y","state":"NY"},"type":"Feature","geometry":null},{"properties":{"zip":"14264","3digit":"142","inzips":"142","primary_city":"Buffalo","id":"abkwzql41t6u","state":"NY"},"type":"Feature","geometry":null},{"properties":{"zip":"14265","3digit":"142","inzips":"142","primary_city":"Buffalo","id":"abkwzqgkx0rw","state":"NY"},"type":"Feature","geometry":null},{"properties":{"zip":"14267","3digit":"142","inzips":"142","primary_city":"Buffalo","id":"abkwzqg4z3hk","state":"NY"},"type":"Feature","geometry":null},{"properties":{"zip":"14269","3digit":"142","inzips":"142","primary_city":"Buffalo","id":"abkwzqnoa7xu","state":"NY"},"type":"Feature","geometry":null},{"properties":{"zip":"14270","3digit":"142","inzips":"142","primary_city":"Buffalo","id":"abkwzqq5f3fs","state":"NY"},"type":"Feature","geometry":null},{"properties":{"zip":"14272","3digit":"142","inzips":"142","primary_city":"Buffalo","id":"abkwzqlilvj6","state":"NY"},"type":"Feature","geometry":null},{"properties":{"zip":"14273","3digit":"142","inzips":"142","primary_city":"Buffalo","id":"abkwzqdbtm93","state":"NY"},"type":"Feature","geometry":null},{"properties":{"zip":"14276","3digit":"142","inzips":"142","primary_city":"Buffalo","id":"abkwzqnh9mwx","state":"NY"},"type":"Feature","geometry":null},{"properties":{"zip":"14280","3digit":"142","inzips":"142","primary_city":"Buffalo","id":"abkwzqiueuk5","state":"NY"},"type":"Feature","geometry":null},{"properties":{"zip":"17501","3digit":"175","inzips":"175","primary_city":"Akron","id":"abkwzqqha6z4","state":"PA"},"type":"Feature","geometry":null},{"properties":{"zip":"17502","3digit":"175","inzips":"175","primary_city":"Bainbridge","id":"abkwzqoq305m","state":"PA"},"type":"Feature","geometry":null},{"properties":{"zip":"17503","3digit":"175","inzips":"175","primary_city":"Bart","id":"abkwzqfitx05","state":"PA"},"type":"Feature","geometry":null},{"properties":{"zip":"17504","3digit":"175","inzips":"175","primary_city":"Bausman","id":"abkwzqf1ezb9","state":"PA"},"type":"Feature","geometry":null},{"properties":{"zip":"17505","3digit":"175","inzips":"175","primary_city":"Bird In Hand","id":"abkwzqe0cx2b","state":"PA"},"type":"Feature","geometry":null},{"properties":{"zip":"17506","3digit":"175","inzips":"175","primary_city":"Blue Ball","id":"abkwzqnw5vz4","state":"PA"},"type":"Feature","geometry":null},{"properties":{"zip":"17507","3digit":"175","inzips":"175","primary_city":"Bowmansville","id":"abkwzqo6i2d9","state":"PA"},"type":"Feature","geometry":null},{"properties":{"zip":"17508","3digit":"175","inzips":"175","primary_city":"Brownstown","id":"abkwzqdsx280","state":"PA"},"type":"Feature","geometry":null},{"properties":{"zip":"17509","3digit":"175","inzips":"175","primary_city":"Christiana","id":"abkwzqgrwc41","state":"PA"},"type":"Feature","geometry":null},{"properties":{"zip":"17512","3digit":"175","inzips":"175","primary_city":"Columbia","id":"abkwzqh2mw72","state":"PA"},"type":"Feature","geometry":null},{"properties":{"zip":"17516","3digit":"175","inzips":"175","primary_city":"Conestoga","id":"abkwzqsjp5a2","state":"PA"},"type":"Feature","geometry":null},{"properties":{"zip":"17517","3digit":"175","inzips":"175","primary_city":"Denver","id":"abkwzqqnzbj1","state":"PA"},"type":"Feature","geometry":null},{"properties":{"zip":"17518","3digit":"175","inzips":"175","primary_city":"Drumore","id":"abkwzqgeeprm","state":"PA"},"type":"Feature","geometry":null},{"properties":{"zip":"17519","3digit":"175","inzips":"175","primary_city":"East Earl","id":"abkwzqrzhimg","state":"PA"},"type":"Feature","geometry":null},{"properties":{"zip":"17520","3digit":"175","inzips":"175","primary_city":"East Petersburg","id":"abkwzqgz0d9f","state":"PA"},"type":"Feature","geometry":null},{"properties":{"zip":"17521","3digit":"175","inzips":"175","primary_city":"Elm","id":"abkwzqk6fk4h","state":"PA"},"type":"Feature","geometry":null},{"properties":{"zip":"17522","3digit":"175","inzips":"175","primary_city":"Ephrata","id":"abkwzqduf8rf","state":"PA"},"type":"Feature","geometry":null},{"properties":{"zip":"17527","3digit":"175","inzips":"175","primary_city":"Gap","id":"abkwzqqbpn4i","state":"PA"},"type":"Feature","geometry":null},{"properties":{"zip":"17528","3digit":"175","inzips":"175","primary_city":"Goodville","id":"abkwzqd9unwd","state":"PA"},"type":"Feature","geometry":null},{"properties":{"zip":"17529","3digit":"175","inzips":"175","primary_city":"Gordonville","id":"abkwzqk31pti","state":"PA"},"type":"Feature","geometry":null},{"properties":{"zip":"17532","3digit":"175","inzips":"175","primary_city":"Holtwood","id":"abkwzqn27wxv","state":"PA"},"type":"Feature","geometry":null},{"properties":{"zip":"17533","3digit":"175","inzips":"175","primary_city":"Hopeland","id":"abkwzqs1xein","state":"PA"},"type":"Feature","geometry":null},{"properties":{"zip":"17534","3digit":"175","inzips":"175","primary_city":"Intercourse","id":"abkwzqk91vh3","state":"PA"},"type":"Feature","geometry":null},{"properties":{"zip":"17535","3digit":"175","inzips":"175","primary_city":"Kinzers","id":"abkwzqnrejjj","state":"PA"},"type":"Feature","geometry":null},{"properties":{"zip":"17536","3digit":"175","inzips":"175","primary_city":"Kirkwood","id":"abkwzqgrh34r","state":"PA"},"type":"Feature","geometry":null},{"properties":{"zip":"17537","3digit":"175","inzips":"175","primary_city":"Lampeter","id":"abkwzqrh0b63","state":"PA"},"type":"Feature","geometry":null},{"properties":{"zip":"17538","3digit":"175","inzips":"175","primary_city":"Landisville","id":"abkwzqokepjz","state":"PA"},"type":"Feature","geometry":null},{"properties":{"zip":"17540","3digit":"175","inzips":"175","primary_city":"Leola","id":"abkwzqp5bggz","state":"PA"},"type":"Feature","geometry":null},{"properties":{"zip":"17543","3digit":"175","inzips":"175","primary_city":"Lititz","id":"abkwzqiatgu5","state":"PA"},"type":"Feature","geometry":null},{"properties":{"zip":"17545","3digit":"175","inzips":"175","primary_city":"Manheim","id":"abkwzqmzwg35","state":"PA"},"type":"Feature","geometry":null},{"properties":{"zip":"17547","3digit":"175","inzips":"175","primary_city":"Marietta","id":"abkwzqqu4ayx","state":"PA"},"type":"Feature","geometry":null},{"properties":{"zip":"17549","3digit":"175","inzips":"175","primary_city":"Martindale","id":"abkwzqjm1wg8","state":"PA"},"type":"Feature","geometry":null},{"properties":{"zip":"17550","3digit":"175","inzips":"175","primary_city":"Maytown","id":"abkwzqhh656z","state":"PA"},"type":"Feature","geometry":null},{"properties":{"zip":"17551","3digit":"175","inzips":"175","primary_city":"Millersville","id":"abkwzqobly35","state":"PA"},"type":"Feature","geometry":null},{"properties":{"zip":"17552","3digit":"175","inzips":"175","primary_city":"Mount Joy","id":"abkwzqpce0gl","state":"PA"},"type":"Feature","geometry":null},{"properties":{"zip":"17554","3digit":"175","inzips":"175","primary_city":"Mountville","id":"abkwzqr6p7y7","state":"PA"},"type":"Feature","geometry":null},{"properties":{"zip":"17555","3digit":"175","inzips":"175","primary_city":"Narvon","id":"abkwzqenwlan","state":"PA"},"type":"Feature","geometry":null},{"properties":{"zip":"17557","3digit":"175","inzips":"175","primary_city":"New Holland","id":"abkwzqs5omep","state":"PA"},"type":"Feature","geometry":null},{"properties":{"zip":"17560","3digit":"175","inzips":"175","primary_city":"New Providence","id":"abkwzqqfnuza","state":"PA"},"type":"Feature","geometry":null},{"properties":{"zip":"17562","3digit":"175","inzips":"175","primary_city":"Paradise","id":"abkwzqny9yql","state":"PA"},"type":"Feature","geometry":null},{"properties":{"zip":"17563","3digit":"175","inzips":"175","primary_city":"Peach Bottom","id":"abkwzqnpiptr","state":"PA"},"type":"Feature","geometry":null},{"properties":{"zip":"17564","3digit":"175","inzips":"175","primary_city":"Penryn","id":"abkwzqmubu45","state":"PA"},"type":"Feature","geometry":null},{"properties":{"zip":"17565","3digit":"175","inzips":"175","primary_city":"Pequea","id":"abkwzqdnpkhu","state":"PA"},"type":"Feature","geometry":null},{"properties":{"zip":"17566","3digit":"175","inzips":"175","primary_city":"Quarryville","id":"abkwzqsst7vt","state":"PA"},"type":"Feature","geometry":null},{"properties":{"zip":"17567","3digit":"175","inzips":"175","primary_city":"Reamstown","id":"abkwzqesr882","state":"PA"},"type":"Feature","geometry":null},{"properties":{"zip":"17568","3digit":"175","inzips":"175","primary_city":"Refton","id":"abkwzqnamuc3","state":"PA"},"type":"Feature","geometry":null},{"properties":{"zip":"17569","3digit":"175","inzips":"175","primary_city":"Reinholds","id":"abkwzqiesew4","state":"PA"},"type":"Feature","geometry":null},{"properties":{"zip":"17570","3digit":"175","inzips":"175","primary_city":"Rheems","id":"abkwzqmduku4","state":"PA"},"type":"Feature","geometry":null},{"properties":{"zip":"17572","3digit":"175","inzips":"175","primary_city":"Ronks","id":"abkwzqhnu2c7","state":"PA"},"type":"Feature","geometry":null},{"properties":{"zip":"17573","3digit":"175","inzips":"175","primary_city":"Lancaster","id":"abkwzqpev1px","state":"PA"},"type":"Feature","geometry":null},{"properties":{"zip":"17575","3digit":"175","inzips":"175","primary_city":"Silver Spring","id":"abkwzqezmnnk","state":"PA"},"type":"Feature","geometry":null},{"properties":{"zip":"17576","3digit":"175","inzips":"175","primary_city":"Smoketown","id":"abkwzqft7hfe","state":"PA"},"type":"Feature","geometry":null},{"properties":{"zip":"17578","3digit":"175","inzips":"175","primary_city":"Stevens","id":"abkwzqf09jsp","state":"PA"},"type":"Feature","geometry":null},{"properties":{"zip":"17579","3digit":"175","inzips":"175","primary_city":"Strasburg","id":"abkwzqpoqrmm","state":"PA"},"type":"Feature","geometry":null},{"properties":{"zip":"17580","3digit":"175","inzips":"175","primary_city":"Talmage","id":"abkwzqpn65m0","state":"PA"},"type":"Feature","geometry":null},{"properties":{"zip":"17581","3digit":"175","inzips":"175","primary_city":"Terre Hill","id":"abkwzqfytx0o","state":"PA"},"type":"Feature","geometry":null},{"properties":{"zip":"17582","3digit":"175","inzips":"175","primary_city":"Washington Boro","id":"abkwzql5pvcb","state":"PA"},"type":"Feature","geometry":null},{"properties":{"zip":"17583","3digit":"175","inzips":"175","primary_city":"West Willow","id":"abkwzqe25ccg","state":"PA"},"type":"Feature","geometry":null},{"properties":{"zip":"17584","3digit":"175","inzips":"175","primary_city":"Willow Street","id":"abkwzqjtjyd5","state":"PA"},"type":"Feature","geometry":null},{"properties":{"zip":"17585","3digit":"175","inzips":"175","primary_city":"Witmer","id":"abkwzqrj9hm7","state":"PA"},"type":"Feature","geometry":null},{"properties":{"zip":"18001","3digit":"180","inzips":"180","primary_city":"Lehigh Valley","id":"abkwzqgcgrmz","state":"PA"},"type":"Feature","geometry":null},{"properties":{"zip":"18002","3digit":"180","inzips":"180","primary_city":"Lehigh Valley","id":"abkwzql940c4","state":"PA"},"type":"Feature","geometry":null},{"properties":{"zip":"18003","3digit":"180","inzips":"180","primary_city":"Lehigh Valley","id":"abkwzqir3mmv","state":"PA"},"type":"Feature","geometry":null},{"properties":{"zip":"18010","3digit":"180","inzips":"180","primary_city":"Ackermanville","id":"abkwzqrs73je","state":"PA"},"type":"Feature","geometry":null},{"properties":{"zip":"18011","3digit":"180","inzips":"180","primary_city":"Alburtis","id":"abkwzqkmkm4c","state":"PA"},"type":"Feature","geometry":null},{"properties":{"zip":"18012","3digit":"180","inzips":"180","primary_city":"Aquashicola","id":"abkwzqlc8hjj","state":"PA"},"type":"Feature","geometry":null},{"properties":{"zip":"18013","3digit":"180","inzips":"180","primary_city":"Bangor","id":"abkwzqejjgqu","state":"PA"},"type":"Feature","geometry":null},{"properties":{"zip":"18014","3digit":"180","inzips":"180","primary_city":"Bath","id":"abkwzqoa2nk8","state":"PA"},"type":"Feature","geometry":null},{"properties":{"zip":"18015","3digit":"180","inzips":"180","primary_city":"Bethlehem","id":"abkwzqmqf9eq","state":"PA"},"type":"Feature","geometry":null},{"properties":{"zip":"18016","3digit":"180","inzips":"180","primary_city":"Bethlehem","id":"abkwzqlny2mq","state":"PA"},"type":"Feature","geometry":null},{"properties":{"zip":"18017","3digit":"180","inzips":"180","primary_city":"Bethlehem","id":"abkwzqk8396v","state":"PA"},"type":"Feature","geometry":null},{"properties":{"zip":"18018","3digit":"180","inzips":"180","primary_city":"Bethlehem","id":"abkwzqis65hs","state":"PA"},"type":"Feature","geometry":null},{"properties":{"zip":"18020","3digit":"180","inzips":"180","primary_city":"Bethlehem","id":"abkwzqlwx4ws","state":"PA"},"type":"Feature","geometry":null},{"properties":{"zip":"18025","3digit":"180","inzips":"180","primary_city":"Bethlehem","id":"abkwzqjq0me5","state":"PA"},"type":"Feature","geometry":null},{"properties":{"zip":"18030","3digit":"180","inzips":"180","primary_city":"Bowmanstown","id":"abkwzqfsloqo","state":"PA"},"type":"Feature","geometry":null},{"properties":{"zip":"18031","3digit":"180","inzips":"180","primary_city":"Breinigsville","id":"abkwzqqnd7vg","state":"PA"},"type":"Feature","geometry":null},{"properties":{"zip":"18032","3digit":"180","inzips":"180","primary_city":"Catasauqua","id":"abkwzqo08ugy","state":"PA"},"type":"Feature","geometry":null},{"properties":{"zip":"18034","3digit":"180","inzips":"180","primary_city":"Center Valley","id":"abkwzqlp2jqp","state":"PA"},"type":"Feature","geometry":null},{"properties":{"zip":"18035","3digit":"180","inzips":"180","primary_city":"Cherryville","id":"abkwzqlr00jh","state":"PA"},"type":"Feature","geometry":null},{"properties":{"zip":"18036","3digit":"180","inzips":"180","primary_city":"Coopersburg","id":"abkwzqhjpdqt","state":"PA"},"type":"Feature","geometry":null},{"properties":{"zip":"18037","3digit":"180","inzips":"180","primary_city":"Coplay","id":"abkwzqgpwvyw","state":"PA"},"type":"Feature","geometry":null},{"properties":{"zip":"18038","3digit":"180","inzips":"180","primary_city":"Danielsville","id":"abkwzqnbsu5n","state":"PA"},"type":"Feature","geometry":null},{"properties":{"zip":"18039","3digit":"180","inzips":"180","primary_city":"Durham","id":"abkwzqdnsp5w","state":"PA"},"type":"Feature","geometry":null},{"properties":{"zip":"18040","3digit":"180","inzips":"180","primary_city":"Easton","id":"abkwzqpyiyrs","state":"PA"},"type":"Feature","geometry":null},{"properties":{"zip":"18041","3digit":"180","inzips":"180","primary_city":"East Greenville","id":"abkwzqdxma7v","state":"PA"},"type":"Feature","geometry":null},{"properties":{"zip":"18042","3digit":"180","inzips":"180","primary_city":"Easton","id":"abkwzqomf2kf","state":"PA"},"type":"Feature","geometry":null},{"properties":{"zip":"18043","3digit":"180","inzips":"180","primary_city":"Easton","id":"abkwzqq97b04","state":"PA"},"type":"Feature","geometry":null},{"properties":{"zip":"18044","3digit":"180","inzips":"180","primary_city":"Easton","id":"abkwzqfn8psh","state":"PA"},"type":"Feature","geometry":null},{"properties":{"zip":"18045","3digit":"180","inzips":"180","primary_city":"Easton","id":"abkwzqn3fryd","state":"PA"},"type":"Feature","geometry":null},{"properties":{"zip":"18046","3digit":"180","inzips":"180","primary_city":"East Texas","id":"abkwzqceolyb","state":"PA"},"type":"Feature","geometry":null},{"properties":{"zip":"18049","3digit":"180","inzips":"180","primary_city":"Emmaus","id":"abkwzqjtwvz5","state":"PA"},"type":"Feature","geometry":null},{"properties":{"zip":"18050","3digit":"180","inzips":"180","primary_city":"Flicksville","id":"abkwzqst6yxu","state":"PA"},"type":"Feature","geometry":null},{"properties":{"zip":"18051","3digit":"180","inzips":"180","primary_city":"Fogelsville","id":"abkwzqf164rx","state":"PA"},"type":"Feature","geometry":null},{"properties":{"zip":"18052","3digit":"180","inzips":"180","primary_city":"Whitehall","id":"abkwzqic3id3","state":"PA"},"type":"Feature","geometry":null},{"properties":{"zip":"18053","3digit":"180","inzips":"180","primary_city":"Germansville","id":"abkwzqp6fjv2","state":"PA"},"type":"Feature","geometry":null},{"properties":{"zip":"18054","3digit":"180","inzips":"180","primary_city":"Green Lane","id":"abkwzqi8uza1","state":"PA"},"type":"Feature","geometry":null},{"properties":{"zip":"18055","3digit":"180","inzips":"180","primary_city":"Hellertown","id":"abkwzqp7dkrs","state":"PA"},"type":"Feature","geometry":null},{"properties":{"zip":"18056","3digit":"180","inzips":"180","primary_city":"Hereford","id":"abkwzqcqq6pf","state":"PA"},"type":"Feature","geometry":null},{"properties":{"zip":"18058","3digit":"180","inzips":"180","primary_city":"Kunkletown","id":"abkwzqlpj7m8","state":"PA"},"type":"Feature","geometry":null},{"properties":{"zip":"18059","3digit":"180","inzips":"180","primary_city":"Laurys Station","id":"abkwzqs2uil3","state":"PA"},"type":"Feature","geometry":null},{"properties":{"zip":"18060","3digit":"180","inzips":"180","primary_city":"Limeport","id":"abkwzqizir0q","state":"PA"},"type":"Feature","geometry":null},{"properties":{"zip":"18062","3digit":"180","inzips":"180","primary_city":"Macungie","id":"abkwzqisnpdn","state":"PA"},"type":"Feature","geometry":null},{"properties":{"zip":"18063","3digit":"180","inzips":"180","primary_city":"Martins Creek","id":"abkwzqsezgum","state":"PA"},"type":"Feature","geometry":null},{"properties":{"zip":"18064","3digit":"180","inzips":"180","primary_city":"Nazareth","id":"abkwzqs6dchi","state":"PA"},"type":"Feature","geometry":null},{"properties":{"zip":"18065","3digit":"180","inzips":"180","primary_city":"Neffs","id":"abkwzqqklhac","state":"PA"},"type":"Feature","geometry":null},{"properties":{"zip":"18066","3digit":"180","inzips":"180","primary_city":"New Tripoli","id":"abkwzqmh2art","state":"PA"},"type":"Feature","geometry":null},{"properties":{"zip":"18067","3digit":"180","inzips":"180","primary_city":"Northampton","id":"abkwzqqmstpf","state":"PA"},"type":"Feature","geometry":null},{"properties":{"zip":"18068","3digit":"180","inzips":"180","primary_city":"Old Zionsville","id":"abkwzqs7pb1b","state":"PA"},"type":"Feature","geometry":null},{"properties":{"zip":"18069","3digit":"180","inzips":"180","primary_city":"Orefield","id":"abkwzqez4m2s","state":"PA"},"type":"Feature","geometry":null},{"properties":{"zip":"18070","3digit":"180","inzips":"180","primary_city":"Palm","id":"abkwzqf2kd3g","state":"PA"},"type":"Feature","geometry":null},{"properties":{"zip":"18071","3digit":"180","inzips":"180","primary_city":"Palmerton","id":"abkwzqndpjpt","state":"PA"},"type":"Feature","geometry":null},{"properties":{"zip":"18072","3digit":"180","inzips":"180","primary_city":"Pen Argyl","id":"abkwzqrzmqag","state":"PA"},"type":"Feature","geometry":null},{"properties":{"zip":"18073","3digit":"180","inzips":"180","primary_city":"Pennsburg","id":"abkwzqefswpz","state":"PA"},"type":"Feature","geometry":null},{"properties":{"zip":"18074","3digit":"180","inzips":"180","primary_city":"Perkiomenville","id":"abkwzqmb5elp","state":"PA"},"type":"Feature","geometry":null},{"properties":{"zip":"18076","3digit":"180","inzips":"180","primary_city":"Red Hill","id":"abkwzqr5sjwm","state":"PA"},"type":"Feature","geometry":null},{"properties":{"zip":"18077","3digit":"180","inzips":"180","primary_city":"Riegelsville","id":"abkwzqmhcfoq","state":"PA"},"type":"Feature","geometry":null},{"properties":{"zip":"18078","3digit":"180","inzips":"180","primary_city":"Schnecksville","id":"abkwzqs3plff","state":"PA"},"type":"Feature","geometry":null},{"properties":{"zip":"18079","3digit":"180","inzips":"180","primary_city":"Slatedale","id":"abkwzqsogc31","state":"PA"},"type":"Feature","geometry":null},{"properties":{"zip":"18080","3digit":"180","inzips":"180","primary_city":"Slatington","id":"abkwzqorzbfv","state":"PA"},"type":"Feature","geometry":null},{"properties":{"zip":"18081","3digit":"180","inzips":"180","primary_city":"Springtown","id":"abkwzqoue9us","state":"PA"},"type":"Feature","geometry":null},{"properties":{"zip":"18083","3digit":"180","inzips":"180","primary_city":"Stockertown","id":"abkwzqrp509r","state":"PA"},"type":"Feature","geometry":null},{"properties":{"zip":"18084","3digit":"180","inzips":"180","primary_city":"Sumneytown","id":"abkwzqhncimk","state":"PA"},"type":"Feature","geometry":null},{"properties":{"zip":"18085","3digit":"180","inzips":"180","primary_city":"Tatamy","id":"abkwzqq4jkai","state":"PA"},"type":"Feature","geometry":null},{"properties":{"zip":"18086","3digit":"180","inzips":"180","primary_city":"Treichlers","id":"abkwzqjq9rap","state":"PA"},"type":"Feature","geometry":null},{"properties":{"zip":"18087","3digit":"180","inzips":"180","primary_city":"Trexlertown","id":"abkwzqlqv8gd","state":"PA"},"type":"Feature","geometry":null},{"properties":{"zip":"18088","3digit":"180","inzips":"180","primary_city":"Walnutport","id":"abkwzqkak5bp","state":"PA"},"type":"Feature","geometry":null},{"properties":{"zip":"18091","3digit":"180","inzips":"180","primary_city":"Wind Gap","id":"abkwzqfsk88x","state":"PA"},"type":"Feature","geometry":null},{"properties":{"zip":"18092","3digit":"180","inzips":"180","primary_city":"Zionsville","id":"abkwzqisy1gr","state":"PA"},"type":"Feature","geometry":null},{"properties":{"zip":"18098","3digit":"180","inzips":"180","primary_city":"Emmaus","id":"abkwzqsd83ka","state":"PA"},"type":"Feature","geometry":null},{"properties":{"zip":"18099","3digit":"180","inzips":"180","primary_city":"Emmaus","id":"abkwzqlnq17u","state":"PA"},"type":"Feature","geometry":null},{"properties":{"zip":"18101","3digit":"181","inzips":"181","primary_city":"Allentown","id":"abkwzqgjdx26","state":"PA"},"type":"Feature","geometry":null},{"properties":{"zip":"18102","3digit":"181","inzips":"181","primary_city":"Allentown","id":"abkwzqkm293i","state":"PA"},"type":"Feature","geometry":null},{"properties":{"zip":"18103","3digit":"181","inzips":"181","primary_city":"Allentown","id":"abkwzqodd2kz","state":"PA"},"type":"Feature","geometry":null},{"properties":{"zip":"18104","3digit":"181","inzips":"181","primary_city":"Allentown","id":"abkwzqrd75k8","state":"PA"},"type":"Feature","geometry":null},{"properties":{"zip":"18105","3digit":"181","inzips":"181","primary_city":"Allentown","id":"abkwzqi83qgr","state":"PA"},"type":"Feature","geometry":null},{"properties":{"zip":"18106","3digit":"181","inzips":"181","primary_city":"Allentown","id":"abkwzqm8kr8o","state":"PA"},"type":"Feature","geometry":null},{"properties":{"zip":"18109","3digit":"181","inzips":"181","primary_city":"Allentown","id":"abkwzqj8yjpi","state":"PA"},"type":"Feature","geometry":null},{"properties":{"zip":"18175","3digit":"181","inzips":"181","primary_city":"Allentown","id":"abkwzqp5gx33","state":"PA"},"type":"Feature","geometry":null},{"properties":{"zip":"18195","3digit":"181","inzips":"181","primary_city":"Allentown","id":"abkwzqh05v1k","state":"PA"},"type":"Feature","geometry":null},{"properties":{"zip":"18201","3digit":"182","inzips":"182","primary_city":"Hazleton","id":"abkwzqm1dxl7","state":"PA"},"type":"Feature","geometry":null},{"properties":{"zip":"18202","3digit":"182","inzips":"182","primary_city":"Hazleton","id":"abkwzqjce6a3","state":"PA"},"type":"Feature","geometry":null},{"properties":{"zip":"18210","3digit":"182","inzips":"182","primary_city":"Albrightsville","id":"abkwzqq3m2ny","state":"PA"},"type":"Feature","geometry":null},{"properties":{"zip":"18211","3digit":"182","inzips":"182","primary_city":"Andreas","id":"abkwzqjiu6zr","state":"PA"},"type":"Feature","geometry":null},{"properties":{"zip":"18212","3digit":"182","inzips":"182","primary_city":"Ashfield","id":"abkwzqcs672d","state":"PA"},"type":"Feature","geometry":null},{"properties":{"zip":"18214","3digit":"182","inzips":"182","primary_city":"Barnesville","id":"abkwzqlfby7e","state":"PA"},"type":"Feature","geometry":null},{"properties":{"zip":"18216","3digit":"182","inzips":"182","primary_city":"Beaver Meadows","id":"abkwzqol9lfp","state":"PA"},"type":"Feature","geometry":null},{"properties":{"zip":"18218","3digit":"182","inzips":"182","primary_city":"Coaldale","id":"abkwzqktu7h7","state":"PA"},"type":"Feature","geometry":null},{"properties":{"zip":"18219","3digit":"182","inzips":"182","primary_city":"Conyngham","id":"abkwzqnid3j0","state":"PA"},"type":"Feature","geometry":null},{"properties":{"zip":"18220","3digit":"182","inzips":"182","primary_city":"Delano","id":"abkwzqodqm4z","state":"PA"},"type":"Feature","geometry":null},{"properties":{"zip":"18221","3digit":"182","inzips":"182","primary_city":"Drifton","id":"abkwzqlfws1g","state":"PA"},"type":"Feature","geometry":null},{"properties":{"zip":"18222","3digit":"182","inzips":"182","primary_city":"Drums","id":"abkwzqoulvpb","state":"PA"},"type":"Feature","geometry":null},{"properties":{"zip":"18223","3digit":"182","inzips":"182","primary_city":"Ebervale","id":"abkwzqjznfda","state":"PA"},"type":"Feature","geometry":null},{"properties":{"zip":"18224","3digit":"182","inzips":"182","primary_city":"Freeland","id":"abkwzqlg68ms","state":"PA"},"type":"Feature","geometry":null},{"properties":{"zip":"18225","3digit":"182","inzips":"182","primary_city":"Harleigh","id":"abkwzqs8kiww","state":"PA"},"type":"Feature","geometry":null},{"properties":{"zip":"18229","3digit":"182","inzips":"182","primary_city":"Jim Thorpe","id":"abkwzqrvqsa5","state":"PA"},"type":"Feature","geometry":null},{"properties":{"zip":"18230","3digit":"182","inzips":"182","primary_city":"Junedale","id":"abkwzqnsbs85","state":"PA"},"type":"Feature","geometry":null},{"properties":{"zip":"18231","3digit":"182","inzips":"182","primary_city":"Kelayres","id":"abkwzqjtj9yl","state":"PA"},"type":"Feature","geometry":null},{"properties":{"zip":"18232","3digit":"182","inzips":"182","primary_city":"Lansford","id":"abkwzqfd3d88","state":"PA"},"type":"Feature","geometry":null},{"properties":{"zip":"18234","3digit":"182","inzips":"182","primary_city":"Lattimer Mines","id":"abkwzqf9cmjk","state":"PA"},"type":"Feature","geometry":null},{"properties":{"zip":"18235","3digit":"182","inzips":"182","primary_city":"Lehighton","id":"abkwzqnt7arb","state":"PA"},"type":"Feature","geometry":null},{"properties":{"zip":"18237","3digit":"182","inzips":"182","primary_city":"Mcadoo","id":"abkwzqghl0x7","state":"PA"},"type":"Feature","geometry":null},{"properties":{"zip":"18239","3digit":"182","inzips":"182","primary_city":"Milnesville","id":"abkwzqmfzhki","state":"PA"},"type":"Feature","geometry":null},{"properties":{"zip":"18240","3digit":"182","inzips":"182","primary_city":"Nesquehoning","id":"abkwzqpeyv35","state":"PA"},"type":"Feature","geometry":null},{"properties":{"zip":"18241","3digit":"182","inzips":"182","primary_city":"Nuremberg","id":"abkwzqfai83i","state":"PA"},"type":"Feature","geometry":null},{"properties":{"zip":"18242","3digit":"182","inzips":"182","primary_city":"Oneida","id":"abkwzqcp289l","state":"PA"},"type":"Feature","geometry":null},{"properties":{"zip":"18244","3digit":"182","inzips":"182","primary_city":"Parryville","id":"abkwzqgwy0jh","state":"PA"},"type":"Feature","geometry":null},{"properties":{"zip":"18245","3digit":"182","inzips":"182","primary_city":"Quakake","id":"abkwzqlebzrh","state":"PA"},"type":"Feature","geometry":null},{"properties":{"zip":"18246","3digit":"182","inzips":"182","primary_city":"Rock Glen","id":"abkwzqg9kkyw","state":"PA"},"type":"Feature","geometry":null},{"properties":{"zip":"18247","3digit":"182","inzips":"182","primary_city":"Saint Johns","id":"abkwzqq43fkq","state":"PA"},"type":"Feature","geometry":null},{"properties":{"zip":"18248","3digit":"182","inzips":"182","primary_city":"Sheppton","id":"abkwzqe5dss6","state":"PA"},"type":"Feature","geometry":null},{"properties":{"zip":"18249","3digit":"182","inzips":"182","primary_city":"Sugarloaf","id":"abkwzqmm49pv","state":"PA"},"type":"Feature","geometry":null},{"properties":{"zip":"18250","3digit":"182","inzips":"182","primary_city":"Summit Hill","id":"abkwzqcqx50r","state":"PA"},"type":"Feature","geometry":null},{"properties":{"zip":"18251","3digit":"182","inzips":"182","primary_city":"Sybertsville","id":"abkwzqcfylyt","state":"PA"},"type":"Feature","geometry":null},{"properties":{"zip":"18252","3digit":"182","inzips":"182","primary_city":"Tamaqua","id":"abkwzqluvryz","state":"PA"},"type":"Feature","geometry":null},{"properties":{"zip":"18254","3digit":"182","inzips":"182","primary_city":"Tresckow","id":"abkwzqk0vscl","state":"PA"},"type":"Feature","geometry":null},{"properties":{"zip":"18255","3digit":"182","inzips":"182","primary_city":"Weatherly","id":"abkwzqgr25d7","state":"PA"},"type":"Feature","geometry":null},{"properties":{"zip":"18256","3digit":"182","inzips":"182","primary_city":"Weston","id":"abkwzqhiyn23","state":"PA"},"type":"Feature","geometry":null},{"properties":{"zip":"18403","3digit":"184","inzips":"184","primary_city":"Archbald","id":"abkwzqnaauw8","state":"PA"},"type":"Feature","geometry":null},{"properties":{"zip":"18405","3digit":"184","inzips":"184","primary_city":"Beach Lake","id":"abkwzqppecpv","state":"PA"},"type":"Feature","geometry":null},{"properties":{"zip":"18407","3digit":"184","inzips":"184","primary_city":"Carbondale","id":"abkwzqmm3wsh","state":"PA"},"type":"Feature","geometry":null},{"properties":{"zip":"18410","3digit":"184","inzips":"184","primary_city":"Chinchilla","id":"abkwzqkun39z","state":"PA"},"type":"Feature","geometry":null},{"properties":{"zip":"18411","3digit":"184","inzips":"184","primary_city":"Clarks Summit","id":"abkwzqh0dzo1","state":"PA"},"type":"Feature","geometry":null},{"properties":{"zip":"18413","3digit":"184","inzips":"184","primary_city":"Clifford","id":"abkwzqkjtdx0","state":"PA"},"type":"Feature","geometry":null},{"properties":{"zip":"18414","3digit":"184","inzips":"184","primary_city":"Dalton","id":"abkwzqsu1nfg","state":"PA"},"type":"Feature","geometry":null},{"properties":{"zip":"18415","3digit":"184","inzips":"184","primary_city":"Damascus","id":"abkwzqlylp5v","state":"PA"},"type":"Feature","geometry":null},{"properties":{"zip":"18416","3digit":"184","inzips":"184","primary_city":"Elmhurst","id":"abkwzqh11zn6","state":"PA"},"type":"Feature","geometry":null},{"properties":{"zip":"18417","3digit":"184","inzips":"184","primary_city":"Equinunk","id":"abkwzqj4vsj8","state":"PA"},"type":"Feature","geometry":null},{"properties":{"zip":"18419","3digit":"184","inzips":"184","primary_city":"Factoryville","id":"abkwzqgjzabn","state":"PA"},"type":"Feature","geometry":null},{"properties":{"zip":"18420","3digit":"184","inzips":"184","primary_city":"Fleetville","id":"abkwzqmnb0ms","state":"PA"},"type":"Feature","geometry":null},{"properties":{"zip":"18421","3digit":"184","inzips":"184","primary_city":"Forest City","id":"abkwzqczhtwl","state":"PA"},"type":"Feature","geometry":null},{"properties":{"zip":"18424","3digit":"184","inzips":"184","primary_city":"Gouldsboro","id":"abkwzqig77yn","state":"PA"},"type":"Feature","geometry":null},{"properties":{"zip":"18425","3digit":"184","inzips":"184","primary_city":"Greeley","id":"abkwzqkddfoa","state":"PA"},"type":"Feature","geometry":null},{"properties":{"zip":"18426","3digit":"184","inzips":"184","primary_city":"Greentown","id":"abkwzqpal9hk","state":"PA"},"type":"Feature","geometry":null},{"properties":{"zip":"18427","3digit":"184","inzips":"184","primary_city":"Hamlin","id":"abkwzqrpaxp6","state":"PA"},"type":"Feature","geometry":null},{"properties":{"zip":"18428","3digit":"184","inzips":"184","primary_city":"Hawley","id":"abkwzqnxlmx9","state":"PA"},"type":"Feature","geometry":null},{"properties":{"zip":"18430","3digit":"184","inzips":"184","primary_city":"Herrick Center","id":"abkwzqdeufns","state":"PA"},"type":"Feature","geometry":null},{"properties":{"zip":"18431","3digit":"184","inzips":"184","primary_city":"Honesdale","id":"abkwzqqsv7df","state":"PA"},"type":"Feature","geometry":null},{"properties":{"zip":"18433","3digit":"184","inzips":"184","primary_city":"Jermyn","id":"abkwzqli58mo","state":"PA"},"type":"Feature","geometry":null},{"properties":{"zip":"18434","3digit":"184","inzips":"184","primary_city":"Jessup","id":"abkwzqewwzf2","state":"PA"},"type":"Feature","geometry":null},{"properties":{"zip":"18435","3digit":"184","inzips":"184","primary_city":"Lackawaxen","id":"abkwzqs6523e","state":"PA"},"type":"Feature","geometry":null},{"properties":{"zip":"18436","3digit":"184","inzips":"184","primary_city":"Lake Ariel","id":"abkwzqlp0o42","state":"PA"},"type":"Feature","geometry":null},{"properties":{"zip":"18437","3digit":"184","inzips":"184","primary_city":"Lake Como","id":"abkwzqm5e0nj","state":"PA"},"type":"Feature","geometry":null},{"properties":{"zip":"18438","3digit":"184","inzips":"184","primary_city":"Lakeville","id":"abkwzqo4v3oo","state":"PA"},"type":"Feature","geometry":null},{"properties":{"zip":"18439","3digit":"184","inzips":"184","primary_city":"Lakewood","id":"abkwzqfaex32","state":"PA"},"type":"Feature","geometry":null},{"properties":{"zip":"18440","3digit":"184","inzips":"184","primary_city":"La Plume","id":"abkwzqijz0js","state":"PA"},"type":"Feature","geometry":null},{"properties":{"zip":"18441","3digit":"184","inzips":"184","primary_city":"Lenoxville","id":"abkwzqkv4ms8","state":"PA"},"type":"Feature","geometry":null},{"properties":{"zip":"18443","3digit":"184","inzips":"184","primary_city":"Milanville","id":"abkwzqg5th5h","state":"PA"},"type":"Feature","geometry":null},{"properties":{"zip":"18444","3digit":"184","inzips":"184","primary_city":"Moscow","id":"abkwzqjiu2dy","state":"PA"},"type":"Feature","geometry":null},{"properties":{"zip":"18445","3digit":"184","inzips":"184","primary_city":"Newfoundland","id":"abkwzqrld532","state":"PA"},"type":"Feature","geometry":null},{"properties":{"zip":"18446","3digit":"184","inzips":"184","primary_city":"Nicholson","id":"abkwzqhiyue2","state":"PA"},"type":"Feature","geometry":null},{"properties":{"zip":"18447","3digit":"184","inzips":"184","primary_city":"Olyphant","id":"abkwzqeqw2mv","state":"PA"},"type":"Feature","geometry":null},{"properties":{"zip":"18448","3digit":"184","inzips":"184","primary_city":"Olyphant","id":"abkwzqdanbpi","state":"PA"},"type":"Feature","geometry":null},{"properties":{"zip":"18449","3digit":"184","inzips":"184","primary_city":"Orson","id":"abkwzqhvhbmw","state":"PA"},"type":"Feature","geometry":null},{"properties":{"zip":"18451","3digit":"184","inzips":"184","primary_city":"Paupack","id":"abkwzqkfbnqy","state":"PA"},"type":"Feature","geometry":null},{"properties":{"zip":"18452","3digit":"184","inzips":"184","primary_city":"Peckville","id":"abkwzqrgl2e3","state":"PA"},"type":"Feature","geometry":null},{"properties":{"zip":"18453","3digit":"184","inzips":"184","primary_city":"Pleasant Mount","id":"abkwzqhkm5fa","state":"PA"},"type":"Feature","geometry":null},{"properties":{"zip":"18454","3digit":"184","inzips":"184","primary_city":"Poyntelle","id":"abkwzqk2jmok","state":"PA"},"type":"Feature","geometry":null},{"properties":{"zip":"18455","3digit":"184","inzips":"184","primary_city":"Preston Park","id":"abkwzqpl7k5m","state":"PA"},"type":"Feature","geometry":null},{"properties":{"zip":"18456","3digit":"184","inzips":"184","primary_city":"Prompton","id":"abkwzqhaikrj","state":"PA"},"type":"Feature","geometry":null},{"properties":{"zip":"18457","3digit":"184","inzips":"184","primary_city":"Rowland","id":"abkwzqi4wyqz","state":"PA"},"type":"Feature","geometry":null},{"properties":{"zip":"18458","3digit":"184","inzips":"184","primary_city":"Shohola","id":"abkwzqfyslt2","state":"PA"},"type":"Feature","geometry":null},{"properties":{"zip":"18459","3digit":"184","inzips":"184","primary_city":"South Canaan","id":"abkwzqk7hqhm","state":"PA"},"type":"Feature","geometry":null},{"properties":{"zip":"18460","3digit":"184","inzips":"184","primary_city":"South Sterling","id":"abkwzqnf16mk","state":"PA"},"type":"Feature","geometry":null},{"properties":{"zip":"18461","3digit":"184","inzips":"184","primary_city":"Starlight","id":"abkwzqn1brhw","state":"PA"},"type":"Feature","geometry":null},{"properties":{"zip":"18462","3digit":"184","inzips":"184","primary_city":"Starrucca","id":"abkwzqmqnjes","state":"PA"},"type":"Feature","geometry":null},{"properties":{"zip":"18463","3digit":"184","inzips":"184","primary_city":"Sterling","id":"abkwzqebqsfx","state":"PA"},"type":"Feature","geometry":null},{"properties":{"zip":"18464","3digit":"184","inzips":"184","primary_city":"Tafton","id":"abkwzqjtoowp","state":"PA"},"type":"Feature","geometry":null},{"properties":{"zip":"18465","3digit":"184","inzips":"184","primary_city":"Thompson","id":"abkwzql6azpe","state":"PA"},"type":"Feature","geometry":null},{"properties":{"zip":"18466","3digit":"184","inzips":"184","primary_city":"Tobyhanna","id":"abkwzqib4vls","state":"PA"},"type":"Feature","geometry":null},{"properties":{"zip":"18469","3digit":"184","inzips":"184","primary_city":"Tyler Hill","id":"abkwzqmdigzm","state":"PA"},"type":"Feature","geometry":null},{"properties":{"zip":"18470","3digit":"184","inzips":"184","primary_city":"Union Dale","id":"abkwzqd84tpl","state":"PA"},"type":"Feature","geometry":null},{"properties":{"zip":"18471","3digit":"184","inzips":"184","primary_city":"Waverly","id":"abkwzqrm6j6g","state":"PA"},"type":"Feature","geometry":null},{"properties":{"zip":"18472","3digit":"184","inzips":"184","primary_city":"Waymart","id":"abkwzqcv0evm","state":"PA"},"type":"Feature","geometry":null},{"properties":{"zip":"18473","3digit":"184","inzips":"184","primary_city":"White Mills","id":"abkwzqly1mxa","state":"PA"},"type":"Feature","geometry":null},{"properties":{"zip":"18501","3digit":"185","inzips":"185","primary_city":"Scranton","id":"abkwzqiveajs","state":"PA"},"type":"Feature","geometry":null},{"properties":{"zip":"18502","3digit":"185","inzips":"185","primary_city":"Scranton","id":"abkwzqm876q2","state":"PA"},"type":"Feature","geometry":null},{"properties":{"zip":"18503","3digit":"185","inzips":"185","primary_city":"Scranton","id":"abkwzqecphez","state":"PA"},"type":"Feature","geometry":null},{"properties":{"zip":"18504","3digit":"185","inzips":"185","primary_city":"Scranton","id":"abkwzqrzjh1c","state":"PA"},"type":"Feature","geometry":null},{"properties":{"zip":"18505","3digit":"185","inzips":"185","primary_city":"Scranton","id":"abkwzqsrse8i","state":"PA"},"type":"Feature","geometry":null},{"properties":{"zip":"18507","3digit":"185","inzips":"185","primary_city":"Moosic","id":"abkwzqscwabb","state":"PA"},"type":"Feature","geometry":null},{"properties":{"zip":"18508","3digit":"185","inzips":"185","primary_city":"Scranton","id":"abkwzqo87kbw","state":"PA"},"type":"Feature","geometry":null},{"properties":{"zip":"18509","3digit":"185","inzips":"185","primary_city":"Scranton","id":"abkwzqo33y0s","state":"PA"},"type":"Feature","geometry":null},{"properties":{"zip":"18510","3digit":"185","inzips":"185","primary_city":"Scranton","id":"abkwzqgaakgf","state":"PA"},"type":"Feature","geometry":null},{"properties":{"zip":"18512","3digit":"185","inzips":"185","primary_city":"Scranton","id":"abkwzqs9360o","state":"PA"},"type":"Feature","geometry":null},{"properties":{"zip":"18514","3digit":"185","inzips":"185","primary_city":"Scranton","id":"abkwzqhpuwx1","state":"PA"},"type":"Feature","geometry":null},{"properties":{"zip":"18515","3digit":"185","inzips":"185","primary_city":"Scranton","id":"abkwzqnbhxzi","state":"PA"},"type":"Feature","geometry":null},{"properties":{"zip":"18517","3digit":"185","inzips":"185","primary_city":"Taylor","id":"abkwzqlzhxlq","state":"PA"},"type":"Feature","geometry":null},{"properties":{"zip":"18518","3digit":"185","inzips":"185","primary_city":"Old Forge","id":"abkwzqpfva4h","state":"PA"},"type":"Feature","geometry":null},{"properties":{"zip":"18519","3digit":"185","inzips":"185","primary_city":"Scranton","id":"abkwzqh16w11","state":"PA"},"type":"Feature","geometry":null},{"properties":{"zip":"18522","3digit":"185","inzips":"185","primary_city":"Scranton","id":"abkwzqk7wxqw","state":"PA"},"type":"Feature","geometry":null},{"properties":{"zip":"18540","3digit":"185","inzips":"185","primary_city":"Scranton","id":"abkwzqce9r9a","state":"PA"},"type":"Feature","geometry":null},{"properties":{"zip":"18577","3digit":"185","inzips":"185","primary_city":"Scranton","id":"abkwzqdxjsbn","state":"PA"},"type":"Feature","geometry":null},{"properties":{"zip":"18601","3digit":"186","inzips":"186","primary_city":"Beach Haven","id":"abkwzqmhxye9","state":"PA"},"type":"Feature","geometry":null},{"properties":{"zip":"18602","3digit":"186","inzips":"186","primary_city":"Bear Creek","id":"abkwzqcy9s0j","state":"PA"},"type":"Feature","geometry":null},{"properties":{"zip":"18603","3digit":"186","inzips":"186","primary_city":"Berwick","id":"abkwzqgjbaon","state":"PA"},"type":"Feature","geometry":null},{"properties":{"zip":"18610","3digit":"186","inzips":"186","primary_city":"Blakeslee","id":"abkwzqobby19","state":"PA"},"type":"Feature","geometry":null},{"properties":{"zip":"18611","3digit":"186","inzips":"186","primary_city":"Cambra","id":"abkwzqfh5w6t","state":"PA"},"type":"Feature","geometry":null},{"properties":{"zip":"18612","3digit":"186","inzips":"186","primary_city":"Dallas","id":"abkwzqr75loq","state":"PA"},"type":"Feature","geometry":null},{"properties":{"zip":"18614","3digit":"186","inzips":"186","primary_city":"Dushore","id":"abkwzqebw9kz","state":"PA"},"type":"Feature","geometry":null},{"properties":{"zip":"18615","3digit":"186","inzips":"186","primary_city":"Falls","id":"abkwzqemv2oj","state":"PA"},"type":"Feature","geometry":null},{"properties":{"zip":"18616","3digit":"186","inzips":"186","primary_city":"Forksville","id":"abkwzqk2kuo8","state":"PA"},"type":"Feature","geometry":null},{"properties":{"zip":"18617","3digit":"186","inzips":"186","primary_city":"Glen Lyon","id":"abkwzqh5bubj","state":"PA"},"type":"Feature","geometry":null},{"properties":{"zip":"18618","3digit":"186","inzips":"186","primary_city":"Harveys Lake","id":"abkwzqei8e7d","state":"PA"},"type":"Feature","geometry":null},{"properties":{"zip":"18619","3digit":"186","inzips":"186","primary_city":"Hillsgrove","id":"abkwzqml0pv7","state":"PA"},"type":"Feature","geometry":null},{"properties":{"zip":"18621","3digit":"186","inzips":"186","primary_city":"Hunlock Creek","id":"abkwzqsmjx4s","state":"PA"},"type":"Feature","geometry":null},{"properties":{"zip":"18622","3digit":"186","inzips":"186","primary_city":"Huntington Mills","id":"abkwzqo8nd1f","state":"PA"},"type":"Feature","geometry":null},{"properties":{"zip":"18623","3digit":"186","inzips":"186","primary_city":"Laceyville","id":"abkwzqjrlspv","state":"PA"},"type":"Feature","geometry":null},{"properties":{"zip":"18624","3digit":"186","inzips":"186","primary_city":"Lake Harmony","id":"abkwzqoqk6ee","state":"PA"},"type":"Feature","geometry":null},{"properties":{"zip":"18625","3digit":"186","inzips":"186","primary_city":"Lake Winola","id":"abkwzqcstwjr","state":"PA"},"type":"Feature","geometry":null},{"properties":{"zip":"18626","3digit":"186","inzips":"186","primary_city":"Laporte","id":"abkwzqqfu84j","state":"PA"},"type":"Feature","geometry":null},{"properties":{"zip":"18627","3digit":"186","inzips":"186","primary_city":"Lehman","id":"abkwzqf3j841","state":"PA"},"type":"Feature","geometry":null},{"properties":{"zip":"18628","3digit":"186","inzips":"186","primary_city":"Lopez","id":"abkwzqqswgzh","state":"PA"},"type":"Feature","geometry":null},{"properties":{"zip":"18629","3digit":"186","inzips":"186","primary_city":"Mehoopany","id":"abkwzqm9tr78","state":"PA"},"type":"Feature","geometry":null},{"properties":{"zip":"18630","3digit":"186","inzips":"186","primary_city":"Meshoppen","id":"abkwzqh3pch1","state":"PA"},"type":"Feature","geometry":null},{"properties":{"zip":"18631","3digit":"186","inzips":"186","primary_city":"Mifflinville","id":"abkwzqs2pmii","state":"PA"},"type":"Feature","geometry":null},{"properties":{"zip":"18632","3digit":"186","inzips":"186","primary_city":"Mildred","id":"abkwzqr6l28k","state":"PA"},"type":"Feature","geometry":null},{"properties":{"zip":"18634","3digit":"186","inzips":"186","primary_city":"Nanticoke","id":"abkwzqfldshv","state":"PA"},"type":"Feature","geometry":null},{"properties":{"zip":"18635","3digit":"186","inzips":"186","primary_city":"Nescopeck","id":"abkwzqgc49fg","state":"PA"},"type":"Feature","geometry":null},{"properties":{"zip":"18636","3digit":"186","inzips":"186","primary_city":"Noxen","id":"abkwzqs3wfx4","state":"PA"},"type":"Feature","geometry":null},{"properties":{"zip":"18640","3digit":"186","inzips":"186","primary_city":"Pittston","id":"abkwzqn1tu4p","state":"PA"},"type":"Feature","geometry":null},{"properties":{"zip":"18641","3digit":"186","inzips":"186","primary_city":"Pittston","id":"abkwzqkbilcy","state":"PA"},"type":"Feature","geometry":null},{"properties":{"zip":"18642","3digit":"186","inzips":"186","primary_city":"Duryea","id":"abkwzqdveges","state":"PA"},"type":"Feature","geometry":null},{"properties":{"zip":"18643","3digit":"186","inzips":"186","primary_city":"Pittston","id":"abkwzqmr2poy","state":"PA"},"type":"Feature","geometry":null},{"properties":{"zip":"18644","3digit":"186","inzips":"186","primary_city":"Wyoming","id":"abkwzqspxtnd","state":"PA"},"type":"Feature","geometry":null},{"properties":{"zip":"18651","3digit":"186","inzips":"186","primary_city":"Plymouth","id":"abkwzqg4li4d","state":"PA"},"type":"Feature","geometry":null},{"properties":{"zip":"18653","3digit":"186","inzips":"186","primary_city":"Ransom","id":"abkwzqjlu9vj","state":"PA"},"type":"Feature","geometry":null},{"properties":{"zip":"18654","3digit":"186","inzips":"186","primary_city":"Shawanese","id":"abkwzqde2sx5","state":"PA"},"type":"Feature","geometry":null},{"properties":{"zip":"18655","3digit":"186","inzips":"186","primary_city":"Shickshinny","id":"abkwzqj1mfnx","state":"PA"},"type":"Feature","geometry":null},{"properties":{"zip":"18656","3digit":"186","inzips":"186","primary_city":"Sweet Valley","id":"abkwzqirw0hv","state":"PA"},"type":"Feature","geometry":null},{"properties":{"zip":"18657","3digit":"186","inzips":"186","primary_city":"Tunkhannock","id":"abkwzqcnaoms","state":"PA"},"type":"Feature","geometry":null},{"properties":{"zip":"18660","3digit":"186","inzips":"186","primary_city":"Wapwallopen","id":"abkwzqimlnw1","state":"PA"},"type":"Feature","geometry":null},{"properties":{"zip":"18661","3digit":"186","inzips":"186","primary_city":"White Haven","id":"abkwzqj01so7","state":"PA"},"type":"Feature","geometry":null},{"properties":{"zip":"18690","3digit":"186","inzips":"186","primary_city":"Dallas","id":"abkwzqlf0hxe","state":"PA"},"type":"Feature","geometry":null},{"properties":{"zip":"18701","3digit":"187","inzips":"187","primary_city":"Wilkes Barre","id":"abkwzqmof80p","state":"PA"},"type":"Feature","geometry":null},{"properties":{"zip":"18702","3digit":"187","inzips":"187","primary_city":"Wilkes Barre","id":"abkwzqoljtly","state":"PA"},"type":"Feature","geometry":null},{"properties":{"zip":"18703","3digit":"187","inzips":"187","primary_city":"Wilkes Barre","id":"abkwzqk2qj81","state":"PA"},"type":"Feature","geometry":null},{"properties":{"zip":"18704","3digit":"187","inzips":"187","primary_city":"Kingston","id":"abkwzql8mu28","state":"PA"},"type":"Feature","geometry":null},{"properties":{"zip":"18705","3digit":"187","inzips":"187","primary_city":"Wilkes Barre","id":"abkwzqmtgd7b","state":"PA"},"type":"Feature","geometry":null},{"properties":{"zip":"18706","3digit":"187","inzips":"187","primary_city":"Wilkes Barre","id":"abkwzqfl050y","state":"PA"},"type":"Feature","geometry":null},{"properties":{"zip":"18707","3digit":"187","inzips":"187","primary_city":"Mountain Top","id":"abkwzqjzhil8","state":"PA"},"type":"Feature","geometry":null},{"properties":{"zip":"18708","3digit":"187","inzips":"187","primary_city":"Shavertown","id":"abkwzqh7dz8c","state":"PA"},"type":"Feature","geometry":null},{"properties":{"zip":"18709","3digit":"187","inzips":"187","primary_city":"Luzerne","id":"abkwzqofag4u","state":"PA"},"type":"Feature","geometry":null},{"properties":{"zip":"18710","3digit":"187","inzips":"187","primary_city":"Wilkes Barre","id":"abkwzqcbiad3","state":"PA"},"type":"Feature","geometry":null},{"properties":{"zip":"18711","3digit":"187","inzips":"187","primary_city":"Wilkes Barre","id":"abkwzqjyvshf","state":"PA"},"type":"Feature","geometry":null},{"properties":{"zip":"18762","3digit":"187","inzips":"187","primary_city":"Wilkes Barre","id":"abkwzqdbdu3t","state":"PA"},"type":"Feature","geometry":null},{"properties":{"zip":"18764","3digit":"187","inzips":"187","primary_city":"Wilkes Barre","id":"abkwzqrhku5r","state":"PA"},"type":"Feature","geometry":null},{"properties":{"zip":"18765","3digit":"187","inzips":"187","primary_city":"Wilkes Barre","id":"abkwzqh6pd0p","state":"PA"},"type":"Feature","geometry":null},{"properties":{"zip":"18766","3digit":"187","inzips":"187","primary_city":"Wilkes Barre","id":"abkwzqrdmkzy","state":"PA"},"type":"Feature","geometry":null},{"properties":{"zip":"18767","3digit":"187","inzips":"187","primary_city":"Wilkes Barre","id":"abkwzqhobdvu","state":"PA"},"type":"Feature","geometry":null},{"properties":{"zip":"18769","3digit":"187","inzips":"187","primary_city":"Wilkes Barre","id":"abkwzqdl08eg","state":"PA"},"type":"Feature","geometry":null},{"properties":{"zip":"18773","3digit":"187","inzips":"187","primary_city":"Wilkes Barre","id":"abkwzqqj52eu","state":"PA"},"type":"Feature","geometry":null},{"properties":{"zip":"18901","3digit":"189","inzips":"189","primary_city":"Doylestown","id":"abkwzqlunrys","state":"PA"},"type":"Feature","geometry":null},{"properties":{"zip":"18902","3digit":"189","inzips":"189","primary_city":"Doylestown","id":"abkwzqp7ikgc","state":"PA"},"type":"Feature","geometry":null},{"properties":{"zip":"18910","3digit":"189","inzips":"189","primary_city":"Bedminster","id":"abkwzqdujt1m","state":"PA"},"type":"Feature","geometry":null},{"properties":{"zip":"18911","3digit":"189","inzips":"189","primary_city":"Blooming Glen","id":"abkwzqgjne63","state":"PA"},"type":"Feature","geometry":null},{"properties":{"zip":"18912","3digit":"189","inzips":"189","primary_city":"Buckingham","id":"abkwzql6qa47","state":"PA"},"type":"Feature","geometry":null},{"properties":{"zip":"18913","3digit":"189","inzips":"189","primary_city":"Carversville","id":"abkwzqdlm8r5","state":"PA"},"type":"Feature","geometry":null},{"properties":{"zip":"18914","3digit":"189","inzips":"189","primary_city":"Chalfont","id":"abkwzqok03js","state":"PA"},"type":"Feature","geometry":null},{"properties":{"zip":"18915","3digit":"189","inzips":"189","primary_city":"Colmar","id":"abkwzqe9nqml","state":"PA"},"type":"Feature","geometry":null},{"properties":{"zip":"18916","3digit":"189","inzips":"189","primary_city":"Danboro","id":"abkwzqrnus9p","state":"PA"},"type":"Feature","geometry":null},{"properties":{"zip":"18917","3digit":"189","inzips":"189","primary_city":"Dublin","id":"abkwzqo2lck5","state":"PA"},"type":"Feature","geometry":null},{"properties":{"zip":"18918","3digit":"189","inzips":"189","primary_city":"Earlington","id":"abkwzqqnzm4b","state":"PA"},"type":"Feature","geometry":null},{"properties":{"zip":"18920","3digit":"189","inzips":"189","primary_city":"Erwinna","id":"abkwzqoope29","state":"PA"},"type":"Feature","geometry":null},{"properties":{"zip":"18921","3digit":"189","inzips":"189","primary_city":"Ferndale","id":"abkwzqma01iq","state":"PA"},"type":"Feature","geometry":null},{"properties":{"zip":"18922","3digit":"189","inzips":"189","primary_city":"Forest Grove","id":"abkwzqj8vwaz","state":"PA"},"type":"Feature","geometry":null},{"properties":{"zip":"18923","3digit":"189","inzips":"189","primary_city":"Fountainville","id":"abkwzqfbqgtq","state":"PA"},"type":"Feature","geometry":null},{"properties":{"zip":"18924","3digit":"189","inzips":"189","primary_city":"Franconia","id":"abkwzqg3p23i","state":"PA"},"type":"Feature","geometry":null},{"properties":{"zip":"18925","3digit":"189","inzips":"189","primary_city":"Furlong","id":"abkwzqgo9jau","state":"PA"},"type":"Feature","geometry":null},{"properties":{"zip":"18926","3digit":"189","inzips":"189","primary_city":"Gardenville","id":"abkwzqoy7aon","state":"PA"},"type":"Feature","geometry":null},{"properties":{"zip":"18927","3digit":"189","inzips":"189","primary_city":"Hilltown","id":"abkwzqq0k5tv","state":"PA"},"type":"Feature","geometry":null},{"properties":{"zip":"18928","3digit":"189","inzips":"189","primary_city":"Holicong","id":"abkwzqf2d1d0","state":"PA"},"type":"Feature","geometry":null},{"properties":{"zip":"18929","3digit":"189","inzips":"189","primary_city":"Jamison","id":"abkwzqj802n2","state":"PA"},"type":"Feature","geometry":null},{"properties":{"zip":"18930","3digit":"189","inzips":"189","primary_city":"Kintnersville","id":"abkwzqmchyoq","state":"PA"},"type":"Feature","geometry":null},{"properties":{"zip":"18931","3digit":"189","inzips":"189","primary_city":"Lahaska","id":"abkwzqccdvrc","state":"PA"},"type":"Feature","geometry":null},{"properties":{"zip":"18932","3digit":"189","inzips":"189","primary_city":"Line Lexington","id":"abkwzqgdf9dx","state":"PA"},"type":"Feature","geometry":null},{"properties":{"zip":"18933","3digit":"189","inzips":"189","primary_city":"Lumberville","id":"abkwzqr32xxp","state":"PA"},"type":"Feature","geometry":null},{"properties":{"zip":"18934","3digit":"189","inzips":"189","primary_city":"Mechanicsville","id":"abkwzqhv08eq","state":"PA"},"type":"Feature","geometry":null},{"properties":{"zip":"18935","3digit":"189","inzips":"189","primary_city":"Milford Square","id":"abkwzqpn62lq","state":"PA"},"type":"Feature","geometry":null},{"properties":{"zip":"18936","3digit":"189","inzips":"189","primary_city":"Montgomeryville","id":"abkwzqips5nl","state":"PA"},"type":"Feature","geometry":null},{"properties":{"zip":"18938","3digit":"189","inzips":"189","primary_city":"New Hope","id":"abkwzqcdoit9","state":"PA"},"type":"Feature","geometry":null},{"properties":{"zip":"18940","3digit":"189","inzips":"189","primary_city":"Newtown","id":"abkwzqdps4tz","state":"PA"},"type":"Feature","geometry":null},{"properties":{"zip":"18942","3digit":"189","inzips":"189","primary_city":"Ottsville","id":"abkwzqfnbu4z","state":"PA"},"type":"Feature","geometry":null},{"properties":{"zip":"18943","3digit":"189","inzips":"189","primary_city":"Penns Park","id":"abkwzqehgfky","state":"PA"},"type":"Feature","geometry":null},{"properties":{"zip":"18944","3digit":"189","inzips":"189","primary_city":"Perkasie","id":"abkwzqhxdbn6","state":"PA"},"type":"Feature","geometry":null},{"properties":{"zip":"18946","3digit":"189","inzips":"189","primary_city":"Pineville","id":"abkwzqeykzrg","state":"PA"},"type":"Feature","geometry":null},{"properties":{"zip":"18947","3digit":"189","inzips":"189","primary_city":"Pipersville","id":"abkwzqp5z5dc","state":"PA"},"type":"Feature","geometry":null},{"properties":{"zip":"18949","3digit":"189","inzips":"189","primary_city":"Plumsteadville","id":"abkwzqr56wc7","state":"PA"},"type":"Feature","geometry":null},{"properties":{"zip":"18950","3digit":"189","inzips":"189","primary_city":"Point Pleasant","id":"abkwzqfwqu16","state":"PA"},"type":"Feature","geometry":null},{"properties":{"zip":"18951","3digit":"189","inzips":"189","primary_city":"Quakertown","id":"abkwzqpxp6p6","state":"PA"},"type":"Feature","geometry":null},{"properties":{"zip":"18953","3digit":"189","inzips":"189","primary_city":"Revere","id":"abkwzqd1cktj","state":"PA"},"type":"Feature","geometry":null},{"properties":{"zip":"18954","3digit":"189","inzips":"189","primary_city":"Richboro","id":"abkwzqdygtfm","state":"PA"},"type":"Feature","geometry":null},{"properties":{"zip":"18955","3digit":"189","inzips":"189","primary_city":"Richlandtown","id":"abkwzqhgabbb","state":"PA"},"type":"Feature","geometry":null},{"properties":{"zip":"18956","3digit":"189","inzips":"189","primary_city":"Rushland","id":"abkwzqr9alcm","state":"PA"},"type":"Feature","geometry":null},{"properties":{"zip":"18957","3digit":"189","inzips":"189","primary_city":"Salford","id":"abkwzqny58bq","state":"PA"},"type":"Feature","geometry":null},{"properties":{"zip":"18958","3digit":"189","inzips":"189","primary_city":"Salfordville","id":"abkwzqlrlbvw","state":"PA"},"type":"Feature","geometry":null},{"properties":{"zip":"18960","3digit":"189","inzips":"189","primary_city":"Sellersville","id":"abkwzqdpbn7d","state":"PA"},"type":"Feature","geometry":null},{"properties":{"zip":"18962","3digit":"189","inzips":"189","primary_city":"Silverdale","id":"abkwzqqtkcd7","state":"PA"},"type":"Feature","geometry":null},{"properties":{"zip":"18963","3digit":"189","inzips":"189","primary_city":"Solebury","id":"abkwzqq6pqbp","state":"PA"},"type":"Feature","geometry":null},{"properties":{"zip":"18964","3digit":"189","inzips":"189","primary_city":"Souderton","id":"abkwzqfvl8xo","state":"PA"},"type":"Feature","geometry":null},{"properties":{"zip":"18966","3digit":"189","inzips":"189","primary_city":"Southampton","id":"abkwzqh3sb95","state":"PA"},"type":"Feature","geometry":null},{"properties":{"zip":"18968","3digit":"189","inzips":"189","primary_city":"Spinnerstown","id":"abkwzqssxstt","state":"PA"},"type":"Feature","geometry":null},{"properties":{"zip":"18969","3digit":"189","inzips":"189","primary_city":"Telford","id":"abkwzqsflep7","state":"PA"},"type":"Feature","geometry":null},{"properties":{"zip":"18970","3digit":"189","inzips":"189","primary_city":"Trumbauersville","id":"abkwzqeqfpij","state":"PA"},"type":"Feature","geometry":null},{"properties":{"zip":"18971","3digit":"189","inzips":"189","primary_city":"Tylersport","id":"abkwzqsoqkd3","state":"PA"},"type":"Feature","geometry":null},{"properties":{"zip":"18972","3digit":"189","inzips":"189","primary_city":"Upper Black Eddy","id":"abkwzqh99q4p","state":"PA"},"type":"Feature","geometry":null},{"properties":{"zip":"18974","3digit":"189","inzips":"189","primary_city":"Warminster","id":"abkwzqigxwah","state":"PA"},"type":"Feature","geometry":null},{"properties":{"zip":"18976","3digit":"189","inzips":"189","primary_city":"Warrington","id":"abkwzqgs0f3x","state":"PA"},"type":"Feature","geometry":null},{"properties":{"zip":"18977","3digit":"189","inzips":"189","primary_city":"Washington Crossing","id":"abkwzqcmnukc","state":"PA"},"type":"Feature","geometry":null},{"properties":{"zip":"18979","3digit":"189","inzips":"189","primary_city":"Woxall","id":"abkwzqjpvy1m","state":"PA"},"type":"Feature","geometry":null},{"properties":{"zip":"18980","3digit":"189","inzips":"189","primary_city":"Wycombe","id":"abkwzqjavu1q","state":"PA"},"type":"Feature","geometry":null},{"properties":{"zip":"18981","3digit":"189","inzips":"189","primary_city":"Zionhill","id":"abkwzqgor4ov","state":"PA"},"type":"Feature","geometry":null},{"properties":{"zip":"18991","3digit":"189","inzips":"189","primary_city":"Warminster","id":"abkwzqdthe1z","state":"PA"},"type":"Feature","geometry":null},{"properties":{"zip":"19001","3digit":"190","inzips":"190","primary_city":"Abington","id":"abkwzqnx67dy","state":"PA"},"type":"Feature","geometry":null},{"properties":{"zip":"19002","3digit":"190","inzips":"190","primary_city":"Ambler","id":"abkwzqhgzszx","state":"PA"},"type":"Feature","geometry":null},{"properties":{"zip":"19003","3digit":"190","inzips":"190","primary_city":"Ardmore","id":"abkwzqisg44s","state":"PA"},"type":"Feature","geometry":null},{"properties":{"zip":"19004","3digit":"190","inzips":"190","primary_city":"Bala Cynwyd","id":"abkwzqp9617w","state":"PA"},"type":"Feature","geometry":null},{"properties":{"zip":"19006","3digit":"190","inzips":"190","primary_city":"Huntingdon Valley","id":"abkwzqmebtf2","state":"PA"},"type":"Feature","geometry":null},{"properties":{"zip":"19007","3digit":"190","inzips":"190","primary_city":"Bristol","id":"abkwzqlwjiw2","state":"PA"},"type":"Feature","geometry":null},{"properties":{"zip":"19008","3digit":"190","inzips":"190","primary_city":"Broomall","id":"abkwzqrbs1mv","state":"PA"},"type":"Feature","geometry":null},{"properties":{"zip":"19009","3digit":"190","inzips":"190","primary_city":"Bryn Athyn","id":"abkwzqsn1jpg","state":"PA"},"type":"Feature","geometry":null},{"properties":{"zip":"19010","3digit":"190","inzips":"190","primary_city":"Bryn Mawr","id":"abkwzqcx496c","state":"PA"},"type":"Feature","geometry":null},{"properties":{"zip":"19012","3digit":"190","inzips":"190","primary_city":"Cheltenham","id":"abkwzqsdv3fq","state":"PA"},"type":"Feature","geometry":null},{"properties":{"zip":"19013","3digit":"190","inzips":"190","primary_city":"Chester","id":"abkwzqqixdht","state":"PA"},"type":"Feature","geometry":null},{"properties":{"zip":"19014","3digit":"190","inzips":"190","primary_city":"Aston","id":"abkwzqf7yw7m","state":"PA"},"type":"Feature","geometry":null},{"properties":{"zip":"19015","3digit":"190","inzips":"190","primary_city":"Brookhaven","id":"abkwzqnqlq7z","state":"PA"},"type":"Feature","geometry":null},{"properties":{"zip":"19016","3digit":"190","inzips":"190","primary_city":"Chester","id":"abkwzqimc1qv","state":"PA"},"type":"Feature","geometry":null},{"properties":{"zip":"19017","3digit":"190","inzips":"190","primary_city":"Chester Heights","id":"abkwzqkds7ll","state":"PA"},"type":"Feature","geometry":null},{"properties":{"zip":"19018","3digit":"190","inzips":"190","primary_city":"Clifton Heights","id":"abkwzqoqwxda","state":"PA"},"type":"Feature","geometry":null},{"properties":{"zip":"19019","3digit":"190","inzips":"190","primary_city":"Philadelphia","id":"abkwzqljq42e","state":"PA"},"type":"Feature","geometry":null},{"properties":{"zip":"19020","3digit":"190","inzips":"190","primary_city":"Bensalem","id":"abkwzqeflf4r","state":"PA"},"type":"Feature","geometry":null},{"properties":{"zip":"19021","3digit":"190","inzips":"190","primary_city":"Croydon","id":"abkwzqpoq649","state":"PA"},"type":"Feature","geometry":null},{"properties":{"zip":"19022","3digit":"190","inzips":"190","primary_city":"Crum Lynne","id":"abkwzqe3tuu3","state":"PA"},"type":"Feature","geometry":null},{"properties":{"zip":"19023","3digit":"190","inzips":"190","primary_city":"Darby","id":"abkwzqgl4fx3","state":"PA"},"type":"Feature","geometry":null},{"properties":{"zip":"19025","3digit":"190","inzips":"190","primary_city":"Dresher","id":"abkwzqpoixep","state":"PA"},"type":"Feature","geometry":null},{"properties":{"zip":"19026","3digit":"190","inzips":"190","primary_city":"Drexel Hill","id":"abkwzqiadckn","state":"PA"},"type":"Feature","geometry":null},{"properties":{"zip":"19027","3digit":"190","inzips":"190","primary_city":"Elkins Park","id":"abkwzqkw3kjv","state":"PA"},"type":"Feature","geometry":null},{"properties":{"zip":"19028","3digit":"190","inzips":"190","primary_city":"Edgemont","id":"abkwzqmpsetn","state":"PA"},"type":"Feature","geometry":null},{"properties":{"zip":"19029","3digit":"190","inzips":"190","primary_city":"Essington","id":"abkwzqmcex77","state":"PA"},"type":"Feature","geometry":null},{"properties":{"zip":"19030","3digit":"190","inzips":"190","primary_city":"Fairless Hills","id":"abkwzqkywi2a","state":"PA"},"type":"Feature","geometry":null},{"properties":{"zip":"19031","3digit":"190","inzips":"190","primary_city":"Flourtown","id":"abkwzqex7m5r","state":"PA"},"type":"Feature","geometry":null},{"properties":{"zip":"19032","3digit":"190","inzips":"190","primary_city":"Folcroft","id":"abkwzqsm5dxe","state":"PA"},"type":"Feature","geometry":null},{"properties":{"zip":"19033","3digit":"190","inzips":"190","primary_city":"Folsom","id":"abkwzqk33lla","state":"PA"},"type":"Feature","geometry":null},{"properties":{"zip":"19034","3digit":"190","inzips":"190","primary_city":"Fort Washington","id":"abkwzqhl070s","state":"PA"},"type":"Feature","geometry":null},{"properties":{"zip":"19035","3digit":"190","inzips":"190","primary_city":"Gladwyne","id":"abkwzqp4vpqd","state":"PA"},"type":"Feature","geometry":null},{"properties":{"zip":"19036","3digit":"190","inzips":"190","primary_city":"Glenolden","id":"abkwzqlznejy","state":"PA"},"type":"Feature","geometry":null},{"properties":{"zip":"19037","3digit":"190","inzips":"190","primary_city":"Glen Riddle Lima","id":"abkwzqh0a4ig","state":"PA"},"type":"Feature","geometry":null},{"properties":{"zip":"19038","3digit":"190","inzips":"190","primary_city":"Glenside","id":"abkwzqhvex2c","state":"PA"},"type":"Feature","geometry":null},{"properties":{"zip":"19039","3digit":"190","inzips":"190","primary_city":"Gradyville","id":"abkwzqr9f0cj","state":"PA"},"type":"Feature","geometry":null},{"properties":{"zip":"19040","3digit":"190","inzips":"190","primary_city":"Hatboro","id":"abkwzqekt2r4","state":"PA"},"type":"Feature","geometry":null},{"properties":{"zip":"19041","3digit":"190","inzips":"190","primary_city":"Haverford","id":"abkwzqsr7lwl","state":"PA"},"type":"Feature","geometry":null},{"properties":{"zip":"19043","3digit":"190","inzips":"190","primary_city":"Holmes","id":"abkwzqe18zhb","state":"PA"},"type":"Feature","geometry":null},{"properties":{"zip":"19044","3digit":"190","inzips":"190","primary_city":"Horsham","id":"abkwzqhfcxk2","state":"PA"},"type":"Feature","geometry":null},{"properties":{"zip":"19046","3digit":"190","inzips":"190","primary_city":"Jenkintown","id":"abkwzqcj9bgu","state":"PA"},"type":"Feature","geometry":null},{"properties":{"zip":"19047","3digit":"190","inzips":"190","primary_city":"Langhorne","id":"abkwzqpunqne","state":"PA"},"type":"Feature","geometry":null},{"properties":{"zip":"19048","3digit":"190","inzips":"190","primary_city":"Fort Washington","id":"abkwzqk93bic","state":"PA"},"type":"Feature","geometry":null},{"properties":{"zip":"19049","3digit":"190","inzips":"190","primary_city":"Fort Washington","id":"abkwzqrt750j","state":"PA"},"type":"Feature","geometry":null},{"properties":{"zip":"19050","3digit":"190","inzips":"190","primary_city":"Lansdowne","id":"abkwzqd1yq32","state":"PA"},"type":"Feature","geometry":null},{"properties":{"zip":"19052","3digit":"190","inzips":"190","primary_city":"Lenni","id":"abkwzqfrrl3n","state":"PA"},"type":"Feature","geometry":null},{"properties":{"zip":"19053","3digit":"190","inzips":"190","primary_city":"Feasterville Trevose","id":"abkwzqoa59x7","state":"PA"},"type":"Feature","geometry":null},{"properties":{"zip":"19054","3digit":"190","inzips":"190","primary_city":"Levittown","id":"abkwzqkc0ufr","state":"PA"},"type":"Feature","geometry":null},{"properties":{"zip":"19055","3digit":"190","inzips":"190","primary_city":"Levittown","id":"abkwzql3lnoz","state":"PA"},"type":"Feature","geometry":null},{"properties":{"zip":"19056","3digit":"190","inzips":"190","primary_city":"Levittown","id":"abkwzqmcqvwh","state":"PA"},"type":"Feature","geometry":null},{"properties":{"zip":"19057","3digit":"190","inzips":"190","primary_city":"Levittown","id":"abkwzqlppxkv","state":"PA"},"type":"Feature","geometry":null},{"properties":{"zip":"19058","3digit":"190","inzips":"190","primary_city":"Levittown","id":"abkwzqkmc4v6","state":"PA"},"type":"Feature","geometry":null},{"properties":{"zip":"19060","3digit":"190","inzips":"190","primary_city":"Garnet Valley","id":"abkwzqixbva8","state":"PA"},"type":"Feature","geometry":null},{"properties":{"zip":"19061","3digit":"190","inzips":"190","primary_city":"Marcus Hook","id":"abkwzqls218q","state":"PA"},"type":"Feature","geometry":null},{"properties":{"zip":"19063","3digit":"190","inzips":"190","primary_city":"Media","id":"abkwzqoyzxyv","state":"PA"},"type":"Feature","geometry":null},{"properties":{"zip":"19064","3digit":"190","inzips":"190","primary_city":"Springfield","id":"abkwzqph2x92","state":"PA"},"type":"Feature","geometry":null},{"properties":{"zip":"19065","3digit":"190","inzips":"190","primary_city":"Media","id":"abkwzqg1j6dz","state":"PA"},"type":"Feature","geometry":null},{"properties":{"zip":"19066","3digit":"190","inzips":"190","primary_city":"Merion Station","id":"abkwzqm75j0r","state":"PA"},"type":"Feature","geometry":null},{"properties":{"zip":"19067","3digit":"190","inzips":"190","primary_city":"Morrisville","id":"abkwzqnvfio9","state":"PA"},"type":"Feature","geometry":null},{"properties":{"zip":"19070","3digit":"190","inzips":"190","primary_city":"Morton","id":"abkwzqkh9rir","state":"PA"},"type":"Feature","geometry":null},{"properties":{"zip":"19072","3digit":"190","inzips":"190","primary_city":"Narberth","id":"abkwzqpu3wue","state":"PA"},"type":"Feature","geometry":null},{"properties":{"zip":"19073","3digit":"190","inzips":"190","primary_city":"Newtown Square","id":"abkwzqlpk33g","state":"PA"},"type":"Feature","geometry":null},{"properties":{"zip":"19074","3digit":"190","inzips":"190","primary_city":"Norwood","id":"abkwzqlgbgas","state":"PA"},"type":"Feature","geometry":null},{"properties":{"zip":"19075","3digit":"190","inzips":"190","primary_city":"Oreland","id":"abkwzqnq5xce","state":"PA"},"type":"Feature","geometry":null},{"properties":{"zip":"19076","3digit":"190","inzips":"190","primary_city":"Prospect Park","id":"abkwzqi0doox","state":"PA"},"type":"Feature","geometry":null},{"properties":{"zip":"19078","3digit":"190","inzips":"190","primary_city":"Ridley Park","id":"abkwzqi7bved","state":"PA"},"type":"Feature","geometry":null},{"properties":{"zip":"19079","3digit":"190","inzips":"190","primary_city":"Sharon Hill","id":"abkwzqp632uy","state":"PA"},"type":"Feature","geometry":null},{"properties":{"zip":"19080","3digit":"190","inzips":"190","primary_city":"Wayne","id":"abkwzqrvxpmk","state":"PA"},"type":"Feature","geometry":null},{"properties":{"zip":"19081","3digit":"190","inzips":"190","primary_city":"Swarthmore","id":"abkwzqk4tcro","state":"PA"},"type":"Feature","geometry":null},{"properties":{"zip":"19082","3digit":"190","inzips":"190","primary_city":"Upper Darby","id":"abkwzqid4yrj","state":"PA"},"type":"Feature","geometry":null},{"properties":{"zip":"19083","3digit":"190","inzips":"190","primary_city":"Havertown","id":"abkwzqe1fxn2","state":"PA"},"type":"Feature","geometry":null},{"properties":{"zip":"19085","3digit":"190","inzips":"190","primary_city":"Villanova","id":"abkwzqjevrff","state":"PA"},"type":"Feature","geometry":null},{"properties":{"zip":"19086","3digit":"190","inzips":"190","primary_city":"Wallingford","id":"abkwzqr0d7dh","state":"PA"},"type":"Feature","geometry":null},{"properties":{"zip":"19087","3digit":"190","inzips":"190","primary_city":"Wayne","id":"abkwzqr3o6e4","state":"PA"},"type":"Feature","geometry":null},{"properties":{"zip":"19088","3digit":"190","inzips":"190","primary_city":"Wayne","id":"abkwzqlqwnin","state":"PA"},"type":"Feature","geometry":null},{"properties":{"zip":"19089","3digit":"190","inzips":"190","primary_city":"Wayne","id":"abkwzqrc6xds","state":"PA"},"type":"Feature","geometry":null},{"properties":{"zip":"19090","3digit":"190","inzips":"190","primary_city":"Willow Grove","id":"abkwzqhgwpes","state":"PA"},"type":"Feature","geometry":null},{"properties":{"zip":"19091","3digit":"190","inzips":"190","primary_city":"Media","id":"abkwzqd7s74q","state":"PA"},"type":"Feature","geometry":null},{"properties":{"zip":"19092","3digit":"190","inzips":"190","primary_city":"Philadelphia","id":"abkwzqqguwnl","state":"PA"},"type":"Feature","geometry":null},{"properties":{"zip":"19093","3digit":"190","inzips":"190","primary_city":"Philadelphia","id":"abkwzqitex4c","state":"PA"},"type":"Feature","geometry":null},{"properties":{"zip":"19094","3digit":"190","inzips":"190","primary_city":"Woodlyn","id":"abkwzqd3lls4","state":"PA"},"type":"Feature","geometry":null},{"properties":{"zip":"19095","3digit":"190","inzips":"190","primary_city":"Wyncote","id":"abkwzqgzv2q9","state":"PA"},"type":"Feature","geometry":null},{"properties":{"zip":"19096","3digit":"190","inzips":"190","primary_city":"Wynnewood","id":"abkwzqp509rx","state":"PA"},"type":"Feature","geometry":null},{"properties":{"zip":"19098","3digit":"190","inzips":"190","primary_city":"Holmes","id":"abkwzqnqsj6j","state":"PA"},"type":"Feature","geometry":null},{"properties":{"zip":"19099","3digit":"190","inzips":"190","primary_city":"Philadelphia","id":"abkwzqo0dsnb","state":"PA"},"type":"Feature","geometry":null},{"properties":{"zip":"19101","3digit":"191","inzips":"191","primary_city":"Philadelphia","id":"abkwzqlag1f3","state":"PA"},"type":"Feature","geometry":null},{"properties":{"zip":"19102","3digit":"191","inzips":"191","primary_city":"Philadelphia","id":"abkwzqi46b82","state":"PA"},"type":"Feature","geometry":null},{"properties":{"zip":"19103","3digit":"191","inzips":"191","primary_city":"Philadelphia","id":"abkwzqqdxits","state":"PA"},"type":"Feature","geometry":null},{"properties":{"zip":"19104","3digit":"191","inzips":"191","primary_city":"Philadelphia","id":"abkwzqld0mtp","state":"PA"},"type":"Feature","geometry":null},{"properties":{"zip":"19105","3digit":"191","inzips":"191","primary_city":"Philadelphia","id":"abkwzqjm5tot","state":"PA"},"type":"Feature","geometry":null},{"properties":{"zip":"19106","3digit":"191","inzips":"191","primary_city":"Philadelphia","id":"abkwzqmw6un3","state":"PA"},"type":"Feature","geometry":null},{"properties":{"zip":"19107","3digit":"191","inzips":"191","primary_city":"Philadelphia","id":"abkwzqoq5mpj","state":"PA"},"type":"Feature","geometry":null},{"properties":{"zip":"19108","3digit":"191","inzips":"191","primary_city":"Philadelphia","id":"abkwzqcpgszk","state":"PA"},"type":"Feature","geometry":null},{"properties":{"zip":"19109","3digit":"191","inzips":"191","primary_city":"Philadelphia","id":"abkwzqkooael","state":"PA"},"type":"Feature","geometry":null},{"properties":{"zip":"19110","3digit":"191","inzips":"191","primary_city":"Philadelphia","id":"abkwzqpevxei","state":"PA"},"type":"Feature","geometry":null},{"properties":{"zip":"19111","3digit":"191","inzips":"191","primary_city":"Philadelphia","id":"abkwzqm2zalo","state":"PA"},"type":"Feature","geometry":null},{"properties":{"zip":"19112","3digit":"191","inzips":"191","primary_city":"Philadelphia","id":"abkwzqi6h967","state":"PA"},"type":"Feature","geometry":null},{"properties":{"zip":"19113","3digit":"191","inzips":"191","primary_city":"Philadelphia","id":"abkwzqhxhniv","state":"PA"},"type":"Feature","geometry":null},{"properties":{"zip":"19114","3digit":"191","inzips":"191","primary_city":"Philadelphia","id":"abkwzqdeke68","state":"PA"},"type":"Feature","geometry":null},{"properties":{"zip":"19115","3digit":"191","inzips":"191","primary_city":"Philadelphia","id":"abkwzqrx9t7p","state":"PA"},"type":"Feature","geometry":null},{"properties":{"zip":"19116","3digit":"191","inzips":"191","primary_city":"Philadelphia","id":"abkwzqg7gtxb","state":"PA"},"type":"Feature","geometry":null},{"properties":{"zip":"19118","3digit":"191","inzips":"191","primary_city":"Philadelphia","id":"abkwzqrol7he","state":"PA"},"type":"Feature","geometry":null},{"properties":{"zip":"19119","3digit":"191","inzips":"191","primary_city":"Philadelphia","id":"abkwzqcgmtoz","state":"PA"},"type":"Feature","geometry":null},{"properties":{"zip":"19120","3digit":"191","inzips":"191","primary_city":"Philadelphia","id":"abkwzqg82ejx","state":"PA"},"type":"Feature","geometry":null},{"properties":{"zip":"19121","3digit":"191","inzips":"191","primary_city":"Philadelphia","id":"abkwzqhmczy2","state":"PA"},"type":"Feature","geometry":null},{"properties":{"zip":"19122","3digit":"191","inzips":"191","primary_city":"Philadelphia","id":"abkwzqrymjzs","state":"PA"},"type":"Feature","geometry":null},{"properties":{"zip":"19123","3digit":"191","inzips":"191","primary_city":"Philadelphia","id":"abkwzqfg9mau","state":"PA"},"type":"Feature","geometry":null},{"properties":{"zip":"19124","3digit":"191","inzips":"191","primary_city":"Philadelphia","id":"abkwzqguga0v","state":"PA"},"type":"Feature","geometry":null},{"properties":{"zip":"19125","3digit":"191","inzips":"191","primary_city":"Philadelphia","id":"abkwzqnk0oq4","state":"PA"},"type":"Feature","geometry":null},{"properties":{"zip":"19126","3digit":"191","inzips":"191","primary_city":"Philadelphia","id":"abkwzqq3raz4","state":"PA"},"type":"Feature","geometry":null},{"properties":{"zip":"19127","3digit":"191","inzips":"191","primary_city":"Philadelphia","id":"abkwzqiaa9cg","state":"PA"},"type":"Feature","geometry":null},{"properties":{"zip":"19128","3digit":"191","inzips":"191","primary_city":"Philadelphia","id":"abkwzqdpzp93","state":"PA"},"type":"Feature","geometry":null},{"properties":{"zip":"19129","3digit":"191","inzips":"191","primary_city":"Philadelphia","id":"abkwzqgbl416","state":"PA"},"type":"Feature","geometry":null},{"properties":{"zip":"19130","3digit":"191","inzips":"191","primary_city":"Philadelphia","id":"abkwzqk35q2p","state":"PA"},"type":"Feature","geometry":null},{"properties":{"zip":"19131","3digit":"191","inzips":"191","primary_city":"Philadelphia","id":"abkwzqdsdq3p","state":"PA"},"type":"Feature","geometry":null},{"properties":{"zip":"19132","3digit":"191","inzips":"191","primary_city":"Philadelphia","id":"abkwzqimgqwh","state":"PA"},"type":"Feature","geometry":null},{"properties":{"zip":"19133","3digit":"191","inzips":"191","primary_city":"Philadelphia","id":"abkwzqs1dtu8","state":"PA"},"type":"Feature","geometry":null},{"properties":{"zip":"19134","3digit":"191","inzips":"191","primary_city":"Philadelphia","id":"abkwzqoqwha7","state":"PA"},"type":"Feature","geometry":null},{"properties":{"zip":"19135","3digit":"191","inzips":"191","primary_city":"Philadelphia","id":"abkwzqrhhk12","state":"PA"},"type":"Feature","geometry":null},{"properties":{"zip":"19136","3digit":"191","inzips":"191","primary_city":"Philadelphia","id":"abkwzqpz7cxh","state":"PA"},"type":"Feature","geometry":null},{"properties":{"zip":"19137","3digit":"191","inzips":"191","primary_city":"Philadelphia","id":"abkwzqra8y8s","state":"PA"},"type":"Feature","geometry":null},{"properties":{"zip":"19138","3digit":"191","inzips":"191","primary_city":"Philadelphia","id":"abkwzqslz2hx","state":"PA"},"type":"Feature","geometry":null},{"properties":{"zip":"19139","3digit":"191","inzips":"191","primary_city":"Philadelphia","id":"abkwzqdgpd2i","state":"PA"},"type":"Feature","geometry":null},{"properties":{"zip":"19140","3digit":"191","inzips":"191","primary_city":"Philadelphia","id":"abkwzqjomm89","state":"PA"},"type":"Feature","geometry":null},{"properties":{"zip":"19141","3digit":"191","inzips":"191","primary_city":"Philadelphia","id":"abkwzqhz192e","state":"PA"},"type":"Feature","geometry":null},{"properties":{"zip":"19142","3digit":"191","inzips":"191","primary_city":"Philadelphia","id":"abkwzqp9efvt","state":"PA"},"type":"Feature","geometry":null},{"properties":{"zip":"19143","3digit":"191","inzips":"191","primary_city":"Philadelphia","id":"abkwzqd93g0r","state":"PA"},"type":"Feature","geometry":null},{"properties":{"zip":"19144","3digit":"191","inzips":"191","primary_city":"Philadelphia","id":"abkwzqlbewu2","state":"PA"},"type":"Feature","geometry":null},{"properties":{"zip":"19145","3digit":"191","inzips":"191","primary_city":"Philadelphia","id":"abkwzqkrscpj","state":"PA"},"type":"Feature","geometry":null},{"properties":{"zip":"19146","3digit":"191","inzips":"191","primary_city":"Philadelphia","id":"abkwzqnsabh4","state":"PA"},"type":"Feature","geometry":null},{"properties":{"zip":"19147","3digit":"191","inzips":"191","primary_city":"Philadelphia","id":"abkwzqofs06u","state":"PA"},"type":"Feature","geometry":null},{"properties":{"zip":"19148","3digit":"191","inzips":"191","primary_city":"Philadelphia","id":"abkwzqd20v47","state":"PA"},"type":"Feature","geometry":null},{"properties":{"zip":"19149","3digit":"191","inzips":"191","primary_city":"Philadelphia","id":"abkwzqoyhlkh","state":"PA"},"type":"Feature","geometry":null},{"properties":{"zip":"19150","3digit":"191","inzips":"191","primary_city":"Philadelphia","id":"abkwzqjusr33","state":"PA"},"type":"Feature","geometry":null},{"properties":{"zip":"19151","3digit":"191","inzips":"191","primary_city":"Philadelphia","id":"abkwzqnu7ovl","state":"PA"},"type":"Feature","geometry":null},{"properties":{"zip":"19152","3digit":"191","inzips":"191","primary_city":"Philadelphia","id":"abkwzqqdaiho","state":"PA"},"type":"Feature","geometry":null},{"properties":{"zip":"19153","3digit":"191","inzips":"191","primary_city":"Philadelphia","id":"abkwzqkzlxxk","state":"PA"},"type":"Feature","geometry":null},{"properties":{"zip":"19154","3digit":"191","inzips":"191","primary_city":"Philadelphia","id":"abkwzqmofqdm","state":"PA"},"type":"Feature","geometry":null},{"properties":{"zip":"19155","3digit":"191","inzips":"191","primary_city":"Philadelphia","id":"abkwzqgonurh","state":"PA"},"type":"Feature","geometry":null},{"properties":{"zip":"19160","3digit":"191","inzips":"191","primary_city":"Philadelphia","id":"abkwzqkc4af3","state":"PA"},"type":"Feature","geometry":null},{"properties":{"zip":"19161","3digit":"191","inzips":"191","primary_city":"Philadelphia","id":"abkwzqqg1a36","state":"PA"},"type":"Feature","geometry":null},{"properties":{"zip":"19162","3digit":"191","inzips":"191","primary_city":"Philadelphia","id":"abkwzqg2kp55","state":"PA"},"type":"Feature","geometry":null},{"properties":{"zip":"19170","3digit":"191","inzips":"191","primary_city":"Philadelphia","id":"abkwzqfwe5t9","state":"PA"},"type":"Feature","geometry":null},{"properties":{"zip":"19171","3digit":"191","inzips":"191","primary_city":"Philadelphia","id":"abkwzqoo5gcz","state":"PA"},"type":"Feature","geometry":null},{"properties":{"zip":"19172","3digit":"191","inzips":"191","primary_city":"Philadelphia","id":"abkwzqnb7tcn","state":"PA"},"type":"Feature","geometry":null},{"properties":{"zip":"19173","3digit":"191","inzips":"191","primary_city":"Philadelphia","id":"abkwzqli71xc","state":"PA"},"type":"Feature","geometry":null},{"properties":{"zip":"19175","3digit":"191","inzips":"191","primary_city":"Philadelphia","id":"abkwzqlik8jl","state":"PA"},"type":"Feature","geometry":null},{"properties":{"zip":"19176","3digit":"191","inzips":"191","primary_city":"Philadelphia","id":"abkwzqrvulnq","state":"PA"},"type":"Feature","geometry":null},{"properties":{"zip":"19177","3digit":"191","inzips":"191","primary_city":"Philadelphia","id":"abkwzqmmohpj","state":"PA"},"type":"Feature","geometry":null},{"properties":{"zip":"19178","3digit":"191","inzips":"191","primary_city":"Philadelphia","id":"abkwzqfuiefr","state":"PA"},"type":"Feature","geometry":null},{"properties":{"zip":"19179","3digit":"191","inzips":"191","primary_city":"Philadelphia","id":"abkwzqqvz6js","state":"PA"},"type":"Feature","geometry":null},{"properties":{"zip":"19181","3digit":"191","inzips":"191","primary_city":"Philadelphia","id":"abkwzqkpd8ez","state":"PA"},"type":"Feature","geometry":null},{"properties":{"zip":"19182","3digit":"191","inzips":"191","primary_city":"Philadelphia","id":"abkwzqna06n0","state":"PA"},"type":"Feature","geometry":null},{"properties":{"zip":"19183","3digit":"191","inzips":"191","primary_city":"Philadelphia","id":"abkwzqkx3lsx","state":"PA"},"type":"Feature","geometry":null},{"properties":{"zip":"19184","3digit":"191","inzips":"191","primary_city":"Philadelphia","id":"abkwzqpc7ouu","state":"PA"},"type":"Feature","geometry":null},{"properties":{"zip":"19185","3digit":"191","inzips":"191","primary_city":"Philadelphia","id":"abkwzqpgw06w","state":"PA"},"type":"Feature","geometry":null},{"properties":{"zip":"19187","3digit":"191","inzips":"191","primary_city":"Philadelphia","id":"abkwzqpvchto","state":"PA"},"type":"Feature","geometry":null},{"properties":{"zip":"19188","3digit":"191","inzips":"191","primary_city":"Philadelphia","id":"abkwzqphf587","state":"PA"},"type":"Feature","geometry":null},{"properties":{"zip":"19190","3digit":"191","inzips":"191","primary_city":"Philadelphia","id":"abkwzqg2hw8i","state":"PA"},"type":"Feature","geometry":null},{"properties":{"zip":"19191","3digit":"191","inzips":"191","primary_city":"Philadelphia","id":"abkwzqm1e6sl","state":"PA"},"type":"Feature","geometry":null},{"properties":{"zip":"19192","3digit":"191","inzips":"191","primary_city":"Philadelphia","id":"abkwzqdqvp0d","state":"PA"},"type":"Feature","geometry":null},{"properties":{"zip":"19193","3digit":"191","inzips":"191","primary_city":"Philadelphia","id":"abkwzql1tokz","state":"PA"},"type":"Feature","geometry":null},{"properties":{"zip":"19194","3digit":"191","inzips":"191","primary_city":"Philadelphia","id":"abkwzqlww5un","state":"PA"},"type":"Feature","geometry":null},{"properties":{"zip":"19195","3digit":"191","inzips":"191","primary_city":"Philadelphia","id":"abkwzqe61m60","state":"PA"},"type":"Feature","geometry":null},{"properties":{"zip":"19196","3digit":"191","inzips":"191","primary_city":"Philadelphia","id":"abkwzqe7e4ja","state":"PA"},"type":"Feature","geometry":null},{"properties":{"zip":"19197","3digit":"191","inzips":"191","primary_city":"Philadelphia","id":"abkwzqq49xyg","state":"PA"},"type":"Feature","geometry":null},{"properties":{"zip":"19301","3digit":"193","inzips":"193","primary_city":"Paoli","id":"abkwzqkec2w7","state":"PA"},"type":"Feature","geometry":null},{"properties":{"zip":"19310","3digit":"193","inzips":"193","primary_city":"Atglen","id":"abkwzqpl8e7u","state":"PA"},"type":"Feature","geometry":null},{"properties":{"zip":"19311","3digit":"193","inzips":"193","primary_city":"Avondale","id":"abkwzqp9bs1i","state":"PA"},"type":"Feature","geometry":null},{"properties":{"zip":"19312","3digit":"193","inzips":"193","primary_city":"Berwyn","id":"abkwzqqmhf5n","state":"PA"},"type":"Feature","geometry":null},{"properties":{"zip":"19316","3digit":"193","inzips":"193","primary_city":"Brandamore","id":"abkwzqe346nt","state":"PA"},"type":"Feature","geometry":null},{"properties":{"zip":"19317","3digit":"193","inzips":"193","primary_city":"Chadds Ford","id":"abkwzqgfw7cz","state":"PA"},"type":"Feature","geometry":null},{"properties":{"zip":"19318","3digit":"193","inzips":"193","primary_city":"Chatham","id":"abkwzqke8tcd","state":"PA"},"type":"Feature","geometry":null},{"properties":{"zip":"19319","3digit":"193","inzips":"193","primary_city":"Cheyney","id":"abkwzqg14v2j","state":"PA"},"type":"Feature","geometry":null},{"properties":{"zip":"19320","3digit":"193","inzips":"193","primary_city":"Coatesville","id":"abkwzqm6kbx8","state":"PA"},"type":"Feature","geometry":null},{"properties":{"zip":"19330","3digit":"193","inzips":"193","primary_city":"Cochranville","id":"abkwzqmmi9jn","state":"PA"},"type":"Feature","geometry":null},{"properties":{"zip":"19331","3digit":"193","inzips":"193","primary_city":"Concordville","id":"abkwzqmrm4tx","state":"PA"},"type":"Feature","geometry":null},{"properties":{"zip":"19333","3digit":"193","inzips":"193","primary_city":"Devon","id":"abkwzqdse902","state":"PA"},"type":"Feature","geometry":null},{"properties":{"zip":"19335","3digit":"193","inzips":"193","primary_city":"Downingtown","id":"abkwzqjj9khd","state":"PA"},"type":"Feature","geometry":null},{"properties":{"zip":"19339","3digit":"193","inzips":"193","primary_city":"Concordville","id":"abkwzqs68x02","state":"PA"},"type":"Feature","geometry":null},{"properties":{"zip":"19340","3digit":"193","inzips":"193","primary_city":"Concordville","id":"abkwzqlxqdkt","state":"PA"},"type":"Feature","geometry":null},{"properties":{"zip":"19341","3digit":"193","inzips":"193","primary_city":"Exton","id":"abkwzqg90j71","state":"PA"},"type":"Feature","geometry":null},{"properties":{"zip":"19342","3digit":"193","inzips":"193","primary_city":"Glen Mills","id":"abkwzqnyugoz","state":"PA"},"type":"Feature","geometry":null},{"properties":{"zip":"19343","3digit":"193","inzips":"193","primary_city":"Glenmoore","id":"abkwzqsckqyy","state":"PA"},"type":"Feature","geometry":null},{"properties":{"zip":"19344","3digit":"193","inzips":"193","primary_city":"Honey Brook","id":"abkwzqf2a6qb","state":"PA"},"type":"Feature","geometry":null},{"properties":{"zip":"19345","3digit":"193","inzips":"193","primary_city":"Immaculata","id":"abkwzqhwfmqy","state":"PA"},"type":"Feature","geometry":null},{"properties":{"zip":"19346","3digit":"193","inzips":"193","primary_city":"Kelton","id":"abkwzqqk97a8","state":"PA"},"type":"Feature","geometry":null},{"properties":{"zip":"19347","3digit":"193","inzips":"193","primary_city":"Kemblesville","id":"abkwzqgncnz7","state":"PA"},"type":"Feature","geometry":null},{"properties":{"zip":"19348","3digit":"193","inzips":"193","primary_city":"Kennett Square","id":"abkwzqgo95m5","state":"PA"},"type":"Feature","geometry":null},{"properties":{"zip":"19350","3digit":"193","inzips":"193","primary_city":"Landenberg","id":"abkwzqnwxw3n","state":"PA"},"type":"Feature","geometry":null},{"properties":{"zip":"19351","3digit":"193","inzips":"193","primary_city":"Lewisville","id":"abkwzqowwwy3","state":"PA"},"type":"Feature","geometry":null},{"properties":{"zip":"19352","3digit":"193","inzips":"193","primary_city":"Lincoln University","id":"abkwzqe11be8","state":"PA"},"type":"Feature","geometry":null},{"properties":{"zip":"19353","3digit":"193","inzips":"193","primary_city":"Lionville","id":"abkwzqcdznrn","state":"PA"},"type":"Feature","geometry":null},{"properties":{"zip":"19354","3digit":"193","inzips":"193","primary_city":"Lyndell","id":"abkwzqjv2hlp","state":"PA"},"type":"Feature","geometry":null},{"properties":{"zip":"19355","3digit":"193","inzips":"193","primary_city":"Malvern","id":"abkwzqgccrkx","state":"PA"},"type":"Feature","geometry":null},{"properties":{"zip":"19357","3digit":"193","inzips":"193","primary_city":"Mendenhall","id":"abkwzqplkdhc","state":"PA"},"type":"Feature","geometry":null},{"properties":{"zip":"19358","3digit":"193","inzips":"193","primary_city":"Modena","id":"abkwzqd9g5xb","state":"PA"},"type":"Feature","geometry":null},{"properties":{"zip":"19360","3digit":"193","inzips":"193","primary_city":"New London","id":"abkwzqinmqv3","state":"PA"},"type":"Feature","geometry":null},{"properties":{"zip":"19362","3digit":"193","inzips":"193","primary_city":"Nottingham","id":"abkwzqqrod58","state":"PA"},"type":"Feature","geometry":null},{"properties":{"zip":"19363","3digit":"193","inzips":"193","primary_city":"Oxford","id":"abkwzqlbk9lm","state":"PA"},"type":"Feature","geometry":null},{"properties":{"zip":"19365","3digit":"193","inzips":"193","primary_city":"Parkesburg","id":"abkwzqsmi81n","state":"PA"},"type":"Feature","geometry":null},{"properties":{"zip":"19366","3digit":"193","inzips":"193","primary_city":"Pocopson","id":"abkwzqdcdf7b","state":"PA"},"type":"Feature","geometry":null},{"properties":{"zip":"19367","3digit":"193","inzips":"193","primary_city":"Pomeroy","id":"abkwzqfga84t","state":"PA"},"type":"Feature","geometry":null},{"properties":{"zip":"19369","3digit":"193","inzips":"193","primary_city":"Sadsburyville","id":"abkwzqddscc8","state":"PA"},"type":"Feature","geometry":null},{"properties":{"zip":"19371","3digit":"193","inzips":"193","primary_city":"Suplee","id":"abkwzqgdwu1w","state":"PA"},"type":"Feature","geometry":null},{"properties":{"zip":"19372","3digit":"193","inzips":"193","primary_city":"Thorndale","id":"abkwzqd1gx5q","state":"PA"},"type":"Feature","geometry":null},{"properties":{"zip":"19373","3digit":"193","inzips":"193","primary_city":"Thornton","id":"abkwzqenilbh","state":"PA"},"type":"Feature","geometry":null},{"properties":{"zip":"19374","3digit":"193","inzips":"193","primary_city":"Toughkenamon","id":"abkwzqm4qd51","state":"PA"},"type":"Feature","geometry":null},{"properties":{"zip":"19375","3digit":"193","inzips":"193","primary_city":"Unionville","id":"abkwzqo2c239","state":"PA"},"type":"Feature","geometry":null},{"properties":{"zip":"19376","3digit":"193","inzips":"193","primary_city":"Wagontown","id":"abkwzqni707s","state":"PA"},"type":"Feature","geometry":null},{"properties":{"zip":"19380","3digit":"193","inzips":"193","primary_city":"West Chester","id":"abkwzqcbkj0e","state":"PA"},"type":"Feature","geometry":null},{"properties":{"zip":"19381","3digit":"193","inzips":"193","primary_city":"West Chester","id":"abkwzqrxg3mr","state":"PA"},"type":"Feature","geometry":null},{"properties":{"zip":"19382","3digit":"193","inzips":"193","primary_city":"West Chester","id":"abkwzqqm5s9s","state":"PA"},"type":"Feature","geometry":null},{"properties":{"zip":"19383","3digit":"193","inzips":"193","primary_city":"West Chester","id":"abkwzqldfx1e","state":"PA"},"type":"Feature","geometry":null},{"properties":{"zip":"19388","3digit":"193","inzips":"193","primary_city":"West Chester","id":"abkwzqol3h12","state":"PA"},"type":"Feature","geometry":null},{"properties":{"zip":"19390","3digit":"193","inzips":"193","primary_city":"West Grove","id":"abkwzqnwoqp9","state":"PA"},"type":"Feature","geometry":null},{"properties":{"zip":"19395","3digit":"193","inzips":"193","primary_city":"Westtown","id":"abkwzqdmqep0","state":"PA"},"type":"Feature","geometry":null},{"properties":{"zip":"19397","3digit":"193","inzips":"193","primary_city":"Southeastern","id":"abkwzqsq1frj","state":"PA"},"type":"Feature","geometry":null},{"properties":{"zip":"19398","3digit":"193","inzips":"193","primary_city":"Southeastern","id":"abkwzqlv71yz","state":"PA"},"type":"Feature","geometry":null},{"properties":{"zip":"19399","3digit":"193","inzips":"193","primary_city":"Southeastern","id":"abkwzqevelcl","state":"PA"},"type":"Feature","geometry":null},{"properties":{"zip":"19401","3digit":"194","inzips":"194","primary_city":"Norristown","id":"abkwzqjvoddy","state":"PA"},"type":"Feature","geometry":null},{"properties":{"zip":"19403","3digit":"194","inzips":"194","primary_city":"Norristown","id":"abkwzqodml9x","state":"PA"},"type":"Feature","geometry":null},{"properties":{"zip":"19404","3digit":"194","inzips":"194","primary_city":"Norristown","id":"abkwzqef3msf","state":"PA"},"type":"Feature","geometry":null},{"properties":{"zip":"19405","3digit":"194","inzips":"194","primary_city":"Bridgeport","id":"abkwzqdf418t","state":"PA"},"type":"Feature","geometry":null},{"properties":{"zip":"19406","3digit":"194","inzips":"194","primary_city":"King Of Prussia","id":"abkwzqgyekz2","state":"PA"},"type":"Feature","geometry":null},{"properties":{"zip":"19407","3digit":"194","inzips":"194","primary_city":"Audubon","id":"abkwzqk4ktjt","state":"PA"},"type":"Feature","geometry":null},{"properties":{"zip":"19408","3digit":"194","inzips":"194","primary_city":"Eagleville","id":"abkwzqm1zqft","state":"PA"},"type":"Feature","geometry":null},{"properties":{"zip":"19409","3digit":"194","inzips":"194","primary_city":"Fairview Village","id":"abkwzqoonz74","state":"PA"},"type":"Feature","geometry":null},{"properties":{"zip":"19415","3digit":"194","inzips":"194","primary_city":"Eagleville","id":"abkwzql8g2kk","state":"PA"},"type":"Feature","geometry":null},{"properties":{"zip":"19420","3digit":"194","inzips":"194","primary_city":"Arcola","id":"abkwzqpfg9y4","state":"PA"},"type":"Feature","geometry":null},{"properties":{"zip":"19421","3digit":"194","inzips":"194","primary_city":"Birchrunville","id":"abkwzqgp8qxi","state":"PA"},"type":"Feature","geometry":null},{"properties":{"zip":"19422","3digit":"194","inzips":"194","primary_city":"Blue Bell","id":"abkwzqp7bx91","state":"PA"},"type":"Feature","geometry":null},{"properties":{"zip":"19423","3digit":"194","inzips":"194","primary_city":"Cedars","id":"abkwzqh3x65j","state":"PA"},"type":"Feature","geometry":null},{"properties":{"zip":"19424","3digit":"194","inzips":"194","primary_city":"Blue Bell","id":"abkwzqdbnx13","state":"PA"},"type":"Feature","geometry":null},{"properties":{"zip":"19425","3digit":"194","inzips":"194","primary_city":"Chester Springs","id":"abkwzqp6cclu","state":"PA"},"type":"Feature","geometry":null},{"properties":{"zip":"19426","3digit":"194","inzips":"194","primary_city":"Collegeville","id":"abkwzqrvscs5","state":"PA"},"type":"Feature","geometry":null},{"properties":{"zip":"19428","3digit":"194","inzips":"194","primary_city":"Conshohocken","id":"abkwzqrwlqo4","state":"PA"},"type":"Feature","geometry":null},{"properties":{"zip":"19429","3digit":"194","inzips":"194","primary_city":"Conshohocken","id":"abkwzqhjb89j","state":"PA"},"type":"Feature","geometry":null},{"properties":{"zip":"19430","3digit":"194","inzips":"194","primary_city":"Creamery","id":"abkwzqnbi4gh","state":"PA"},"type":"Feature","geometry":null},{"properties":{"zip":"19432","3digit":"194","inzips":"194","primary_city":"Devault","id":"abkwzqjqfgyk","state":"PA"},"type":"Feature","geometry":null},{"properties":{"zip":"19435","3digit":"194","inzips":"194","primary_city":"Frederick","id":"abkwzqiav4nq","state":"PA"},"type":"Feature","geometry":null},{"properties":{"zip":"19436","3digit":"194","inzips":"194","primary_city":"Gwynedd","id":"abkwzqpou3rl","state":"PA"},"type":"Feature","geometry":null},{"properties":{"zip":"19437","3digit":"194","inzips":"194","primary_city":"Gwynedd Valley","id":"abkwzqrf48sp","state":"PA"},"type":"Feature","geometry":null},{"properties":{"zip":"19438","3digit":"194","inzips":"194","primary_city":"Harleysville","id":"abkwzqkjgm14","state":"PA"},"type":"Feature","geometry":null},{"properties":{"zip":"19440","3digit":"194","inzips":"194","primary_city":"Hatfield","id":"abkwzqrb62md","state":"PA"},"type":"Feature","geometry":null},{"properties":{"zip":"19441","3digit":"194","inzips":"194","primary_city":"Harleysville","id":"abkwzqlfsntr","state":"PA"},"type":"Feature","geometry":null},{"properties":{"zip":"19442","3digit":"194","inzips":"194","primary_city":"Kimberton","id":"abkwzql4ksji","state":"PA"},"type":"Feature","geometry":null},{"properties":{"zip":"19443","3digit":"194","inzips":"194","primary_city":"Kulpsville","id":"abkwzqdixsjt","state":"PA"},"type":"Feature","geometry":null},{"properties":{"zip":"19444","3digit":"194","inzips":"194","primary_city":"Lafayette Hill","id":"abkwzqndn1np","state":"PA"},"type":"Feature","geometry":null},{"properties":{"zip":"19446","3digit":"194","inzips":"194","primary_city":"Lansdale","id":"abkwzqluk1p0","state":"PA"},"type":"Feature","geometry":null},{"properties":{"zip":"19450","3digit":"194","inzips":"194","primary_city":"Lederach","id":"abkwzqo9oyr9","state":"PA"},"type":"Feature","geometry":null},{"properties":{"zip":"19451","3digit":"194","inzips":"194","primary_city":"Mainland","id":"abkwzqozo6ne","state":"PA"},"type":"Feature","geometry":null},{"properties":{"zip":"19453","3digit":"194","inzips":"194","primary_city":"Mont Clare","id":"abkwzqkvg1vv","state":"PA"},"type":"Feature","geometry":null},{"properties":{"zip":"19454","3digit":"194","inzips":"194","primary_city":"North Wales","id":"abkwzqr5ht09","state":"PA"},"type":"Feature","geometry":null},{"properties":{"zip":"19455","3digit":"194","inzips":"194","primary_city":"North Wales","id":"abkwzqg0cif1","state":"PA"},"type":"Feature","geometry":null},{"properties":{"zip":"19456","3digit":"194","inzips":"194","primary_city":"Oaks","id":"abkwzqjb4c6b","state":"PA"},"type":"Feature","geometry":null},{"properties":{"zip":"19457","3digit":"194","inzips":"194","primary_city":"Parker Ford","id":"abkwzqjigvh4","state":"PA"},"type":"Feature","geometry":null},{"properties":{"zip":"19460","3digit":"194","inzips":"194","primary_city":"Phoenixville","id":"abkwzql34kc0","state":"PA"},"type":"Feature","geometry":null},{"properties":{"zip":"19462","3digit":"194","inzips":"194","primary_city":"Plymouth Meeting","id":"abkwzqf2cx6z","state":"PA"},"type":"Feature","geometry":null},{"properties":{"zip":"19464","3digit":"194","inzips":"194","primary_city":"Pottstown","id":"abkwzqlz1478","state":"PA"},"type":"Feature","geometry":null},{"properties":{"zip":"19465","3digit":"194","inzips":"194","primary_city":"Pottstown","id":"abkwzqg09ctm","state":"PA"},"type":"Feature","geometry":null},{"properties":{"zip":"19468","3digit":"194","inzips":"194","primary_city":"Royersford","id":"abkwzql9svk5","state":"PA"},"type":"Feature","geometry":null},{"properties":{"zip":"19470","3digit":"194","inzips":"194","primary_city":"Saint Peters","id":"abkwzqkj7f5r","state":"PA"},"type":"Feature","geometry":null},{"properties":{"zip":"19472","3digit":"194","inzips":"194","primary_city":"Sassamansville","id":"abkwzqkj248q","state":"PA"},"type":"Feature","geometry":null},{"properties":{"zip":"19473","3digit":"194","inzips":"194","primary_city":"Schwenksville","id":"abkwzqgo0uj9","state":"PA"},"type":"Feature","geometry":null},{"properties":{"zip":"19474","3digit":"194","inzips":"194","primary_city":"Skippack","id":"abkwzqm5ckwq","state":"PA"},"type":"Feature","geometry":null},{"properties":{"zip":"19475","3digit":"194","inzips":"194","primary_city":"Spring City","id":"abkwzqcjhyi0","state":"PA"},"type":"Feature","geometry":null},{"properties":{"zip":"19477","3digit":"194","inzips":"194","primary_city":"Spring House","id":"abkwzqjx2bbs","state":"PA"},"type":"Feature","geometry":null},{"properties":{"zip":"19478","3digit":"194","inzips":"194","primary_city":"Spring Mount","id":"abkwzqj7zdz8","state":"PA"},"type":"Feature","geometry":null},{"properties":{"zip":"19480","3digit":"194","inzips":"194","primary_city":"Uwchland","id":"abkwzqh79mhv","state":"PA"},"type":"Feature","geometry":null},{"properties":{"zip":"19481","3digit":"194","inzips":"194","primary_city":"Valley Forge","id":"abkwzqfolisg","state":"PA"},"type":"Feature","geometry":null},{"properties":{"zip":"19482","3digit":"194","inzips":"194","primary_city":"Valley Forge","id":"abkwzqqqxa03","state":"PA"},"type":"Feature","geometry":null},{"properties":{"zip":"19483","3digit":"194","inzips":"194","primary_city":"Valley Forge","id":"abkwzqrxl0w4","state":"PA"},"type":"Feature","geometry":null},{"properties":{"zip":"19484","3digit":"194","inzips":"194","primary_city":"Valley Forge","id":"abkwzqjgttkp","state":"PA"},"type":"Feature","geometry":null},{"properties":{"zip":"19485","3digit":"194","inzips":"194","primary_city":"Valley Forge","id":"abkwzqnsrnhi","state":"PA"},"type":"Feature","geometry":null},{"properties":{"zip":"19486","3digit":"194","inzips":"194","primary_city":"West Point","id":"abkwzqifcbeq","state":"PA"},"type":"Feature","geometry":null},{"properties":{"zip":"19487","3digit":"194","inzips":"194","primary_city":"King Of Prussia","id":"abkwzqi86fe4","state":"PA"},"type":"Feature","geometry":null},{"properties":{"zip":"19488","3digit":"194","inzips":"194","primary_city":"Norristown","id":"abkwzqj1rf2m","state":"PA"},"type":"Feature","geometry":null},{"properties":{"zip":"19489","3digit":"194","inzips":"194","primary_city":"Norristown","id":"abkwzqeyaml7","state":"PA"},"type":"Feature","geometry":null},{"properties":{"zip":"19490","3digit":"194","inzips":"194","primary_city":"Worcester","id":"abkwzqjepgsr","state":"PA"},"type":"Feature","geometry":null},{"properties":{"zip":"19492","3digit":"194","inzips":"194","primary_city":"Zieglerville","id":"abkwzqgwo0bo","state":"PA"},"type":"Feature","geometry":null},{"properties":{"zip":"19493","3digit":"194","inzips":"194","primary_city":"Valley Forge","id":"abkwzqngc91p","state":"PA"},"type":"Feature","geometry":null},{"properties":{"zip":"19494","3digit":"194","inzips":"194","primary_city":"Valley Forge","id":"abkwzqp6buwl","state":"PA"},"type":"Feature","geometry":null},{"properties":{"zip":"19495","3digit":"194","inzips":"194","primary_city":"Valley Forge","id":"abkwzqmvz57f","state":"PA"},"type":"Feature","geometry":null},{"properties":{"zip":"19496","3digit":"194","inzips":"194","primary_city":"Valley Forge","id":"abkwzqn9z5zp","state":"PA"},"type":"Feature","geometry":null},{"properties":{"zip":"19501","3digit":"195","inzips":"195","primary_city":"Adamstown","id":"abkwzqlcojeu","state":"PA"},"type":"Feature","geometry":null},{"properties":{"zip":"19503","3digit":"195","inzips":"195","primary_city":"Bally","id":"abkwzqiojrni","state":"PA"},"type":"Feature","geometry":null},{"properties":{"zip":"19504","3digit":"195","inzips":"195","primary_city":"Barto","id":"abkwzqct6m76","state":"PA"},"type":"Feature","geometry":null},{"properties":{"zip":"19505","3digit":"195","inzips":"195","primary_city":"Bechtelsville","id":"abkwzqlexinu","state":"PA"},"type":"Feature","geometry":null},{"properties":{"zip":"19506","3digit":"195","inzips":"195","primary_city":"Bernville","id":"abkwzqk5v4dx","state":"PA"},"type":"Feature","geometry":null},{"properties":{"zip":"19507","3digit":"195","inzips":"195","primary_city":"Bethel","id":"abkwzqmyw5ql","state":"PA"},"type":"Feature","geometry":null},{"properties":{"zip":"19508","3digit":"195","inzips":"195","primary_city":"Birdsboro","id":"abkwzqde98fa","state":"PA"},"type":"Feature","geometry":null},{"properties":{"zip":"19510","3digit":"195","inzips":"195","primary_city":"Blandon","id":"abkwzqmqezpz","state":"PA"},"type":"Feature","geometry":null},{"properties":{"zip":"19511","3digit":"195","inzips":"195","primary_city":"Bowers","id":"abkwzqqom61w","state":"PA"},"type":"Feature","geometry":null},{"properties":{"zip":"19512","3digit":"195","inzips":"195","primary_city":"Boyertown","id":"abkwzqg72l4r","state":"PA"},"type":"Feature","geometry":null},{"properties":{"zip":"19516","3digit":"195","inzips":"195","primary_city":"Centerport","id":"abkwzqhl9zwc","state":"PA"},"type":"Feature","geometry":null},{"properties":{"zip":"19518","3digit":"195","inzips":"195","primary_city":"Douglassville","id":"abkwzqm7oc3o","state":"PA"},"type":"Feature","geometry":null},{"properties":{"zip":"19519","3digit":"195","inzips":"195","primary_city":"Earlville","id":"abkwzqiqm1iq","state":"PA"},"type":"Feature","geometry":null},{"properties":{"zip":"19520","3digit":"195","inzips":"195","primary_city":"Elverson","id":"abkwzqfiraqa","state":"PA"},"type":"Feature","geometry":null},{"properties":{"zip":"19522","3digit":"195","inzips":"195","primary_city":"Fleetwood","id":"abkwzqlja17h","state":"PA"},"type":"Feature","geometry":null},{"properties":{"zip":"19523","3digit":"195","inzips":"195","primary_city":"Geigertown","id":"abkwzqjdkc0r","state":"PA"},"type":"Feature","geometry":null},{"properties":{"zip":"19525","3digit":"195","inzips":"195","primary_city":"Gilbertsville","id":"abkwzqq0figu","state":"PA"},"type":"Feature","geometry":null},{"properties":{"zip":"19526","3digit":"195","inzips":"195","primary_city":"Hamburg","id":"abkwzqej9iqg","state":"PA"},"type":"Feature","geometry":null},{"properties":{"zip":"19529","3digit":"195","inzips":"195","primary_city":"Kempton","id":"abkwzqn7krz2","state":"PA"},"type":"Feature","geometry":null},{"properties":{"zip":"19530","3digit":"195","inzips":"195","primary_city":"Kutztown","id":"abkwzqi11x9d","state":"PA"},"type":"Feature","geometry":null},{"properties":{"zip":"19533","3digit":"195","inzips":"195","primary_city":"Leesport","id":"abkwzqmyy486","state":"PA"},"type":"Feature","geometry":null},{"properties":{"zip":"19534","3digit":"195","inzips":"195","primary_city":"Lenhartsville","id":"abkwzqs9zejy","state":"PA"},"type":"Feature","geometry":null},{"properties":{"zip":"19535","3digit":"195","inzips":"195","primary_city":"Limekiln","id":"abkwzqkbv7yu","state":"PA"},"type":"Feature","geometry":null},{"properties":{"zip":"19536","3digit":"195","inzips":"195","primary_city":"Lyon Station","id":"abkwzqrb94dm","state":"PA"},"type":"Feature","geometry":null},{"properties":{"zip":"19538","3digit":"195","inzips":"195","primary_city":"Maxatawny","id":"abkwzqiaadnp","state":"PA"},"type":"Feature","geometry":null},{"properties":{"zip":"19539","3digit":"195","inzips":"195","primary_city":"Mertztown","id":"abkwzqp7pnp1","state":"PA"},"type":"Feature","geometry":null},{"properties":{"zip":"19540","3digit":"195","inzips":"195","primary_city":"Mohnton","id":"abkwzqqg0yba","state":"PA"},"type":"Feature","geometry":null},{"properties":{"zip":"19541","3digit":"195","inzips":"195","primary_city":"Mohrsville","id":"abkwzqnhajoc","state":"PA"},"type":"Feature","geometry":null},{"properties":{"zip":"19542","3digit":"195","inzips":"195","primary_city":"Monocacy Station","id":"abkwzqfrhz50","state":"PA"},"type":"Feature","geometry":null},{"properties":{"zip":"19543","3digit":"195","inzips":"195","primary_city":"Morgantown","id":"abkwzqf2fhdo","state":"PA"},"type":"Feature","geometry":null},{"properties":{"zip":"19544","3digit":"195","inzips":"195","primary_city":"Mount Aetna","id":"abkwzqhm7f65","state":"PA"},"type":"Feature","geometry":null},{"properties":{"zip":"19545","3digit":"195","inzips":"195","primary_city":"New Berlinville","id":"abkwzqkx7ubi","state":"PA"},"type":"Feature","geometry":null},{"properties":{"zip":"19547","3digit":"195","inzips":"195","primary_city":"Oley","id":"abkwzqj20n36","state":"PA"},"type":"Feature","geometry":null},{"properties":{"zip":"19548","3digit":"195","inzips":"195","primary_city":"Pine Forge","id":"abkwzqgnpc3l","state":"PA"},"type":"Feature","geometry":null},{"properties":{"zip":"19549","3digit":"195","inzips":"195","primary_city":"Port Clinton","id":"abkwzqn2xzf4","state":"PA"},"type":"Feature","geometry":null},{"properties":{"zip":"19550","3digit":"195","inzips":"195","primary_city":"Rehrersburg","id":"abkwzqrh2tbp","state":"PA"},"type":"Feature","geometry":null},{"properties":{"zip":"19551","3digit":"195","inzips":"195","primary_city":"Robesonia","id":"abkwzqecg28u","state":"PA"},"type":"Feature","geometry":null},{"properties":{"zip":"19554","3digit":"195","inzips":"195","primary_city":"Shartlesville","id":"abkwzqdc7kn6","state":"PA"},"type":"Feature","geometry":null},{"properties":{"zip":"19555","3digit":"195","inzips":"195","primary_city":"Shoemakersville","id":"abkwzqmabi8q","state":"PA"},"type":"Feature","geometry":null},{"properties":{"zip":"19559","3digit":"195","inzips":"195","primary_city":"Strausstown","id":"abkwzqfj5xol","state":"PA"},"type":"Feature","geometry":null},{"properties":{"zip":"19560","3digit":"195","inzips":"195","primary_city":"Temple","id":"abkwzqgsf4oa","state":"PA"},"type":"Feature","geometry":null},{"properties":{"zip":"19562","3digit":"195","inzips":"195","primary_city":"Topton","id":"abkwzqhtuucc","state":"PA"},"type":"Feature","geometry":null},{"properties":{"zip":"19564","3digit":"195","inzips":"195","primary_city":"Virginville","id":"abkwzqpuvsk7","state":"PA"},"type":"Feature","geometry":null},{"properties":{"zip":"19565","3digit":"195","inzips":"195","primary_city":"Wernersville","id":"abkwzqn1zqm8","state":"PA"},"type":"Feature","geometry":null},{"properties":{"zip":"19567","3digit":"195","inzips":"195","primary_city":"Womelsdorf","id":"abkwzqkctunh","state":"PA"},"type":"Feature","geometry":null},{"properties":{"zip":"19601","3digit":"196","inzips":"196","primary_city":"Reading","id":"abkwzqnh1rjb","state":"PA"},"type":"Feature","geometry":null},{"properties":{"zip":"19602","3digit":"196","inzips":"196","primary_city":"Reading","id":"abkwzqfaqufy","state":"PA"},"type":"Feature","geometry":null},{"properties":{"zip":"19603","3digit":"196","inzips":"196","primary_city":"Reading","id":"abkwzqs6eiou","state":"PA"},"type":"Feature","geometry":null},{"properties":{"zip":"19604","3digit":"196","inzips":"196","primary_city":"Reading","id":"abkwzqmsj2av","state":"PA"},"type":"Feature","geometry":null},{"properties":{"zip":"19605","3digit":"196","inzips":"196","primary_city":"Reading","id":"abkwzqlgpyve","state":"PA"},"type":"Feature","geometry":null},{"properties":{"zip":"19606","3digit":"196","inzips":"196","primary_city":"Reading","id":"abkwzqo00u9g","state":"PA"},"type":"Feature","geometry":null},{"properties":{"zip":"19607","3digit":"196","inzips":"196","primary_city":"Reading","id":"abkwzqklrb33","state":"PA"},"type":"Feature","geometry":null},{"properties":{"zip":"19608","3digit":"196","inzips":"196","primary_city":"Reading","id":"abkwzqn0uwya","state":"PA"},"type":"Feature","geometry":null},{"properties":{"zip":"19609","3digit":"196","inzips":"196","primary_city":"Reading","id":"abkwzqhozrlv","state":"PA"},"type":"Feature","geometry":null},{"properties":{"zip":"19610","3digit":"196","inzips":"196","primary_city":"Reading","id":"abkwzqqvf4as","state":"PA"},"type":"Feature","geometry":null},{"properties":{"zip":"19611","3digit":"196","inzips":"196","primary_city":"Reading","id":"abkwzqppi4s7","state":"PA"},"type":"Feature","geometry":null},{"properties":{"zip":"19612","3digit":"196","inzips":"196","primary_city":"Reading","id":"abkwzqrkaq0j","state":"PA"},"type":"Feature","geometry":null},{"properties":{"zip":"19640","3digit":"196","inzips":"196","primary_city":"Reading","id":"abkwzqstd23o","state":"PA"},"type":"Feature","geometry":null},{"properties":{"zip":"23801","3digit":"238","inzips":"238","primary_city":"Fort Lee","id":"abkwzqhb92jx","state":"VA"},"type":"Feature","geometry":null},{"properties":{"zip":"23803","3digit":"238","inzips":"238","primary_city":"Petersburg","id":"abkwzqil7p03","state":"VA"},"type":"Feature","geometry":null},{"properties":{"zip":"23804","3digit":"238","inzips":"238","primary_city":"Petersburg","id":"abkwzqdrqll8","state":"VA"},"type":"Feature","geometry":null},{"properties":{"zip":"23805","3digit":"238","inzips":"238","primary_city":"Petersburg","id":"abkwzqmg4zpa","state":"VA"},"type":"Feature","geometry":null},{"properties":{"zip":"23806","3digit":"238","inzips":"238","primary_city":"Virginia State University","id":"abkwzqigyoxm","state":"VA"},"type":"Feature","geometry":null},{"properties":{"zip":"23821","3digit":"238","inzips":"238","primary_city":"Alberta","id":"abkwzqcdovcf","state":"VA"},"type":"Feature","geometry":null},{"properties":{"zip":"23822","3digit":"238","inzips":"238","primary_city":"Ammon","id":"abkwzqevr2ev","state":"VA"},"type":"Feature","geometry":null},{"properties":{"zip":"23824","3digit":"238","inzips":"238","primary_city":"Blackstone","id":"abkwzqmwtj6y","state":"VA"},"type":"Feature","geometry":null},{"properties":{"zip":"23825","3digit":"238","inzips":"238","primary_city":"Blackstone","id":"abkwzqeycbls","state":"VA"},"type":"Feature","geometry":null},{"properties":{"zip":"23827","3digit":"238","inzips":"238","primary_city":"Boykins","id":"abkwzqquasc4","state":"VA"},"type":"Feature","geometry":null},{"properties":{"zip":"23828","3digit":"238","inzips":"238","primary_city":"Branchville","id":"abkwzqnlm4c4","state":"VA"},"type":"Feature","geometry":null},{"properties":{"zip":"23829","3digit":"238","inzips":"238","primary_city":"Capron","id":"abkwzqj3f59l","state":"VA"},"type":"Feature","geometry":null},{"properties":{"zip":"23830","3digit":"238","inzips":"238","primary_city":"Carson","id":"abkwzqgz5f89","state":"VA"},"type":"Feature","geometry":null},{"properties":{"zip":"23831","3digit":"238","inzips":"238","primary_city":"Chester","id":"abkwzqo6sksv","state":"VA"},"type":"Feature","geometry":null},{"properties":{"zip":"23832","3digit":"238","inzips":"238","primary_city":"Chesterfield","id":"abkwzqcvezls","state":"VA"},"type":"Feature","geometry":null},{"properties":{"zip":"23833","3digit":"238","inzips":"238","primary_city":"Church Road","id":"abkwzqn8s1j9","state":"VA"},"type":"Feature","geometry":null},{"properties":{"zip":"23834","3digit":"238","inzips":"238","primary_city":"Colonial Heights","id":"abkwzqcfi57j","state":"VA"},"type":"Feature","geometry":null},{"properties":{"zip":"23836","3digit":"238","inzips":"238","primary_city":"Chester","id":"abkwzqrc9jtj","state":"VA"},"type":"Feature","geometry":null},{"properties":{"zip":"23837","3digit":"238","inzips":"238","primary_city":"Courtland","id":"abkwzqpgirel","state":"VA"},"type":"Feature","geometry":null},{"properties":{"zip":"23838","3digit":"238","inzips":"238","primary_city":"Chesterfield","id":"abkwzqj8h8al","state":"VA"},"type":"Feature","geometry":null},{"properties":{"zip":"23839","3digit":"238","inzips":"238","primary_city":"Dendron","id":"abkwzqch15b9","state":"VA"},"type":"Feature","geometry":null},{"properties":{"zip":"23840","3digit":"238","inzips":"238","primary_city":"Dewitt","id":"abkwzqel19zf","state":"VA"},"type":"Feature","geometry":null},{"properties":{"zip":"23841","3digit":"238","inzips":"238","primary_city":"Dinwiddie","id":"abkwzqekzlty","state":"VA"},"type":"Feature","geometry":null},{"properties":{"zip":"23842","3digit":"238","inzips":"238","primary_city":"Disputanta","id":"abkwzqsa9t8x","state":"VA"},"type":"Feature","geometry":null},{"properties":{"zip":"23843","3digit":"238","inzips":"238","primary_city":"Dolphin","id":"abkwzqopksfg","state":"VA"},"type":"Feature","geometry":null},{"properties":{"zip":"23844","3digit":"238","inzips":"238","primary_city":"Drewryville","id":"abkwzqfl1ntz","state":"VA"},"type":"Feature","geometry":null},{"properties":{"zip":"23845","3digit":"238","inzips":"238","primary_city":"Ebony","id":"abkwzqhfs72o","state":"VA"},"type":"Feature","geometry":null},{"properties":{"zip":"23846","3digit":"238","inzips":"238","primary_city":"Elberon","id":"abkwzqchbd2e","state":"VA"},"type":"Feature","geometry":null},{"properties":{"zip":"23847","3digit":"238","inzips":"238","primary_city":"Emporia","id":"abkwzqdkud6r","state":"VA"},"type":"Feature","geometry":null},{"properties":{"zip":"23850","3digit":"238","inzips":"238","primary_city":"Ford","id":"abkwzqk00gf3","state":"VA"},"type":"Feature","geometry":null},{"properties":{"zip":"23851","3digit":"238","inzips":"238","primary_city":"Franklin","id":"abkwzqeeqit1","state":"VA"},"type":"Feature","geometry":null},{"properties":{"zip":"23856","3digit":"238","inzips":"238","primary_city":"Freeman","id":"abkwzqddrzml","state":"VA"},"type":"Feature","geometry":null},{"properties":{"zip":"23857","3digit":"238","inzips":"238","primary_city":"Gasburg","id":"abkwzqiebtid","state":"VA"},"type":"Feature","geometry":null},{"properties":{"zip":"23860","3digit":"238","inzips":"238","primary_city":"Hopewell","id":"abkwzqfjtl2k","state":"VA"},"type":"Feature","geometry":null},{"properties":{"zip":"23866","3digit":"238","inzips":"238","primary_city":"Ivor","id":"abkwzqdu0sms","state":"VA"},"type":"Feature","geometry":null},{"properties":{"zip":"23867","3digit":"238","inzips":"238","primary_city":"Jarratt","id":"abkwzqnn848h","state":"VA"},"type":"Feature","geometry":null},{"properties":{"zip":"23868","3digit":"238","inzips":"238","primary_city":"Lawrenceville","id":"abkwzqjiljof","state":"VA"},"type":"Feature","geometry":null},{"properties":{"zip":"23870","3digit":"238","inzips":"238","primary_city":"Jarratt","id":"abkwzqsccszh","state":"VA"},"type":"Feature","geometry":null},{"properties":{"zip":"23872","3digit":"238","inzips":"238","primary_city":"Mc Kenney","id":"abkwzqont8po","state":"VA"},"type":"Feature","geometry":null},{"properties":{"zip":"23873","3digit":"238","inzips":"238","primary_city":"Meredithville","id":"abkwzqj59p5d","state":"VA"},"type":"Feature","geometry":null},{"properties":{"zip":"23874","3digit":"238","inzips":"238","primary_city":"Newsoms","id":"abkwzqqkqh2a","state":"VA"},"type":"Feature","geometry":null},{"properties":{"zip":"23875","3digit":"238","inzips":"238","primary_city":"Prince George","id":"abkwzqmtfzcv","state":"VA"},"type":"Feature","geometry":null},{"properties":{"zip":"23876","3digit":"238","inzips":"238","primary_city":"Rawlings","id":"abkwzqoeiq0x","state":"VA"},"type":"Feature","geometry":null},{"properties":{"zip":"23878","3digit":"238","inzips":"238","primary_city":"Sedley","id":"abkwzqrksjjj","state":"VA"},"type":"Feature","geometry":null},{"properties":{"zip":"23879","3digit":"238","inzips":"238","primary_city":"Skippers","id":"abkwzqkmpy54","state":"VA"},"type":"Feature","geometry":null},{"properties":{"zip":"23881","3digit":"238","inzips":"238","primary_city":"Spring Grove","id":"abkwzqm8ux3q","state":"VA"},"type":"Feature","geometry":null},{"properties":{"zip":"23882","3digit":"238","inzips":"238","primary_city":"Stony Creek","id":"abkwzqhkk9em","state":"VA"},"type":"Feature","geometry":null},{"properties":{"zip":"23883","3digit":"238","inzips":"238","primary_city":"Surry","id":"abkwzqghhrsg","state":"VA"},"type":"Feature","geometry":null},{"properties":{"zip":"23884","3digit":"238","inzips":"238","primary_city":"Sussex","id":"abkwzqf9oq59","state":"VA"},"type":"Feature","geometry":null},{"properties":{"zip":"23885","3digit":"238","inzips":"238","primary_city":"Sutherland","id":"abkwzqdtkhla","state":"VA"},"type":"Feature","geometry":null},{"properties":{"zip":"23887","3digit":"238","inzips":"238","primary_city":"Valentines","id":"abkwzqgbjb13","state":"VA"},"type":"Feature","geometry":null},{"properties":{"zip":"23888","3digit":"238","inzips":"238","primary_city":"Wakefield","id":"abkwzqluuqps","state":"VA"},"type":"Feature","geometry":null},{"properties":{"zip":"23889","3digit":"238","inzips":"238","primary_city":"Warfield","id":"abkwzqee17qk","state":"VA"},"type":"Feature","geometry":null},{"properties":{"zip":"23890","3digit":"238","inzips":"238","primary_city":"Waverly","id":"abkwzqp8bvh7","state":"VA"},"type":"Feature","geometry":null},{"properties":{"zip":"23891","3digit":"238","inzips":"238","primary_city":"Waverly","id":"abkwzqd3zill","state":"VA"},"type":"Feature","geometry":null},{"properties":{"zip":"23893","3digit":"238","inzips":"238","primary_city":"White Plains","id":"abkwzr17ylgt","state":"VA"},"type":"Feature","geometry":null},{"properties":{"zip":"23894","3digit":"238","inzips":"238","primary_city":"Wilsons","id":"abkwzr6dzpo0","state":"VA"},"type":"Feature","geometry":null},{"properties":{"zip":"23897","3digit":"238","inzips":"238","primary_city":"Yale","id":"abkwzqwejuus","state":"VA"},"type":"Feature","geometry":null},{"properties":{"zip":"23898","3digit":"238","inzips":"238","primary_city":"Zuni","id":"abkwzr5vc40q","state":"VA"},"type":"Feature","geometry":null},{"properties":{"zip":"23899","3digit":"238","inzips":"238","primary_city":"Claremont","id":"abkwzr1p29ak","state":"VA"},"type":"Feature","geometry":null},{"properties":{"zip":"28201","3digit":"282","inzips":"282","primary_city":"Charlotte","id":"abkwzqyny6iq","state":"NC"},"type":"Feature","geometry":null},{"properties":{"zip":"28202","3digit":"282","inzips":"282","primary_city":"Charlotte","id":"abkwzqtd3vel","state":"NC"},"type":"Feature","geometry":null},{"properties":{"zip":"28203","3digit":"282","inzips":"282","primary_city":"Charlotte","id":"abkwzqx81yu0","state":"NC"},"type":"Feature","geometry":null},{"properties":{"zip":"28204","3digit":"282","inzips":"282","primary_city":"Charlotte","id":"abkwzr6h540u","state":"NC"},"type":"Feature","geometry":null},{"properties":{"zip":"28205","3digit":"282","inzips":"282","primary_city":"Charlotte","id":"abkwzr34ogf1","state":"NC"},"type":"Feature","geometry":null},{"properties":{"zip":"28206","3digit":"282","inzips":"282","primary_city":"Charlotte","id":"abkwzr14kpcs","state":"NC"},"type":"Feature","geometry":null},{"properties":{"zip":"28207","3digit":"282","inzips":"282","primary_city":"Charlotte","id":"abkwzqv4pf2x","state":"NC"},"type":"Feature","geometry":null},{"properties":{"zip":"28208","3digit":"282","inzips":"282","primary_city":"Charlotte","id":"abkwzqw8qxas","state":"NC"},"type":"Feature","geometry":null},{"properties":{"zip":"28209","3digit":"282","inzips":"282","primary_city":"Charlotte","id":"abkwzr7ubsjm","state":"NC"},"type":"Feature","geometry":null},{"properties":{"zip":"28210","3digit":"282","inzips":"282","primary_city":"Charlotte","id":"abkwzr09auu9","state":"NC"},"type":"Feature","geometry":null},{"properties":{"zip":"28211","3digit":"282","inzips":"282","primary_city":"Charlotte","id":"abkwzr0y1izk","state":"NC"},"type":"Feature","geometry":null},{"properties":{"zip":"28212","3digit":"282","inzips":"282","primary_city":"Charlotte","id":"abkwzqy6c341","state":"NC"},"type":"Feature","geometry":null},{"properties":{"zip":"28213","3digit":"282","inzips":"282","primary_city":"Charlotte","id":"abkwzqzhw224","state":"NC"},"type":"Feature","geometry":null},{"properties":{"zip":"28214","3digit":"282","inzips":"282","primary_city":"Charlotte","id":"abkwzquhdmd0","state":"NC"},"type":"Feature","geometry":null},{"properties":{"zip":"28215","3digit":"282","inzips":"282","primary_city":"Charlotte","id":"abkwzr2jskbq","state":"NC"},"type":"Feature","geometry":null},{"properties":{"zip":"28216","3digit":"282","inzips":"282","primary_city":"Charlotte","id":"abkwzr5geeud","state":"NC"},"type":"Feature","geometry":null},{"properties":{"zip":"28217","3digit":"282","inzips":"282","primary_city":"Charlotte","id":"abkwzqvmwysq","state":"NC"},"type":"Feature","geometry":null},{"properties":{"zip":"28218","3digit":"282","inzips":"282","primary_city":"Charlotte","id":"abkwzqtmtp26","state":"NC"},"type":"Feature","geometry":null},{"properties":{"zip":"28219","3digit":"282","inzips":"282","primary_city":"Charlotte","id":"abkwzqu70jh0","state":"NC"},"type":"Feature","geometry":null},{"properties":{"zip":"28220","3digit":"282","inzips":"282","primary_city":"Charlotte","id":"abkwzr6b15d3","state":"NC"},"type":"Feature","geometry":null},{"properties":{"zip":"28221","3digit":"282","inzips":"282","primary_city":"Charlotte","id":"abkwzr3ppca3","state":"NC"},"type":"Feature","geometry":null},{"properties":{"zip":"28222","3digit":"282","inzips":"282","primary_city":"Charlotte","id":"abkwzr4yc1rj","state":"NC"},"type":"Feature","geometry":null},{"properties":{"zip":"28223","3digit":"282","inzips":"282","primary_city":"Charlotte","id":"abkwzr6ygaxw","state":"NC"},"type":"Feature","geometry":null},{"properties":{"zip":"28224","3digit":"282","inzips":"282","primary_city":"Charlotte","id":"abkwzr16keh5","state":"NC"},"type":"Feature","geometry":null},{"properties":{"zip":"28226","3digit":"282","inzips":"282","primary_city":"Charlotte","id":"abkwzqxgu5rc","state":"NC"},"type":"Feature","geometry":null},{"properties":{"zip":"28227","3digit":"282","inzips":"282","primary_city":"Charlotte","id":"abkwzqy6j7ej","state":"NC"},"type":"Feature","geometry":null},{"properties":{"zip":"28228","3digit":"282","inzips":"282","primary_city":"Charlotte","id":"abkwzqvmp0fo","state":"NC"},"type":"Feature","geometry":null},{"properties":{"zip":"28229","3digit":"282","inzips":"282","primary_city":"Charlotte","id":"abkwzqwxo9ud","state":"NC"},"type":"Feature","geometry":null},{"properties":{"zip":"28230","3digit":"282","inzips":"282","primary_city":"Charlotte","id":"abkwzqyen88b","state":"NC"},"type":"Feature","geometry":null},{"properties":{"zip":"28231","3digit":"282","inzips":"282","primary_city":"Charlotte","id":"abkwzqwhk795","state":"NC"},"type":"Feature","geometry":null},{"properties":{"zip":"28232","3digit":"282","inzips":"282","primary_city":"Charlotte","id":"abkwzr7a1gj5","state":"NC"},"type":"Feature","geometry":null},{"properties":{"zip":"28233","3digit":"282","inzips":"282","primary_city":"Charlotte","id":"abkwzr85woqd","state":"NC"},"type":"Feature","geometry":null},{"properties":{"zip":"28234","3digit":"282","inzips":"282","primary_city":"Charlotte","id":"abkwzr5mp92m","state":"NC"},"type":"Feature","geometry":null},{"properties":{"zip":"28235","3digit":"282","inzips":"282","primary_city":"Charlotte","id":"abkwzr7autfr","state":"NC"},"type":"Feature","geometry":null},{"properties":{"zip":"28236","3digit":"282","inzips":"282","primary_city":"Charlotte","id":"abkwzqzhdr02","state":"NC"},"type":"Feature","geometry":null},{"properties":{"zip":"28237","3digit":"282","inzips":"282","primary_city":"Charlotte","id":"abkwzqvjrif0","state":"NC"},"type":"Feature","geometry":null},{"properties":{"zip":"28241","3digit":"282","inzips":"282","primary_city":"Charlotte","id":"abkwzr6f3pu9","state":"NC"},"type":"Feature","geometry":null},{"properties":{"zip":"28242","3digit":"282","inzips":"282","primary_city":"Charlotte","id":"abkwzqz1zqqx","state":"NC"},"type":"Feature","geometry":null},{"properties":{"zip":"28243","3digit":"282","inzips":"282","primary_city":"Charlotte","id":"abkwzqx6ssub","state":"NC"},"type":"Feature","geometry":null},{"properties":{"zip":"28244","3digit":"282","inzips":"282","primary_city":"Charlotte","id":"abkwzqvo7mob","state":"NC"},"type":"Feature","geometry":null},{"properties":{"zip":"28246","3digit":"282","inzips":"282","primary_city":"Charlotte","id":"abkwzr4gpmtl","state":"NC"},"type":"Feature","geometry":null},{"properties":{"zip":"28247","3digit":"282","inzips":"282","primary_city":"Charlotte","id":"abkwzr1ld76a","state":"NC"},"type":"Feature","geometry":null},{"properties":{"zip":"28250","3digit":"282","inzips":"282","primary_city":"Charlotte","id":"abkwzr01fyj4","state":"NC"},"type":"Feature","geometry":null},{"properties":{"zip":"28253","3digit":"282","inzips":"282","primary_city":"Charlotte","id":"abkwzr52yqvd","state":"NC"},"type":"Feature","geometry":null},{"properties":{"zip":"28254","3digit":"282","inzips":"282","primary_city":"Charlotte","id":"abkwzqxa7wsi","state":"NC"},"type":"Feature","geometry":null},{"properties":{"zip":"28255","3digit":"282","inzips":"282","primary_city":"Charlotte","id":"abkwzqw3l397","state":"NC"},"type":"Feature","geometry":null},{"properties":{"zip":"28256","3digit":"282","inzips":"282","primary_city":"Charlotte","id":"abkwzr0kjxo2","state":"NC"},"type":"Feature","geometry":null},{"properties":{"zip":"28258","3digit":"282","inzips":"282","primary_city":"Charlotte","id":"abkwzqufenc6","state":"NC"},"type":"Feature","geometry":null},{"properties":{"zip":"28260","3digit":"282","inzips":"282","primary_city":"Charlotte","id":"abkwzr6fbn0p","state":"NC"},"type":"Feature","geometry":null},{"properties":{"zip":"28262","3digit":"282","inzips":"282","primary_city":"Charlotte","id":"abkwzqvwl8rv","state":"NC"},"type":"Feature","geometry":null},{"properties":{"zip":"28263","3digit":"282","inzips":"282","primary_city":"Charlotte","id":"abkwzqzjaibe","state":"NC"},"type":"Feature","geometry":null},{"properties":{"zip":"28265","3digit":"282","inzips":"282","primary_city":"Charlotte","id":"abkwzqxhv9nn","state":"NC"},"type":"Feature","geometry":null},{"properties":{"zip":"28266","3digit":"282","inzips":"282","primary_city":"Charlotte","id":"abkwzr6f7ef8","state":"NC"},"type":"Feature","geometry":null},{"properties":{"zip":"28269","3digit":"282","inzips":"282","primary_city":"Charlotte","id":"abkwzqy04vei","state":"NC"},"type":"Feature","geometry":null},{"properties":{"zip":"28270","3digit":"282","inzips":"282","primary_city":"Charlotte","id":"abkwzr16iqjc","state":"NC"},"type":"Feature","geometry":null},{"properties":{"zip":"28271","3digit":"282","inzips":"282","primary_city":"Charlotte","id":"abkwzr64ikmz","state":"NC"},"type":"Feature","geometry":null},{"properties":{"zip":"28272","3digit":"282","inzips":"282","primary_city":"Charlotte","id":"abkwzr0r8cqn","state":"NC"},"type":"Feature","geometry":null},{"properties":{"zip":"28273","3digit":"282","inzips":"282","primary_city":"Charlotte","id":"abkwzqw1jxxi","state":"NC"},"type":"Feature","geometry":null},{"properties":{"zip":"28274","3digit":"282","inzips":"282","primary_city":"Charlotte","id":"abkwzr10wpw6","state":"NC"},"type":"Feature","geometry":null},{"properties":{"zip":"28275","3digit":"282","inzips":"282","primary_city":"Charlotte","id":"abkwzqvqzghe","state":"NC"},"type":"Feature","geometry":null},{"properties":{"zip":"28277","3digit":"282","inzips":"282","primary_city":"Charlotte","id":"abkwzqv9zlcn","state":"NC"},"type":"Feature","geometry":null},{"properties":{"zip":"28278","3digit":"282","inzips":"282","primary_city":"Charlotte","id":"abkwzr5oxfmj","state":"NC"},"type":"Feature","geometry":null},{"properties":{"zip":"28280","3digit":"282","inzips":"282","primary_city":"Charlotte","id":"abkwzr6l85tu","state":"NC"},"type":"Feature","geometry":null},{"properties":{"zip":"28281","3digit":"282","inzips":"282","primary_city":"Charlotte","id":"abkwzqwb4l6t","state":"NC"},"type":"Feature","geometry":null},{"properties":{"zip":"28282","3digit":"282","inzips":"282","primary_city":"Charlotte","id":"abkwzquhdiqe","state":"NC"},"type":"Feature","geometry":null},{"properties":{"zip":"28284","3digit":"282","inzips":"282","primary_city":"Charlotte","id":"abkwzqt1dobf","state":"NC"},"type":"Feature","geometry":null},{"properties":{"zip":"28285","3digit":"282","inzips":"282","primary_city":"Charlotte","id":"abkwzr74zag9","state":"NC"},"type":"Feature","geometry":null},{"properties":{"zip":"28287","3digit":"282","inzips":"282","primary_city":"Charlotte","id":"abkwzr0dml1d","state":"NC"},"type":"Feature","geometry":null},{"properties":{"zip":"28288","3digit":"282","inzips":"282","primary_city":"Charlotte","id":"abkwzr51e55u","state":"NC"},"type":"Feature","geometry":null},{"properties":{"zip":"28289","3digit":"282","inzips":"282","primary_city":"Charlotte","id":"abkwzqv1j3fd","state":"NC"},"type":"Feature","geometry":null},{"properties":{"zip":"28290","3digit":"282","inzips":"282","primary_city":"Charlotte","id":"abkwzr62u990","state":"NC"},"type":"Feature","geometry":null},{"properties":{"zip":"28296","3digit":"282","inzips":"282","primary_city":"Charlotte","id":"abkwzqwjg6dk","state":"NC"},"type":"Feature","geometry":null},{"properties":{"zip":"28297","3digit":"282","inzips":"282","primary_city":"Charlotte","id":"abkwzr217mb8","state":"NC"},"type":"Feature","geometry":null},{"properties":{"zip":"28299","3digit":"282","inzips":"282","primary_city":"Charlotte","id":"abkwzqu59anb","state":"NC"},"type":"Feature","geometry":null},{"properties":{"zip":"45601","3digit":"456","inzips":"456","primary_city":"Chillicothe","id":"abkwzr64tflu","state":"OH"},"type":"Feature","geometry":null},{"properties":{"zip":"45612","3digit":"456","inzips":"456","primary_city":"Bainbridge","id":"abkwzqxnfdj1","state":"OH"},"type":"Feature","geometry":null},{"properties":{"zip":"45613","3digit":"456","inzips":"456","primary_city":"Beaver","id":"abkwzr0ig8s0","state":"OH"},"type":"Feature","geometry":null},{"properties":{"zip":"45614","3digit":"456","inzips":"456","primary_city":"Bidwell","id":"abkwzr6jlgtv","state":"OH"},"type":"Feature","geometry":null},{"properties":{"zip":"45616","3digit":"456","inzips":"456","primary_city":"Blue Creek","id":"abkwzr7kq35h","state":"OH"},"type":"Feature","geometry":null},{"properties":{"zip":"45617","3digit":"456","inzips":"456","primary_city":"Bourneville","id":"abkwzr705faq","state":"OH"},"type":"Feature","geometry":null},{"properties":{"zip":"45618","3digit":"456","inzips":"456","primary_city":"Cherry Fork","id":"abkwzr1zl7zb","state":"OH"},"type":"Feature","geometry":null},{"properties":{"zip":"45619","3digit":"456","inzips":"456","primary_city":"Chesapeake","id":"abkwzr32h7k1","state":"OH"},"type":"Feature","geometry":null},{"properties":{"zip":"45620","3digit":"456","inzips":"456","primary_city":"Cheshire","id":"abkwzr91ytpz","state":"OH"},"type":"Feature","geometry":null},{"properties":{"zip":"45621","3digit":"456","inzips":"456","primary_city":"Coalton","id":"abkwzr1skjir","state":"OH"},"type":"Feature","geometry":null},{"properties":{"zip":"45622","3digit":"456","inzips":"456","primary_city":"Creola","id":"abkwzqwes6u4","state":"OH"},"type":"Feature","geometry":null},{"properties":{"zip":"45623","3digit":"456","inzips":"456","primary_city":"Crown City","id":"abkwzqu1zays","state":"OH"},"type":"Feature","geometry":null},{"properties":{"zip":"45624","3digit":"456","inzips":"456","primary_city":"Cynthiana","id":"abkwzr5yzo4t","state":"OH"},"type":"Feature","geometry":null},{"properties":{"zip":"45628","3digit":"456","inzips":"456","primary_city":"Frankfort","id":"abkwzr49gcnr","state":"OH"},"type":"Feature","geometry":null},{"properties":{"zip":"45629","3digit":"456","inzips":"456","primary_city":"Franklin Furnace","id":"abkwzr83mczi","state":"OH"},"type":"Feature","geometry":null},{"properties":{"zip":"45630","3digit":"456","inzips":"456","primary_city":"Friendship","id":"abkwzqtb2uwu","state":"OH"},"type":"Feature","geometry":null},{"properties":{"zip":"45631","3digit":"456","inzips":"456","primary_city":"Gallipolis","id":"abkwzqxeo2ot","state":"OH"},"type":"Feature","geometry":null},{"properties":{"zip":"45633","3digit":"456","inzips":"456","primary_city":"Hallsville","id":"abkwzr0cux78","state":"OH"},"type":"Feature","geometry":null},{"properties":{"zip":"45634","3digit":"456","inzips":"456","primary_city":"Hamden","id":"abkwzqxszeq8","state":"OH"},"type":"Feature","geometry":null},{"properties":{"zip":"45636","3digit":"456","inzips":"456","primary_city":"Haverhill","id":"abkwzr6n6pi6","state":"OH"},"type":"Feature","geometry":null},{"properties":{"zip":"45638","3digit":"456","inzips":"456","primary_city":"Ironton","id":"abkwzr82r3bg","state":"OH"},"type":"Feature","geometry":null},{"properties":{"zip":"45640","3digit":"456","inzips":"456","primary_city":"Jackson","id":"abkwzqu6dygs","state":"OH"},"type":"Feature","geometry":null},{"properties":{"zip":"45642","3digit":"456","inzips":"456","primary_city":"Jasper","id":"abkwzr1or1uu","state":"OH"},"type":"Feature","geometry":null},{"properties":{"zip":"45643","3digit":"456","inzips":"456","primary_city":"Kerr","id":"abkwzqtjit4c","state":"OH"},"type":"Feature","geometry":null},{"properties":{"zip":"45644","3digit":"456","inzips":"456","primary_city":"Kingston","id":"abkwzr2foy9w","state":"OH"},"type":"Feature","geometry":null},{"properties":{"zip":"45645","3digit":"456","inzips":"456","primary_city":"Kitts Hill","id":"abkwzr59fxii","state":"OH"},"type":"Feature","geometry":null},{"properties":{"zip":"45646","3digit":"456","inzips":"456","primary_city":"Latham","id":"abkwzr6fqv6s","state":"OH"},"type":"Feature","geometry":null},{"properties":{"zip":"45647","3digit":"456","inzips":"456","primary_city":"Londonderry","id":"abkwzr0npunh","state":"OH"},"type":"Feature","geometry":null},{"properties":{"zip":"45648","3digit":"456","inzips":"456","primary_city":"Lucasville","id":"abkwzr2f7rtv","state":"OH"},"type":"Feature","geometry":null},{"properties":{"zip":"45650","3digit":"456","inzips":"456","primary_city":"Lynx","id":"abkwzr7qz5ub","state":"OH"},"type":"Feature","geometry":null},{"properties":{"zip":"45651","3digit":"456","inzips":"456","primary_city":"Mc Arthur","id":"abkwzr42o46y","state":"OH"},"type":"Feature","geometry":null},{"properties":{"zip":"45652","3digit":"456","inzips":"456","primary_city":"Mc Dermott","id":"abkwzr1jwora","state":"OH"},"type":"Feature","geometry":null},{"properties":{"zip":"45653","3digit":"456","inzips":"456","primary_city":"Minford","id":"abkwzr0ty3gc","state":"OH"},"type":"Feature","geometry":null},{"properties":{"zip":"45654","3digit":"456","inzips":"456","primary_city":"New Plymouth","id":"abkwzr58usf4","state":"OH"},"type":"Feature","geometry":null},{"properties":{"zip":"45656","3digit":"456","inzips":"456","primary_city":"Oak Hill","id":"abkwzqz8wc4j","state":"OH"},"type":"Feature","geometry":null},{"properties":{"zip":"45657","3digit":"456","inzips":"456","primary_city":"Otway","id":"abkwzqul555t","state":"OH"},"type":"Feature","geometry":null},{"properties":{"zip":"45658","3digit":"456","inzips":"456","primary_city":"Patriot","id":"abkwzr3ikmt4","state":"OH"},"type":"Feature","geometry":null},{"properties":{"zip":"45659","3digit":"456","inzips":"456","primary_city":"Pedro","id":"abkwzr6okpno","state":"OH"},"type":"Feature","geometry":null},{"properties":{"zip":"45660","3digit":"456","inzips":"456","primary_city":"Peebles","id":"abkwzr2qfygz","state":"OH"},"type":"Feature","geometry":null},{"properties":{"zip":"45661","3digit":"456","inzips":"456","primary_city":"Piketon","id":"abkwzqxj8l5i","state":"OH"},"type":"Feature","geometry":null},{"properties":{"zip":"45662","3digit":"456","inzips":"456","primary_city":"Portsmouth","id":"abkwzqym3lku","state":"OH"},"type":"Feature","geometry":null},{"properties":{"zip":"45663","3digit":"456","inzips":"456","primary_city":"West Portsmouth","id":"abkwzr82jqc7","state":"OH"},"type":"Feature","geometry":null},{"properties":{"zip":"45669","3digit":"456","inzips":"456","primary_city":"Proctorville","id":"abkwzqv85fin","state":"OH"},"type":"Feature","geometry":null},{"properties":{"zip":"45671","3digit":"456","inzips":"456","primary_city":"Rarden","id":"abkwzr4zujk3","state":"OH"},"type":"Feature","geometry":null},{"properties":{"zip":"45672","3digit":"456","inzips":"456","primary_city":"Ray","id":"abkwzqu1i1xh","state":"OH"},"type":"Feature","geometry":null},{"properties":{"zip":"45673","3digit":"456","inzips":"456","primary_city":"Richmond Dale","id":"abkwzr172f1k","state":"OH"},"type":"Feature","geometry":null},{"properties":{"zip":"45674","3digit":"456","inzips":"456","primary_city":"Rio Grande","id":"abkwzr5zvfy4","state":"OH"},"type":"Feature","geometry":null},{"properties":{"zip":"45675","3digit":"456","inzips":"456","primary_city":"Rock Camp","id":"abkwzqw8c0cs","state":"OH"},"type":"Feature","geometry":null},{"properties":{"zip":"45677","3digit":"456","inzips":"456","primary_city":"Scioto Furnace","id":"abkwzqtr60i8","state":"OH"},"type":"Feature","geometry":null},{"properties":{"zip":"45678","3digit":"456","inzips":"456","primary_city":"Scottown","id":"abkwzqtqktxi","state":"OH"},"type":"Feature","geometry":null},{"properties":{"zip":"45679","3digit":"456","inzips":"456","primary_city":"Seaman","id":"abkwzr8okbrh","state":"OH"},"type":"Feature","geometry":null},{"properties":{"zip":"45680","3digit":"456","inzips":"456","primary_city":"South Point","id":"abkwzqw8dkij","state":"OH"},"type":"Feature","geometry":null},{"properties":{"zip":"45681","3digit":"456","inzips":"456","primary_city":"South Salem","id":"abkwzqya6vds","state":"OH"},"type":"Feature","geometry":null},{"properties":{"zip":"45682","3digit":"456","inzips":"456","primary_city":"South Webster","id":"abkwzr33c3f5","state":"OH"},"type":"Feature","geometry":null},{"properties":{"zip":"45683","3digit":"456","inzips":"456","primary_city":"Stockdale","id":"abkwzqvf6iuz","state":"OH"},"type":"Feature","geometry":null},{"properties":{"zip":"45684","3digit":"456","inzips":"456","primary_city":"Stout","id":"abkwzr8x10jp","state":"OH"},"type":"Feature","geometry":null},{"properties":{"zip":"45685","3digit":"456","inzips":"456","primary_city":"Thurman","id":"abkwzqt8x78x","state":"OH"},"type":"Feature","geometry":null},{"properties":{"zip":"45686","3digit":"456","inzips":"456","primary_city":"Vinton","id":"abkwzr6llz73","state":"OH"},"type":"Feature","geometry":null},{"properties":{"zip":"45687","3digit":"456","inzips":"456","primary_city":"Wakefield","id":"abkwzr4krfz9","state":"OH"},"type":"Feature","geometry":null},{"properties":{"zip":"45688","3digit":"456","inzips":"456","primary_city":"Waterloo","id":"abkwzr4nnx1i","state":"OH"},"type":"Feature","geometry":null},{"properties":{"zip":"45690","3digit":"456","inzips":"456","primary_city":"Waverly","id":"abkwzqtqn7ei","state":"OH"},"type":"Feature","geometry":null},{"properties":{"zip":"45692","3digit":"456","inzips":"456","primary_city":"Wellston","id":"abkwzqx237h7","state":"OH"},"type":"Feature","geometry":null},{"properties":{"zip":"45693","3digit":"456","inzips":"456","primary_city":"West Union","id":"abkwzqwvvo8v","state":"OH"},"type":"Feature","geometry":null},{"properties":{"zip":"45694","3digit":"456","inzips":"456","primary_city":"Wheelersburg","id":"abkwzr3d7678","state":"OH"},"type":"Feature","geometry":null},{"properties":{"zip":"45695","3digit":"456","inzips":"456","primary_city":"Wilkesville","id":"abkwzr1426xe","state":"OH"},"type":"Feature","geometry":null},{"properties":{"zip":"45696","3digit":"456","inzips":"456","primary_city":"Willow Wood","id":"abkwzr577gat","state":"OH"},"type":"Feature","geometry":null},{"properties":{"zip":"45697","3digit":"456","inzips":"456","primary_city":"Winchester","id":"abkwzr3or1p0","state":"OH"},"type":"Feature","geometry":null},{"properties":{"zip":"45698","3digit":"456","inzips":"456","primary_city":"Zaleski","id":"abkwzr74uca0","state":"OH"},"type":"Feature","geometry":null},{"properties":{"zip":"45699","3digit":"456","inzips":"456","primary_city":"Lucasville","id":"abkwzqw2bgv3","state":"OH"},"type":"Feature","geometry":null}],"is_temporal":false,"author":{"url":null,"metadata":null,"contact_name":null,"contact_address":null,"source":null,"contact_phone":null},"source":null,"pagination":{"sort":null,"start":0,"total":1009,"limit":1000000},"state":"errored","tags":"","published":"2014-08-16T16:47:58-04:00","id":312802}