{"type":"FeatureCollection","data_type":"Dataset","url_type":null,"permissions":[{"permissions":{"download":true,"view":true},"group_id":"everyone"}],"classification":null,"title":"Copy_of_IPTV-Arthur-Jan-16-2013_-_CSV","count":246,"stream_id":313318,"contributor":{"url":"http://geocommons.com/users/59404","name":"KatieEtgen"},"data_attributes":null,"calculation_params":null,"icon_link":null,"link":"http://geocommons.com/overlays/313318.json","extent":[-84.5715,41.1094,-84.2955,41.4275],"geometry_types":["point"],"unique_name":null,"name":"Copy_of_IPTV-Arthur-Jan-16-2013_-_CSV","feature_count":246,"description":"","next_feature":null,"is_raster":false,"short_classification":"Y","stats":{"stbs allowed":{"max":11,"mean":3.91056910569106,"variance":2.50625518500082,"stdev":1.58311565749342,"median":3,"min":2},"phone":{"max":4193934897,"mean":4193933224.9878,"variance":896438.648830259,"stdev":946.804440647729,"median":4193932833,"min":4193932000},"customer id":{"max":4193934818,"mean":89095826.6138211,"variance":3.51005541191125e+17,"stdev":592457206.210816,"median":3932839,"min":3932000},"password":{"max":3934889,"mean":3900847.20987654,"variance":126688115703.406,"stdev":355932.740420724,"median":3932816,"min":1066},"login":{"max":4193934014,"mean":21159833.1358025,"variance":7.22479766464571e+16,"stdev":268789837.319898,"median":3932817,"min":2426},"pin":{"max":3934889,"mean":3917034.781893,"variance":63585527950.4109,"stdev":252161.709921255,"median":3932817,"min":2426}},"features":[{"properties":{"city":"Defiance","status":"Active","ppv":"Yes","zip":"43512","region":"Arthur","service packages":"Variety Tier","township":"Defiance Township","last":"Adair","stbs allowed":6,"geo_score":0.902,"first":"Shirley","ppv limit":"50","customer id":3932441,"phone":4193932441,"whdvr":"No","id":"abn5pkf7rc7r","address":"14705 Power Dam Road","login":3932441,"password":3932441,"geo_precision":"range","state":"OH","pin":3932441},"type":"Feature","geometry":{"type":"Point","coordinates":[-84.414127,41.230102]}},{"properties":{"city":"Oakwood","status":"Inactive","ppv":"Yes","zip":"45873","region":"Arthur","service packages":"Variety + HD Basic (COMNHBSC21)","township":null,"last":"Aden","stbs allowed":4,"geo_score":0.745,"first":"John","ppv limit":"50","customer id":3932032,"phone":4193932032,"whdvr":"No","id":"abn5pkjqdgsx","address":"22482 Sr 637","login":3932032,"password":3932032,"geo_precision":"range","state":"OH","pin":3932032},"type":"Feature","geometry":{"type":"Point","coordinates":[-84.390255,41.194578]}},{"properties":{"city":"Defiance","status":"Active","ppv":"Yes","zip":"43512","region":"Arthur","service packages":"Expanded Basic","township":null,"last":"Argiropoulos","stbs allowed":5,"geo_score":0.902,"first":"Gary","ppv limit":"50","customer id":3932858,"phone":4193932858,"whdvr":"No","id":"abn5pkbqmfw0","address":"21656 Bowman Road","login":3932858,"password":3932858,"geo_precision":"range","state":"OH","pin":3932858},"type":"Feature","geometry":{"type":"Point","coordinates":[-84.409064,41.223806]}},{"properties":{"city":"Oakwood","status":"Active","ppv":"Yes","zip":"45873","region":"Arthur","service packages":"Lifeline","township":null,"last":"Auglaize Twp Fire Dept.","stbs allowed":3,"geo_score":0.626,"first":null,"ppv limit":"50","customer id":3934144,"phone":4193934144,"whdvr":"No","id":"abn5pkkombpu","address":"Sr 637","login":3934144,"password":3934144,"geo_precision":"street","state":"OH","pin":3934144},"type":"Feature","geometry":{"type":"Point","coordinates":[-84.476753,41.109398]}},{"properties":{"city":"Defiance","status":"Active","ppv":"Yes","zip":"43512","region":"Arthur","service packages":"Expanded Basic","township":null,"last":"Babcock","stbs allowed":3,"geo_score":0.815,"first":"Marie","ppv limit":"50","customer id":3934628,"phone":4193934628,"whdvr":"No","id":"abn5pknpxxj7","address":"18974 RD 1005","login":null,"password":null,"geo_precision":"range","state":"OH","pin":null},"type":"Feature","geometry":{"type":"Point","coordinates":[-84.462563,41.194524]}},{"properties":{"city":"Defiance","status":"Active","ppv":"Yes","zip":"43512","region":"Arthur","service packages":"Variety Tier","township":null,"last":"Bales","stbs allowed":3,"geo_score":0.785,"first":"Melody","ppv limit":"50","customer id":3932816,"phone":4193932816,"whdvr":"No","id":"abn5pkgb9qon","address":"23891 Road 184","login":3932816,"password":3932816,"geo_precision":"range","state":"OH","pin":3932816},"type":"Feature","geometry":{"type":"Point","coordinates":[-84.363231,41.187411]}},{"properties":{"city":"Defiance","status":"Active","ppv":"Yes","zip":"43512","region":"Arthur","service packages":"Variety Tier","township":"Auglaize Township","last":"Baltosser","stbs allowed":5,"geo_score":0.823,"first":"Marlene","ppv limit":"50","customer id":3932714,"phone":4193932714,"whdvr":"No","id":"abn5pkphw6iz","address":"19487 Co Rd 1048","login":3932714,"password":3932714,"geo_precision":"range","state":"OH","pin":3932714},"type":"Feature","geometry":{"type":"Point","coordinates":[-84.442042,41.204803]}},{"properties":{"city":"Defiance","status":"Active","ppv":"Yes","zip":"43512","region":"Arthur","service packages":"Variety Tier,Encore,Starz,HBO","township":null,"last":"Barham","stbs allowed":2,"geo_score":0.61,"first":"Deborah","ppv limit":"50","customer id":3934015,"phone":4193934015,"whdvr":"No","id":"abn5pknnysgh","address":"198448 St. Rt. 111 Apt. #5","login":3934015,"password":3934015,"geo_precision":"range","state":"OH","pin":3934015},"type":"Feature","geometry":{"type":"Point","coordinates":[-84.553359,41.292082]}},{"properties":{"city":"Defiance","status":"Active","ppv":"Yes","zip":"43512","region":"Arthur","service packages":"Expanded Basic","township":null,"last":"Barndt","stbs allowed":3,"geo_score":0.902,"first":"Tana","ppv limit":"50","customer id":3932048,"phone":4193932048,"whdvr":"No","id":"abn5pkg9ib8n","address":"16965 State Route 15","login":3932048,"password":3932048,"geo_precision":"range","state":"OH","pin":3932048},"type":"Feature","geometry":{"type":"Point","coordinates":[-84.331366,41.194342]}},{"properties":{"city":"Defiance","status":"Active","ppv":"Yes","zip":"43512","region":"Arthur","service packages":"Variety Tier,Encore,Starz","township":null,"last":"Bartley","stbs allowed":3,"geo_score":0.902,"first":"Mike","ppv limit":"50","customer id":3932097,"phone":4193932097,"whdvr":"No","id":"abn5pkils7p3","address":"22652 County Road 10","login":3932097,"password":3932097,"geo_precision":"range","state":"OH","pin":3932097},"type":"Feature","geometry":{"type":"Point","coordinates":[-84.387092,41.209242]}},{"properties":{"city":"Oakwood","status":"Active","ppv":"Yes","zip":"45873","region":"Arthur","service packages":"Variety Tier","township":null,"last":"Batt","stbs allowed":6,"geo_score":0.902,"first":"James","ppv limit":"50","customer id":3932868,"phone":4193932868,"whdvr":"No","id":"abn5pkjcd6m3","address":"14730 Rd 169","login":3932868,"password":3932868,"geo_precision":"range","state":"OH","pin":3932868},"type":"Feature","geometry":{"type":"Point","coordinates":[-84.418767,41.193903]}},{"properties":{"city":"Oakwood","status":"Active","ppv":"Yes","zip":"45873","region":"Arthur","service packages":"Encore,Starz,Cinemax,HBO,Showtime,Variety + HD Tier (COMNHDTR21)","township":null,"last":"Becher","stbs allowed":5,"geo_score":0.902,"first":"Jerry","ppv limit":"50","customer id":3934134,"phone":4193934134,"whdvr":"No","id":"abn5pkieh587","address":"22490 Rd 178","login":3934134,"password":3934134,"geo_precision":"range","state":"OH","pin":3934134},"type":"Feature","geometry":{"type":"Point","coordinates":[-84.389514,41.180026]}},{"properties":{"city":"Oakwood","status":"Active","ppv":"Yes","zip":"45873","region":"Arthur","service packages":"Variety Tier","township":null,"last":"Black","stbs allowed":5,"geo_score":0.707,"first":"Randy","ppv limit":"50","customer id":3932782,"phone":4193932782,"whdvr":"No","id":"abn5pkg9afm6","address":"14869 rd 171","login":3932782,"password":3932782,"geo_precision":"street","state":"OH","pin":3932782},"type":"Feature","geometry":{"type":"Point","coordinates":[-84.433776,41.128305]}},{"properties":{"city":"Defiance","status":"Active","ppv":"Yes","zip":"43512","region":"Arthur","service packages":"Variety Tier,HBO","township":"Monroe Township","last":"Boggs","stbs allowed":5,"geo_score":0.674,"first":"Lee","ppv limit":"50","customer id":3934865,"phone":4193934865,"whdvr":"No","id":"abn5pke9vjv3","address":"23899 County Rd A","login":3934865,"password":3934865,"geo_precision":"range","state":"OH","pin":3934865},"type":"Feature","geometry":{"type":"Point","coordinates":[-84.362724,41.427488]}},{"properties":{"city":"Defiance","status":"Active","ppv":"Yes","zip":"43512","region":"Arthur","service packages":"Expanded Basic","township":null,"last":"Bott","stbs allowed":5,"geo_score":0.902,"first":"Raymond","ppv limit":"50","customer id":3932624,"phone":4193932624,"whdvr":"No","id":"abn5pkgd4asq","address":"15980 Williams Road","login":3932624,"password":3932624,"geo_precision":"range","state":"OH","pin":3932624},"type":"Feature","geometry":{"type":"Point","coordinates":[-84.380332,41.209614]}},{"properties":{"city":"Defiance","status":"Active","ppv":"Yes","zip":"43512","region":"Arthur","service packages":"Expanded Basic","township":null,"last":"Bowling","stbs allowed":3,"geo_score":0.512,"first":"Gary","ppv limit":"50","customer id":3932895,"phone":4193932895,"whdvr":"No","id":"abn5pki4ds5w","address":"14704 SR 111","login":3932895,"password":3932895,"geo_precision":"street","state":"OH","pin":3932895},"type":"Feature","geometry":{"type":"Point","coordinates":[-84.46645,41.17995]}},{"properties":{"city":"Defiance","status":"Active","ppv":"Yes","zip":"43512","region":"Arthur","service packages":"Variety Tier","township":null,"last":"Bowling","stbs allowed":5,"geo_score":0.805,"first":"Tim","ppv limit":"50","customer id":3934793,"phone":4193934793,"whdvr":"No","id":"abn5pk9zo862","address":"17530 St Rt 15","login":3934793,"password":3934793,"geo_precision":"range","state":"OH","pin":3934793},"type":"Feature","geometry":{"type":"Point","coordinates":[-84.32335,41.188437]}},{"properties":{"city":"Defiance","status":"Active","ppv":"Yes","zip":"43512","region":"Arthur","service packages":"Variety Tier","township":"Defiance Township","last":"Bowling","stbs allowed":5,"geo_score":0.812,"first":"Kent","ppv limit":"50","customer id":3932900,"phone":4193932900,"whdvr":"No","id":"abn5pkigzttb","address":"14366 St Rt 111","login":3932900,"password":3932900,"geo_precision":"range","state":"OH","pin":3932900},"type":"Feature","geometry":{"type":"Point","coordinates":[-84.414745,41.233231]}},{"properties":{"city":"Defiance","status":"Active","ppv":"Yes","zip":"43512","region":"Arthur","service packages":"Variety Tier","township":"Auglaize Township","last":"Boyd","stbs allowed":5,"geo_score":0.796,"first":"Nick","ppv limit":"50","customer id":3932424,"phone":4193932424,"whdvr":"No","id":"abn5pkliyn1c","address":"18942 Rd 1001","login":3932424,"password":3932424,"geo_precision":"range","state":"OH","pin":3932424},"type":"Feature","geometry":{"type":"Point","coordinates":[-84.458664,41.194658]}},{"properties":{"city":"Oakwood","status":"Active","ppv":"Yes","zip":"45873","region":"Arthur","service packages":"Expanded Basic","township":"Auglaize Township","last":"Branham","stbs allowed":5,"geo_score":0.902,"first":"William","ppv limit":"50","customer id":3932178,"phone":4193932178,"whdvr":"No","id":"abn5pkf32qd7","address":"21355 Rd 178","login":3932178,"password":3932178,"geo_precision":"range","state":"OH","pin":3932178},"type":"Feature","geometry":{"type":"Point","coordinates":[-84.411977,41.180108]}},{"properties":{"city":"Defiance","status":"Inactive","ppv":"Yes","zip":"43512","region":"Arthur","service packages":"Variety Tier","township":null,"last":"Breckler","stbs allowed":3,"geo_score":0.688,"first":"Michael","ppv limit":"50","customer id":3932802,"phone":4193932802,"whdvr":"No","id":"abn5pkji58dn","address":"24378 Road 174","login":3932802,"password":3932802,"geo_precision":"street","state":"OH","pin":3932802},"type":"Feature","geometry":{"type":"Point","coordinates":[-84.353706,41.172727]}},{"properties":{"city":"Cecil","status":"Active","ppv":"Yes","zip":"45821","region":"Arthur","service packages":"Variety Tier","township":null,"last":"Breckler","stbs allowed":2,"geo_score":0.488,"first":"Brenda","ppv limit":"50","customer id":3934788,"phone":4193934788,"whdvr":"No","id":"abn5pka572u6","address":"15261","login":3934788,"password":3934788,"geo_precision":"zip","state":"OH","pin":3934788},"type":"Feature","geometry":{"type":"Point","coordinates":[-84.571519,41.223404]}},{"properties":{"city":"Defiance","status":"Active","ppv":"Yes","zip":"43512","region":"Arthur","service packages":"Variety Tier","township":null,"last":"Brown","stbs allowed":3,"geo_score":0.796,"first":"Michael R.","ppv limit":"50","customer id":3932848,"phone":4193932848,"whdvr":"No","id":"abn5pkjgaswb","address":"19575 Road 1048","login":3932848,"password":3932848,"geo_precision":"range","state":"OH","pin":3932848},"type":"Feature","geometry":{"type":"Point","coordinates":[-84.442204,41.204635]}},{"properties":{"city":"Defiance","status":"Active","ppv":"Yes","zip":"43512","region":"Arthur","service packages":"Expanded Basic","township":"Auglaize Township","last":"Brown","stbs allowed":3,"geo_score":0.902,"first":"Larry","ppv limit":"50","customer id":3932763,"phone":4193932763,"whdvr":"No","id":"abn5pk9ynm03","address":"14827 Rd 209","login":3932763,"password":3932763,"geo_precision":"range","state":"OH","pin":3932763},"type":"Feature","geometry":{"type":"Point","coordinates":[-84.360944,41.189829]}},{"properties":{"city":"Defiance","status":"Active","ppv":"Yes","zip":"43512","region":"Arthur","service packages":"Expanded Basic","township":null,"last":"Brown","stbs allowed":4,"geo_score":0.815,"first":"Emma","ppv limit":"50","customer id":3932959,"phone":4193932959,"whdvr":"No","id":"abn5pkmo1url","address":"19317 rd 1021","login":3932959,"password":3932959,"geo_precision":"range","state":"OH","pin":3932959},"type":"Feature","geometry":{"type":"Point","coordinates":[-84.448742,41.188361]}},{"properties":{"city":"Defiance","status":"Inactive","ppv":"Yes","zip":"43512","region":"Arthur","service packages":"Variety Tier","township":null,"last":"Buhrer","stbs allowed":3,"geo_score":0.488,"first":"Jeff","ppv limit":"50","customer id":3932190,"phone":4193932190,"whdvr":"No","id":"abn5pkfzw906","address":"17500 Schubert Rd","login":3932190,"password":3932190,"geo_precision":"zip","state":"OH","pin":3932190},"type":"Feature","geometry":{"type":"Point","coordinates":[-84.299947,41.297826]}},{"properties":{"city":"Defiance","status":"Active","ppv":"Yes","zip":"43512","region":"Arthur","service packages":"Variety Tier","township":null,"last":"Burdine","stbs allowed":2,"geo_score":0.708,"first":"Delores","ppv limit":"50","customer id":3934783,"phone":4193934783,"whdvr":"No","id":"abn5pkmyw4th","address":"13322 State Route 66","login":3934783,"password":3934783,"geo_precision":"street","state":"OH","pin":3934783},"type":"Feature","geometry":{"type":"Point","coordinates":[-84.361137,41.238384]}},{"properties":{"city":"Oakwood","status":"Active","ppv":"Yes","zip":"45873","region":"Arthur","service packages":"Variety Tier","township":"Auglaize Township","last":"Burke","stbs allowed":5,"geo_score":0.902,"first":"Julie","ppv limit":"50","customer id":3934293,"phone":4193934293,"whdvr":"No","id":"abn5pkmdjew0","address":"20965 Rd 178","login":3934293,"password":3934293,"geo_precision":"range","state":"OH","pin":3934293},"type":"Feature","geometry":{"type":"Point","coordinates":[-84.420164,41.180169]}},{"properties":{"city":"Oakwood","status":"Active","ppv":"Yes","zip":"45873","region":"Arthur","service packages":"Variety Tier","township":null,"last":"Burkhart","stbs allowed":3,"geo_score":0.552,"first":"Mike","ppv limit":"50","customer id":3932335,"phone":4193932335,"whdvr":"No","id":"abn5pkibdavs","address":"21900 SR 637","login":3932335,"password":3932335,"geo_precision":"street","state":"OH","pin":3932335},"type":"Feature","geometry":{"type":"Point","coordinates":[-84.399486,41.194671]}},{"properties":{"city":"Def","status":"Active","ppv":"Yes","zip":"43512","region":"Arthur","service packages":"Variety + HD Basic (COMNHBSC21)","township":"Highland Township","last":"Burzyck","stbs allowed":5,"geo_score":0.841,"first":"Ray","ppv limit":"50","customer id":3934491,"phone":4193934491,"whdvr":"No","id":"abn5pkoahhza","address":"26755 Hoffman Rd","login":3934491,"password":3934491,"geo_precision":"range","state":"OH","pin":3934491},"type":"Feature","geometry":{"type":"Point","coordinates":[-84.308191,41.196515]}},{"properties":{"city":"Oakwood","status":"Active","ppv":"Yes","zip":"45873","region":"Arthur","service packages":"Variety + HD Basic (COMNHBSC21)","township":null,"last":"Cain","stbs allowed":5,"geo_score":0.796,"first":"Richard","ppv limit":"50","customer id":3934214,"phone":4193934214,"whdvr":"No","id":"abn5pkouosi5","address":"15301 Road 1037","login":3934214,"password":3934214,"geo_precision":"range","state":"OH","pin":3934214},"type":"Feature","geometry":{"type":"Point","coordinates":[-84.443045,41.197134]}},{"properties":{"city":"Defiance","status":"Active","ppv":"Yes","zip":"43512","region":"Arthur","service packages":"Encore,Starz,Variety + HD Basic (COMNHBSC21)","township":null,"last":"Calhoun","stbs allowed":10,"geo_score":0.902,"first":"Jason","ppv limit":"50","customer id":3934007,"phone":4193934007,"whdvr":"No","id":"abn5pkaozuxg","address":"26150 Hoffman Road","login":3934007,"password":3934007,"geo_precision":"range","state":"OH","pin":3934007},"type":"Feature","geometry":{"type":"Point","coordinates":[-84.320639,41.194501]}},{"properties":{"city":"Defiance","status":"Active","ppv":"Yes","zip":"43512","region":"Arthur","service packages":"Expanded Basic","township":null,"last":"Cameron","stbs allowed":5,"geo_score":0.902,"first":"Larry G.","ppv limit":"50","customer id":3934048,"phone":4193934048,"whdvr":"No","id":"abn5pklu26cv","address":"14710 Power Dam Road","login":3934048,"password":3934048,"geo_precision":"range","state":"OH","pin":3934048},"type":"Feature","geometry":{"type":"Point","coordinates":[-84.414316,41.230181]}},{"properties":{"city":"Oakwood","status":"Active","ppv":"Yes","zip":"45873","region":"Arthur","service packages":"Variety Tier","township":null,"last":"Carnahan","stbs allowed":7,"geo_score":0.902,"first":"Daniel","ppv limit":"50","customer id":3934245,"phone":4193934245,"whdvr":"No","id":"abn5pknbhzbn","address":"23358 Road 178","login":3934245,"password":3934245,"geo_precision":"range","state":"OH","pin":3934245},"type":"Feature","geometry":{"type":"Point","coordinates":[-84.373855,41.180067]}},{"properties":{"city":"Defiance","status":"Active","ppv":"Yes","zip":"43512","region":"Arthur","service packages":"Variety Tier,Encore,Starz,Cinemax,HBO,Showtime","township":null,"last":"Cashman","stbs allowed":11,"geo_score":0.512,"first":"Laurie","ppv limit":"50","customer id":3932601,"phone":4193932601,"whdvr":"No","id":"abn5pknq0bqp","address":"14940 St. Rt. 111","login":3932601,"password":3932601,"geo_precision":"range","state":"OH","pin":3932601},"type":"Feature","geometry":{"type":"Point","coordinates":[-84.553429,41.286505]}},{"properties":{"city":"Defiance","status":"Active","ppv":"Yes","zip":"43512","region":"Arthur","service packages":"Expanded Basic","township":null,"last":"Chandler","stbs allowed":3,"geo_score":0.707,"first":"Rodney","ppv limit":"50","customer id":3934384,"phone":4193934384,"whdvr":"No","id":"abn5pkhoiglt","address":"22805 Defiance Paulding county line Rd","login":3934384,"password":3934384,"geo_precision":"street","state":"OH","pin":3934384},"type":"Feature","geometry":{"type":"Point","coordinates":[-84.461092,41.253464]}},{"properties":{"city":"Defiance","status":"Active","ppv":"Yes","zip":"43512","region":"Arthur","service packages":"Variety Tier","township":null,"last":"Chandler","stbs allowed":4,"geo_score":0.714,"first":"Allen","ppv limit":"50","customer id":3932038,"phone":4193932038,"whdvr":"No","id":"abn5pkd1cuoo","address":"St Rt 66","login":3932038,"password":3932038,"geo_precision":"street","state":"OH","pin":3932038},"type":"Feature","geometry":{"type":"Point","coordinates":[-84.361559,41.287648]}},{"properties":{"city":"Defiance","status":"Active","ppv":"Yes","zip":"43512","region":"Arthur","service packages":"Expanded Basic","township":null,"last":"Chenhalls","stbs allowed":3,"geo_score":0.902,"first":"Thomas","ppv limit":"50","customer id":3934159,"phone":4193934159,"whdvr":"No","id":"abn5pkigi1d7","address":"180 Lakeview Drive","login":3934159,"password":3934159,"geo_precision":"range","state":"OH","pin":3934159},"type":"Feature","geometry":{"type":"Point","coordinates":[-84.424469,41.230392]}},{"properties":{"city":"Defiance","status":"Active","ppv":"Yes","zip":"43512","region":"Arthur","service packages":"Variety Tier","township":null,"last":"Cleaves","stbs allowed":3,"geo_score":0.852,"first":"Max","ppv limit":"50","customer id":3932595,"phone":4193932595,"whdvr":"No","id":"abn5pkamhzp9","address":"21761 DEF PLDG CO LINE RD","login":3932595,"password":3932595,"geo_precision":"range","state":"OH","pin":3932595},"type":"Feature","geometry":{"type":"Point","coordinates":[-84.403895,41.209385]}},{"properties":{"city":"Defiance","status":"Active","ppv":"Yes","zip":"43512","region":"Arthur","service packages":"Variety Tier","township":"Auglaize Township","last":"Clemens","stbs allowed":5,"geo_score":0.59,"first":"Charles","ppv limit":"50","customer id":3934197,"phone":4193934197,"whdvr":"No","id":"abn5pkc0ma32","address":"20989 Co line Rd","login":3934197,"password":3934197,"geo_precision":"street","state":"OH","pin":3934197},"type":"Feature","geometry":{"type":"Point","coordinates":[-84.304997,41.194578]}},{"properties":{"city":"Oakwood","status":"Active","ppv":"Yes","zip":"45873","region":"Arthur","service packages":"Lifeline,Expanded Basic","township":null,"last":"Collard","stbs allowed":2,"geo_score":0.707,"first":"Charles","ppv limit":"50","customer id":3932997,"phone":4193932997,"whdvr":"No","id":"abn5pkccrjri","address":"14825 Rd 171","login":3932997,"password":3932997,"geo_precision":"street","state":"OH","pin":3932997},"type":"Feature","geometry":{"type":"Point","coordinates":[-84.433776,41.128305]}},{"properties":{"city":"Defiance","status":"Inactive","ppv":"Yes","zip":"43512","region":"Arthur","service packages":"Variety Tier","township":null,"last":"Cook","stbs allowed":4,"geo_score":0.902,"first":"Tracy","ppv limit":"50","customer id":3934464,"phone":4193934464,"whdvr":"No","id":"abn5pkmv58ig","address":"15282 Sponseller Rd","login":3934464,"password":3934464,"geo_precision":"range","state":"OH","pin":3934464},"type":"Feature","geometry":{"type":"Point","coordinates":[-84.409239,41.219769]}},{"properties":{"city":"Oakwood","status":"Active","ppv":"Yes","zip":"45873","region":"Arthur","service packages":"Variety Tier","township":null,"last":"Cross","stbs allowed":5,"geo_score":0.902,"first":"Marie","ppv limit":"50","customer id":3934203,"phone":4193934203,"whdvr":"No","id":"abn5pkb7jcuw","address":"14897 Rd 191","login":3934203,"password":3934203,"geo_precision":"range","state":"OH","pin":3934203},"type":"Feature","geometry":{"type":"Point","coordinates":[-84.399564,41.191753]}},{"properties":{"city":"Defiance","status":"Inactive","ppv":"Yes","zip":"43512","region":"Arthur","service packages":"Variety Tier","township":null,"last":"Cupp","stbs allowed":3,"geo_score":0.793,"first":"Ron","ppv limit":"50","customer id":3934362,"phone":4193934362,"whdvr":"No","id":"abn5pkc9unz3","address":"22370 Road 10","login":3934362,"password":3934362,"geo_precision":"range","state":"OH","pin":3934362},"type":"Feature","geometry":{"type":"Point","coordinates":[-84.392784,41.209256]}},{"properties":{"city":"Oakwood","status":"Active","ppv":"Yes","zip":"45873","region":"Arthur","service packages":"Variety Tier","township":null,"last":"Daughtery","stbs allowed":3,"geo_score":0.812,"first":"Bessie","ppv limit":"50","customer id":3932861,"phone":4193932861,"whdvr":"No","id":"abn5pknzhquo","address":"22314 ST RT 637","login":3932861,"password":3932861,"geo_precision":"range","state":"OH","pin":3932861},"type":"Feature","geometry":{"type":"Point","coordinates":[-84.393793,41.194585]}},{"properties":{"city":"Cecil","status":"Active","ppv":"Yes","zip":"45821","region":"Arthur","service packages":"Variety Tier","township":null,"last":"Deatrick","stbs allowed":2,"geo_score":0.727,"first":"Kathryn","ppv limit":"50","customer id":3932370,"phone":4193932370,"whdvr":"No","id":"abn5pkbpn6eh","address":"17223 Road 143","login":3932370,"password":3932370,"geo_precision":"range","state":"OH","pin":3932370},"type":"Feature","geometry":{"type":"Point","coordinates":[-84.476292,41.223966]}},{"properties":{"city":"Cecil","status":"Active","ppv":"Yes","zip":"45821","region":"Arthur","service packages":"Variety Tier,Encore,Starz","township":null,"last":"Deatrick","stbs allowed":3,"geo_score":0.727,"first":"William","ppv limit":"50","customer id":3934269,"phone":4193934269,"whdvr":"No","id":"abn5pkompa8i","address":"15893 Road 143","login":3934269,"password":3934269,"geo_precision":"range","state":"OH","pin":3934269},"type":"Feature","geometry":{"type":"Point","coordinates":[-84.476264,41.208488]}},{"properties":{"city":"Defiance","status":"Active","ppv":"Yes","zip":"43512","region":"Arthur","service packages":"Variety Tier","township":null,"last":"Delaney","stbs allowed":4,"geo_score":0.805,"first":"Tobie","ppv limit":"50","customer id":3932623,"phone":4193932623,"whdvr":"No","id":"abn5pkn9vqgi","address":"14716 St Rt 66","login":3932623,"password":3932623,"geo_precision":"range","state":"OH","pin":3932623},"type":"Feature","geometry":{"type":"Point","coordinates":[-84.361179,41.227779]}},{"properties":{"city":"Defiance","status":"Active","ppv":"Yes","zip":"43512","region":"Arthur","service packages":"Variety + HD Basic (COMNHBSC21)","township":null,"last":"DeSota","stbs allowed":3,"geo_score":0.805,"first":"Daniel","ppv limit":"50","customer id":3932831,"phone":4193932831,"whdvr":"No","id":"abn5pkn5wikp","address":"15278 Road 201","login":3932831,"password":3932831,"geo_precision":"range","state":"OH","pin":3932831},"type":"Feature","geometry":{"type":"Point","coordinates":[-84.380183,41.196782]}},{"properties":{"city":"Defiance","status":"Active","ppv":"Yes","zip":"43512","region":"Arthur","service packages":"Variety Tier","township":null,"last":"Detter","stbs allowed":2,"geo_score":0.5,"first":"Mark","ppv limit":"50","customer id":3932565,"phone":4193932565,"whdvr":"No","id":"abn5pkmmdi8m","address":"21859 Co. Line Road","login":3932565,"password":3932565,"geo_precision":"street","state":"OH","pin":3932565},"type":"Feature","geometry":{"type":"Point","coordinates":[-84.341591,41.175872]}},{"properties":{"city":"Defiance","status":"Active","ppv":"Yes","zip":"43512","region":"Arthur","service packages":"Variety Tier,HBO","township":null,"last":"Dimock","stbs allowed":10,"geo_score":0.673,"first":"Dean","ppv limit":"50","customer id":3932611,"phone":4193932611,"whdvr":"No","id":"abn5pka5amf3","address":"15767 Defiance/Paulding Co. Line Road","login":3932611,"password":3932611,"geo_precision":"street","state":"OH","pin":3932611},"type":"Feature","geometry":{"type":"Point","coordinates":[-84.349384,41.281164]}},{"properties":{"city":"Defiance","status":"Active","ppv":"Yes","zip":"43512","region":"Arthur","service packages":"Variety Tier","township":null,"last":"Dix","stbs allowed":3,"geo_score":0.902,"first":"Jennifer","ppv limit":"50","customer id":3932348,"phone":4193932348,"whdvr":"No","id":"abn5pkg4louu","address":"21269 State Route 637","login":3932348,"password":3932348,"geo_precision":"range","state":"OH","pin":3932348},"type":"Feature","geometry":{"type":"Point","coordinates":[-84.414591,41.19473]}},{"properties":{"city":"Defiance","status":"Active","ppv":"Yes","zip":"43512","region":"Arthur","service packages":"Expanded Basic","township":null,"last":"Dumire","stbs allowed":3,"geo_score":0.902,"first":"Bruce","ppv limit":"50","customer id":3932001,"phone":4193932001,"whdvr":"No","id":"abn5pkinlnnj","address":"15487 RD 191","login":3932001,"password":3932001,"geo_precision":"range","state":"OH","pin":3932001},"type":"Feature","geometry":{"type":"Point","coordinates":[-84.399569,41.194985]}},{"properties":{"city":"Defiance","status":"Active","ppv":"Yes","zip":"43512","region":"Arthur","service packages":"Expanded Basic","township":null,"last":"Eblin","stbs allowed":5,"geo_score":0.732,"first":"Becky","ppv limit":"50","customer id":3932612,"phone":4193932612,"whdvr":"No","id":"abn5pkf1adum","address":"23453 SR 66","login":3932612,"password":3932612,"geo_precision":"range","state":"OH","pin":3932612},"type":"Feature","geometry":{"type":"Point","coordinates":[-84.360975,41.197608]}},{"properties":{"city":"Defiance","status":"Active","ppv":"Yes","zip":"43512","region":"Arthur","service packages":"Expanded Basic","township":null,"last":"Edwards","stbs allowed":3,"geo_score":0.902,"first":"Mindy","ppv limit":"50","customer id":3932990,"phone":4193932990,"whdvr":"No","id":"abn5pkd3e3lb","address":"15840 Campbell Rd","login":3932990,"password":3932990,"geo_precision":"range","state":"OH","pin":3932990},"type":"Feature","geometry":{"type":"Point","coordinates":[-84.399606,41.210755]}},{"properties":{"city":"Oakwood","status":"Active","ppv":"Yes","zip":"45873","region":"Arthur","service packages":"Variety Tier","township":null,"last":"Egler","stbs allowed":3,"geo_score":0.796,"first":"Daniel","ppv limit":"50","customer id":3932113,"phone":4193932113,"whdvr":"No","id":"abn5pkf5teat","address":"19571 Rd 1039","login":3932113,"password":3932113,"geo_precision":"range","state":"OH","pin":3932113},"type":"Feature","geometry":{"type":"Point","coordinates":[-84.43967,41.196549]}},{"properties":{"city":"Defiance, Oh","status":"Active","ppv":"Yes","zip":"43512","region":"Arthur","service packages":"Expanded Basic","township":null,"last":"Ehlinger","stbs allowed":4,"geo_score":0.87,"first":"James","ppv limit":"50","customer id":3932696,"phone":4193932696,"whdvr":"No","id":"abn5pkj615il","address":"14074 Power Dam Rd","login":3932696,"password":3932696,"geo_precision":"range","state":"OH","pin":3932696},"type":"Feature","geometry":{"type":"Point","coordinates":[-84.395842,41.237638]}},{"properties":{"city":"Oakwood","status":"Active","ppv":"Yes","zip":"45873","region":"Arthur","service packages":"Expanded Basic","township":null,"last":"Elkins","stbs allowed":3,"geo_score":0.796,"first":"Homer","ppv limit":"50","customer id":3932286,"phone":4193932286,"whdvr":"No","id":"abn5pkaz1m4i","address":"19131 Road 1036","login":3932286,"password":3932286,"geo_precision":"range","state":"OH","pin":3932286},"type":"Feature","geometry":{"type":"Point","coordinates":[-84.440234,41.195886]}},{"properties":{"city":"Oakwood","status":"Active","ppv":"Yes","zip":"45873","region":"Arthur","service packages":"Expanded Basic,Encore","township":"Auglaize Township","last":"Elston","stbs allowed":5,"geo_score":0.902,"first":"E.S.","ppv limit":"50","customer id":3932657,"phone":4193932657,"whdvr":"No","id":"abn5pkl9kuer","address":"14833 Rd 191","login":3932657,"password":3932657,"geo_precision":"range","state":"OH","pin":3932657},"type":"Feature","geometry":{"type":"Point","coordinates":[-84.399566,41.192687]}},{"properties":{"city":"Defiance","status":"Active","ppv":"Yes","zip":"43512","region":"Arthur","service packages":"Expanded Basic","township":null,"last":"Elswick","stbs allowed":10,"geo_score":0.902,"first":"Joyce","ppv limit":"50","customer id":3934633,"phone":4193934633,"whdvr":"No","id":"abn5pkf3eui3","address":"24927 Rd 178","login":3934633,"password":3934633,"geo_precision":"range","state":"OH","pin":3934633},"type":"Feature","geometry":{"type":"Point","coordinates":[-84.343022,41.180129]}},{"properties":{"city":"Defiance","status":"Active","ppv":"Yes","zip":"43512","region":"Arthur","service packages":"Expanded Basic","township":null,"last":"Evans Jr","stbs allowed":3,"geo_score":0.902,"first":"Bobby","ppv limit":"50","customer id":3932765,"phone":4193932765,"whdvr":"No","id":"abn5pkcus1zu","address":"15785 rd 175","login":3932765,"password":3932765,"geo_precision":"range","state":"OH","pin":3932765},"type":"Feature","geometry":{"type":"Point","coordinates":[-84.428433,41.204414]}},{"properties":{"city":"Defiance, OH","status":"Active","ppv":"Yes","zip":"43512","region":"Arthur","service packages":"Variety Tier","township":null,"last":"Evans Sr","stbs allowed":5,"geo_score":0.865,"first":"Bobby","ppv limit":"50","customer id":3934058,"phone":4193934058,"whdvr":"No","id":"abn5pkiga78l","address":"15792 Rd 175","login":3934058,"password":3934058,"geo_precision":"range","state":"OH","pin":3934058},"type":"Feature","geometry":{"type":"Point","coordinates":[-84.428433,41.204414]}},{"properties":{"city":"Defiance","status":"Active","ppv":"Yes","zip":"43512","region":"Arthur","service packages":"Variety Tier","township":null,"last":"Fleming","stbs allowed":2,"geo_score":0.902,"first":"Ralph","ppv limit":"50","customer id":3932706,"phone":4193932706,"whdvr":"No","id":"abn5pkbeeint","address":"24882 Bowman rd","login":3932706,"password":3932706,"geo_precision":"range","state":"OH","pin":3932706},"type":"Feature","geometry":{"type":"Point","coordinates":[-84.343572,41.223618]}},{"properties":{"city":"Defiance","status":"Active","ppv":"Yes","zip":"43512","region":"Arthur","service packages":"Expanded Basic","township":null,"last":"Foreman","stbs allowed":4,"geo_score":0.902,"first":"Jennifer","ppv limit":"50","customer id":3932760,"phone":4193932760,"whdvr":"No","id":"abn5pkhetchh","address":"24546 Bowman Rd","login":3932760,"password":3932760,"geo_precision":"range","state":"OH","pin":3932760},"type":"Feature","geometry":{"type":"Point","coordinates":[-84.348715,41.223713]}},{"properties":{"city":"Defiance","status":"Active","ppv":"Yes","zip":"43512","region":"Arthur","service packages":"Variety Tier","township":null,"last":"Frederick","stbs allowed":5,"geo_score":0.805,"first":"Raymond","ppv limit":"50","customer id":3934444,"phone":4193934444,"whdvr":"No","id":"abn5pkjly90w","address":"15865 St Rt 66","login":3934444,"password":3934444,"geo_precision":"range","state":"OH","pin":3934444},"type":"Feature","geometry":{"type":"Point","coordinates":[-84.360982,41.199]}},{"properties":{"city":"Defiance","status":"Active","ppv":"Yes","zip":"43512","region":"Arthur","service packages":"Expanded Basic","township":null,"last":"Froelich","stbs allowed":4,"geo_score":0.902,"first":"Lynn","ppv limit":"50","customer id":3934424,"phone":4193934424,"whdvr":"No","id":"abn5pkdbbrjh","address":"15701 Power Dam Rd","login":3934424,"password":3934424,"geo_precision":"range","state":"OH","pin":3934424},"type":"Feature","geometry":{"type":"Point","coordinates":[-84.431591,41.213857]}},{"properties":{"city":"Defiance","status":"Active","ppv":"Yes","zip":"43512","region":"Arthur","service packages":"Expanded Basic","township":null,"last":"Froelich","stbs allowed":3,"geo_score":0.902,"first":"Ed &amp; Toni","ppv limit":"50","customer id":3932019,"phone":4193932019,"whdvr":"No","id":"abn5pk973y2t","address":"15998 Power Dam Rd.","login":3932019,"password":3932019,"geo_precision":"range","state":"OH","pin":3932019},"type":"Feature","geometry":{"type":"Point","coordinates":[-84.434491,41.209201]}},{"properties":{"city":"Defiance","status":"Active","ppv":"Yes","zip":"43512","region":"Arthur","service packages":"Variety Tier","township":null,"last":"Fry","stbs allowed":4,"geo_score":0.902,"first":"Todd","ppv limit":"50","customer id":4193932442,"phone":4193932442,"whdvr":"No","id":"abn5pk9a57ac","address":"15525 Sponseller Rd","login":3932442,"password":3932442,"geo_precision":"range","state":"OH","pin":3932442},"type":"Feature","geometry":{"type":"Point","coordinates":[-84.40911,41.216266]}},{"properties":{"city":"Defiance","status":"Active","ppv":"Yes","zip":"43512","region":"Arthur","service packages":"Variety Tier","township":null,"last":"Fugate","stbs allowed":3,"geo_score":0.805,"first":"Nancy","ppv limit":"50","customer id":3932928,"phone":4193932928,"whdvr":"No","id":"abn5pki6i2qr","address":"15982 Rd 201","login":3932928,"password":3932928,"geo_precision":"range","state":"OH","pin":3932928},"type":"Feature","geometry":{"type":"Point","coordinates":[-84.380167,41.207758]}},{"properties":{"city":"Defiance","status":"Active","ppv":"Yes","zip":"43512","region":"Arthur","service packages":"Cinemax,Showtime,Variety + HD Basic (COMNHBSC21)","township":null,"last":"Fuller","stbs allowed":3,"geo_score":0.805,"first":"Kevin","ppv limit":"50","customer id":3934391,"phone":4193934391,"whdvr":"No","id":"abn5pkc0e5qw","address":"21769 Bowman","login":3934391,"password":3934391,"geo_precision":"range","state":"OH","pin":3934391},"type":"Feature","geometry":{"type":"Point","coordinates":[-84.404637,41.223878]}},{"properties":{"city":"Oakwood","status":"Active","ppv":"Yes","zip":"45873","region":"Arthur","service packages":"Lifeline,Expanded Basic","township":null,"last":"Gebhart","stbs allowed":2,"geo_score":0.488,"first":"Alan","ppv limit":"50","customer id":3932800,"phone":4193932800,"whdvr":"No","id":"abn5pko3s67z","address":"19421 rd 1021","login":3932800,"password":3932800,"geo_precision":"zip","state":"OH","pin":3932800},"type":"Feature","geometry":{"type":"Point","coordinates":[-84.534212,41.121548]}},{"properties":{"city":"Defiance","status":"Active","ppv":"Yes","zip":"43512","region":"Arthur","service packages":"Lifeline","township":null,"last":"Girlie","stbs allowed":2,"geo_score":0.805,"first":"Barb","ppv limit":"50","customer id":3932738,"phone":4193932738,"whdvr":"No","id":"abn5pkpbtfcr","address":"22410 Bowman","login":3932738,"password":3932738,"geo_precision":"range","state":"OH","pin":3932738},"type":"Feature","geometry":{"type":"Point","coordinates":[-84.393407,41.223762]}},{"properties":{"city":"Defiance","status":"Active","ppv":"Yes","zip":"43512","region":"Arthur","service packages":"Variety Tier","township":null,"last":"Glick","stbs allowed":3,"geo_score":0.488,"first":"Peggy","ppv limit":"50","customer id":3934889,"phone":4193934889,"whdvr":"No","id":"abn5pkj3xlno","address":"15521 Road 1037","login":3934889,"password":3934889,"geo_precision":"zip","state":"OH","pin":3934889},"type":"Feature","geometry":{"type":"Point","coordinates":[-84.299947,41.297826]}},{"properties":{"city":"Defiance","status":"Active","ppv":"Yes","zip":"43512","region":"Arthur","service packages":"Expanded Basic","township":"Auglaize Township","last":"Golf Course","stbs allowed":5,"geo_score":0.805,"first":"Auglaize","ppv limit":"50","customer id":3934051,"phone":4193934051,"whdvr":"No","id":"abn5pki7vlyc","address":"19062 Rd 212","login":3934051,"password":3934051,"geo_precision":"range","state":"OH","pin":3934051},"type":"Feature","geometry":{"type":"Point","coordinates":[-84.442991,41.205558]}},{"properties":{"city":"Oakwood","status":"Active","ppv":"Yes","zip":"45873","region":"Arthur","service packages":"Variety Tier","township":null,"last":"Grant","stbs allowed":3,"geo_score":0.745,"first":"Troy","ppv limit":"50","customer id":3932851,"phone":4193932851,"whdvr":"No","id":"abn5pkfz63yq","address":"22217 Sr 637","login":3932851,"password":3932851,"geo_precision":"range","state":"OH","pin":3932851},"type":"Feature","geometry":{"type":"Point","coordinates":[-84.396336,41.194737]}},{"properties":{"city":"Defiance","status":"Active","ppv":"Yes","zip":"43512","region":"Arthur","service packages":"Variety Tier","township":null,"last":"Grant","stbs allowed":3,"geo_score":0.902,"first":"Brian &amp; Dawn","ppv limit":"50","customer id":3932460,"phone":4193932460,"whdvr":"No","id":"abn5pkb90apq","address":"15168 Williams Road","login":3932460,"password":3932460,"geo_precision":"range","state":"OH","pin":3932460},"type":"Feature","geometry":{"type":"Point","coordinates":[-84.380424,41.22144]}},{"properties":{"city":"Oakwood","status":"Active","ppv":"Yes","zip":"45873","region":"Arthur","service packages":"Variety Tier","township":null,"last":"Greve","stbs allowed":3,"geo_score":0.434,"first":"Josh","ppv limit":"50","customer id":3934825,"phone":4193934825,"whdvr":"No","id":"abn5pkafacfy","address":"24427 Rd 196","login":3934825,"password":3934825,"geo_precision":"street","state":"OH","pin":3934825},"type":"Feature","geometry":{"type":"Point","coordinates":[-84.380239,41.194652]}},{"properties":{"city":"Defiance","status":"Active","ppv":"Yes","zip":"43512","region":"Arthur","service packages":"Variety Tier","township":null,"last":"Gross","stbs allowed":4,"geo_score":0.812,"first":"Doug","ppv limit":"50","customer id":3934233,"phone":4193934233,"whdvr":"No","id":"abn5pk9kf31y","address":"18483 ST RT 111","login":3934233,"password":3934233,"geo_precision":"range","state":"OH","pin":3934233},"type":"Feature","geometry":{"type":"Point","coordinates":[-84.473363,41.194691]}},{"properties":{"city":"Defiance","status":"Active","ppv":"Yes","zip":"43512","region":"Arthur","service packages":"Variety Tier","township":null,"last":"Hahn","stbs allowed":3,"geo_score":0.902,"first":"Jonathan","ppv limit":"50","customer id":3934669,"phone":4193934669,"whdvr":"No","id":"abn5pkngtl0z","address":"15863 Sponseller rd","login":3934669,"password":3934669,"geo_precision":"range","state":"OH","pin":3934669},"type":"Feature","geometry":{"type":"Point","coordinates":[-84.409116,41.211323]}},{"properties":{"city":"Defiance","status":"Active","ppv":"Yes","zip":"43512","region":"Arthur","service packages":"Variety Tier","township":"Auglaize Township","last":"Hahn","stbs allowed":5,"geo_score":0.902,"first":"Bruce","ppv limit":"50","customer id":3932713,"phone":4193932713,"whdvr":"No","id":"abn5pken8510","address":"15967 Sponseller Rd","login":3932713,"password":3932713,"geo_precision":"range","state":"OH","pin":3932713},"type":"Feature","geometry":{"type":"Point","coordinates":[-84.409121,41.209802]}},{"properties":{"city":"Oakwood","status":"Active","ppv":"Yes","zip":"45873","region":"Arthur","service packages":"Variety Tier","township":null,"last":"Hale","stbs allowed":3,"geo_score":0.796,"first":"Judy","ppv limit":"50","customer id":3932806,"phone":4193932806,"whdvr":"No","id":"abn5pkovttbq","address":"19280 Road 1036","login":3932806,"password":3932806,"geo_precision":"range","state":"OH","pin":3932806},"type":"Feature","geometry":{"type":"Point","coordinates":[-84.440777,41.196034]}},{"properties":{"city":"Defiance","status":"Inactive","ppv":"Yes","zip":"43512","region":"Arthur","service packages":"Variety Tier","township":null,"last":"Hall","stbs allowed":2,"geo_score":0.902,"first":"Cynthia","ppv limit":"50","customer id":4193934014,"phone":4193934014,"whdvr":"No","id":"abn5pkjcs0gr","address":"22481 County Line Rd","login":4193934014,"password":3934014,"geo_precision":"range","state":"OH","pin":3934014},"type":"Feature","geometry":{"type":"Point","coordinates":[-84.390061,41.209429]}},{"properties":{"city":"Oakwood","status":"Active","ppv":"Yes","zip":"45873","region":"Arthur","service packages":"Variety Tier","township":null,"last":"Hancock","stbs allowed":5,"geo_score":0.857,"first":"Jerry","ppv limit":"50","customer id":3932309,"phone":4193932309,"whdvr":"No","id":"abn5pkk3x7m0","address":"rd 178","login":3932309,"password":3932309,"geo_precision":"street","state":"OH","pin":3932309},"type":"Feature","geometry":{"type":"Point","coordinates":[-84.411977,41.180108]}},{"properties":{"city":"Defiance","status":"Active","ppv":"Yes","zip":"43512","region":"Arthur","service packages":"Expanded Basic","township":null,"last":"Hanenkratt","stbs allowed":4,"geo_score":0.902,"first":"Barry","ppv limit":"50","customer id":3932446,"phone":4193932446,"whdvr":"No","id":"abn5pkdw7pel","address":"14354 Rd 171","login":3932446,"password":3932446,"geo_precision":"range","state":"OH","pin":3932446},"type":"Feature","geometry":{"type":"Point","coordinates":[-84.447624,41.183801]}},{"properties":{"city":"Defiance","status":"Active","ppv":"Yes","zip":"43512","region":"Arthur","service packages":"Variety Tier","township":"Auglaize Township","last":"Hawkins","stbs allowed":5,"geo_score":0.812,"first":"Rev. Terry","ppv limit":"50","customer id":3934304,"phone":4193934304,"whdvr":"No","id":"abn5pkouwqdo","address":"21245 St Rt 637","login":3934304,"password":3934304,"geo_precision":"range","state":"OH","pin":3934304},"type":"Feature","geometry":{"type":"Point","coordinates":[-84.41463,41.19473]}},{"properties":{"city":"Defiance","status":"Active","ppv":"Yes","zip":"43512","region":"Arthur","service packages":"Showtime,Variety + HD Tier (COMNHDTR21)","township":null,"last":"Healy","stbs allowed":5,"geo_score":0.902,"first":"Richard","ppv limit":"50","customer id":3932311,"phone":4193932311,"whdvr":"No","id":"abn5pkenb5ar","address":"16792 Porter Road","login":3932311,"password":3932311,"geo_precision":"range","state":"OH","pin":3932311},"type":"Feature","geometry":{"type":"Point","coordinates":[-84.324262,41.197321]}},{"properties":{"city":"Defiance","status":"Active","ppv":"Yes","zip":"43512","region":"Arthur","service packages":"Expanded Basic","township":null,"last":"Heck","stbs allowed":5,"geo_score":0.61,"first":"Andrew E.","ppv limit":"50","customer id":3932866,"phone":4193932866,"whdvr":"No","id":"abn5pknxf6in","address":"14180 Rd. 171","login":3932866,"password":3932866,"geo_precision":"range","state":"OH","pin":3932866},"type":"Feature","geometry":{"type":"Point","coordinates":[-84.553358,41.291761]}},{"properties":{"city":"Defiance","status":"Active","ppv":"Yes","zip":"43512","region":"Arthur","service packages":"Variety Tier","township":"Auglaize Township","last":"Heilshorn","stbs allowed":5,"geo_score":0.796,"first":"Victoria","ppv limit":"50","customer id":3932136,"phone":4193932136,"whdvr":"No","id":"abn5pk9q6o7d","address":"18108 rd 1027","login":3932136,"password":3932136,"geo_precision":"range","state":"OH","pin":3932136},"type":"Feature","geometry":{"type":"Point","coordinates":[-84.456071,41.19951]}},{"properties":{"city":"Defiance","status":"Active","ppv":"Yes","zip":"43512","region":"Arthur","service packages":"Variety Tier","township":null,"last":"Heller","stbs allowed":4,"geo_score":0.805,"first":"Terri","ppv limit":"50","customer id":3932444,"phone":4193932444,"whdvr":"No","id":"abn5pkflwzwd","address":"22540 Bowman","login":3932444,"password":3932444,"geo_precision":"range","state":"OH","pin":3932444},"type":"Feature","geometry":{"type":"Point","coordinates":[-84.39066,41.223755]}},{"properties":{"city":"Defiance","status":"Active","ppv":"Yes","zip":"43512","region":"Arthur","service packages":"Variety Tier","township":null,"last":"Henson","stbs allowed":3,"geo_score":0.902,"first":"Gale","ppv limit":"50","customer id":3932716,"phone":4193932716,"whdvr":"No","id":"abn5pki6b6gh","address":"18724 RD 111","login":3932716,"password":3932716,"geo_precision":"range","state":"OH","pin":3932716},"type":"Feature","geometry":{"type":"Point","coordinates":[-84.462592,41.191266]}},{"properties":{"city":"Defiance","status":"Active","ppv":"Yes","zip":"43512","region":"Arthur","service packages":"Variety Tier","township":null,"last":"Hoeffel","stbs allowed":3,"geo_score":0.902,"first":"Jerad","ppv limit":"50","customer id":3932044,"phone":4193932044,"whdvr":"No","id":"abn5pkn6xxth","address":"22608 Bowman Rd","login":3932044,"password":3932044,"geo_precision":"range","state":"OH","pin":3932044},"type":"Feature","geometry":{"type":"Point","coordinates":[-84.388925,41.223749]}},{"properties":{"city":"Defiance","status":"Active","ppv":"Yes","zip":"43512","region":"Arthur","service packages":"Variety Tier","township":null,"last":"Hornish","stbs allowed":3,"geo_score":0.902,"first":"Ryan","ppv limit":"50","customer id":3932114,"phone":4193932114,"whdvr":"No","id":"abn5pknhpo3a","address":"23090 Watson Road","login":3932114,"password":3932114,"geo_precision":"range","state":"OH","pin":3932114},"type":"Feature","geometry":{"type":"Point","coordinates":[-84.378919,41.238364]}},{"properties":{"city":"Defiance","status":"Active","ppv":"Yes","zip":"43512","region":"Arthur","service packages":"Variety + HD Basic (COMNHBSC21)","township":null,"last":"Hughes","stbs allowed":5,"geo_score":0.902,"first":"Bill","ppv limit":"50","customer id":3934863,"phone":4193934863,"whdvr":"No","id":"abn5pkldtdwg","address":"24420 Bowman Rd","login":3934863,"password":3934863,"geo_precision":"range","state":"OH","pin":3934863},"type":"Feature","geometry":{"type":"Point","coordinates":[-84.350608,41.223753]}},{"properties":{"city":"Defiance","status":"Active","ppv":"Yes","zip":"43512","region":"Arthur","service packages":"Variety Tier","township":null,"last":"Hunt","stbs allowed":3,"geo_score":0.902,"first":"Gary","ppv limit":"50","customer id":3934420,"phone":4193934420,"whdvr":"No","id":"abn5pki9hvil","address":"18489 Painter Road","login":3934420,"password":3934420,"geo_precision":"range","state":"OH","pin":3934420},"type":"Feature","geometry":{"type":"Point","coordinates":[-84.295499,41.165773]}},{"properties":{"city":"Defiance","status":"Active","ppv":"Yes","zip":"43512","region":"Arthur","service packages":"Expanded Basic,Encore,Cinemax","township":null,"last":"Huntebrinker","stbs allowed":5,"geo_score":0.902,"first":"Wendi","ppv limit":"50","customer id":4193934142,"phone":4193934142,"whdvr":"No","id":"abn5pkomsj8e","address":"14184 Rd 171","login":3934142,"password":3934142,"geo_precision":"range","state":"OH","pin":3934142},"type":"Feature","geometry":{"type":"Point","coordinates":[-84.447605,41.180715]}},{"properties":{"city":"Defiance","status":"Active","ppv":"Yes","zip":"43512","region":"Arthur","service packages":"Variety Tier","township":"Auglaize Township","last":"Hunter","stbs allowed":4,"geo_score":0.805,"first":"Eric","ppv limit":"50","customer id":3934049,"phone":4193934049,"whdvr":"No","id":"abn5pkdqyqzt","address":"15113 Rd 169","login":3934049,"password":3934049,"geo_precision":"range","state":"OH","pin":3934049},"type":"Feature","geometry":{"type":"Point","coordinates":[-84.418913,41.195424]}},{"properties":{"city":"Defiance","status":"Active","ppv":"Yes","zip":"43512","region":"Arthur","service packages":"Expanded Basic","township":null,"last":"Hurst","stbs allowed":5,"geo_score":0.793,"first":"John","ppv limit":"50","customer id":3932297,"phone":4193932297,"whdvr":"No","id":"abn5pkj45i83","address":"23988 Road 10","login":3932297,"password":3932297,"geo_precision":"range","state":"OH","pin":3932297},"type":"Feature","geometry":{"type":"Point","coordinates":[-84.362593,41.209191]}},{"properties":{"city":"Defiance","status":"Active","ppv":"Yes","zip":"43512","region":"Arthur","service packages":"Variety Tier,HBO,Showtime","township":null,"last":"Ingle III","stbs allowed":5,"geo_score":0.805,"first":"James","ppv limit":"50","customer id":3932418,"phone":4193932418,"whdvr":"No","id":"abn5pkevgyew","address":"21588 Parkview Dr","login":3932418,"password":3932418,"geo_precision":"street","state":"OH","pin":3932418},"type":"Feature","geometry":{"type":"Point","coordinates":[-84.403729,41.23236]}},{"properties":{"city":"Defiance","status":"Active","ppv":"Yes","zip":"43512","region":"Arthur","service packages":"Variety Tier","township":null,"last":"Jewell","stbs allowed":3,"geo_score":0.902,"first":"Charles","ppv limit":"50","customer id":3934421,"phone":4193934421,"whdvr":"No","id":"abn5pkdndhrk","address":"14821 Power Dam Rd","login":3934421,"password":3934421,"geo_precision":"range","state":"OH","pin":3934421},"type":"Feature","geometry":{"type":"Point","coordinates":[-84.417319,41.227967]}},{"properties":{"city":"Defiance","status":"Active","ppv":"Yes","zip":"43512","region":"Arthur","service packages":"Variety Tier","township":null,"last":"Jimenez","stbs allowed":3,"geo_score":0.902,"first":"Claribel","ppv limit":"50","customer id":3934211,"phone":4193934211,"whdvr":"No","id":"abn5pkbm9jic","address":"25776 Edith St","login":3934211,"password":3934211,"geo_precision":"range","state":"OH","pin":3934211},"type":"Feature","geometry":{"type":"Point","coordinates":[-84.330184,41.193708]}},{"properties":{"city":"Defiance","status":"Active","ppv":"Yes","zip":"43512","region":"Arthur","service packages":"Encore,Starz,Cinemax,HBO,Showtime,Variety + HD Tier (COMNHDTR21)","township":null,"last":"Johnson","stbs allowed":5,"geo_score":0.805,"first":"Donald","ppv limit":"50","customer id":3932366,"phone":4193932366,"whdvr":"No","id":"abn5pkadxk87","address":"15488 Rd 201","login":3932366,"password":3932366,"geo_precision":"range","state":"OH","pin":3932366},"type":"Feature","geometry":{"type":"Point","coordinates":[-84.380149,41.202205]}},{"properties":{"city":"Oakwood","status":"Inactive","ppv":"Yes","zip":"45873","region":"Arthur","service packages":"Variety Tier","township":null,"last":"Johnson-Baker","stbs allowed":3,"geo_score":0.61,"first":"Anne","ppv limit":"50","customer id":3934370,"phone":4193934370,"whdvr":"No","id":"abn5pkisrb17","address":"14178 Rd 171","login":null,"password":null,"geo_precision":"street","state":"OH","pin":null},"type":"Feature","geometry":{"type":"Point","coordinates":[-84.433776,41.128305]}},{"properties":{"city":"Defiance","status":"Active","ppv":"Yes","zip":"43512","region":"Arthur","service packages":"Variety Tier","township":null,"last":"Keasler","stbs allowed":2,"geo_score":0.902,"first":"Diane","ppv limit":"50","customer id":3934672,"phone":4193934672,"whdvr":"No","id":"abn5pkd0xq9t","address":"20436 Hammersmith rd","login":3934672,"password":3934672,"geo_precision":"range","state":"OH","pin":3934672},"type":"Feature","geometry":{"type":"Point","coordinates":[-84.429806,41.238369]}},{"properties":{"city":"Defiance","status":"Active","ppv":"Yes","zip":"43512","region":"Arthur","service packages":"Variety Tier,HBO","township":null,"last":"Keck","stbs allowed":3,"geo_score":0.902,"first":"Scott","ppv limit":"50","customer id":3932929,"phone":4193932929,"whdvr":"No","id":"abn5pkc30eci","address":"24021 Watson Rd","login":3932929,"password":3932929,"geo_precision":"range","state":"OH","pin":3932929},"type":"Feature","geometry":{"type":"Point","coordinates":[-84.36049,41.238426]}},{"properties":{"city":"Defiance","status":"Active","ppv":"Yes","zip":"43512","region":"Arthur","service packages":"Variety Tier","township":null,"last":"Keehn","stbs allowed":3,"geo_score":0.647,"first":"Michelle","ppv limit":"50","customer id":3932497,"phone":4193932497,"whdvr":"No","id":"abn5pkp7t1of","address":"20829 SR 637","login":3932497,"password":3932497,"geo_precision":"range","state":"OH","pin":3932497},"type":"Feature","geometry":{"type":"Point","coordinates":[-84.418847,41.194652]}},{"properties":{"city":"Defiance","status":"Active","ppv":"Yes","zip":"43512","region":"Arthur","service packages":"Variety Tier","township":null,"last":"Keller","stbs allowed":3,"geo_score":0.59,"first":"Bret","ppv limit":"50","customer id":3934040,"phone":4193934040,"whdvr":"No","id":"abn5pkoqdqgk","address":"20819 Co Line Rd","login":3934040,"password":3934040,"geo_precision":"street","state":"OH","pin":3934040},"type":"Feature","geometry":{"type":"Point","coordinates":[-84.304997,41.194578]}},{"properties":{"city":"Defiance","status":"Active","ppv":"Yes","zip":"43512","region":"Arthur","service packages":"Variety Tier","township":null,"last":"Keller","stbs allowed":4,"geo_score":0.765,"first":"Lynn","ppv limit":"50","customer id":3932781,"phone":4193932781,"whdvr":"No","id":"abn5pkllvgri","address":"Hammersmith","login":3932781,"password":3932781,"geo_precision":"street","state":"OH","pin":3932781},"type":"Feature","geometry":{"type":"Point","coordinates":[-84.452263,41.238251]}},{"properties":{"city":"Paulding","status":"Active","ppv":"Yes","zip":"45879","region":"Arthur","service packages":"Expanded Basic","township":"Auglaize Township","last":"Konopka","stbs allowed":5,"geo_score":0.745,"first":"Barbara","ppv limit":"50","customer id":3932743,"phone":4193932743,"whdvr":"No","id":"abn5pkkac3l4","address":"14696 SR 637","login":3932743,"password":3932743,"geo_precision":"range","state":"OH","pin":3932743},"type":"Feature","geometry":{"type":"Point","coordinates":[-84.476018,41.192006]}},{"properties":{"city":"Defiance","status":"Active","ppv":"Yes","zip":"43512","region":"Arthur","service packages":"Variety Tier","township":null,"last":"Kosier","stbs allowed":4,"geo_score":0.61,"first":"Carson","ppv limit":"50","customer id":3932368,"phone":4193932368,"whdvr":"No","id":"abn5pkgn2e3j","address":"19885 SR 111","login":3932368,"password":3932368,"geo_precision":"street","state":"OH","pin":3932368},"type":"Feature","geometry":{"type":"Point","coordinates":[-84.457104,41.193166]}},{"properties":{"city":"Defiance","status":"Active","ppv":"Yes","zip":"43512","region":"Arthur","service packages":"Expanded Basic","township":null,"last":"Kreitzer","stbs allowed":2,"geo_score":0.674,"first":"Joe","ppv limit":"50","customer id":3934675,"phone":4193934675,"whdvr":"No","id":"abn5pkm2psuy","address":"18579 Road 1027","login":3934675,"password":3934675,"geo_precision":"range","state":"OH","pin":3934675},"type":"Feature","geometry":{"type":"Point","coordinates":[-84.449799,41.19879]}},{"properties":{"city":"Defiance","status":"Inactive","ppv":"Yes","zip":"45873","region":"Arthur","service packages":"Expanded Basic,Encore,Starz","township":"Auglaize Township","last":"LaFountain","stbs allowed":5,"geo_score":0.532,"first":"Rose","ppv limit":"50","customer id":3932471,"phone":4193932471,"whdvr":"No","id":"abn5pkmy7blc","address":"19865 St Rt 111 Apt 8","login":3932471,"password":3932471,"geo_precision":"street","state":"OH","pin":3932471},"type":"Feature","geometry":{"type":"Point","coordinates":[-84.514305,41.17979]}},{"properties":{"city":"Defiance","status":"Active","ppv":"Yes","zip":"43512","region":"Arthur","service packages":"Lifeline,Expanded Basic,Variety Tier,Cinemax,DMX","township":null,"last":"Laney","stbs allowed":7,"geo_score":0.902,"first":"Kent","ppv limit":"50","customer id":3934847,"phone":4193934847,"whdvr":"No","id":"abn5pkgnchxa","address":"15256 RD 169","login":3934847,"password":3934847,"geo_precision":"range","state":"OH","pin":3934847},"type":"Feature","geometry":{"type":"Point","coordinates":[-84.418785,41.207945]}},{"properties":{"city":"Defiance","status":"Active","ppv":"Yes","zip":"43512","region":"Arthur","service packages":"Expanded Basic","township":null,"last":"Leonard","stbs allowed":3,"geo_score":0.732,"first":"Tim","ppv limit":"50","customer id":3934322,"phone":4193934322,"whdvr":"No","id":"abn5pka3j02c","address":"15728 SR 66","login":3934322,"password":3934322,"geo_precision":"range","state":"OH","pin":3934322},"type":"Feature","geometry":{"type":"Point","coordinates":[-84.361156,41.222638]}},{"properties":{"city":"Defiance","status":"Active","ppv":"Yes","zip":"43512","region":"Arthur","service packages":"Variety Tier","township":null,"last":"Licardie","stbs allowed":5,"geo_score":0.777,"first":"Rita","ppv limit":"50","customer id":3932877,"phone":4193932877,"whdvr":"No","id":"abn5pkhjxcd8","address":"18414 County Rd 1027","login":3932877,"password":3932877,"geo_precision":"range","state":"OH","pin":3932877},"type":"Feature","geometry":{"type":"Point","coordinates":[-84.451368,41.198796]}},{"properties":{"city":"Defiance","status":"Active","ppv":"Yes","zip":"43512","region":"Arthur","service packages":"Variety Tier","township":null,"last":"Limber","stbs allowed":3,"geo_score":0.902,"first":"Thomas","ppv limit":"50","customer id":3932958,"phone":4193932958,"whdvr":"No","id":"abn5pkag2qc0","address":"18565 Painter Rd","login":3932958,"password":3932958,"geo_precision":"range","state":"OH","pin":3932958},"type":"Feature","geometry":{"type":"Point","coordinates":[-84.295495,41.179234]}},{"properties":{"city":"Oakwood","status":"Active","ppv":"Yes","zip":"45873","region":"Arthur","service packages":"Variety Tier,Encore","township":"Auglaize Township","last":"Lloyd","stbs allowed":5,"geo_score":0.805,"first":"Mary lou","ppv limit":"50","customer id":3932382,"phone":4193932382,"whdvr":"No","id":"abn5pkkhn3km","address":"24677 Rd 178","login":3932382,"password":3932382,"geo_precision":"range","state":"OH","pin":3932382},"type":"Feature","geometry":{"type":"Point","coordinates":[-84.348642,41.180157]}},{"properties":{"city":"Defiance","status":"Active","ppv":"Yes","zip":"43512","region":"Arthur","service packages":"Lifeline,Expanded Basic,Variety Tier,Encore,Starz,Cinemax,DMX","township":null,"last":"Long","stbs allowed":3,"geo_score":0.902,"first":"Douglas","ppv limit":"50","customer id":3934200,"phone":4193934200,"whdvr":"No","id":"abn5pkeu3wu4","address":"14981 Road 209","login":3934200,"password":3934200,"geo_precision":"range","state":"OH","pin":3934200},"type":"Feature","geometry":{"type":"Point","coordinates":[-84.360944,41.187609]}},{"properties":{"city":"Defiance","status":"Active","ppv":"Yes","zip":"43512","region":"Arthur","service packages":"Variety Tier","township":null,"last":"Long","stbs allowed":3,"geo_score":0.902,"first":"Lisa","ppv limit":"50","customer id":3932892,"phone":4193932892,"whdvr":"No","id":"abn5pk9jz0l5","address":"18345 State Route 111","login":3932892,"password":3932892,"geo_precision":"range","state":"OH","pin":3932892},"type":"Feature","geometry":{"type":"Point","coordinates":[-84.471404,41.194702]}},{"properties":{"city":"Defiance","status":"Active","ppv":"Yes","zip":"43512","region":"Arthur","service packages":"Variety Tier","township":null,"last":"Lucas","stbs allowed":9,"geo_score":0.61,"first":"L.A.","ppv limit":"50","customer id":3932317,"phone":4193932317,"whdvr":"No","id":"abn5pknecodv","address":"19861 SR 111","login":3932317,"password":3932317,"geo_precision":"street","state":"OH","pin":3932317},"type":"Feature","geometry":{"type":"Point","coordinates":[-84.457104,41.193166]}},{"properties":{"city":"Defiance","status":"Active","ppv":"Yes","zip":"43512","region":"Arthur","service packages":"Variety Tier,Encore,Starz,HBO","township":"Auglaize Township","last":"Lumpkins","stbs allowed":4,"geo_score":0.902,"first":"DuWayne","ppv limit":"50","customer id":3932889,"phone":4193932889,"whdvr":"No","id":"abn5pkewyxi4","address":"19275 State Route 111","login":3932889,"password":3932889,"geo_precision":"range","state":"OH","pin":3932889},"type":"Feature","geometry":{"type":"Point","coordinates":[-84.453287,41.194688]}},{"properties":{"city":"Defiance","status":"Active","ppv":"Yes","zip":"43512","region":"Arthur","service packages":"Variety + HD Basic (COMNHBSC21)","township":null,"last":"Marcellus","stbs allowed":5,"geo_score":0.512,"first":"John","ppv limit":"50","customer id":3932862,"phone":4193932862,"whdvr":"No","id":"abn5pkncpcl5","address":"14192 SR 111","login":3932862,"password":3932862,"geo_precision":"street","state":"OH","pin":3932862},"type":"Feature","geometry":{"type":"Point","coordinates":[-84.46645,41.17995]}},{"properties":{"city":"Defiance","status":"Active","ppv":"Yes","zip":"43512","region":"Arthur","service packages":"Variety Tier","township":null,"last":"March","stbs allowed":3,"geo_score":0.902,"first":"Marvin","ppv limit":"50","customer id":3932355,"phone":4193932355,"whdvr":"No","id":"abn5pk9jadjc","address":"14007 Power Dam Rd","login":3932355,"password":3932355,"geo_precision":"range","state":"OH","pin":3932355},"type":"Feature","geometry":{"type":"Point","coordinates":[-84.395622,41.237631]}},{"properties":{"city":"Defiance","status":"Active","ppv":"Yes","zip":"43512","region":"Arthur","service packages":"Variety + HD Basic (COMNHBSC21)","township":null,"last":"Marina","stbs allowed":5,"geo_score":0.812,"first":"Five Span","ppv limit":"50","customer id":3932240,"phone":4193932240,"whdvr":"No","id":"abn5pkihur2m","address":"19687 St Rt 637","login":3932240,"password":3932240,"geo_precision":"range","state":"OH","pin":3932240},"type":"Feature","geometry":{"type":"Point","coordinates":[-84.444143,41.19471]}},{"properties":{"city":"Defiance","status":"Active","ppv":"Yes","zip":"43512","region":"Arthur","service packages":"Variety Tier,HBO","township":"Defiance Township","last":"Martin","stbs allowed":3,"geo_score":0.902,"first":"Charles","ppv limit":"50","customer id":3934897,"phone":4193934897,"whdvr":"No","id":"abn5pkbuylmu","address":"55 Lakeview Dr.","login":null,"password":null,"geo_precision":"range","state":"OH","pin":null},"type":"Feature","geometry":{"type":"Point","coordinates":[-84.423959,41.229336]}},{"properties":{"city":"Defiance","status":"Active","ppv":"Yes","zip":"43512","region":"Arthur","service packages":"Variety Tier","township":null,"last":"Martin","stbs allowed":5,"geo_score":0.902,"first":"Sarah","ppv limit":"50","customer id":3934074,"phone":4193934074,"whdvr":"No","id":"abn5pkgwct7s","address":"17627 State Route 15","login":3934074,"password":3934074,"geo_precision":"range","state":"OH","pin":3934074},"type":"Feature","geometry":{"type":"Point","coordinates":[-84.320103,41.187654]}},{"properties":{"city":"Defiance","status":"Active","ppv":"Yes","zip":"43512","region":"Arthur","service packages":"Variety Tier","township":null,"last":"Mason","stbs allowed":3,"geo_score":0.793,"first":"Scott","ppv limit":"50","customer id":3932962,"phone":4193932962,"whdvr":"No","id":"abn5pkhf0tcm","address":"21828 RD 10","login":3932962,"password":3932962,"geo_precision":"range","state":"OH","pin":3932962},"type":"Feature","geometry":{"type":"Point","coordinates":[-84.402926,41.209227]}},{"properties":{"city":"Defiance","status":"Active","ppv":"Yes","zip":"43512","region":"Arthur","service packages":"Variety + HD Basic (COMNHBSC21)","township":null,"last":"Mast","stbs allowed":6,"geo_score":0.812,"first":"Kevin","ppv limit":"50","customer id":3932852,"phone":4193932852,"whdvr":"No","id":"abn5pkjomrp1","address":"14869 St Rt 111","login":3932852,"password":3932852,"geo_precision":"range","state":"OH","pin":3932852},"type":"Feature","geometry":{"type":"Point","coordinates":[-84.426011,41.225225]}},{"properties":{"city":"Defiance","status":"Active","ppv":"Yes","zip":"43512","region":"Arthur","service packages":"Lifeline","township":null,"last":"McCague","stbs allowed":3,"geo_score":0.805,"first":"Doug","ppv limit":"50","customer id":3932930,"phone":4193932930,"whdvr":"No","id":"abn5pkka793g","address":"23092 ST RT 66","login":3932930,"password":3932930,"geo_precision":"range","state":"OH","pin":3932930},"type":"Feature","geometry":{"type":"Point","coordinates":[-84.361063,41.210726]}},{"properties":{"city":"Oakwood","status":"Active","ppv":"Yes","zip":"45873","region":"Arthur","service packages":"Variety Tier,Encore,Starz","township":null,"last":"McCarty","stbs allowed":3,"geo_score":0.725,"first":"Jeff","ppv limit":"50","customer id":3934405,"phone":4193934405,"whdvr":"No","id":"abn5pknpfa7v","address":"st rt 637","login":3934405,"password":3934405,"geo_precision":"street","state":"OH","pin":3934405},"type":"Feature","geometry":{"type":"Point","coordinates":[-84.476753,41.109398]}},{"properties":{"city":"Defiance","status":"Active","ppv":"Yes","zip":"43512","region":"Arthur","service packages":"Variety Tier","township":null,"last":"McGuire","stbs allowed":3,"geo_score":0.902,"first":"Michael","ppv limit":"50","customer id":3932194,"phone":4193932194,"whdvr":"No","id":"abn5pkp2xek4","address":"25685 Edith Street","login":3932194,"password":3932194,"geo_precision":"range","state":"OH","pin":3932194},"type":"Feature","geometry":{"type":"Point","coordinates":[-84.330072,41.193919]}},{"properties":{"city":"Defiance","status":"Active","ppv":"Yes","zip":"43512","region":"Arthur","service packages":"Variety Tier","township":null,"last":"Mekus","stbs allowed":5,"geo_score":0.673,"first":"Albert","ppv limit":"50","customer id":3932376,"phone":4193932376,"whdvr":"No","id":"abn5pkmhaodr","address":"14791 Defiance Paulding Co. Line Rd.","login":3932376,"password":3932376,"geo_precision":"street","state":"OH","pin":3932376},"type":"Feature","geometry":{"type":"Point","coordinates":[-84.349384,41.281164]}},{"properties":{"city":"Oakwood","status":"Active","ppv":"Yes","zip":"45873","region":"Arthur","service packages":"Lifeline,Expanded Basic,HBO","township":null,"last":"Merritt","stbs allowed":3,"geo_score":0.812,"first":"Frank","ppv limit":"50","customer id":3932205,"phone":4193932205,"whdvr":"No","id":"abn5pkhy1uix","address":"20791 ST RT 637","login":3932205,"password":3932205,"geo_precision":"range","state":"OH","pin":3932205},"type":"Feature","geometry":{"type":"Point","coordinates":[-84.426848,41.19473]}},{"properties":{"city":"Defiance","status":"Active","ppv":"Yes","zip":"43512","region":"Arthur","service packages":"Variety Tier,Encore,Starz","township":null,"last":"Metz","stbs allowed":5,"geo_score":0.902,"first":"David","ppv limit":"50","customer id":3932810,"phone":4193932810,"whdvr":"No","id":"abn5pkgna7jb","address":"21649 Bowman Road","login":3932810,"password":3932810,"geo_precision":"range","state":"OH","pin":3932810},"type":"Feature","geometry":{"type":"Point","coordinates":[-84.407278,41.223949]}},{"properties":{"city":"Defiance","status":"Active","ppv":"Yes","zip":"43512","region":"Arthur","service packages":"Variety Tier","township":null,"last":"Mick","stbs allowed":4,"geo_score":0.902,"first":"Larry","ppv limit":"50","customer id":3932769,"phone":4193932769,"whdvr":"No","id":"abn5pkg7agxb","address":"21639 Hammersmith Rd","login":3932769,"password":3932769,"geo_precision":"range","state":"OH","pin":3932769},"type":"Feature","geometry":{"type":"Point","coordinates":[-84.405244,41.238497]}},{"properties":{"city":"Defiance","status":"Active","ppv":"Yes","zip":"43512","region":"Arthur","service packages":"Variety Tier","township":null,"last":"Miller","stbs allowed":3,"geo_score":0.902,"first":"Gordon","ppv limit":"50","customer id":3932217,"phone":4193932217,"whdvr":"No","id":"abn5pkejsjhi","address":"22199 Bowman Rd","login":3932217,"password":3932217,"geo_precision":"range","state":"OH","pin":3932217},"type":"Feature","geometry":{"type":"Point","coordinates":[-84.395774,41.223923]}},{"properties":{"city":"Defiance","status":"Active","ppv":"Yes","zip":"43512","region":"Arthur","service packages":"Expanded Basic","township":null,"last":"Miller","stbs allowed":3,"geo_score":0.62,"first":"Terry","ppv limit":"50","customer id":3934133,"phone":4193934133,"whdvr":"No","id":"abn5pkp0n3tt","address":"15351 Co Rd 143","login":3934133,"password":3934133,"geo_precision":"street","state":"OH","pin":3934133},"type":"Feature","geometry":{"type":"Point","coordinates":[-84.458086,41.337268]}},{"properties":{"city":"Oakwood","status":"Active","ppv":"Yes","zip":"45873","region":"Arthur","service packages":"Variety Tier","township":null,"last":"Miller","stbs allowed":5,"geo_score":0.796,"first":"Robson","ppv limit":"50","customer id":3932742,"phone":4193932742,"whdvr":"No","id":"abn5pkg2um4o","address":"15648 rd 1037","login":3932742,"password":3932742,"geo_precision":"range","state":"OH","pin":3932742},"type":"Feature","geometry":{"type":"Point","coordinates":[-84.442433,41.198999]}},{"properties":{"city":"Defiance","status":"Inactive","ppv":"Yes","zip":"43512","region":"Arthur","service packages":"Variety Tier","township":null,"last":"Miller","stbs allowed":5,"geo_score":0.521,"first":"Michelle","ppv limit":"50","customer id":3934833,"phone":4193934833,"whdvr":"No","id":"abn5pkmh9mgf","address":"15206 rd 149","login":3934833,"password":3934833,"geo_precision":"street","state":"OH","pin":3934833},"type":"Feature","geometry":{"type":"Point","coordinates":[-84.418675,41.287271]}},{"properties":{"city":"Oakwood","status":"Active","ppv":"Yes","zip":"45873","region":"Arthur","service packages":"Expanded Basic","township":null,"last":"Moats","stbs allowed":3,"geo_score":0.785,"first":"Todd","ppv limit":"50","customer id":3932480,"phone":4193932480,"whdvr":"No","id":"abn5pkm0t3rt","address":"23090 Rd 184","login":3932480,"password":3932480,"geo_precision":"range","state":"OH","pin":3932480},"type":"Feature","geometry":{"type":"Point","coordinates":[-84.378882,41.187298]}},{"properties":{"city":"Oakwood","status":"Active","ppv":"Yes","zip":"45873","region":"Arthur","service packages":"Expanded Basic","township":null,"last":"Mobley","stbs allowed":3,"geo_score":0.902,"first":"Jerry","ppv limit":"50","customer id":3932451,"phone":4193932451,"whdvr":"No","id":"abn5pkldwksr","address":"19835 State Route 637","login":3932451,"password":3932451,"geo_precision":"range","state":"OH","pin":3932451},"type":"Feature","geometry":{"type":"Point","coordinates":[-84.441455,41.194709]}},{"properties":{"city":"Defiance","status":"Inactive","ppv":"Yes","zip":"43512","region":"Arthur","service packages":"Expanded Basic","township":null,"last":"Mobley","stbs allowed":2,"geo_score":0.785,"first":"Richard","ppv limit":"50","customer id":3932260,"phone":4193932260,"whdvr":"No","id":"abn5pkn6xu6y","address":"14975 Road 263","login":3932260,"password":3932260,"geo_precision":"range","state":"OH","pin":3932260},"type":"Feature","geometry":{"type":"Point","coordinates":[-84.341672,41.193055]}},{"properties":{"city":"Oakwood","status":"Active","ppv":"Yes","zip":"45873","region":"Arthur","service packages":"Expanded Basic,Variety Tier","township":null,"last":"Mobley (GUESTHOUSE)","stbs allowed":3,"geo_score":0.902,"first":"Jerry","ppv limit":"50","customer id":3934811,"phone":4193934811,"whdvr":"No","id":"abn5pkm76udx","address":"19835 State Route 637","login":3934811,"password":3934811,"geo_precision":"range","state":"OH","pin":3934811},"type":"Feature","geometry":{"type":"Point","coordinates":[-84.441455,41.194709]}},{"properties":{"city":"Defiance","status":"Active","ppv":"Yes","zip":"43512","region":"Arthur","service packages":"Variety Tier","township":null,"last":"Moore","stbs allowed":3,"geo_score":0.902,"first":"Barb","ppv limit":"50","customer id":3934483,"phone":4193934483,"whdvr":"No","id":"abn5pkedq070","address":"15900 Power Dam Road","login":3934483,"password":3934483,"geo_precision":"range","state":"OH","pin":3934483},"type":"Feature","geometry":{"type":"Point","coordinates":[-84.434093,41.210946]}},{"properties":{"city":"Defiance","status":"Active","ppv":"Yes","zip":"43512","region":"Arthur","service packages":"Variety + HD Basic (COMNHBSC21)","township":null,"last":"Mora","stbs allowed":4,"geo_score":0.902,"first":"Bennie","ppv limit":"50","customer id":3932150,"phone":4193932150,"whdvr":"No","id":"abn5pkozw8gf","address":"15886 Campbell Road","login":3932150,"password":3932150,"geo_precision":"range","state":"OH","pin":3932150},"type":"Feature","geometry":{"type":"Point","coordinates":[-84.399604,41.210326]}},{"properties":{"city":"Defiance","status":"Active","ppv":"Yes","zip":"43512","region":"Arthur","service packages":"Variety Tier","township":null,"last":"Munger","stbs allowed":5,"geo_score":0.902,"first":"John","ppv limit":"50","customer id":3932135,"phone":4193932135,"whdvr":"No","id":"abn5pkn06q6g","address":"14196 Road 171","login":3932135,"password":3932135,"geo_precision":"range","state":"OH","pin":3932135},"type":"Feature","geometry":{"type":"Point","coordinates":[-84.447698,41.186023]}},{"properties":{"city":"Defiance","status":"Active","ppv":"Yes","zip":"43512","region":"Arthur","service packages":"Variety Tier,Showtime","township":null,"last":"Murphy","stbs allowed":5,"geo_score":0.902,"first":"Greg","ppv limit":"50","customer id":3932474,"phone":4193932474,"whdvr":"No","id":"abn5pkltia86","address":"15779 Sponseller Rd","login":3932474,"password":3932474,"geo_precision":"range","state":"OH","pin":3932474},"type":"Feature","geometry":{"type":"Point","coordinates":[-84.409116,41.212551]}},{"properties":{"city":"Defiance","status":"Inactive","ppv":"Yes","zip":"43512","region":"Arthur","service packages":"Expanded Basic","township":null,"last":"Nally","stbs allowed":3,"geo_score":0.902,"first":"Kenneth","ppv limit":"50","customer id":3934213,"phone":4193934213,"whdvr":"No","id":"abn5pkbqfce3","address":"15471 Road 191","login":3934213,"password":3934213,"geo_precision":"range","state":"OH","pin":3934213},"type":"Feature","geometry":{"type":"Point","coordinates":[-84.399572,41.195216]}},{"properties":{"city":"Defiance","status":"Active","ppv":"Yes","zip":"43512","region":"Arthur","service packages":"Variety Tier","township":null,"last":"Nichols","stbs allowed":5,"geo_score":0.674,"first":"Haskell","ppv limit":"50","customer id":3934289,"phone":4193934289,"whdvr":"No","id":"abn5pkiveu8f","address":"18531 Rd 1027","login":3934289,"password":3934289,"geo_precision":"range","state":"OH","pin":3934289},"type":"Feature","geometry":{"type":"Point","coordinates":[-84.450203,41.198794]}},{"properties":{"city":"Defiance","status":"Active","ppv":"Yes","zip":"43512","region":"Arthur","service packages":"Lifeline,Expanded Basic,Variety Tier,Encore,Starz","township":null,"last":"Noffsinger","stbs allowed":6,"geo_score":0.732,"first":"Debra","ppv limit":"50","customer id":3932298,"phone":4193932298,"whdvr":"No","id":"abn5pkk5jd8g","address":"17848 SR 15","login":3932298,"password":3932298,"geo_precision":"range","state":"OH","pin":3932298},"type":"Feature","geometry":{"type":"Point","coordinates":[-84.31404,41.183439]}},{"properties":{"city":"Oakwood","status":"Active","ppv":"Yes","zip":"45873","region":"Arthur","service packages":"Variety + HD Basic (COMNHBSC21)","township":null,"last":"Nunn","stbs allowed":3,"geo_score":0.796,"first":"Sandra","ppv limit":"50","customer id":3934101,"phone":4193934101,"whdvr":"No","id":"abn5pkj9ojvz","address":"15316 Rd 1037","login":3934101,"password":3934101,"geo_precision":"range","state":"OH","pin":3934101},"type":"Feature","geometry":{"type":"Point","coordinates":[-84.443222,41.197106]}},{"properties":{"city":"Defiance","status":"Active","ppv":"Yes","zip":"43512","region":"Arthur","service packages":"Encore,Starz,Cinemax,HBO,Showtime,Variety + HD Tier (COMNHDTR21)","township":null,"last":"Office","stbs allowed":10,"geo_score":0.745,"first":"Artelco","ppv limit":"50","customer id":3932233,"phone":4193932233,"whdvr":"No","id":"abn5pkixw9o3","address":"21980 RT 637","login":3932233,"password":3932233,"geo_precision":"range","state":"OH","pin":3932233},"type":"Feature","geometry":{"type":"Point","coordinates":[-84.399878,41.194598]}},{"properties":{"city":"Oakwood","status":"Active","ppv":"Yes","zip":"45873","region":"Arthur","service packages":"Variety Tier","township":null,"last":"Osborn","stbs allowed":3,"geo_score":0.902,"first":"James","ppv limit":"50","customer id":3934185,"phone":4193934185,"whdvr":"No","id":"abn5pkk8p2y3","address":"21431 Rd 178","login":3934185,"password":3934185,"geo_precision":"range","state":"OH","pin":3934185},"type":"Feature","geometry":{"type":"Point","coordinates":[-84.41017,41.180181]}},{"properties":{"city":"Defiance","status":"Active","ppv":"Yes","zip":"43512","region":"Arthur","service packages":"Variety + HD Basic (COMNHBSC21)","township":null,"last":"Osborn","stbs allowed":3,"geo_score":0.902,"first":"Jessica","ppv limit":"50","customer id":3934694,"phone":4193934694,"whdvr":"No","id":"abn5pkgebiv6","address":"21813 Bowman Rd","login":3934694,"password":3934694,"geo_precision":"range","state":"OH","pin":3934694},"type":"Feature","geometry":{"type":"Point","coordinates":[-84.403853,41.22395]}},{"properties":{"city":"Defiance","status":"Active","ppv":"Yes","zip":"43512","region":"Arthur","service packages":"Variety + HD Basic (COMNHBSC21)","township":"Highland Township","last":"Ostrander","stbs allowed":5,"geo_score":0.902,"first":"Harvey","ppv limit":"50","customer id":3932914,"phone":4193932914,"whdvr":"No","id":"abn5pkp33cft","address":"16553 Porter Rd","login":3932914,"password":3932914,"geo_precision":"range","state":"OH","pin":3932914},"type":"Feature","geometry":{"type":"Point","coordinates":[-84.32408,41.200397]}},{"properties":{"city":"Defiance","status":"Active","ppv":"Yes","zip":"43512","region":"Arthur","service packages":"Variety Tier","township":null,"last":"Ott","stbs allowed":4,"geo_score":0.902,"first":"Mark","ppv limit":"50","customer id":3934140,"phone":4193934140,"whdvr":"No","id":"abn5pkeeyfln","address":"15636 Sponseller Rd","login":3934140,"password":3934140,"geo_precision":"range","state":"OH","pin":3934140},"type":"Feature","geometry":{"type":"Point","coordinates":[-84.409265,41.214628]}},{"properties":{"city":"Defiance","status":"Active","ppv":"Yes","zip":"43512","region":"Arthur","service packages":"Variety Tier,HBO","township":null,"last":"Ovalle","stbs allowed":6,"geo_score":0.902,"first":"Eduardo Jr.","ppv limit":"50","customer id":3934018,"phone":4193934018,"whdvr":"No","id":"abn5pk9ch6sk","address":"14375 Williams Rd","login":3934018,"password":3934018,"geo_precision":"range","state":"OH","pin":3934018},"type":"Feature","geometry":{"type":"Point","coordinates":[-84.380368,41.231784]}},{"properties":{"city":"Defiance","status":"Active","ppv":"Yes","zip":"43512","region":"Arthur","service packages":"Expanded Basic","township":null,"last":"Palladino","stbs allowed":3,"geo_score":0.805,"first":"Jennifer","ppv limit":"50","customer id":3934353,"phone":4193934353,"whdvr":"No","id":"abn5pkf9pwac","address":"17083 st rt 15","login":3934353,"password":3934353,"geo_precision":"range","state":"OH","pin":3934353},"type":"Feature","geometry":{"type":"Point","coordinates":[-84.329889,41.19278]}},{"properties":{"city":"oakwood","status":"Active","ppv":"Yes","zip":"45873","region":"Arthur","service packages":"Limited Basic","township":"Auglaize Township","last":"Patch","stbs allowed":5,"geo_score":0.725,"first":"Cabbage","ppv limit":"50","customer id":3932271,"phone":4193932271,"whdvr":"No","id":"abn5pkfy66ss","address":"19492 St Rt 637 (Gas Station)","login":3932271,"password":3932271,"geo_precision":"street","state":"OH","pin":3932271},"type":"Feature","geometry":{"type":"Point","coordinates":[-84.476753,41.109398]}},{"properties":{"city":"Paulding","status":"Active","ppv":"Yes","zip":"45879","region":"Arthur","service packages":"Variety Tier","township":null,"last":"Pier","stbs allowed":5,"geo_score":0.902,"first":"David","ppv limit":"50","customer id":3934254,"phone":4193934254,"whdvr":"No","id":"abn5pka8wr4u","address":"19686 Rd 156","login":3934254,"password":3934254,"geo_precision":"range","state":"OH","pin":3934254},"type":"Feature","geometry":{"type":"Point","coordinates":[-84.442987,41.165382]}},{"properties":{"city":"Defiance","status":"Active","ppv":"Yes","zip":"43512","region":"Arthur","service packages":"Variety + HD Basic (COMNHBSC21)","township":null,"last":"Plotts","stbs allowed":5,"geo_score":0.902,"first":"Gary","ppv limit":"Unlimited","customer id":3932965,"phone":4193932965,"whdvr":"No","id":"abn5pkfb1q7j","address":"15085 Power Dam Road","login":3932965,"password":3932965,"geo_precision":"range","state":"OH","pin":3932965},"type":"Feature","geometry":{"type":"Point","coordinates":[-84.42028,41.223829]}},{"properties":{"city":"Defiance","status":"Active","ppv":"Yes","zip":"43512","region":"Arthur","service packages":"Variety Tier","township":null,"last":"Potts","stbs allowed":5,"geo_score":0.902,"first":"Jim","ppv limit":"50","customer id":3934248,"phone":4193934248,"whdvr":"No","id":"abn5pkh64xt7","address":"14705 Power Dam Rd","login":3934248,"password":3934248,"geo_precision":"range","state":"OH","pin":3934248},"type":"Feature","geometry":{"type":"Point","coordinates":[-84.414127,41.230102]}},{"properties":{"city":"Defiance","status":"Active","ppv":"Yes","zip":"43512","region":"Arthur","service packages":"Variety + HD Basic (COMNHBSC21)","township":null,"last":"Powell","stbs allowed":4,"geo_score":0.805,"first":"James","ppv limit":"50","customer id":3932173,"phone":4193932173,"whdvr":"No","id":"abn5pk968gz2","address":"16952 St Rt 15","login":3932173,"password":3932173,"geo_precision":"range","state":"OH","pin":3932173},"type":"Feature","geometry":{"type":"Point","coordinates":[-84.331612,41.19462]}},{"properties":{"city":"Defiance","status":"Active","ppv":"Yes","zip":"43512","region":"Arthur","service packages":"Variety + HD Basic (COMNHBSC21)","township":null,"last":"Puffinberger","stbs allowed":3,"geo_score":0.902,"first":"Iris","ppv limit":"50","customer id":3934033,"phone":4193934033,"whdvr":"No","id":"abn5pkoqzwb2","address":"19772 State Route 111","login":3934033,"password":3934033,"geo_precision":"range","state":"OH","pin":3934033},"type":"Feature","geometry":{"type":"Point","coordinates":[-84.447345,41.200139]}},{"properties":{"city":"Defiance","status":"Active","ppv":"Yes","zip":"43512","region":"Arthur","service packages":"Expanded Basic,Encore","township":null,"last":"Ramon","stbs allowed":4,"geo_score":0.902,"first":"Mercedes","ppv limit":"50","customer id":3932654,"phone":4193932654,"whdvr":"No","id":"abn5pkejftfk","address":"14777 Rd 163","login":3932654,"password":3932654,"geo_precision":"range","state":"OH","pin":3932654},"type":"Feature","geometry":{"type":"Point","coordinates":[-84.457734,41.193183]}},{"properties":{"city":"Oakwood","status":"Active","ppv":"Yes","zip":"45873","region":"Arthur","service packages":"Variety Tier","township":null,"last":"Ratliff","stbs allowed":2,"geo_score":0.902,"first":"Harlen","ppv limit":"50","customer id":3934300,"phone":4193934300,"whdvr":"No","id":"abn5pkl5ppa6","address":"14742 Road 191","login":3934300,"password":3934300,"geo_precision":"range","state":"OH","pin":3934300},"type":"Feature","geometry":{"type":"Point","coordinates":[-84.399412,41.193999]}},{"properties":{"city":"Defiance","status":"Active","ppv":"Yes","zip":"43512","region":"Arthur","service packages":"Lifeline","township":null,"last":"Rau","stbs allowed":2,"geo_score":0.902,"first":"Mark","ppv limit":"50","customer id":3934381,"phone":4193934381,"whdvr":"No","id":"abn5pkgti3eh","address":"21880 Parkview Dr.","login":3934381,"password":3934381,"geo_precision":"range","state":"OH","pin":3934381},"type":"Feature","geometry":{"type":"Point","coordinates":[-84.403711,41.231474]}},{"properties":{"city":"Oakwood","status":"Active","ppv":"Yes","zip":"45873","region":"Arthur","service packages":"Variety Tier","township":null,"last":"Reimund","stbs allowed":3,"geo_score":0.902,"first":"Fern","ppv limit":"50","customer id":3932836,"phone":4193932836,"whdvr":"No","id":"abn5pkogg7wk","address":"20955 Rd 178","login":3932836,"password":3932836,"geo_precision":"range","state":"OH","pin":3932836},"type":"Feature","geometry":{"type":"Point","coordinates":[-84.420606,41.180166]}},{"properties":{"city":"Defiance","status":"Active","ppv":"Yes","zip":"43512","region":"Arthur","service packages":"Expanded Basic","township":null,"last":"Reinhart","stbs allowed":3,"geo_score":0.812,"first":"Robert","ppv limit":"50","customer id":3932045,"phone":4193932045,"whdvr":"No","id":"abn5pkmhxcr9","address":"14909 St Rt 111","login":3932045,"password":3932045,"geo_precision":"range","state":"OH","pin":3932045},"type":"Feature","geometry":{"type":"Point","coordinates":[-84.426945,41.224443]}},{"properties":{"city":"Oakwood","status":"Active","ppv":"Yes","zip":"45873","region":"Arthur","service packages":"Variety Tier","township":null,"last":"Reynolds","stbs allowed":3,"geo_score":0.796,"first":"Tim","ppv limit":"50","customer id":3934363,"phone":4193934363,"whdvr":"No","id":"abn5pkhzazbt","address":"19334 Road 1036","login":3934363,"password":3934363,"geo_precision":"range","state":"OH","pin":3934363},"type":"Feature","geometry":{"type":"Point","coordinates":[-84.44094,41.196034]}},{"properties":{"city":"Defiance","status":"Active","ppv":"Yes","zip":"43512","region":"Arthur","service packages":"Variety Tier","township":null,"last":"Rickels","stbs allowed":3,"geo_score":0.902,"first":"Chris","ppv limit":"50","customer id":3932027,"phone":4193932027,"whdvr":"No","id":"abn5pkb7tge1","address":"13694 Rd 171","login":3932027,"password":3932027,"geo_precision":"range","state":"OH","pin":3932027},"type":"Feature","geometry":{"type":"Point","coordinates":[-84.444299,41.176451]}},{"properties":{"city":"Defiance","status":"Active","ppv":"Yes","zip":"43512","region":"Arthur","service packages":"Variety + HD Basic (COMNHBSC21)","township":null,"last":"Ridenour","stbs allowed":4,"geo_score":0.473,"first":"Jamie","ppv limit":"50","customer id":3932758,"phone":4193932758,"whdvr":"No","id":"abn5pkiu9ma0","address":"21932 Def Pau Co Line","login":3932758,"password":3932758,"geo_precision":"street","state":"OH","pin":3932758},"type":"Feature","geometry":{"type":"Point","coordinates":[-84.476378,41.238237]}},{"properties":{"city":"Defiance","status":"Active","ppv":"Yes","zip":"43512","region":"Arthur","service packages":"Expanded Basic","township":null,"last":"Riley","stbs allowed":4,"geo_score":0.61,"first":"Chad","ppv limit":"50","customer id":4193934818,"phone":4193934818,"whdvr":"No","id":"abn5pkl74rys","address":"19890 SR 111","login":3934818,"password":3934818,"geo_precision":"street","state":"OH","pin":3934818},"type":"Feature","geometry":{"type":"Point","coordinates":[-84.457104,41.193166]}},{"properties":{"city":"Defiance","status":"Active","ppv":"Yes","zip":"43512","region":"Arthur","service packages":"Variety + HD Basic (COMNHBSC21)","township":null,"last":"Rittenhouse","stbs allowed":4,"geo_score":0.902,"first":"Elmer","ppv limit":"50","customer id":3932239,"phone":4193932239,"whdvr":"No","id":"abn5pko0jmbh","address":"26446 Hoffman Road","login":3932239,"password":3932239,"geo_precision":"range","state":"OH","pin":3932239},"type":"Feature","geometry":{"type":"Point","coordinates":[-84.313274,41.194484]}},{"properties":{"city":"Defiance","status":"Active","ppv":"Yes","zip":"43512","region":"Arthur","service packages":"Variety Tier","township":null,"last":"Rivers","stbs allowed":3,"geo_score":0.805,"first":"John","ppv limit":"50","customer id":3934357,"phone":4193934357,"whdvr":"No","id":"abn5pkiv1556","address":"23485 Bowman","login":3934357,"password":3934357,"geo_precision":"range","state":"OH","pin":3934357},"type":"Feature","geometry":{"type":"Point","coordinates":[-84.371252,41.223868]}},{"properties":{"city":"Defiance","status":"Active","ppv":"Yes","zip":"43512","region":"Arthur","service packages":"Expanded Basic","township":null,"last":"Roddy","stbs allowed":3,"geo_score":0.902,"first":"Mark","ppv limit":"50","customer id":3932259,"phone":4193932259,"whdvr":"No","id":"abn5pkf7rxkm","address":"24864 BOWMAN RD","login":3932259,"password":3932259,"geo_precision":"range","state":"OH","pin":3932259},"type":"Feature","geometry":{"type":"Point","coordinates":[-84.344456,41.223623]}},{"properties":{"city":"Oakwood","status":"Active","ppv":"Yes","zip":"45873","region":"Arthur","service packages":"Variety Tier","township":null,"last":"Rogers","stbs allowed":3,"geo_score":0.55,"first":"Michael","ppv limit":"50","customer id":3934392,"phone":4193934392,"whdvr":"No","id":"abn5pklxr9gu","address":"18541 SR 637","login":3934392,"password":3934392,"geo_precision":"street","state":"OH","pin":3934392},"type":"Feature","geometry":{"type":"Point","coordinates":[-84.443376,41.194709]}},{"properties":{"city":"Defiance","status":"Active","ppv":"Yes","zip":"43512","region":"Arthur","service packages":"Variety Tier","township":null,"last":"Rohlf","stbs allowed":4,"geo_score":0.852,"first":"Tom &amp; Shada","ppv limit":"50","customer id":3934463,"phone":4193934463,"whdvr":"No","id":"abn5pkf6r0kn","address":"24841 DEF PLDG CO LINE RD","login":3934463,"password":3934463,"geo_precision":"range","state":"OH","pin":3934463},"type":"Feature","geometry":{"type":"Point","coordinates":[-84.34976,41.209291]}},{"properties":{"city":"Oakwood","status":"Active","ppv":"Yes","zip":"43512","region":"Arthur","service packages":"Expanded Basic","township":"Auglaize Township","last":"Rohlf","stbs allowed":5,"geo_score":0.527,"first":"Kenneth","ppv limit":"50","customer id":3932566,"phone":4193932566,"whdvr":"No","id":"abn5pkfn1r0q","address":"13610 St Rt 66","login":3932566,"password":3932566,"geo_precision":"street","state":"OH","pin":3932566},"type":"Feature","geometry":{"type":"Point","coordinates":[-84.361137,41.238384]}},{"properties":{"city":"Paulding","status":"Active","ppv":"Yes","zip":"45879","region":"Arthur","service packages":"Variety + HD Basic (COMNHBSC21)","township":null,"last":"Roughton","stbs allowed":3,"geo_score":0.902,"first":"Eric","ppv limit":"50","customer id":3932525,"phone":4193932525,"whdvr":"No","id":"abn5pkodl04m","address":"19770 RD 156","login":3932525,"password":3932525,"geo_precision":"range","state":"OH","pin":3932525},"type":"Feature","geometry":{"type":"Point","coordinates":[-84.443914,41.165383]}},{"properties":{"city":"Defiance","status":"Active","ppv":"Yes","zip":"43512","region":"Arthur","service packages":"Variety + HD Basic (COMNHBSC21)","township":null,"last":"Roughton","stbs allowed":4,"geo_score":0.619,"first":"Peggy","ppv limit":"50","customer id":3932663,"phone":4193932663,"whdvr":"No","id":"abn5pknghwop","address":"22113 ST RT 637","login":3932663,"password":3932663,"geo_precision":"street","state":"OH","pin":3932663},"type":"Feature","geometry":{"type":"Point","coordinates":[-84.399486,41.194671]}},{"properties":{"city":"Defiance","status":"Active","ppv":"Yes","zip":"43512","region":"Arthur","service packages":"Expanded Basic","township":"Auglaize Township","last":"Rowe","stbs allowed":5,"geo_score":0.902,"first":"Geneine","ppv limit":"50","customer id":3932890,"phone":4193932890,"whdvr":"No","id":"abn5pkamdy85","address":"15643 Rd 191","login":3932890,"password":3932890,"geo_precision":"range","state":"OH","pin":3932890},"type":"Feature","geometry":{"type":"Point","coordinates":[-84.399581,41.203612]}},{"properties":{"city":"Oakwood","status":"Active","ppv":"Yes","zip":"45873","region":"Arthur","service packages":"Variety Tier","township":null,"last":"Salinas","stbs allowed":3,"geo_score":0.815,"first":"Chon","ppv limit":"50","customer id":3934367,"phone":4193934367,"whdvr":"No","id":"abn5pkenl19i","address":"15237 Co Rd 169","login":3934367,"password":3934367,"geo_precision":"range","state":"OH","pin":3934367},"type":"Feature","geometry":{"type":"Point","coordinates":[-84.418935,41.208236]}},{"properties":{"city":"Defiance","status":"Active","ppv":"Yes","zip":"43512","region":"Arthur","service packages":"Variety Tier","township":null,"last":"Saukup","stbs allowed":3,"geo_score":0.805,"first":"Susan","ppv limit":"50","customer id":3932080,"phone":4193932080,"whdvr":"No","id":"abn5pkjhavw6","address":"23504 Watson Road","login":3932080,"password":3932080,"geo_precision":"street","state":"OH","pin":3932080},"type":"Feature","geometry":{"type":"Point","coordinates":[-84.371748,41.238427]}},{"properties":{"city":"Defiance","status":"Inactive","ppv":"Yes","zip":"43512","region":"Arthur","service packages":"Variety Tier","township":null,"last":"Saylor","stbs allowed":3,"geo_score":0.902,"first":"Brandon","ppv limit":"50","customer id":3934279,"phone":4193934279,"whdvr":"No","id":"abn5pkkrc774","address":"14507 Road 163","login":3934279,"password":3934279,"geo_precision":"range","state":"OH","pin":3934279},"type":"Feature","geometry":{"type":"Point","coordinates":[-84.456585,41.189151]}},{"properties":{"city":"Defiance Ohio","status":"Active","ppv":"Yes","zip":"43512","region":"Arthur","service packages":"Variety + HD Basic (COMNHBSC21)","township":null,"last":"Schaffer","stbs allowed":4,"geo_score":0.865,"first":"Daniel","ppv limit":"50","customer id":3934181,"phone":4193934181,"whdvr":"No","id":"abn5pkgqo6v6","address":"24380 Bowman Rd","login":3934181,"password":3934181,"geo_precision":"range","state":"OH","pin":3934181},"type":"Feature","geometry":{"type":"Point","coordinates":[-84.351366,41.22394]}},{"properties":{"city":"Defiance","status":"Active","ppv":"Yes","zip":"43512","region":"Arthur","service packages":"Expanded Basic","township":"Auglaize Township","last":"Schindler","stbs allowed":4,"geo_score":0.521,"first":"Teresa","ppv limit":"50","customer id":3934789,"phone":4193934789,"whdvr":"No","id":"abn5pkcorrye","address":"15255 rd 149","login":3934789,"password":3934789,"geo_precision":"street","state":"OH","pin":3934789},"type":"Feature","geometry":{"type":"Point","coordinates":[-84.418675,41.287271]}},{"properties":{"city":"Defiance, OH","status":"Active","ppv":"Yes","zip":"43512","region":"Arthur","service packages":"Variety + HD Basic (COMNHBSC21)","township":"Defiance Township","last":"Schlachter","stbs allowed":5,"geo_score":0.442,"first":"Brad","ppv limit":"50","customer id":3934284,"phone":4193934284,"whdvr":"No","id":"abn5pkb7hwbw","address":"24679 Def/Pau Co Line Rd","login":3934284,"password":3934284,"geo_precision":"street","state":"OH","pin":3934284},"type":"Feature","geometry":{"type":"Point","coordinates":[-84.349384,41.281164]}},{"properties":{"city":"Defiance","status":"Active","ppv":"Yes","zip":"43512","region":"Arthur","service packages":"Variety Tier","township":null,"last":"Schnipke","stbs allowed":3,"geo_score":0.902,"first":"Gary","ppv limit":"50","customer id":3932396,"phone":4193932396,"whdvr":"No","id":"abn5pkmeqr5s","address":"14715 Rd 209","login":3932396,"password":3932396,"geo_precision":"range","state":"OH","pin":3932396},"type":"Feature","geometry":{"type":"Point","coordinates":[-84.360954,41.191444]}},{"properties":{"city":"Defiance","status":"Active","ppv":"Yes","zip":"43512","region":"Arthur","service packages":"Variety Tier","township":null,"last":"Schofield","stbs allowed":3,"geo_score":0.902,"first":"Robert","ppv limit":"50","customer id":3932203,"phone":4193932203,"whdvr":"No","id":"abn5pkoraq14","address":"15968 Campbell Rd","login":3932203,"password":3932203,"geo_precision":"range","state":"OH","pin":3932203},"type":"Feature","geometry":{"type":"Point","coordinates":[-84.399605,41.209561]}},{"properties":{"city":"Oakwood","status":"Inactive","ppv":"Yes","zip":"45873","region":"Arthur","service packages":"Variety Tier","township":null,"last":"Schott","stbs allowed":3,"geo_score":0.61,"first":"Brent","ppv limit":"50","customer id":3934836,"phone":4193934836,"whdvr":"No","id":"abn5pkcihe0p","address":"14026 Rd 171","login":3934836,"password":3934836,"geo_precision":"street","state":"OH","pin":3934836},"type":"Feature","geometry":{"type":"Point","coordinates":[-84.433776,41.128305]}},{"properties":{"city":"Defiance","status":"Active","ppv":"Yes","zip":"43512","region":"Arthur","service packages":"Expanded Basic","township":null,"last":"Schroeder","stbs allowed":2,"geo_score":0.785,"first":"Brian","ppv limit":"50","customer id":3934713,"phone":4193934713,"whdvr":"No","id":"abn5pkc0dciy","address":"15587 Rd 263","login":3934713,"password":3934713,"geo_precision":"range","state":"OH","pin":3934713},"type":"Feature","geometry":{"type":"Point","coordinates":[-84.341704,41.207316]}},{"properties":{"city":"Defiance","status":"Active","ppv":"Yes","zip":"43512","region":"Arthur","service packages":"Variety + HD Basic (COMNHBSC21)","township":null,"last":"Schubert","stbs allowed":3,"geo_score":0.813,"first":"Dale","ppv limit":"50","customer id":3934129,"phone":4193934129,"whdvr":"No","id":"abn5pkkurmet","address":"22685 Def Pldg Co Line","login":3934129,"password":3934129,"geo_precision":"range","state":"OH","pin":3934129},"type":"Feature","geometry":{"type":"Point","coordinates":[-84.386184,41.209378]}},{"properties":{"city":"Defiance","status":"Active","ppv":"Yes","zip":"43512","region":"Arthur","service packages":"Variety + HD Basic (COMNHBSC21)","township":"Auglaize Township","last":"Schubert","stbs allowed":5,"geo_score":0.785,"first":"Gregory","ppv limit":"50","customer id":3934745,"phone":4193934745,"whdvr":"No","id":"abn5pkot6l35","address":"16833 Co Line Rd","login":3934745,"password":3934745,"geo_precision":"range","state":"OH","pin":3934745},"type":"Feature","geometry":{"type":"Point","coordinates":[-84.304885,41.197793]}},{"properties":{"city":"Oakwood","status":"Active","ppv":"Yes","zip":"45873","region":"Arthur","service packages":"Expanded Basic","township":null,"last":"Scott","stbs allowed":4,"geo_score":0.61,"first":"Daniel","ppv limit":"50","customer id":3932732,"phone":4193932732,"whdvr":"No","id":"abn5pkgk6nlc","address":"14916 rd 171","login":3932732,"password":3932732,"geo_precision":"street","state":"OH","pin":3932732},"type":"Feature","geometry":{"type":"Point","coordinates":[-84.433776,41.128305]}},{"properties":{"city":"Oakwood","status":"Active","ppv":"Yes","zip":"45873","region":"Arthur","service packages":"Variety Tier","township":null,"last":"Shawver","stbs allowed":4,"geo_score":0.805,"first":"Vickie","ppv limit":"50","customer id":3932547,"phone":4193932547,"whdvr":"No","id":"abn5pkp2eo2q","address":"14127 Rd 169","login":3932547,"password":3932547,"geo_precision":"street","state":"OH","pin":3932547},"type":"Feature","geometry":{"type":"Point","coordinates":[-84.418773,41.180848]}},{"properties":{"city":"Defiance","status":"Active","ppv":"Yes","zip":"43512","region":"Arthur","service packages":"Variety Tier","township":null,"last":"Shellenbarger","stbs allowed":3,"geo_score":0.902,"first":"Richard","ppv limit":"50","customer id":3932817,"phone":4193932817,"whdvr":"No","id":"abn5pkacam6r","address":"14857 Road 171","login":3932817,"password":3932817,"geo_precision":"range","state":"OH","pin":3932817},"type":"Feature","geometry":{"type":"Point","coordinates":[-84.447769,41.194628]}},{"properties":{"city":"Defiance","status":"Active","ppv":"Yes","zip":"43512","region":"Arthur","service packages":"Variety Tier","township":null,"last":"Shock","stbs allowed":3,"geo_score":0.902,"first":"Charles","ppv limit":"50","customer id":3932801,"phone":4193932801,"whdvr":"No","id":"abn5pk9m9jut","address":"21171 Bowman Rd","login":3932801,"password":3932801,"geo_precision":"range","state":"OH","pin":3932801},"type":"Feature","geometry":{"type":"Point","coordinates":[-84.415932,41.22396]}},{"properties":{"city":"Oakwood","status":"Active","ppv":"Yes","zip":"45873","region":"Arthur","service packages":"Variety Tier,Encore,Starz,Cinemax,HBO","township":null,"last":"Sholl","stbs allowed":3,"geo_score":0.902,"first":"Vincent","ppv limit":"50","customer id":3932050,"phone":4193932050,"whdvr":"No","id":"abn5pkhy9gou","address":"22971 RD 178","login":3932050,"password":3932050,"geo_precision":"range","state":"OH","pin":3932050},"type":"Feature","geometry":{"type":"Point","coordinates":[-84.398847,41.180168]}},{"properties":{"city":"Oakwood","status":"Active","ppv":"Yes","zip":"45873","region":"Arthur","service packages":"Encore,Starz,Cinemax,HBO,Showtime,Variety + HD Tier (COMNHDTR21)","township":null,"last":"Sholl","stbs allowed":4,"geo_score":0.805,"first":"Leo","ppv limit":"50","customer id":3932000,"phone":4193932000,"whdvr":"No","id":"abn5pkf3di9c","address":"14487 St Rt 66","login":3932000,"password":3932000,"geo_precision":"range","state":"OH","pin":3932000},"type":"Feature","geometry":{"type":"Point","coordinates":[-84.380256,41.185583]}},{"properties":{"city":"Defiance","status":"Active","ppv":"Yes","zip":"43512","region":"Arthur","service packages":"Variety Tier","township":null,"last":"Sigler","stbs allowed":3,"geo_score":0.488,"first":"Greggory","ppv limit":"50","customer id":3932789,"phone":4193932789,"whdvr":"No","id":"abn5pkbhfzv9","address":"18388 Schubert rd","login":3932789,"password":3932789,"geo_precision":"zip","state":"OH","pin":3932789},"type":"Feature","geometry":{"type":"Point","coordinates":[-84.299947,41.297826]}},{"properties":{"city":"Defiance","status":"Active","ppv":"Yes","zip":"43512","region":"Arthur","service packages":"Variety + HD Basic (COMNHBSC21)","township":null,"last":"Sisco","stbs allowed":10,"geo_score":0.902,"first":"Bruce","ppv limit":"50","customer id":3932961,"phone":4193932961,"whdvr":"No","id":"abn5pkpf70zq","address":"15770 Power Dam Rd","login":3932961,"password":3932961,"geo_precision":"range","state":"OH","pin":3932961},"type":"Feature","geometry":{"type":"Point","coordinates":[-84.432784,41.21306]}},{"properties":{"city":"Defiance","status":"Active","ppv":"Yes","zip":"43512","region":"Arthur","service packages":"Variety Tier","township":null,"last":"Skiver","stbs allowed":3,"geo_score":0.805,"first":"Rich","ppv limit":"50","customer id":3932729,"phone":4193932729,"whdvr":"No","id":"abn5pkj2wwzb","address":"24263 Road 196","login":3932729,"password":3932729,"geo_precision":"range","state":"OH","pin":3932729},"type":"Feature","geometry":{"type":"Point","coordinates":[-84.360872,41.194721]}},{"properties":{"city":"Defiance","status":"Active","ppv":"Yes","zip":"43512","region":"Arthur","service packages":"Variety Tier","township":null,"last":"Skiver","stbs allowed":3,"geo_score":0.683,"first":"Norva","ppv limit":"50","customer id":3932616,"phone":4193932616,"whdvr":"No","id":"abn5pka1mb8c","address":"15481 Defiance Paulding County Line Road","login":3932616,"password":3932616,"geo_precision":"range","state":"OH","pin":3932616},"type":"Feature","geometry":{"type":"Point","coordinates":[-84.532961,41.252692]}},{"properties":{"city":"Defiance","status":"Active","ppv":"Yes","zip":"43512","region":"Arthur","service packages":"Variety Tier","township":null,"last":"Sponsler","stbs allowed":3,"geo_score":0.902,"first":"Wilma","ppv limit":"50","customer id":3932833,"phone":4193932833,"whdvr":"No","id":"abn5pkagvxq7","address":"14128 Karnes Rd","login":3932833,"password":3932833,"geo_precision":"range","state":"OH","pin":3932833},"type":"Feature","geometry":{"type":"Point","coordinates":[-84.371006,41.236546]}},{"properties":{"city":"Defiance","status":"Active","ppv":"Yes","zip":"43512","region":"Arthur","service packages":"Variety Tier","township":null,"last":"Sponsler","stbs allowed":3,"geo_score":0.902,"first":"Robert","ppv limit":"50","customer id":3932004,"phone":4193932004,"whdvr":"No","id":"abn5pkl4odpm","address":"14337 Karnes Rd","login":3932004,"password":3932004,"geo_precision":"range","state":"OH","pin":3932004},"type":"Feature","geometry":{"type":"Point","coordinates":[-84.370786,41.233528]}},{"properties":{"city":"Defiance","status":"Active","ppv":"Yes","zip":"43512","region":"Arthur","service packages":"Expanded Basic","township":null,"last":"Steffes","stbs allowed":3,"geo_score":0.415,"first":"Bill","ppv limit":"50","customer id":3932901,"phone":4193932901,"whdvr":"No","id":"abn5pkjojabv","address":"13277 Co. Rd. 171","login":3932901,"password":3932901,"geo_precision":"street","state":"OH","pin":3932901},"type":"Feature","geometry":{"type":"Point","coordinates":[-84.32074,41.251625]}},{"properties":{"city":"Defiance","status":"Active","ppv":"Yes","zip":"43512","region":"Arthur","service packages":"Variety Tier","township":null,"last":"Steingass","stbs allowed":4,"geo_score":0.902,"first":"Alan","ppv limit":"Unlimited","customer id":3932251,"phone":4193932251,"whdvr":"No","id":"abn5pki4vkz1","address":"24373 Rd 178","login":3932251,"password":3932251,"geo_precision":"range","state":"OH","pin":3932251},"type":"Feature","geometry":{"type":"Point","coordinates":[-84.353925,41.180165]}},{"properties":{"city":"Defiance, OH","status":"Active","ppv":"Yes","zip":"43512","region":"Arthur","service packages":"Variety + HD Basic (COMNHBSC21)","township":"Defiance Township","last":"Stewart","stbs allowed":10,"geo_score":0.87,"first":"Kirk","ppv limit":"50","customer id":3932402,"phone":4193932402,"whdvr":"No","id":"abn5pkexms5a","address":"25255 Holly Rd","login":3932402,"password":3932402,"geo_precision":"range","state":"OH","pin":3932402},"type":"Feature","geometry":{"type":"Point","coordinates":[-84.337143,41.202761]}},{"properties":{"city":"Oakwood,","status":"Active","ppv":"Yes","zip":"45873","region":"Arthur","service packages":"Variety Tier","township":null,"last":"Stork","stbs allowed":3,"geo_score":0.71,"first":"Michael","ppv limit":"50","customer id":3934122,"phone":4193934122,"whdvr":"No","id":"abn5pkoojbwx","address":"18570 rd 218","login":3934122,"password":3934122,"geo_precision":"street","state":"OH","pin":3934122},"type":"Feature","geometry":{"type":"Point","coordinates":[-84.466555,41.216408]}},{"properties":{"city":"Oakwood","status":"Active","ppv":"Yes","zip":"45873","region":"Arthur","service packages":"Variety + HD Basic (COMNHBSC21)","township":null,"last":"Stork","stbs allowed":3,"geo_score":0.902,"first":"Tyler","ppv limit":"50","customer id":3934222,"phone":4193934222,"whdvr":"No","id":"abn5pkj291au","address":"23708 rd 178","login":3934222,"password":3934222,"geo_precision":"range","state":"OH","pin":3934222},"type":"Feature","geometry":{"type":"Point","coordinates":[-84.366578,41.180071]}},{"properties":{"city":"Defiance","status":"Active","ppv":"Yes","zip":"43512","region":"Arthur","service packages":"Expanded Basic","township":null,"last":"Stott","stbs allowed":3,"geo_score":0.902,"first":"Ted","ppv limit":"50","customer id":3932740,"phone":4193932740,"whdvr":"No","id":"abn5pkec9r7k","address":"25510 Edith St","login":3932740,"password":3932740,"geo_precision":"range","state":"OH","pin":3932740},"type":"Feature","geometry":{"type":"Point","coordinates":[-84.329638,41.193868]}},{"properties":{"city":"Defiance","status":"Active","ppv":"Yes","zip":"43512","region":"Arthur","service packages":"Variety Tier","township":null,"last":"Stover","stbs allowed":3,"geo_score":0.902,"first":"Bradley","ppv limit":"50","customer id":3934127,"phone":4193934127,"whdvr":"No","id":"abn5pkecvrj1","address":"21349 Bowman Rd","login":3934127,"password":3934127,"geo_precision":"range","state":"OH","pin":3934127},"type":"Feature","geometry":{"type":"Point","coordinates":[-84.412056,41.223951]}},{"properties":{"city":"Defiance","status":"Active","ppv":"Yes","zip":"43512","region":"Arthur","service packages":"Expanded Basic","township":null,"last":"Strock","stbs allowed":3,"geo_score":0.801,"first":"David","ppv limit":"50","customer id":3932213,"phone":4193932213,"whdvr":"No","id":"abn5pkivkzu3","address":"17061 Def Pld Co Line","login":3932213,"password":3932213,"geo_precision":"range","state":"OH","pin":3932213},"type":"Feature","geometry":{"type":"Point","coordinates":[-84.477485,41.253423]}},{"properties":{"city":"Defiance","status":"Active","ppv":"Yes","zip":"43512","region":"Arthur","service packages":"Variety Tier","township":null,"last":"Theis","stbs allowed":5,"geo_score":0.902,"first":"Nina","ppv limit":"50","customer id":3934467,"phone":4193934467,"whdvr":"No","id":"abn5pk9oo6xp","address":"14735 Rd 163","login":3934467,"password":3934467,"geo_precision":"range","state":"OH","pin":3934467},"type":"Feature","geometry":{"type":"Point","coordinates":[-84.457428,41.190073]}},{"properties":{"city":"Defiance","status":"Active","ppv":"Yes","zip":"43512","region":"Arthur","service packages":"Encore,Starz,Cinemax,HBO,Showtime,Variety + HD Tier (COMNHDTR21)","township":null,"last":"Thomas","stbs allowed":3,"geo_score":0.61,"first":"Dick","ppv limit":"50","customer id":3934646,"phone":4193934646,"whdvr":"No","id":"abn5pk9ewguo","address":"15567 St. Rt. 66","login":3934646,"password":1066,"geo_precision":"range","state":"OH","pin":3934646},"type":"Feature","geometry":{"type":"Point","coordinates":[-84.553509,41.291965]}},{"properties":{"city":"Defiance","status":"Active","ppv":"Yes","zip":"43512","region":"Arthur","service packages":"HBO,Variety + HD Basic (COMNHBSC21)","township":null,"last":"Thomas","stbs allowed":2,"geo_score":0.796,"first":"Bruce","ppv limit":"50","customer id":3932839,"phone":4193932839,"whdvr":"No","id":"abn5pklxemmp","address":"19524 Road 1048","login":3932839,"password":3932839,"geo_precision":"range","state":"OH","pin":3932839},"type":"Feature","geometry":{"type":"Point","coordinates":[-84.441535,41.205306]}},{"properties":{"city":"Defiance","status":"Active","ppv":"Yes","zip":"43512","region":"Arthur","service packages":"Variety Tier","township":null,"last":"Thrasher","stbs allowed":4,"geo_score":0.592,"first":"Teresa","ppv limit":"50","customer id":3932664,"phone":4193932664,"whdvr":"No","id":"abn5pkpeguq8","address":"18965 County Road 111","login":3932664,"password":3932664,"geo_precision":"street","state":"OH","pin":3932664},"type":"Feature","geometry":{"type":"Point","coordinates":[-84.457734,41.193183]}},{"properties":{"city":"Continental","status":"Active","ppv":"Yes","zip":"45831","region":"Arthur","service packages":"Variety Tier","township":null,"last":"Valerio","stbs allowed":3,"geo_score":0.902,"first":"Mike, Jr.","ppv limit":"50","customer id":3932426,"phone":4193932426,"whdvr":"No","id":"abn5pkpdt9ua","address":"1054 Rd 24","login":2426,"password":2426,"geo_precision":"range","state":"OH","pin":2426},"type":"Feature","geometry":{"type":"Point","coordinates":[-84.321314,41.165392]}},{"properties":{"city":"Oakwood","status":"Active","ppv":"Yes","zip":"45873","region":"Arthur","service packages":"Variety Tier","township":null,"last":"Van Vlerah","stbs allowed":3,"geo_score":0.708,"first":"Scott","ppv limit":"50","customer id":3932350,"phone":4193932350,"whdvr":"No","id":"abn5pkivy2w7","address":"18776 rd 218","login":3932350,"password":3932350,"geo_precision":"street","state":"OH","pin":3932350},"type":"Feature","geometry":{"type":"Point","coordinates":[-84.466555,41.216408]}},{"properties":{"city":"Defiance","status":"Active","ppv":"Yes","zip":"43512","region":"Arthur","service packages":"Variety + HD Tier (COMNHDTR21)","township":null,"last":"Vogel","stbs allowed":3,"geo_score":0.902,"first":"Eugene","ppv limit":"50","customer id":3932544,"phone":4193932544,"whdvr":"No","id":"abn5pkpgxrt4","address":"21355 State Route 637","login":3932544,"password":3932544,"geo_precision":"range","state":"OH","pin":3932544},"type":"Feature","geometry":{"type":"Point","coordinates":[-84.414453,41.19473]}},{"properties":{"city":"Defiance","status":"Active","ppv":"Yes","zip":"43512","region":"Arthur","service packages":"Variety + HD Tier (COMNHDTR21)","township":null,"last":"Wagner","stbs allowed":6,"geo_score":0.902,"first":"Richard","ppv limit":"50","customer id":3932543,"phone":4193932543,"whdvr":"No","id":"abn5pkh70nxz","address":"15530 Power Dam Rd","login":3932543,"password":3932543,"geo_precision":"range","state":"OH","pin":3932543},"type":"Feature","geometry":{"type":"Point","coordinates":[-84.429265,41.215957]}},{"properties":{"city":"Defiance","status":"Active","ppv":"Yes","zip":"43512","region":"Arthur","service packages":"Expanded Basic","township":null,"last":"Webb","stbs allowed":5,"geo_score":0.902,"first":"Joseph","ppv limit":"50","customer id":3934470,"phone":4193934470,"whdvr":"No","id":"abn5pkdntha9","address":"19577 Cromley Rd","login":3934470,"password":3934470,"geo_precision":"range","state":"OH","pin":3934470},"type":"Feature","geometry":{"type":"Point","coordinates":[-84.443257,41.223847]}},{"properties":{"city":"Defiance","status":"Active","ppv":"Yes","zip":"43512","region":"Arthur","service packages":"Variety Tier","township":null,"last":"Weber","stbs allowed":3,"geo_score":0.902,"first":"William","ppv limit":"50","customer id":3932658,"phone":4193932658,"whdvr":"No","id":"abn5pkg9zmem","address":"24314 Bowman Rd","login":3932658,"password":3932658,"geo_precision":"range","state":"OH","pin":3932658},"type":"Feature","geometry":{"type":"Point","coordinates":[-84.3531,41.223718]}},{"properties":{"city":"Oakwood","status":"Active","ppv":"Yes","zip":"45873","region":"Arthur","service packages":"Variety Tier","township":"Auglaize Township","last":"Weible","stbs allowed":4,"geo_score":0.902,"first":"Mike","ppv limit":"50","customer id":3932216,"phone":4193932216,"whdvr":"No","id":"abn5pklxyppy","address":"22348 rd 178","login":3932216,"password":3932216,"geo_precision":"range","state":"OH","pin":3932216},"type":"Feature","geometry":{"type":"Point","coordinates":[-84.386744,41.18004]}},{"properties":{"city":"Defiance","status":"Active","ppv":"Yes","zip":"43512","region":"Arthur","service packages":"Variety Tier","township":null,"last":"Weidenhamer","stbs allowed":3,"geo_score":0.521,"first":"James","ppv limit":"50","customer id":3932275,"phone":4193932275,"whdvr":"No","id":"abn5pkdkxb48","address":"16051 Rd 149","login":3932275,"password":3932275,"geo_precision":"street","state":"OH","pin":3932275},"type":"Feature","geometry":{"type":"Point","coordinates":[-84.418675,41.287271]}},{"properties":{"city":"Defiance","status":"Active","ppv":"Yes","zip":"43512","region":"Arthur","service packages":"Expanded Basic","township":null,"last":"Weidenhamer","stbs allowed":3,"geo_score":0.532,"first":"Bruce","ppv limit":"50","customer id":3932276,"phone":4193932276,"whdvr":"No","id":"abn5pk9e71ue","address":"16132 RD 143","login":3932276,"password":3932276,"geo_precision":"street","state":"OH","pin":3932276},"type":"Feature","geometry":{"type":"Point","coordinates":[-84.458086,41.337268]}},{"properties":{"city":"Defiance","status":"Active","ppv":"Yes","zip":"43512","region":"Arthur","service packages":"Variety Tier,Encore,Starz,Cinemax,HBO,Showtime","township":null,"last":"Weidenhamer","stbs allowed":3,"geo_score":0.902,"first":"Gene","ppv limit":"50","customer id":3932372,"phone":4193932372,"whdvr":"No","id":"abn5pk92w0fd","address":"18138 Rd 218","login":3932372,"password":3932372,"geo_precision":"range","state":"OH","pin":3932372},"type":"Feature","geometry":{"type":"Point","coordinates":[-84.474077,41.216445]}},{"properties":{"city":"Defiance","status":"Active","ppv":"Yes","zip":"43512","region":"Arthur","service packages":"Variety Tier","township":null,"last":"Weidenhamer","stbs allowed":3,"geo_score":0.902,"first":"Mary","ppv limit":"50","customer id":3932697,"phone":4193932697,"whdvr":"No","id":"abn5pkd1gm4i","address":"18956 Rd 218","login":3932697,"password":3932697,"geo_precision":"range","state":"OH","pin":3932697},"type":"Feature","geometry":{"type":"Point","coordinates":[-84.465692,41.216332]}},{"properties":{"city":"Defiance","status":"Active","ppv":"Yes","zip":"43512","region":"Arthur","service packages":"Expanded Basic","township":null,"last":"Weidenhamer","stbs allowed":3,"geo_score":0.829,"first":"Jeff","ppv limit":"50","customer id":3932152,"phone":4193932152,"whdvr":"No","id":"abn5pkc925ob","address":"15516 Power Dam","login":3932152,"password":3932152,"geo_precision":"range","state":"OH","pin":3932152},"type":"Feature","geometry":{"type":"Point","coordinates":[-84.429056,41.216077]}},{"properties":{"city":"Defiance","status":"Active","ppv":"Yes","zip":"43512","region":"Arthur","service packages":"Lifeline","township":null,"last":"Wells","stbs allowed":2,"geo_score":0.902,"first":"George","ppv limit":"50","customer id":4193932391,"phone":4193932391,"whdvr":"No","id":"abn5pko3ywh0","address":"24631 Watson Rd","login":3932391,"password":3932391,"geo_precision":"range","state":"OH","pin":3932391},"type":"Feature","geometry":{"type":"Point","coordinates":[-84.345964,41.23835]}},{"properties":{"city":"Defiance","status":"Active","ppv":"Yes","zip":"43512","region":"Arthur","service packages":"Variety + HD Basic (COMNHBSC21)","township":null,"last":"Whitaker","stbs allowed":7,"geo_score":0.793,"first":"Rob","ppv limit":"50","customer id":3932522,"phone":4193932522,"whdvr":"No","id":"abn5pkfvb4z8","address":"23484 Road 10","login":3932522,"password":3932522,"geo_precision":"range","state":"OH","pin":3932522},"type":"Feature","geometry":{"type":"Point","coordinates":[-84.366651,41.209199]}},{"properties":{"city":"Oakwood","status":"Active","ppv":"Yes","zip":"45873","region":"Arthur","service packages":"Variety + HD Basic (COMNHBSC21)","township":"Auglaize Township","last":"Wiles","stbs allowed":8,"geo_score":0.796,"first":"Bill","ppv limit":"50","customer id":3932535,"phone":4193932535,"whdvr":"No","id":"abn5pkgki6a6","address":"19076 Rd 1040","login":3932535,"password":3932535,"geo_precision":"range","state":"OH","pin":3932535},"type":"Feature","geometry":{"type":"Point","coordinates":[-84.439647,41.196296]}},{"properties":{"city":"Paulding","status":"Active","ppv":"Yes","zip":"45879","region":"Arthur","service packages":"Variety Tier","township":null,"last":"Wilhelm","stbs allowed":3,"geo_score":0.902,"first":"Gary","ppv limit":"50","customer id":3932068,"phone":4193932068,"whdvr":"No","id":"abn5pkevzvso","address":"19847 Rd 156","login":3932068,"password":3932068,"geo_precision":"range","state":"OH","pin":3932068},"type":"Feature","geometry":{"type":"Point","coordinates":[-84.444753,41.165534]}},{"properties":{"city":"Defiance","status":"Active","ppv":"Yes","zip":"43512","region":"Arthur","service packages":"Variety Tier","township":null,"last":"Willett","stbs allowed":3,"geo_score":0.732,"first":"Garth","ppv limit":"50","customer id":3932093,"phone":4193932093,"whdvr":"No","id":"abn5pknceir6","address":"15901 SR 66","login":3932093,"password":3932093,"geo_precision":"range","state":"OH","pin":3932093},"type":"Feature","geometry":{"type":"Point","coordinates":[-84.361004,41.222361]}},{"properties":{"city":"Defiance","status":"Active","ppv":"Yes","zip":"43512","region":"Arthur","service packages":"Expanded Basic","township":null,"last":"Williamson","stbs allowed":2,"geo_score":0.902,"first":"Robert","ppv limit":"50","customer id":3932049,"phone":4193932049,"whdvr":"No","id":"abn5pkahe0ig","address":"14877 State Route 111","login":3932049,"password":3932049,"geo_precision":"range","state":"OH","pin":3932049},"type":"Feature","geometry":{"type":"Point","coordinates":[-84.426378,41.225114]}},{"properties":{"city":"Defiance","status":"Active","ppv":"Yes","zip":"43512","region":"Arthur","service packages":"Expanded Basic","township":null,"last":"Willis","stbs allowed":2,"geo_score":0.902,"first":"Carolyn","ppv limit":"50","customer id":3934829,"phone":4193934829,"whdvr":"No","id":"abn5pkfvyqrj","address":"20660 Hammersmith Rd","login":3934829,"password":3934829,"geo_precision":"range","state":"OH","pin":3934829},"type":"Feature","geometry":{"type":"Point","coordinates":[-84.42517,41.238376]}},{"properties":{"city":"Defiance","status":"Active","ppv":"Yes","zip":"43512","region":"Arthur","service packages":"Expanded Basic","township":null,"last":"Wilson","stbs allowed":3,"geo_score":0.473,"first":"Robert","ppv limit":"50","customer id":3932937,"phone":4193932937,"whdvr":"No","id":"abn5pkcv5ok2","address":"26763 Def Put Co Line","login":3932937,"password":3932937,"geo_precision":"street","state":"OH","pin":3932937},"type":"Feature","geometry":{"type":"Point","coordinates":[-84.476378,41.238237]}},{"properties":{"city":"Defiance","status":"Active","ppv":"Yes","zip":"43512","region":"Arthur","service packages":"Encore,Starz,Cinemax,HBO,Showtime,Variety + HD Tier (COMNHDTR21)","township":"Auglaize Township","last":"Wonders","stbs allowed":2,"geo_score":0.415,"first":"Ben","ppv limit":"50","customer id":3934010,"phone":4193934010,"whdvr":"No","id":"abn5pkanshcy","address":"19848 State Route 111 #7","login":3934010,"password":3934010,"geo_precision":"street","state":"OH","pin":3934010},"type":"Feature","geometry":{"type":"Point","coordinates":[-84.362727,41.285781]}},{"properties":{"city":"Oakwood","status":"Active","ppv":"Yes","zip":"45873","region":"Arthur","service packages":"Expanded Basic","township":null,"last":"Yant","stbs allowed":3,"geo_score":0.902,"first":"Richard","ppv limit":"50","customer id":3932684,"phone":4193932684,"whdvr":"No","id":"abn5pkcoiqm1","address":"21491 Rd 178","login":3932684,"password":3932684,"geo_precision":"range","state":"OH","pin":3932684},"type":"Feature","geometry":{"type":"Point","coordinates":[-84.409327,41.180184]}},{"properties":{"city":"Defiance","status":"Active","ppv":"Yes","zip":"43512","region":"Arthur","service packages":"Variety Tier","township":null,"last":"Yates","stbs allowed":3,"geo_score":0.521,"first":"Joe","ppv limit":"50","customer id":3934264,"phone":4193934264,"whdvr":"No","id":"abn5pke2scc4","address":"15441 Rd 149","login":3934264,"password":3934264,"geo_precision":"street","state":"OH","pin":3934264},"type":"Feature","geometry":{"type":"Point","coordinates":[-84.418675,41.287271]}},{"properties":{"city":"Defiance","status":"Active","ppv":"Yes","zip":"43512","region":"Arthur","service packages":"Variety Tier,Variety Tier","township":null,"last":"Yenser","stbs allowed":3,"geo_score":0.796,"first":"Steve","ppv limit":"50","customer id":3934259,"phone":4193934259,"whdvr":"No","id":"abn5pkm5php4","address":"18767 Rd 1027","login":3934259,"password":3934259,"geo_precision":"range","state":"OH","pin":3934259},"type":"Feature","geometry":{"type":"Point","coordinates":[-84.450987,41.199773]}},{"properties":{"city":"Oakwood","status":"Active","ppv":"Yes","zip":"45873","region":"Arthur","service packages":"Variety Tier","township":null,"last":"Yenser","stbs allowed":3,"geo_score":0.902,"first":"Gene","ppv limit":"50","customer id":3932294,"phone":4193932294,"whdvr":"No","id":"abn5pko1irh5","address":"14263 Road 169","login":3932294,"password":3932294,"geo_precision":"range","state":"OH","pin":3932294},"type":"Feature","geometry":{"type":"Point","coordinates":[-84.418773,41.180848]}},{"properties":{"city":"Defiance","status":"Active","ppv":"Yes","zip":"43512","region":"Arthur","service packages":"Variety + HD Basic (COMNHBSC21)","township":null,"last":"Zipfel","stbs allowed":6,"geo_score":0.902,"first":"Paul","ppv limit":"50","customer id":3932509,"phone":4193932509,"whdvr":"No","id":"abn5pko3kmpd","address":"21090 Bowman Road","login":3932509,"password":3932509,"geo_precision":"range","state":"OH","pin":3932509},"type":"Feature","geometry":{"type":"Point","coordinates":[-84.417092,41.223809]}},{"properties":{"city":"Oakwood","status":"Active","ppv":"Yes","zip":"45873","region":"Arthur","service packages":"Variety Tier","township":null,"last":"Zuber","stbs allowed":3,"geo_score":0.835,"first":"Terry","ppv limit":"50","customer id":3934132,"phone":4193934132,"whdvr":"No","id":"abn5pkdojwtp","address":"19823 St Route 637","login":3934132,"password":3934132,"geo_precision":"range","state":"OH","pin":3934132},"type":"Feature","geometry":{"type":"Point","coordinates":[-84.441636,41.194708]}},{"properties":{"city":"Oakwood","status":"Active","ppv":"Yes","zip":"45873","region":"Arthur","service packages":"Variety Tier","township":null,"last":"Zuber","stbs allowed":4,"geo_score":0.812,"first":"Patricia","ppv limit":"50","customer id":3934224,"phone":4193934224,"whdvr":"No","id":"abn5pkjmls2x","address":"20177 St Rt 637","login":3934224,"password":3934224,"geo_precision":"range","state":"OH","pin":3934224},"type":"Feature","geometry":{"type":"Point","coordinates":[-84.435007,41.194737]}},{"properties":{"city":"Oakwood","status":"Active","ppv":"Yes","zip":"45873","region":"Arthur","service packages":"Variety Tier","township":null,"last":"Zuber","stbs allowed":5,"geo_score":0.796,"first":"Elizabeth","ppv limit":"50","customer id":3934494,"phone":4193934494,"whdvr":"No","id":"abn5pkovu1dw","address":"19291 rd 1036","login":3934494,"password":3934494,"geo_precision":"range","state":"OH","pin":3934494},"type":"Feature","geometry":{"type":"Point","coordinates":[-84.440807,41.195884]}}],"is_temporal":false,"author":{"url":"","metadata":null,"contact_name":null,"contact_address":null,"source":null,"contact_phone":null},"source":"","pagination":{"sort":null,"start":0,"total":246,"limit":1000000},"state":"complete","tags":"","published":"2014-08-16T17:46:24-04:00","id":313318}