{"type":"FeatureCollection","data_type":"Dataset","url_type":null,"permissions":[{"permissions":{"download":true,"view":true},"group_id":"everyone"}],"classification":null,"title":"Copy_of_IPTV-CFS-Jan-16-2013_-_CSV","count":120,"stream_id":313323,"contributor":{"url":"http://geocommons.com/users/59404","name":"KatieEtgen"},"data_attributes":null,"calculation_params":null,"icon_link":null,"link":"http://geocommons.com/overlays/313323.json","extent":[-85.1049,40.3803,-84.9744,40.4834],"geometry_types":["point"],"unique_name":null,"name":"Copy_of_IPTV-CFS-Jan-16-2013_-_CSV","feature_count":120,"description":"","next_feature":null,"is_raster":false,"short_classification":"Y","stats":{"stbs allowed":{"max":30,"mean":5.775,"variance":20.6128151260504,"stdev":4.5401338224826,"median":5,"min":1},"phone":{"max":8662469580,"mean":4260473155.825,"variance":4.38007856121438e+17,"stdev":661821619.563337,"median":4198795361,"min":2602411046},"customer id":{"max":145674,"mean":145145.5,"variance":558624.5,"stdev":747.411867714181,"median":145674,"min":144617},"password":{"max":12345,"mean":1604.36666666667,"variance":4011400.90644258,"stdev":2002.8481985519,"median":1234,"min":1234},"pin":{"max":12345,"mean":1604.36666666667,"variance":4011400.90644258,"stdev":2002.8481985519,"median":1234,"min":1234}},"features":[{"properties":{"city":"Portland","status":"Active","ppv":"No","zip":"47371","region":"Community Fiber Solutions","service packages":"Channel21","township":null,"last":"ABC Fort Wayne WPTA","stbs allowed":5,"geo_score":0.471,"first":"CFS","ppv limit":"Unlimited","customer id":null,"phone":4198792886,"whdvr":"No","id":"abn5q8j0x26c","address":"1393 W. Tyson Rd","login":"1234","password":1234,"geo_precision":"street","state":"IN","pin":1234},"type":"Feature","geometry":{"type":"Point","coordinates":[-85.000329,40.431872]}},{"properties":{"city":"Portland","status":"Active","ppv":"No","zip":"47371","region":"Community Fiber Solutions","service packages":"WPTA DT HD","township":null,"last":"ABC WPTA HD","stbs allowed":5,"geo_score":0.471,"first":"CFS","ppv limit":"Unlimited","customer id":null,"phone":4193989101,"whdvr":"No","id":"abn5q896fjsf","address":"1393 W. Tyson Rd","login":"1234","password":1234,"geo_precision":"street","state":"IN","pin":1234},"type":"Feature","geometry":{"type":"Point","coordinates":[-85.000329,40.431872]}},{"properties":{"city":"Portland","status":"Active","ppv":"No","zip":"47371","region":"Community Fiber Solutions","service packages":"Animal Planet-HD","township":null,"last":"Animal Planet-HD","stbs allowed":5,"geo_score":0.471,"first":"CFS","ppv limit":"Unlimited","customer id":null,"phone":4198797660,"whdvr":"No","id":"abn5q8b46dd9","address":"1393 W. Tyson Rd","login":"1234","password":1234,"geo_precision":"street","state":"IN","pin":1234},"type":"Feature","geometry":{"type":"Point","coordinates":[-85.000329,40.431872]}},{"properties":{"city":"Portland","status":"Active","ppv":"No","zip":"47371","region":"Community Fiber Solutions","service packages":"Big Ten Network Indiana-HD","township":null,"last":"Big Ten Network-HD","stbs allowed":5,"geo_score":0.471,"first":"CFS","ppv limit":"Unlimited","customer id":null,"phone":4198797648,"whdvr":"No","id":"abn5q8aeamlw","address":"1393 W. Tyson Rd","login":"1234","password":1234,"geo_precision":"street","state":"IN","pin":1234},"type":"Feature","geometry":{"type":"Point","coordinates":[-85.000329,40.431872]}},{"properties":{"city":"Portland","status":"Active","ppv":"No","zip":"47371","region":"Community Fiber Solutions","service packages":"Channel18","township":null,"last":"Cable Satellite Public Affairs Network","stbs allowed":5,"geo_score":0.471,"first":"CFS","ppv limit":"Unlimited","customer id":null,"phone":4198792259,"whdvr":"No","id":"abn5q8hnndbi","address":"1393 W. Tyson Rd","login":"1234","password":1234,"geo_precision":"street","state":"IN","pin":1234},"type":"Feature","geometry":{"type":"Point","coordinates":[-85.000329,40.431872]}},{"properties":{"city":"Portland","status":"Active","ppv":"No","zip":"47371","region":"Community Fiber Solutions","service packages":"Channel19","township":null,"last":"Cable Satellite Public Affairs Network 2","stbs allowed":5,"geo_score":0.471,"first":"CFS","ppv limit":"Unlimited","customer id":null,"phone":4198792570,"whdvr":"No","id":"abn5q8izqtz7","address":"1393 W. Tyson Rd","login":"1234","password":1234,"geo_precision":"street","state":"IN","pin":1234},"type":"Feature","geometry":{"type":"Point","coordinates":[-85.000329,40.431872]}},{"properties":{"city":"Portland","status":"Active","ppv":"No","zip":"47371","region":"Community Fiber Solutions","service packages":"Channel15","township":null,"last":"CBS Fort Wayne WANE","stbs allowed":5,"geo_score":0.471,"first":"CFS","ppv limit":"Unlimited","customer id":null,"phone":4198791108,"whdvr":"No","id":"abn5q8e0swhh","address":"1393 W. Tyson Rd","login":"1234","password":1234,"geo_precision":"street","state":"IN","pin":1234},"type":"Feature","geometry":{"type":"Point","coordinates":[-85.000329,40.431872]}},{"properties":{"city":"Portland","status":"Active","ppv":"No","zip":"47371","region":"Community Fiber Solutions","service packages":"Channel22","township":null,"last":"Channel22","stbs allowed":5,"geo_score":0.471,"first":"CFS","ppv limit":"Unlimited","customer id":null,"phone":4198797655,"whdvr":"No","id":"abn5q8c06nj1","address":"1393 W. Tyson Rd","login":"1234","password":1234,"geo_precision":"street","state":"IN","pin":1234},"type":"Feature","geometry":{"type":"Point","coordinates":[-85.000329,40.431872]}},{"properties":{"city":"Portland","status":"Active","ppv":"No","zip":"47371","region":"Community Fiber Solutions","service packages":"Channel25","township":null,"last":"Channel25","stbs allowed":5,"geo_score":0.471,"first":"CFS","ppv limit":"Unlimited","customer id":null,"phone":4198793444,"whdvr":"No","id":"abn5q8asyxwi","address":"1393 W. Tyson Rd","login":"1234","password":1234,"geo_precision":"street","state":"IN","pin":1234},"type":"Feature","geometry":{"type":"Point","coordinates":[-85.000329,40.431872]}},{"properties":{"city":"Portland","status":"Active","ppv":"No","zip":"47371","region":"Community Fiber Solutions","service packages":"Channel27","township":null,"last":"Channel27","stbs allowed":5,"geo_score":0.471,"first":"CFS","ppv limit":"Unlimited","customer id":null,"phone":4198794345,"whdvr":"No","id":"abn5q8f6kt4v","address":"1393 W. Tyson Rd","login":"1234","password":1234,"geo_precision":"street","state":"IN","pin":1234},"type":"Feature","geometry":{"type":"Point","coordinates":[-85.000329,40.431872]}},{"properties":{"city":"Portland","status":"Active","ppv":"No","zip":"47371","region":"Community Fiber Solutions","service packages":"Channel30","township":null,"last":"Channel30","stbs allowed":5,"geo_score":0.471,"first":"CFS","ppv limit":"Unlimited","customer id":null,"phone":4198794581,"whdvr":"No","id":"abn5q8dv9hwc","address":"1393 W. Tyson Rd","login":"1234","password":1234,"geo_precision":"street","state":"IN","pin":1234},"type":"Feature","geometry":{"type":"Point","coordinates":[-85.000329,40.431872]}},{"properties":{"city":"Portland","status":"Active","ppv":"No","zip":"47371","region":"Community Fiber Solutions","service packages":"Channel31","township":null,"last":"Channel31","stbs allowed":5,"geo_score":0.471,"first":"CFS","ppv limit":"Unlimited","customer id":null,"phone":4198794582,"whdvr":"No","id":"abn5q8ghil70","address":"1393 W. Tyson Rd","login":"1234","password":1234,"geo_precision":"street","state":"IN","pin":1234},"type":"Feature","geometry":{"type":"Point","coordinates":[-85.000329,40.431872]}},{"properties":{"city":"Portland","status":"Active","ppv":"No","zip":"47371","region":"Community Fiber Solutions","service packages":"Channel32","township":null,"last":"Channel32","stbs allowed":5,"geo_score":0.471,"first":"CFS","ppv limit":"Unlimited","customer id":null,"phone":4198794583,"whdvr":"No","id":"abn5q87xj81r","address":"1393 W. Tyson Rd","login":"1234","password":1234,"geo_precision":"street","state":"IN","pin":1234},"type":"Feature","geometry":{"type":"Point","coordinates":[-85.000329,40.431872]}},{"properties":{"city":"Portland","status":"Active","ppv":"No","zip":"47371","region":"Community Fiber Solutions","service packages":"Channel33","township":null,"last":"Channel33","stbs allowed":5,"geo_score":0.471,"first":"CFS","ppv limit":"Unlimited","customer id":null,"phone":4198794584,"whdvr":"No","id":"abn5q88m15yy","address":"1393 W. Tyson Rd","login":"1234","password":1234,"geo_precision":"street","state":"IN","pin":1234},"type":"Feature","geometry":{"type":"Point","coordinates":[-85.000329,40.431872]}},{"properties":{"city":"Portland","status":"Active","ppv":"No","zip":"47371","region":"Community Fiber Solutions","service packages":"Channel34","township":null,"last":"Channel34","stbs allowed":2,"geo_score":0.471,"first":"CFS","ppv limit":"Unlimited","customer id":null,"phone":4198797654,"whdvr":"No","id":"abn5q89g4o6j","address":"1393 W. Tyson Rd","login":"12345","password":12345,"geo_precision":"street","state":"IN","pin":12345},"type":"Feature","geometry":{"type":"Point","coordinates":[-85.000329,40.431872]}},{"properties":{"city":"Portland","status":"Active","ppv":"No","zip":"47371","region":"Community Fiber Solutions","service packages":"Channel35","township":null,"last":"Channel35","stbs allowed":5,"geo_score":0.471,"first":"CFS","ppv limit":"Unlimited","customer id":null,"phone":4198794586,"whdvr":"No","id":"abn5q8dfbk2t","address":"1393 W. Tyson Rd","login":"1234","password":1234,"geo_precision":"street","state":"IN","pin":1234},"type":"Feature","geometry":{"type":"Point","coordinates":[-85.000329,40.431872]}},{"properties":{"city":"Portland","status":"Active","ppv":"No","zip":"47371","region":"Community Fiber Solutions","service packages":"Channel36","township":null,"last":"Channel36","stbs allowed":5,"geo_score":0.471,"first":"CFS","ppv limit":"Unlimited","customer id":null,"phone":4198794587,"whdvr":"No","id":"abn5q88nk89x","address":"1393 W. Tyson Rd","login":"1234","password":1234,"geo_precision":"street","state":"IN","pin":1234},"type":"Feature","geometry":{"type":"Point","coordinates":[-85.000329,40.431872]}},{"properties":{"city":"Portland","status":"Active","ppv":"No","zip":"47371","region":"Community Fiber Solutions","service packages":"Channel37","township":null,"last":"Channel37","stbs allowed":5,"geo_score":0.471,"first":"CFS","ppv limit":"Unlimited","customer id":null,"phone":4198794588,"whdvr":"No","id":"abn5q86uxi0n","address":"1393 W. Tyson Rd","login":"1234","password":1234,"geo_precision":"street","state":"IN","pin":1234},"type":"Feature","geometry":{"type":"Point","coordinates":[-85.000329,40.431872]}},{"properties":{"city":"Portland","status":"Active","ppv":"No","zip":"47371","region":"Community Fiber Solutions","service packages":"Channel38","township":null,"last":"Channel38","stbs allowed":5,"geo_score":0.471,"first":"CFS","ppv limit":"Unlimited","customer id":null,"phone":4198794589,"whdvr":"No","id":"abn5q8700wa0","address":"1393 W. Tyson Rd","login":"1234","password":1234,"geo_precision":"street","state":"IN","pin":1234},"type":"Feature","geometry":{"type":"Point","coordinates":[-85.000329,40.431872]}},{"properties":{"city":"Portland","status":"Active","ppv":"No","zip":"47371","region":"Community Fiber Solutions","service packages":"Channel39","township":null,"last":"Channel39","stbs allowed":5,"geo_score":0.471,"first":"CFS","ppv limit":"Unlimited","customer id":null,"phone":4198797656,"whdvr":"No","id":"abn5q8gc8p0g","address":"1393 W. Tyson Rd","login":"1234","password":1234,"geo_precision":"street","state":"IN","pin":1234},"type":"Feature","geometry":{"type":"Point","coordinates":[-85.000329,40.431872]}},{"properties":{"city":"Portland","status":"Active","ppv":"No","zip":"47371","region":"Community Fiber Solutions","service packages":"Channel40","township":null,"last":"Channel40","stbs allowed":5,"geo_score":0.471,"first":"CFS","ppv limit":"Unlimited","customer id":null,"phone":4198794590,"whdvr":"No","id":"abn5q8d0md5u","address":"1393 W. Tyson Rd","login":"1234","password":1234,"geo_precision":"street","state":"IN","pin":1234},"type":"Feature","geometry":{"type":"Point","coordinates":[-85.000329,40.431872]}},{"properties":{"city":"Portland","status":"Active","ppv":"No","zip":"47371","region":"Community Fiber Solutions","service packages":"Channel41","township":null,"last":"Channel41","stbs allowed":5,"geo_score":0.471,"first":"CFS","ppv limit":"Unlimited","customer id":null,"phone":4198794591,"whdvr":"No","id":"abn5q8lhitzp","address":"1393 W. Tyson Rd","login":"1234","password":1234,"geo_precision":"street","state":"IN","pin":1234},"type":"Feature","geometry":{"type":"Point","coordinates":[-85.000329,40.431872]}},{"properties":{"city":"Portland","status":"Active","ppv":"No","zip":"47371","region":"Community Fiber Solutions","service packages":"Channel42","township":null,"last":"Channel42","stbs allowed":5,"geo_score":0.471,"first":"CFS","ppv limit":"Unlimited","customer id":null,"phone":4198794592,"whdvr":"No","id":"abn5q8gbpm2i","address":"1393 W. Tyson Rd","login":"1234","password":1234,"geo_precision":"street","state":"IN","pin":1234},"type":"Feature","geometry":{"type":"Point","coordinates":[-85.000329,40.431872]}},{"properties":{"city":"Portland","status":"Active","ppv":"No","zip":"47371","region":"Community Fiber Solutions","service packages":"Channel43","township":null,"last":"Channel43","stbs allowed":5,"geo_score":0.471,"first":"CFS","ppv limit":"Unlimited","customer id":null,"phone":4198794593,"whdvr":"No","id":"abn5q8ik08i6","address":"1393 W. Tyson Rd","login":"1234","password":1234,"geo_precision":"street","state":"IN","pin":1234},"type":"Feature","geometry":{"type":"Point","coordinates":[-85.000329,40.431872]}},{"properties":{"city":"Portland","status":"Active","ppv":"No","zip":"47371","region":"Community Fiber Solutions","service packages":"Channel44","township":null,"last":"Channel44","stbs allowed":5,"geo_score":0.471,"first":"CFS","ppv limit":"Unlimited","customer id":null,"phone":4198794594,"whdvr":"No","id":"abn5q8bfg85f","address":"1393 W. Tyson Rd","login":"1234","password":1234,"geo_precision":"street","state":"IN","pin":1234},"type":"Feature","geometry":{"type":"Point","coordinates":[-85.000329,40.431872]}},{"properties":{"city":"Portland","status":"Active","ppv":"No","zip":"47371","region":"Community Fiber Solutions","service packages":"Channel47","township":null,"last":"Channel47","stbs allowed":5,"geo_score":0.471,"first":"CFS","ppv limit":"Unlimited","customer id":null,"phone":4198794597,"whdvr":"No","id":"abn5q8hw8126","address":"1393 W. Tyson Rd","login":"1234","password":1234,"geo_precision":"street","state":"IN","pin":1234},"type":"Feature","geometry":{"type":"Point","coordinates":[-85.000329,40.431872]}},{"properties":{"city":"Portland","status":"Active","ppv":"No","zip":"47371","region":"Community Fiber Solutions","service packages":"Channel48","township":null,"last":"Channel48","stbs allowed":5,"geo_score":0.471,"first":"CFS","ppv limit":"Unlimited","customer id":null,"phone":4198794598,"whdvr":"No","id":"abn5q8bzsuet","address":"1393 W. Tyson Rd","login":"1234","password":1234,"geo_precision":"street","state":"IN","pin":1234},"type":"Feature","geometry":{"type":"Point","coordinates":[-85.000329,40.431872]}},{"properties":{"city":"Portland","status":"Active","ppv":"No","zip":"47371","region":"Community Fiber Solutions","service packages":"Channel5","township":null,"last":"Channel5","stbs allowed":30,"geo_score":0.471,"first":"CFS","ppv limit":"Unlimited","customer id":null,"phone":4198790313,"whdvr":"No","id":"abn5q8fhy35m","address":"1393 W. Tyson Rd","login":"1234","password":1234,"geo_precision":"street","state":"IN","pin":1234},"type":"Feature","geometry":{"type":"Point","coordinates":[-85.000329,40.431872]}},{"properties":{"city":"Portland","status":"Active","ppv":"No","zip":"47371","region":"Community Fiber Solutions","service packages":"Channel50","township":null,"last":"Channel50","stbs allowed":5,"geo_score":0.471,"first":"CFS","ppv limit":"Unlimited","customer id":null,"phone":4198794599,"whdvr":"No","id":"abn5q85knrsm","address":"1393 W. Tyson Rd","login":"1234","password":1234,"geo_precision":"street","state":"IN","pin":1234},"type":"Feature","geometry":{"type":"Point","coordinates":[-85.000329,40.431872]}},{"properties":{"city":"Portland","status":"Active","ppv":"No","zip":"47371","region":"Community Fiber Solutions","service packages":"Channel51","township":null,"last":"Channel51","stbs allowed":5,"geo_score":0.471,"first":"CFS","ppv limit":"Unlimited","customer id":null,"phone":4198795359,"whdvr":"No","id":"abn5q8jg6sr3","address":"1393 W. Tyson Rd","login":"1234","password":1234,"geo_precision":"street","state":"IN","pin":1234},"type":"Feature","geometry":{"type":"Point","coordinates":[-85.000329,40.431872]}},{"properties":{"city":"Portland","status":"Active","ppv":"No","zip":"47371","region":"Community Fiber Solutions","service packages":"Channel52","township":null,"last":"Channel52","stbs allowed":5,"geo_score":0.471,"first":"CFS","ppv limit":"Unlimited","customer id":null,"phone":4198795360,"whdvr":"No","id":"abn5q8cza5qn","address":"1393 W. Tyson Rd","login":"1234","password":1234,"geo_precision":"street","state":"IN","pin":1234},"type":"Feature","geometry":{"type":"Point","coordinates":[-85.000329,40.431872]}},{"properties":{"city":"Portland","status":"Active","ppv":"No","zip":"47371","region":"Community Fiber Solutions","service packages":"Channel53","township":null,"last":"Channel53","stbs allowed":5,"geo_score":0.471,"first":"CFS","ppv limit":"Unlimited","customer id":null,"phone":4198795361,"whdvr":"No","id":"abn5q8dgylkc","address":"1393 W. Tyson Rd","login":"1234","password":1234,"geo_precision":"street","state":"IN","pin":1234},"type":"Feature","geometry":{"type":"Point","coordinates":[-85.000329,40.431872]}},{"properties":{"city":"Portland","status":"Active","ppv":"No","zip":"47371","region":"Community Fiber Solutions","service packages":"Channel54","township":null,"last":"Channel54","stbs allowed":5,"geo_score":0.471,"first":"CFS","ppv limit":"Unlimited","customer id":null,"phone":4198795362,"whdvr":"No","id":"abn5q8jk19pd","address":"1393 W. Tyson Rd","login":"1234","password":1234,"geo_precision":"street","state":"IN","pin":1234},"type":"Feature","geometry":{"type":"Point","coordinates":[-85.000329,40.431872]}},{"properties":{"city":"Portland","status":"Active","ppv":"No","zip":"47371","region":"Community Fiber Solutions","service packages":"Channel56","township":null,"last":"Channel56","stbs allowed":5,"geo_score":0.471,"first":"CFS","ppv limit":"Unlimited","customer id":null,"phone":4198795364,"whdvr":"No","id":"abn5q8ejlwoj","address":"1393 W. Tyson Rd","login":"1234","password":1234,"geo_precision":"street","state":"IN","pin":1234},"type":"Feature","geometry":{"type":"Point","coordinates":[-85.000329,40.431872]}},{"properties":{"city":"Portland","status":"Active","ppv":"No","zip":"47371","region":"Community Fiber Solutions","service packages":"Channel57","township":null,"last":"Channel57","stbs allowed":5,"geo_score":0.471,"first":"CFS","ppv limit":"Unlimited","customer id":null,"phone":4198795365,"whdvr":"No","id":"abn5q8ku3oh8","address":"1393 W. Tyson Rd","login":"1234","password":1234,"geo_precision":"street","state":"IN","pin":1234},"type":"Feature","geometry":{"type":"Point","coordinates":[-85.000329,40.431872]}},{"properties":{"city":"Portland","status":"Active","ppv":"No","zip":"47371","region":"Community Fiber Solutions","service packages":"Channel58","township":null,"last":"Channel58","stbs allowed":5,"geo_score":0.471,"first":"CFS","ppv limit":"Unlimited","customer id":null,"phone":4198795366,"whdvr":"No","id":"abn5q8avgdjn","address":"1393 W. Tyson Rd","login":"1234","password":1234,"geo_precision":"street","state":"IN","pin":1234},"type":"Feature","geometry":{"type":"Point","coordinates":[-85.000329,40.431872]}},{"properties":{"city":"Portland","status":"Active","ppv":"No","zip":"47371","region":"Community Fiber Solutions","service packages":"Channel59","township":null,"last":"Channel59","stbs allowed":5,"geo_score":0.471,"first":"CFS","ppv limit":"Unlimited","customer id":null,"phone":4198795367,"whdvr":"No","id":"abn5q89qxqdk","address":"1393 W. Tyson Rd","login":"1234","password":1234,"geo_precision":"street","state":"IN","pin":1234},"type":"Feature","geometry":{"type":"Point","coordinates":[-85.000329,40.431872]}},{"properties":{"city":"Portland","status":"Active","ppv":"No","zip":"47371","region":"Community Fiber Solutions","service packages":"Channel6","township":null,"last":"Channel6","stbs allowed":30,"geo_score":0.471,"first":"CFS","ppv limit":"Unlimited","customer id":null,"phone":4198790532,"whdvr":"No","id":"abn5q8628dxm","address":"1393 W. Tyson Rd","login":"1234","password":1234,"geo_precision":"street","state":"IN","pin":1234},"type":"Feature","geometry":{"type":"Point","coordinates":[-85.000329,40.431872]}},{"properties":{"city":"Portland","status":"Active","ppv":"No","zip":"47371","region":"Community Fiber Solutions","service packages":"Channel60","township":null,"last":"Channel60","stbs allowed":5,"geo_score":0.471,"first":"CFS","ppv limit":"Unlimited","customer id":null,"phone":4198795368,"whdvr":"No","id":"abn5q86q6u98","address":"1393 W. Tyson Rd","login":"1234","password":1234,"geo_precision":"street","state":"IN","pin":1234},"type":"Feature","geometry":{"type":"Point","coordinates":[-85.000329,40.431872]}},{"properties":{"city":"Portland","status":"Active","ppv":"No","zip":"47371","region":"Community Fiber Solutions","service packages":"Channel61","township":null,"last":"Channel61","stbs allowed":5,"geo_score":0.471,"first":"CFS","ppv limit":"Unlimited","customer id":null,"phone":4198795369,"whdvr":"No","id":"abn5q8gu8pmk","address":"1393 W. Tyson Rd","login":"1234","password":1234,"geo_precision":"street","state":"IN","pin":1234},"type":"Feature","geometry":{"type":"Point","coordinates":[-85.000329,40.431872]}},{"properties":{"city":"Portland","status":"Active","ppv":"No","zip":"47371","region":"Community Fiber Solutions","service packages":"Channel62","township":null,"last":"Channel62","stbs allowed":5,"geo_score":0.471,"first":"CFS","ppv limit":"Unlimited","customer id":null,"phone":4198795370,"whdvr":"No","id":"abn5q8ktshy1","address":"1393 W. Tyson Rd","login":"1234","password":1234,"geo_precision":"street","state":"IN","pin":1234},"type":"Feature","geometry":{"type":"Point","coordinates":[-85.000329,40.431872]}},{"properties":{"city":"Portland","status":"Active","ppv":"No","zip":"47371","region":"Community Fiber Solutions","service packages":"Channel63","township":null,"last":"Channel63","stbs allowed":5,"geo_score":0.471,"first":"CFS","ppv limit":"Unlimited","customer id":null,"phone":4198795371,"whdvr":"No","id":"abn5q877y59s","address":"1393 W. Tyson Rd","login":"1234","password":1234,"geo_precision":"street","state":"IN","pin":1234},"type":"Feature","geometry":{"type":"Point","coordinates":[-85.000329,40.431872]}},{"properties":{"city":"Portland","status":"Active","ppv":"No","zip":"47371","region":"Community Fiber Solutions","service packages":"Channel64","township":null,"last":"Channel64","stbs allowed":5,"geo_score":0.471,"first":"CFS","ppv limit":"Unlimited","customer id":null,"phone":4198795372,"whdvr":"No","id":"abn5q8eptjon","address":"1393 W. Tyson Rd","login":"1234","password":1234,"geo_precision":"street","state":"IN","pin":1234},"type":"Feature","geometry":{"type":"Point","coordinates":[-85.000329,40.431872]}},{"properties":{"city":"Portland","status":"Active","ppv":"No","zip":"47371","region":"Community Fiber Solutions","service packages":"Channel65","township":null,"last":"Channel65","stbs allowed":5,"geo_score":0.471,"first":"CFS","ppv limit":"Unlimited","customer id":null,"phone":4198795373,"whdvr":"No","id":"abn5q8b2delo","address":"1393 W. Tyson Rd","login":"1234","password":1234,"geo_precision":"street","state":"IN","pin":1234},"type":"Feature","geometry":{"type":"Point","coordinates":[-85.000329,40.431872]}},{"properties":{"city":"Portland","status":"Active","ppv":"No","zip":"47371","region":"Community Fiber Solutions","service packages":"Channel66","township":null,"last":"Channel66","stbs allowed":5,"geo_score":0.471,"first":"CFS","ppv limit":"Unlimited","customer id":null,"phone":4198796417,"whdvr":"No","id":"abn5q8jkvv8l","address":"1393 W. Tyson Rd","login":"1234","password":1234,"geo_precision":"street","state":"IN","pin":1234},"type":"Feature","geometry":{"type":"Point","coordinates":[-85.000329,40.431872]}},{"properties":{"city":"Portland","status":"Active","ppv":"No","zip":"47371","region":"Community Fiber Solutions","service packages":"Channel7","township":null,"last":"Channel7","stbs allowed":30,"geo_score":0.471,"first":"CFS","ppv limit":"Unlimited","customer id":null,"phone":4198791102,"whdvr":"No","id":"abn5q8j3ne1r","address":"1393 W. Tyson Rd","login":"1234","password":1234,"geo_precision":"street","state":"IN","pin":1234},"type":"Feature","geometry":{"type":"Point","coordinates":[-85.000329,40.431872]}},{"properties":{"city":"Portland","status":"Active","ppv":"No","zip":"47371","region":"Community Fiber Solutions","service packages":"Channel70","township":null,"last":"Channel70","stbs allowed":5,"geo_score":0.471,"first":"CFS","ppv limit":"Unlimited","customer id":null,"phone":4198796895,"whdvr":"No","id":"abn5q8h0ro8o","address":"1393 W. Tyson Rd","login":"1234","password":1234,"geo_precision":"street","state":"IN","pin":1234},"type":"Feature","geometry":{"type":"Point","coordinates":[-85.000329,40.431872]}},{"properties":{"city":"Portland","status":"Active","ppv":"No","zip":"47371","region":"Community Fiber Solutions","service packages":"Channel72","township":null,"last":"Channel72","stbs allowed":5,"geo_score":0.471,"first":"CFS","ppv limit":"Unlimited","customer id":null,"phone":4198796897,"whdvr":"No","id":"abn5q894zkp1","address":"1393 W. Tyson Rd","login":"1234","password":1234,"geo_precision":"street","state":"IN","pin":1234},"type":"Feature","geometry":{"type":"Point","coordinates":[-85.000329,40.431872]}},{"properties":{"city":"Portland","status":"Active","ppv":"No","zip":"47371","region":"Community Fiber Solutions","service packages":"Channel75","township":null,"last":"Channel75","stbs allowed":5,"geo_score":0.471,"first":"CFS","ppv limit":"Unlimited","customer id":null,"phone":4198796899,"whdvr":"No","id":"abn5q8ep2tk3","address":"1393 W. Tyson Rd","login":"1234","password":1234,"geo_precision":"street","state":"IN","pin":1234},"type":"Feature","geometry":{"type":"Point","coordinates":[-85.000329,40.431872]}},{"properties":{"city":"Portland","status":"Active","ppv":"No","zip":"47371","region":"Community Fiber Solutions","service packages":"Channel76","township":null,"last":"Channel76","stbs allowed":5,"geo_score":0.471,"first":"CFS","ppv limit":"Unlimited","customer id":null,"phone":4198796900,"whdvr":"No","id":"abn5q88fjfxr","address":"1393 W. Tyson Rd","login":"1234","password":1234,"geo_precision":"street","state":"IN","pin":1234},"type":"Feature","geometry":{"type":"Point","coordinates":[-85.000329,40.431872]}},{"properties":{"city":"Portland","status":"Active","ppv":"No","zip":"47371","region":"Community Fiber Solutions","service packages":"Channel78","township":null,"last":"Channel78","stbs allowed":5,"geo_score":0.471,"first":"CFS","ppv limit":"Unlimited","customer id":null,"phone":4198796902,"whdvr":"No","id":"abn5q8eense0","address":"1393 W. Tyson Rd","login":"1234","password":1234,"geo_precision":"street","state":"IN","pin":1234},"type":"Feature","geometry":{"type":"Point","coordinates":[-85.000329,40.431872]}},{"properties":{"city":"Portland","status":"Active","ppv":"No","zip":"47371","region":"Community Fiber Solutions","service packages":"Channel79","township":null,"last":"Channel79","stbs allowed":5,"geo_score":0.471,"first":"CFS","ppv limit":"Unlimited","customer id":null,"phone":4198796903,"whdvr":"No","id":"abn5q8e4touj","address":"1393 W. Tyson Rd","login":"1234","password":1234,"geo_precision":"street","state":"IN","pin":1234},"type":"Feature","geometry":{"type":"Point","coordinates":[-85.000329,40.431872]}},{"properties":{"city":"Portland","status":"Active","ppv":"No","zip":"47371","region":"Community Fiber Solutions","service packages":"channel8","township":null,"last":"channel8","stbs allowed":5,"geo_score":0.456,"first":"channel8","ppv limit":"Unlimited","customer id":null,"phone":4198797644,"whdvr":"No","id":"abn5q8js4ee3","address":"1393 W. Tyson Rd","login":"12345","password":12345,"geo_precision":"street","state":"IN","pin":12345},"type":"Feature","geometry":{"type":"Point","coordinates":[-85.000329,40.431872]}},{"properties":{"city":"Portland","status":"Active","ppv":"No","zip":"47371","region":"Community Fiber Solutions","service packages":"Channel81","township":null,"last":"Channel81","stbs allowed":5,"geo_score":0.471,"first":"CFS","ppv limit":"Unlimited","customer id":null,"phone":4198796905,"whdvr":"No","id":"abn5q8fhiz8e","address":"1393 W. Tyson Rd","login":"1234","password":1234,"geo_precision":"street","state":"IN","pin":1234},"type":"Feature","geometry":{"type":"Point","coordinates":[-85.000329,40.431872]}},{"properties":{"city":"Portland","status":"Active","ppv":"No","zip":"47371","region":"Community Fiber Solutions","service packages":"channel9","township":null,"last":"channel9","stbs allowed":5,"geo_score":0.471,"first":"channel9","ppv limit":"Unlimited","customer id":null,"phone":4198797645,"whdvr":"No","id":"abn5q89i38zp","address":"1393 W. Tyson Rd","login":"12345","password":12345,"geo_precision":"street","state":"IN","pin":12345},"type":"Feature","geometry":{"type":"Point","coordinates":[-85.000329,40.431872]}},{"properties":{"city":"Portland","status":"Active","ppv":"No","zip":"47371","region":"Community Fiber Solutions","service packages":"Channel90","township":null,"last":"Channel90","stbs allowed":5,"geo_score":0.471,"first":"CFS","ppv limit":"Unlimited","customer id":null,"phone":4198796906,"whdvr":"No","id":"abn5q8kpansz","address":"1393 W. Tyson Rd","login":"1234","password":1234,"geo_precision":"street","state":"IN","pin":1234},"type":"Feature","geometry":{"type":"Point","coordinates":[-85.000329,40.431872]}},{"properties":{"city":"Portland","status":"Active","ppv":"No","zip":"47371","region":"Community Fiber Solutions","service packages":"Channel91","township":null,"last":"Channel91","stbs allowed":5,"geo_score":0.471,"first":"CFS","ppv limit":"Unlimited","customer id":null,"phone":4198796907,"whdvr":"No","id":"abn5q8a6kpv1","address":"1393 W. Tyson Rd","login":"1234","password":1234,"geo_precision":"street","state":"IN","pin":1234},"type":"Feature","geometry":{"type":"Point","coordinates":[-85.000329,40.431872]}},{"properties":{"city":"Portland","status":"Active","ppv":"No","zip":"47371","region":"Community Fiber Solutions","service packages":"Channel92","township":null,"last":"Channel92","stbs allowed":5,"geo_score":0.471,"first":"CFS","ppv limit":"Unlimited","customer id":null,"phone":4198796908,"whdvr":"No","id":"abn5q8axcqyj","address":"1393 W. Tyson Rd","login":"1234","password":1234,"geo_precision":"street","state":"IN","pin":1234},"type":"Feature","geometry":{"type":"Point","coordinates":[-85.000329,40.431872]}},{"properties":{"city":"Portland","status":"Active","ppv":"No","zip":"47371","region":"Community Fiber Solutions","service packages":"Channel93","township":null,"last":"Channel93","stbs allowed":5,"geo_score":0.471,"first":"CFS","ppv limit":"Unlimited","customer id":null,"phone":4198796909,"whdvr":"No","id":"abn5q8fnu8ag","address":"1393 W. Tyson Rd","login":"1234","password":1234,"geo_precision":"street","state":"IN","pin":1234},"type":"Feature","geometry":{"type":"Point","coordinates":[-85.000329,40.431872]}},{"properties":{"city":"Portland","status":"Active","ppv":"No","zip":"47371","region":"Community Fiber Solutions","service packages":"Channel99","township":null,"last":"Channel99","stbs allowed":5,"geo_score":0.471,"first":"CFS","ppv limit":"Unlimited","customer id":null,"phone":4198797326,"whdvr":"No","id":"abn5q8i9vrzz","address":"1393 W. Tyson Rd","login":"1234","password":1234,"geo_precision":"street","state":"IN","pin":1234},"type":"Feature","geometry":{"type":"Point","coordinates":[-85.000329,40.431872]}},{"properties":{"city":"Portland","status":"Active","ppv":"Yes","zip":"47371","region":"Community Fiber Solutions","service packages":"TestOnlyDoNotUse","township":null,"last":"Clemens","stbs allowed":5,"geo_score":0.476,"first":"Mark","ppv limit":"Unlimited","customer id":null,"phone":2607297115,"whdvr":"Yes","id":"abn5q8l21n4y","address":"948 W. Main St","login":"12345","password":12345,"geo_precision":"street","state":"IN","pin":12345},"type":"Feature","geometry":{"type":"Point","coordinates":[-84.97916,40.433333]}},{"properties":{"city":"Portland","status":"Active","ppv":"No","zip":"47371","region":"Community Fiber Solutions","service packages":"CNBC","township":null,"last":"CNBC","stbs allowed":5,"geo_score":0.471,"first":"CFS","ppv limit":"Unlimited","customer id":null,"phone":4198793973,"whdvr":"No","id":"abn5q8bbn6yu","address":"1393 W. Tyson Rd","login":"1234","password":1234,"geo_precision":"street","state":"IN","pin":1234},"type":"Feature","geometry":{"type":"Point","coordinates":[-85.000329,40.431872]}},{"properties":{"city":"Portland","status":"Active","ppv":"No","zip":"47371","region":"Community Fiber Solutions","service packages":"Channel16","township":null,"last":"CNN","stbs allowed":5,"geo_score":0.471,"first":"CFS","ppv limit":"Unlimited","customer id":null,"phone":4198791109,"whdvr":"No","id":"abn5q8j932ti","address":"1393 W. Tyson Rd","login":"1234","password":1234,"geo_precision":"street","state":"IN","pin":1234},"type":"Feature","geometry":{"type":"Point","coordinates":[-85.000329,40.431872]}},{"properties":{"city":"Portland","status":"Active","ppv":"No","zip":"47371","region":"Community Fiber Solutions","service packages":"Discovery Science","township":null,"last":"Discovery Science","stbs allowed":5,"geo_score":0.471,"first":"CFS","ppv limit":"Unlimited","customer id":null,"phone":4198794585,"whdvr":"No","id":"abn5q8itzc59","address":"1393 W. Tyson Rd","login":"1234","password":1234,"geo_precision":"street","state":"IN","pin":1234},"type":"Feature","geometry":{"type":"Point","coordinates":[-85.000329,40.431872]}},{"properties":{"city":"Portland","status":"Active","ppv":"No","zip":"47371","region":"Community Fiber Solutions","service packages":"Discovery-HD","township":null,"last":"Discovery-HD","stbs allowed":5,"geo_score":0.471,"first":"CFS","ppv limit":"Unlimited","customer id":null,"phone":4198797659,"whdvr":"No","id":"abn5q8cktgl4","address":"1393 W. Tyson Rd","login":"1234","password":1234,"geo_precision":"street","state":"IN","pin":1234},"type":"Feature","geometry":{"type":"Point","coordinates":[-85.000329,40.431872]}},{"properties":{"city":"Portland","status":"Active","ppv":"No","zip":"47371","region":"Community Fiber Solutions","service packages":"ESPN Classic","township":null,"last":"ESPN Classic","stbs allowed":5,"geo_score":0.471,"first":"CFS","ppv limit":"Unlimited","customer id":null,"phone":4198791107,"whdvr":"No","id":"abn5q8ewi0mx","address":"1393 W. Tyson Rd","login":"1234","password":1234,"geo_precision":"street","state":"IN","pin":1234},"type":"Feature","geometry":{"type":"Point","coordinates":[-85.000329,40.431872]}},{"properties":{"city":"Portland","status":"Active","ppv":"No","zip":"47371","region":"Community Fiber Solutions","service packages":"ESPN-HD","township":null,"last":"ESPN-HD","stbs allowed":5,"geo_score":0.471,"first":"CFS","ppv limit":"Unlimited","customer id":null,"phone":4198797646,"whdvr":"No","id":"abn5q8i4cfit","address":"1393 W. Tyson Rd","login":"1234","password":1234,"geo_precision":"street","state":"IN","pin":1234},"type":"Feature","geometry":{"type":"Point","coordinates":[-85.000329,40.431872]}},{"properties":{"city":"Portland","status":"Active","ppv":"No","zip":"47371","region":"Community Fiber Solutions","service packages":"ESPN2-HD","township":null,"last":"ESPN2-HD","stbs allowed":5,"geo_score":0.471,"first":"CFS","ppv limit":"Unlimited","customer id":null,"phone":4198797647,"whdvr":"No","id":"abn5q8ksd219","address":"1393 W. Tyson Rd","login":"1234","password":1234,"geo_precision":"street","state":"IN","pin":1234},"type":"Feature","geometry":{"type":"Point","coordinates":[-85.000329,40.431872]}},{"properties":{"city":"Portland","status":"Active","ppv":"No","zip":"47371","region":"Community Fiber Solutions","service packages":"ESPNU","township":null,"last":"ESPNUHD","stbs allowed":5,"geo_score":0.471,"first":"CFS","ppv limit":"Unlimited","customer id":null,"phone":4198793010,"whdvr":"No","id":"abn5q8caqdl8","address":"1393 W. Tyson Rd","login":"1234","password":1234,"geo_precision":"street","state":"IN","pin":1234},"type":"Feature","geometry":{"type":"Point","coordinates":[-85.000329,40.431872]}},{"properties":{"city":"Portland","status":"Active","ppv":"No","zip":"47371","region":"Community Fiber Solutions","service packages":"Channel11","township":null,"last":"Eternal Word Television Network","stbs allowed":5,"geo_score":0.471,"first":"CFS","ppv limit":"Unlimited","customer id":null,"phone":4198791104,"whdvr":"No","id":"abn5q88gy384","address":"1393 W. Tyson Rd","login":"1234","password":1234,"geo_precision":"street","state":"IN","pin":1234},"type":"Feature","geometry":{"type":"Point","coordinates":[-85.000329,40.431872]}},{"properties":{"city":"Portland","status":"Active","ppv":"No","zip":"47371","region":"Community Fiber Solutions","service packages":"Fox Movie Channel","township":null,"last":"Fox Movie Channel","stbs allowed":5,"geo_score":0.471,"first":"CFS","ppv limit":"Unlimited","customer id":null,"phone":4198796898,"whdvr":"No","id":"abn5q896so25","address":"1393 W. Tyson Rd","login":"1234","password":1234,"geo_precision":"street","state":"IN","pin":1234},"type":"Feature","geometry":{"type":"Point","coordinates":[-85.000329,40.431872]}},{"properties":{"city":"Portland","status":"Active","ppv":"No","zip":"47371","region":"Community Fiber Solutions","service packages":"Fox News-HD","township":null,"last":"Fox News-HD","stbs allowed":5,"geo_score":0.471,"first":"CFS","ppv limit":"Unlimited","customer id":null,"phone":4198797652,"whdvr":"No","id":"abn5q8aduk8d","address":"1393 W. Tyson Rd","login":"1234","password":1234,"geo_precision":"street","state":"IN","pin":1234},"type":"Feature","geometry":{"type":"Point","coordinates":[-85.000329,40.431872]}},{"properties":{"city":"Portland","status":"Active","ppv":"No","zip":"47371","region":"Community Fiber Solutions","service packages":"Galaxy Alt Country America","township":null,"last":"Galaxy Alt Country America","stbs allowed":5,"geo_score":0.471,"first":"CFS","ppv limit":"Unlimited","customer id":null,"phone":4198796904,"whdvr":"No","id":"abn5q8959iwg","address":"1393  W. Tyson Rd","login":"1234","password":1234,"geo_precision":"street","state":"IN","pin":1234},"type":"Feature","geometry":{"type":"Point","coordinates":[-85.000329,40.431872]}},{"properties":{"city":"Portland","status":"Active","ppv":"No","zip":"47371","region":"Community Fiber Solutions","service packages":"Galaxy Baroque","township":null,"last":"Galaxy Baroque","stbs allowed":5,"geo_score":0.471,"first":"CFS","ppv limit":"Unlimited","customer id":null,"phone":4198797662,"whdvr":"No","id":"abn5q8d2ik9p","address":"1393 W. Tyson Rd","login":"1234","password":1234,"geo_precision":"street","state":"IN","pin":1234},"type":"Feature","geometry":{"type":"Point","coordinates":[-85.000329,40.431872]}},{"properties":{"city":"Portland","status":"Active","ppv":"No","zip":"47371","region":"Community Fiber Solutions","service packages":"Galaxy Big Band","township":null,"last":"Galaxy Big Band","stbs allowed":5,"geo_score":0.471,"first":"CFS","ppv limit":"Unlimited","customer id":null,"phone":4198797663,"whdvr":"No","id":"abn5q89j6waj","address":"1393 W. Tyson Rd","login":"1234","password":1234,"geo_precision":"street","state":"IN","pin":1234},"type":"Feature","geometry":{"type":"Point","coordinates":[-85.000329,40.431872]}},{"properties":{"city":"Portland","status":"Active","ppv":"No","zip":"47371","region":"Community Fiber Solutions","service packages":"Galaxy Bluegrass","township":null,"last":"Galaxy Bluegrass","stbs allowed":5,"geo_score":0.471,"first":"CFS","ppv limit":"Unlimited","customer id":null,"phone":4198798468,"whdvr":"No","id":"abn5q8etcbhy","address":"1393 W. Tyson Rd","login":"1234","password":1234,"geo_precision":"street","state":"IN","pin":1234},"type":"Feature","geometry":{"type":"Point","coordinates":[-85.000329,40.431872]}},{"properties":{"city":"Portland","status":"Active","ppv":"No","zip":"47371","region":"Community Fiber Solutions","service packages":"Galaxy Celtic","township":null,"last":"Galaxy Celtic","stbs allowed":5,"geo_score":0.471,"first":"CFS","ppv limit":"Unlimited","customer id":null,"phone":4198798799,"whdvr":"No","id":"abn5q8anopn9","address":"1393 W. Tyson Rd","login":"1234","password":1234,"geo_precision":"street","state":"IN","pin":1234},"type":"Feature","geometry":{"type":"Point","coordinates":[-85.000329,40.431872]}},{"properties":{"city":"Portland","status":"Active","ppv":"No","zip":"47371","region":"Community Fiber Solutions","service packages":"Galaxy Chamber Music","township":null,"last":"Galaxy Chamber Music","stbs allowed":5,"geo_score":0.471,"first":"CFS","ppv limit":"Unlimited","customer id":null,"phone":4198799759,"whdvr":"No","id":"abn5q8i574xf","address":"1393 W. Tyson Rd","login":"1234","password":1234,"geo_precision":"street","state":"IN","pin":1234},"type":"Feature","geometry":{"type":"Point","coordinates":[-85.000329,40.431872]}},{"properties":{"city":"Portland","status":"Active","ppv":"No","zip":"47371","region":"Community Fiber Solutions","service packages":"Galaxy Classic Masters","township":null,"last":"Galaxy Classic Masters","stbs allowed":5,"geo_score":0.471,"first":"CFS","ppv limit":"Unlimited","customer id":null,"phone":4199992140,"whdvr":"No","id":"abn5q8592ame","address":"1393 W. Tyson Rd","login":"1234","password":1234,"geo_precision":"street","state":"IN","pin":1234},"type":"Feature","geometry":{"type":"Point","coordinates":[-85.000329,40.431872]}},{"properties":{"city":"Portland","status":"Active","ppv":"No","zip":"47371","region":"Community Fiber Solutions","service packages":"Galaxy Country Classics","township":null,"last":"Galaxy Country Classics","stbs allowed":5,"geo_score":0.471,"first":"CFS","ppv limit":"Unlimited","customer id":null,"phone":4199993365,"whdvr":"No","id":"abn5q8bl4ato","address":"1393 W. Tyson Rd","login":"1234","password":1234,"geo_precision":"street","state":"IN","pin":1234},"type":"Feature","geometry":{"type":"Point","coordinates":[-85.000329,40.431872]}},{"properties":{"city":"Portland","status":"Active","ppv":"No","zip":"47371","region":"Community Fiber Solutions","service packages":"Galaxy Easy Listening","township":null,"last":"Galaxy Easy Listening","stbs allowed":5,"geo_score":0.471,"first":"CFS","ppv limit":"Unlimited","customer id":null,"phone":4198797653,"whdvr":"No","id":"abn5q8jm7obn","address":"1393 W. Tyson Rd","login":"1234","password":1234,"geo_precision":"street","state":"IN","pin":1234},"type":"Feature","geometry":{"type":"Point","coordinates":[-85.000329,40.431872]}},{"properties":{"city":"Portland","status":"Active","ppv":"No","zip":"47371","region":"Community Fiber Solutions","service packages":"Galaxy Folk Roots","township":null,"last":"Galaxy Folk Roots","stbs allowed":5,"geo_score":0.471,"first":"CFS","ppv limit":"Unlimited","customer id":null,"phone":4199993216,"whdvr":"No","id":"abn5q87lfzjg","address":"1393 W. Tyson Rd","login":"1234","password":1234,"geo_precision":"street","state":"IN","pin":1234},"type":"Feature","geometry":{"type":"Point","coordinates":[-85.000329,40.431872]}},{"properties":{"city":"Portland","status":"Active","ppv":"No","zip":"47371","region":"Community Fiber Solutions","service packages":"Galaxy Gospel","township":null,"last":"Galaxy Gospel","stbs allowed":5,"geo_score":0.471,"first":"CFS","ppv limit":"Unlimited","customer id":null,"phone":4193989001,"whdvr":"No","id":"abn5q86ce19b","address":"1393 W. Tyson Rd","login":"1234","password":1234,"geo_precision":"street","state":"IN","pin":1234},"type":"Feature","geometry":{"type":"Point","coordinates":[-85.000329,40.431872]}},{"properties":{"city":"Portland","status":"Active","ppv":"No","zip":"47371","region":"Community Fiber Solutions","service packages":"Galaxy Holiday Hits","township":null,"last":"Galaxy Holiday Hits","stbs allowed":5,"geo_score":0.471,"first":"CFS","ppv limit":"Unlimited","customer id":null,"phone":4193989002,"whdvr":"No","id":"abn5q8ayy0wl","address":"1393 W. Tyson Rd","login":"1234","password":1234,"geo_precision":"street","state":"IN","pin":1234},"type":"Feature","geometry":{"type":"Point","coordinates":[-85.000329,40.431872]}},{"properties":{"city":"Portland","status":"Active","ppv":"No","zip":"47371","region":"Community Fiber Solutions","service packages":"Galaxy No Fences","township":null,"last":"Galaxy No Fences","stbs allowed":5,"geo_score":0.471,"first":"CFS","ppv limit":"Unlimited","customer id":null,"phone":4193989003,"whdvr":"No","id":"abn5q8klsysc","address":"1393 W. Tyson Rd","login":"1234","password":1234,"geo_precision":"street","state":"IN","pin":1234},"type":"Feature","geometry":{"type":"Point","coordinates":[-85.000329,40.431872]}},{"properties":{"city":"Portland","status":"Active","ppv":"No","zip":"47371","region":"Community Fiber Solutions","service packages":"Galaxy Opera Plus","township":null,"last":"Galaxy Opera Plus","stbs allowed":5,"geo_score":0.471,"first":"CFS","ppv limit":"Unlimited","customer id":null,"phone":4193989004,"whdvr":"No","id":"abn5q8hl5bhy","address":"1393 W. Tyson Rd","login":"1234","password":1234,"geo_precision":"street","state":"IN","pin":1234},"type":"Feature","geometry":{"type":"Point","coordinates":[-85.000329,40.431872]}},{"properties":{"city":"Portland","status":"Active","ppv":"No","zip":"47371","region":"Community Fiber Solutions","service packages":"Galaxy Pop Classics","township":null,"last":"Galaxy Pop Classics","stbs allowed":5,"geo_score":0.471,"first":"CFS","ppv limit":"Unlimited","customer id":null,"phone":4193989005,"whdvr":"No","id":"abn5q8ctquhi","address":"1393 W. Tyson Rd","login":"1234","password":1234,"geo_precision":"street","state":"IN","pin":1234},"type":"Feature","geometry":{"type":"Point","coordinates":[-85.000329,40.431872]}},{"properties":{"city":"Portland","status":"Active","ppv":"No","zip":"47371","region":"Community Fiber Solutions","service packages":"Galaxy Smooth Jazz","township":null,"last":"Galaxy Smooth Jazz","stbs allowed":5,"geo_score":0.471,"first":"CFS","ppv limit":"Unlimited","customer id":null,"phone":4193989006,"whdvr":"No","id":"abn5q8iiysba","address":"1393 W. Tyson Rd","login":"1234","password":1234,"geo_precision":"street","state":"IN","pin":1234},"type":"Feature","geometry":{"type":"Point","coordinates":[-85.000329,40.431872]}},{"properties":{"city":"Portland","status":"Active","ppv":"No","zip":"47371","region":"Community Fiber Solutions","service packages":"Galaxy Swinging Standards","township":null,"last":"Galaxy Swinging Standards","stbs allowed":5,"geo_score":0.471,"first":"CFS","ppv limit":"Unlimited","customer id":null,"phone":4193989007,"whdvr":"No","id":"abn5q86sy3a0","address":"1393 W. Tyson Rd","login":"1234","password":1234,"geo_precision":"street","state":"IN","pin":1234},"type":"Feature","geometry":{"type":"Point","coordinates":[-85.000329,40.431872]}},{"properties":{"city":"Portland","status":"Active","ppv":"No","zip":"47371","region":"Community Fiber Solutions","service packages":"Galaxy The Blues","township":null,"last":"Galaxy The Blues","stbs allowed":5,"geo_score":0.471,"first":"CFS","ppv limit":"Unlimited","customer id":null,"phone":4193989008,"whdvr":"No","id":"abn5q8c52ulp","address":"1393 W. Tyson Rd","login":"1234","password":1234,"geo_precision":"street","state":"IN","pin":1234},"type":"Feature","geometry":{"type":"Point","coordinates":[-85.000329,40.431872]}},{"properties":{"city":"Portland","status":"Active","ppv":"No","zip":"47371","region":"Community Fiber Solutions","service packages":"Galaxy The Light","township":null,"last":"Galaxy The Light","stbs allowed":5,"geo_score":0.471,"first":"CFS","ppv limit":"Unlimited","customer id":null,"phone":4193989009,"whdvr":"No","id":"abn5q8iqdund","address":"1393 W, Tyson Rd","login":"1234","password":1234,"geo_precision":"street","state":"IN","pin":1234},"type":"Feature","geometry":{"type":"Point","coordinates":[-85.000329,40.431872]}},{"properties":{"city":"Portland","status":"Active","ppv":"No","zip":"47371","region":"Community Fiber Solutions","service packages":"Galaxy The Spa Lounge","township":null,"last":"Galaxy The Spa Lounge","stbs allowed":5,"geo_score":0.471,"first":"CFS","ppv limit":"Unlimited","customer id":null,"phone":4193989010,"whdvr":"No","id":"abn5q8gmmie5","address":"1393 W. Tyson Rd","login":"1234","password":1234,"geo_precision":"street","state":"IN","pin":1234},"type":"Feature","geometry":{"type":"Point","coordinates":[-85.000329,40.431872]}},{"properties":{"city":"Portland","status":"Active","ppv":"No","zip":"47371","region":"Community Fiber Solutions","service packages":"Game Show Network","township":null,"last":"Game Show Network","stbs allowed":5,"geo_score":0.471,"first":"CFS","ppv limit":"Unlimited","customer id":null,"phone":4198793290,"whdvr":"No","id":"abn5q89y3om7","address":"1393 W. Tyson Rd","login":"1234","password":1234,"geo_precision":"street","state":"IN","pin":1234},"type":"Feature","geometry":{"type":"Point","coordinates":[-85.000329,40.431872]}},{"properties":{"city":"Portland","status":"Active","ppv":"No","zip":"47371","region":"Community Fiber Solutions","service packages":"Hallmark Movie-HD","township":null,"last":"Hallmark Movie-HD","stbs allowed":5,"geo_score":0.471,"first":"CFS","ppv limit":"Unlimited","customer id":null,"phone":4198797658,"whdvr":"No","id":"abn5q8e3ueae","address":"1393 W. Tyson Rd","login":"1234","password":1234,"geo_precision":"street","state":"IN","pin":1234},"type":"Feature","geometry":{"type":"Point","coordinates":[-85.000329,40.431872]}},{"properties":{"city":"Portland","status":"Active","ppv":"No","zip":"47371","region":"Community Fiber Solutions","service packages":"HD Net Movies","township":null,"last":"HD Net Movies","stbs allowed":5,"geo_score":0.471,"first":"CFS","ppv limit":"Unlimited","customer id":null,"phone":4198796901,"whdvr":"No","id":"abn5q8hgha5t","address":"1393 W. Tyson Rd","login":"1234","password":1234,"geo_precision":"street","state":"IN","pin":1234},"type":"Feature","geometry":{"type":"Point","coordinates":[-85.000329,40.431872]}},{"properties":{"city":"Portland","status":"Active","ppv":"Yes","zip":"47371","region":"Community Fiber Solutions","service packages":"TestOnlyDoNotUse","township":null,"last":"Headend","stbs allowed":30,"geo_score":0.471,"first":"CFS","ppv limit":"65","customer id":null,"phone":4199992825,"whdvr":"Yes","id":"abn5q863y3g5","address":"1393 W. Tyson Rd","login":"1234","password":1234,"geo_precision":"street","state":"IN","pin":1234},"type":"Feature","geometry":{"type":"Point","coordinates":[-85.000329,40.431872]}},{"properties":{"city":"Portland","status":"Active","ppv":"No","zip":"47371","region":"Community Fiber Solutions","service packages":"HGTV-HD","township":null,"last":"HGTV-HD","stbs allowed":5,"geo_score":0.471,"first":"CFS","ppv limit":"Unlimited","customer id":null,"phone":4198797661,"whdvr":"No","id":"abn5q85bg8zo","address":"1393 W. Tyson Rd","login":"1234","password":1234,"geo_precision":"street","state":"IN","pin":1234},"type":"Feature","geometry":{"type":"Point","coordinates":[-85.000329,40.431872]}},{"properties":{"city":"Portland","status":"Active","ppv":"No","zip":"47371","region":"Community Fiber Solutions","service packages":"History-HD","township":null,"last":"History-HD","stbs allowed":5,"geo_score":0.471,"first":"CFS","ppv limit":"Unlimited","customer id":null,"phone":4198797657,"whdvr":"No","id":"abn5q8ixgz33","address":"1393 W. Tyson Rd","login":"1234","password":1234,"geo_precision":"street","state":"IN","pin":1234},"type":"Feature","geometry":{"type":"Point","coordinates":[-85.000329,40.431872]}},{"properties":{"city":"Portland","status":"Active","ppv":"No","zip":"47371","region":"Community Fiber Solutions","service packages":"HLN-HD","township":null,"last":"HLN-HD","stbs allowed":5,"geo_score":0.471,"first":"CFS","ppv limit":"Unlimited","customer id":null,"phone":4198797651,"whdvr":"No","id":"abn5q8fpbo8t","address":"1393 W. Tyson Rd","login":"1234","password":1234,"geo_precision":"street","state":"IN","pin":1234},"type":"Feature","geometry":{"type":"Point","coordinates":[-85.000329,40.431872]}},{"properties":{"city":"Portland","status":"Active","ppv":"No","zip":"47371","region":"Community Fiber Solutions","service packages":"Military Channel","township":null,"last":"Military Channel","stbs allowed":5,"geo_score":0.471,"first":"CFS","ppv limit":"Unlimited","customer id":null,"phone":4198794596,"whdvr":"No","id":"abn5q8kegrdi","address":"1393 W. Tyson Rd","login":"1234","password":1234,"geo_precision":"street","state":"IN","pin":1234},"type":"Feature","geometry":{"type":"Point","coordinates":[-85.000329,40.431872]}},{"properties":{"city":"Portland","status":"Active","ppv":"No","zip":"47371","region":"Community Fiber Solutions","service packages":"MLB Network","township":null,"last":"MLB Network","stbs allowed":5,"geo_score":0.471,"first":"CFS","ppv limit":"Unlimited","customer id":null,"phone":4193989011,"whdvr":"No","id":"abn5q8hpon6l","address":"1393 W. Tyson Rd","login":"1234","password":1234,"geo_precision":"street","state":"IN","pin":1234},"type":"Feature","geometry":{"type":"Point","coordinates":[-85.000329,40.431872]}},{"properties":{"city":"Portland","status":"Active","ppv":"No","zip":"47371","region":"Community Fiber Solutions","service packages":"Channel17","township":null,"last":"MSNBC","stbs allowed":5,"geo_score":0.471,"first":"CFS","ppv limit":"Unlimited","customer id":null,"phone":4198791504,"whdvr":"No","id":"abn5q8dplkks","address":"1393 W. Tyson Rd","login":"1234","password":1234,"geo_precision":"street","state":"IN","pin":1234},"type":"Feature","geometry":{"type":"Point","coordinates":[-85.000329,40.431872]}},{"properties":{"city":"Portland","status":"Active","ppv":"No","zip":"47371","region":"Community Fiber Solutions","service packages":"National Geographic","township":null,"last":"National Geographic HD","stbs allowed":5,"geo_score":0.471,"first":"CFS","ppv limit":"Unlimited","customer id":null,"phone":4198794580,"whdvr":"No","id":"abn5q8hqxpvi","address":"1393 W. Tyson Rd","login":"1234","password":1234,"geo_precision":"street","state":"IN","pin":1234},"type":"Feature","geometry":{"type":"Point","coordinates":[-85.000329,40.431872]}},{"properties":{"city":"Portland","status":"Active","ppv":"No","zip":"47371","region":"Community Fiber Solutions","service packages":"NBC Sports Channel","township":null,"last":"NBC Sports Channel","stbs allowed":5,"geo_score":0.471,"first":"CFS","ppv limit":"Unlimited","customer id":null,"phone":4198793218,"whdvr":"No","id":"abn5q897ct4d","address":"1393 W. Tyson Rd","login":"1234","password":1234,"geo_precision":"street","state":"IN","pin":1234},"type":"Feature","geometry":{"type":"Point","coordinates":[-85.000329,40.431872]}},{"properties":{"city":"Portland","status":"Active","ppv":"Yes","zip":"47371","region":"Community Fiber Solutions","service packages":"WISE DT HD","township":null,"last":"NBC WISE HD","stbs allowed":5,"geo_score":0.471,"first":"CFS","ppv limit":"Unlimited","customer id":null,"phone":4193989102,"whdvr":"No","id":"abn5q891ugo4","address":"1393 W. Tyson Rd","login":"1234","password":1234,"geo_precision":"street","state":"IN","pin":1234},"type":"Feature","geometry":{"type":"Point","coordinates":[-85.000329,40.431872]}},{"properties":{"city":"Portland","status":"Active","ppv":"Yes","zip":"47371","region":"Community Fiber Solutions","service packages":"TestOnlyDoNotUse","township":null,"last":"Office STBs","stbs allowed":5,"geo_score":0.471,"first":"CFS","ppv limit":"65","customer id":null,"phone":8662469580,"whdvr":"No","id":"abn5q8a5udmr","address":"1393 W. Tyson Rd.","login":"1234","password":1234,"geo_precision":"street","state":"IN","pin":1234},"type":"Feature","geometry":{"type":"Point","coordinates":[-85.000329,40.431872]}},{"properties":{"city":"Portland","status":"Active","ppv":"No","zip":"47371","region":"Community Fiber Solutions","service packages":"Oxygen","township":null,"last":"Oxygen","stbs allowed":5,"geo_score":0.471,"first":"CFS","ppv limit":"Unlimited","customer id":null,"phone":4198795363,"whdvr":"No","id":"abn5q8bm0i4o","address":"1393 W. Tyson Rd","login":"1234","password":1234,"geo_precision":"street","state":"IN","pin":1234},"type":"Feature","geometry":{"type":"Point","coordinates":[-85.000329,40.431872]}},{"properties":{"city":"Portland","status":"Active","ppv":"No","zip":"47371","region":"Community Fiber Solutions","service packages":"WFWA DT HD","township":null,"last":"PBS WFWA HD","stbs allowed":5,"geo_score":0.471,"first":"CFS","ppv limit":"Unlimited","customer id":null,"phone":4193989103,"whdvr":"No","id":"abn5q8h5hdv7","address":"1393 W. Tyson Rd","login":"1234","password":1234,"geo_precision":"street","state":"IN","pin":1234},"type":"Feature","geometry":{"type":"Point","coordinates":[-85.000329,40.431872]}},{"properties":{"city":"Portland","status":"Active","ppv":"Yes","zip":"47371","region":"Community Fiber Solutions","service packages":"TestOnlyDoNotUse","township":null,"last":"Price","stbs allowed":1,"geo_score":0.902,"first":"Jeff","ppv limit":"Unlimited","customer id":145674,"phone":7653692326,"whdvr":"No","id":"abn5q8dhnjt5","address":"6604 W 400 S","login":"Price","password":1234,"geo_precision":"range","state":"IN","pin":1234},"type":"Feature","geometry":{"type":"Point","coordinates":[-85.104951,40.380278]}},{"properties":{"city":"PORTLAND","status":"Active","ppv":"No","zip":"47371","region":"Community Fiber Solutions","service packages":"TestOnlyDoNotUse","township":null,"last":"REX","stbs allowed":5,"geo_score":0.815,"first":"THADDEUS","ppv limit":"Unlimited","customer id":144617,"phone":3129650026,"whdvr":"Yes","id":"abn5q8i46utw","address":"216 E WATER","login":"1234","password":1234,"geo_precision":"range","state":"IN","pin":1234},"type":"Feature","geometry":{"type":"Point","coordinates":[-84.974384,40.43248]}},{"properties":{"city":"Portland","status":"Active","ppv":"No","zip":"47371","region":"Community Fiber Solutions","service packages":"Speed-HD","township":null,"last":"Speed-HD","stbs allowed":5,"geo_score":0.471,"first":"CFS","ppv limit":"Unlimited","customer id":null,"phone":4198797649,"whdvr":"No","id":"abn5q8iqfhof","address":"1393 W. Tyson Rd","login":"1234","password":1234,"geo_precision":"street","state":"IN","pin":1234},"type":"Feature","geometry":{"type":"Point","coordinates":[-85.000329,40.431872]}},{"properties":{"city":"Portland","status":"Active","ppv":"No","zip":"47371","region":"Community Fiber Solutions","service packages":"Channel12","township":null,"last":"The Weather Channel Midwest Ohio","stbs allowed":5,"geo_score":0.471,"first":"CFS","ppv limit":"Unlimited","customer id":null,"phone":4198791105,"whdvr":"No","id":"abn5q854ssim","address":"1393 W. Tyson Rd","login":"1234","password":1234,"geo_precision":"street","state":"IN","pin":1234},"type":"Feature","geometry":{"type":"Point","coordinates":[-85.000329,40.431872]}},{"properties":{"city":"Portland","status":"Active","ppv":"No","zip":"47371","region":"Community Fiber Solutions","service packages":"TNT-HD","township":null,"last":"TNT-HD","stbs allowed":5,"geo_score":0.471,"first":"CFS","ppv limit":"Unlimited","customer id":null,"phone":4198797650,"whdvr":"No","id":"abn5q8anzt1y","address":"1393 W. Tyson Rd","login":"1234","password":1234,"geo_precision":"street","state":"IN","pin":1234},"type":"Feature","geometry":{"type":"Point","coordinates":[-85.000329,40.431872]}},{"properties":{"city":"Portland","status":"Active","ppv":"No","zip":"47371","region":"Community Fiber Solutions","service packages":"Channel10","township":null,"last":"Trinity Broadcasting Network","stbs allowed":5,"geo_score":0.471,"first":"CFS","ppv limit":"Unlimited","customer id":null,"phone":4198791103,"whdvr":"No","id":"abn5q88lhthy","address":"1393 W. Tyson Rd","login":"1234","password":1234,"geo_precision":"street","state":"IN","pin":1234},"type":"Feature","geometry":{"type":"Point","coordinates":[-85.000329,40.431872]}},{"properties":{"city":"Portland","status":"Active","ppv":"No","zip":"47371","region":"Community Fiber Solutions","service packages":"WANE DT HD","township":null,"last":"WANE DT HD","stbs allowed":5,"geo_score":0.471,"first":"CFS","ppv limit":"Unlimited","customer id":null,"phone":4193989000,"whdvr":"No","id":"abn5q8i1054c","address":"1393 W. Tyson Rd","login":"1234","password":1234,"geo_precision":"street","state":"IN","pin":1234},"type":"Feature","geometry":{"type":"Point","coordinates":[-85.000329,40.431872]}},{"properties":{"city":"portland","status":"Active","ppv":"No","zip":"47371","region":"Community Fiber Solutions","service packages":"TestOnlyDoNotUse","township":null,"last":"wendel","stbs allowed":5,"geo_score":0.796,"first":"ed","ppv limit":"Unlimited","customer id":null,"phone":2602411046,"whdvr":"No","id":"abn5q85rso2q","address":"3194 n us 27","login":"1234","password":1234,"geo_precision":"range","state":"IN","pin":1234},"type":"Feature","geometry":{"type":"Point","coordinates":[-84.9795,40.483371]}},{"properties":{"city":"Portland","status":"Active","ppv":"No","zip":"47371","region":"Community Fiber Solutions","service packages":"Channel20","township":null,"last":"WGN America","stbs allowed":5,"geo_score":0.471,"first":"CFS","ppv limit":"Unlimited","customer id":null,"phone":4198792609,"whdvr":"No","id":"abn5q8hydi1s","address":"1393 W. Tyson Rd","login":"1234","password":1234,"geo_precision":"street","state":"IN","pin":1234},"type":"Feature","geometry":{"type":"Point","coordinates":[-85.000329,40.431872]}},{"properties":{"city":"Portland","status":"Active","ppv":"No","zip":"47371","region":"Community Fiber Solutions","service packages":"Womans Entertainment","township":null,"last":"Womens Entertainment","stbs allowed":5,"geo_score":0.471,"first":"CFS","ppv limit":"Unlimited","customer id":null,"phone":4198796896,"whdvr":"No","id":"abn5q88fauge","address":"1393 W. Tyson Rd","login":"1234","password":1234,"geo_precision":"street","state":"IN","pin":1234},"type":"Feature","geometry":{"type":"Point","coordinates":[-85.000329,40.431872]}},{"properties":{"city":"Portland","status":"Active","ppv":"No","zip":"47371","region":"Community Fiber Solutions","service packages":"WTLW 44 Lima","township":null,"last":"WTLW 44 Lima","stbs allowed":5,"geo_score":0.471,"first":"CFS","ppv limit":"Unlimited","customer id":null,"phone":4198791106,"whdvr":"No","id":"abn5q89mnjoh","address":"1393 W. Tyson Rd","login":"1234","password":1234,"geo_precision":"street","state":"IN","pin":1234},"type":"Feature","geometry":{"type":"Point","coordinates":[-85.000329,40.431872]}},{"properties":{"city":"Portland","status":"Active","ppv":"Yes","zip":"47371","region":"Community Fiber Solutions","service packages":"TestOnlyDoNotUse","township":null,"last":"WTV Office","stbs allowed":5,"geo_score":0.471,"first":"CFS","ppv limit":"65","customer id":null,"phone":8005893837,"whdvr":"No","id":"abn5q8cfi0qj","address":"1393 W. Tyson Rd","login":"1234","password":1234,"geo_precision":"street","state":"IN","pin":1234},"type":"Feature","geometry":{"type":"Point","coordinates":[-85.000329,40.431872]}}],"is_temporal":false,"author":{"url":"","metadata":null,"contact_name":null,"contact_address":null,"source":null,"contact_phone":null},"source":"","pagination":{"sort":null,"start":0,"total":120,"limit":1000000},"state":"complete","tags":"","published":"2014-08-16T17:48:52-04:00","id":313323}