{"type":"FeatureCollection","data_type":"Dataset","url_type":null,"permissions":[{"permissions":{"download":true,"view":true},"group_id":"everyone"}],"classification":null,"title":"prospect sales address","count":815,"stream_id":313401,"contributor":{"url":"http://geocommons.com/users/59270","name":"dmuller24"},"data_attributes":null,"calculation_params":null,"icon_link":null,"link":"http://geocommons.com/overlays/313401.json","extent":[0.0,0.0,0.0,0.0],"geometry_types":[],"unique_name":null,"name":"prospect sales address","feature_count":815,"description":"","next_feature":null,"is_raster":false,"short_classification":"Y","stats":{"city":{},"sold price":{"max":29536.0,"mean":1495.78198773006,"variance":18909752.6454305,"stdev":4348.53453998361,"median":1.0,"min":1.0},"zip/postal code":{"max":43201,"mean":33244.5668711656,"variance":150003.206517839,"stdev":387.30247419535,"median":33186,"min":32905},"address":{}},"features":[{"properties":{"city":"Hallandale Beach","geo_score":0.0,"sold price":2000.0,"id":"abnbtirlulzs","address":"2500 Parkview Drive","zip/postal code":33009,"geo_precision":"unmatched"},"type":"Feature","geometry":null},{"properties":{"city":"Miami","geo_score":0.0,"sold price":7000.0,"id":"abnbtidgzsti","address":"5340 Sw 153rd Court","zip/postal code":33185,"geo_precision":"unmatched"},"type":"Feature","geometry":null},{"properties":{"city":"Margate","geo_score":0.0,"sold price":17000.0,"id":"abnbtijrdcf2","address":"7785 Highlands Circle","zip/postal code":33063,"geo_precision":"unmatched"},"type":"Feature","geometry":null},{"properties":{"city":"Coral Springs","geo_score":0.0,"sold price":10360.0,"id":"abnbtipwglxv","address":"7360 Nw 18th Street","zip/postal code":33063,"geo_precision":"unmatched"},"type":"Feature","geometry":null},{"properties":{"city":"Miami","geo_score":0.0,"sold price":10411.0,"id":"abnbtiifji2n","address":"7880 Sw 86th Street","zip/postal code":33156,"geo_precision":"unmatched"},"type":"Feature","geometry":null},{"properties":{"city":"Miami","geo_score":0.0,"sold price":16450.0,"id":"abnbtihn5q37","address":"10765 SW 135th Terrace","zip/postal code":33176,"geo_precision":"unmatched"},"type":"Feature","geometry":null},{"properties":{"city":"Miami","geo_score":0.0,"sold price":3400.0,"id":"abnbtit0pncm","address":"5077 Nw 7th Street,","zip/postal code":33126,"geo_precision":"unmatched"},"type":"Feature","geometry":null},{"properties":{"city":"Hallandale","geo_score":0.0,"sold price":7638.0,"id":"abnbtir1743q","address":"1000 Ne 12th Avenue","zip/postal code":33009,"geo_precision":"unmatched"},"type":"Feature","geometry":null},{"properties":{"city":"Miramar","geo_score":0.0,"sold price":12300.0,"id":"abnbtirqhv7w","address":"13650 Sw 18th Street","zip/postal code":33027,"geo_precision":"unmatched"},"type":"Feature","geometry":null},{"properties":{"city":"Pembroke Pines","geo_score":0.0,"sold price":5000.0,"id":"abnbtihuh0pq","address":"301 Sw 86th Ave.","zip/postal code":33025,"geo_precision":"unmatched"},"type":"Feature","geometry":null},{"properties":{"city":"Jupiter","geo_score":0.0,"sold price":2500.0,"id":"abnbtie6fri8","address":"1605 S Us Hgwy 1","zip/postal code":33477,"geo_precision":"unmatched"},"type":"Feature","geometry":null},{"properties":{"city":"Miami Lakes","geo_score":0.0,"sold price":1850.0,"id":"abnbtigljefg","address":"18800 Nw 27th Ave","zip/postal code":33056,"geo_precision":"unmatched"},"type":"Feature","geometry":null},{"properties":{"city":"Miami","geo_score":0.0,"sold price":4500.0,"id":"abnbtiorzg3y","address":"35 Ne 40th Street","zip/postal code":33137,"geo_precision":"unmatched"},"type":"Feature","geometry":null},{"properties":{"city":"Pembroke Pines","geo_score":0.0,"sold price":14720.0,"id":"abnbtin724x4","address":"1601 Lacosta Drive E","zip/postal code":33037,"geo_precision":"unmatched"},"type":"Feature","geometry":null},{"properties":{"city":"Homestead","geo_score":0.0,"sold price":8080.0,"id":"abnbtimweerv","address":"562 Se 18th Drive","zip/postal code":33033,"geo_precision":"unmatched"},"type":"Feature","geometry":null},{"properties":{"city":"Miami","geo_score":0.0,"sold price":12500.0,"id":"abnbtishhebc","address":"2418 Sw 18th Avenue","zip/postal code":33145,"geo_precision":"unmatched"},"type":"Feature","geometry":null},{"properties":{"city":"Coral Gables","geo_score":0.0,"sold price":19200.0,"id":"abnbtitd8zb0","address":"1205 Mariposa Avenue","zip/postal code":33146,"geo_precision":"unmatched"},"type":"Feature","geometry":null},{"properties":{"city":"Miami","geo_score":0.0,"sold price":3900.0,"id":"abnbtidnhuce","address":"4740 Nw 169th Street","zip/postal code":33055,"geo_precision":"unmatched"},"type":"Feature","geometry":null},{"properties":{"city":"Miami","geo_score":0.0,"sold price":13750.0,"id":"abnbtijkrhss","address":"14141 Sw 149th Avenue","zip/postal code":33196,"geo_precision":"unmatched"},"type":"Feature","geometry":null},{"properties":{"city":"Miami","geo_score":0.0,"sold price":8990.0,"id":"abnbticzaek6","address":"1040 Sw 72nd Court","zip/postal code":33144,"geo_precision":"unmatched"},"type":"Feature","geometry":null},{"properties":{"city":"Plantation","geo_score":0.0,"sold price":11310.0,"id":"abnbtidpbjk9","address":"6755 W Broward Blvd","zip/postal code":33317,"geo_precision":"unmatched"},"type":"Feature","geometry":null},{"properties":{"city":"Cooper City","geo_score":0.0,"sold price":2500.0,"id":"abnbtigfbdkb","address":"2513 Baccarat Drive","zip/postal code":33026,"geo_precision":"unmatched"},"type":"Feature","geometry":null},{"properties":{"city":"Miami","geo_score":0.0,"sold price":20980.0,"id":"abnbtiqmlfj6","address":"1299 Sw 191st Terrace","zip/postal code":33177,"geo_precision":"unmatched"},"type":"Feature","geometry":null},{"properties":{"city":"Wilton Manors","geo_score":0.0,"sold price":17750.0,"id":"abnbtinnneou","address":"1730 Ne 28th Drive","zip/postal code":33334,"geo_precision":"unmatched"},"type":"Feature","geometry":null},{"properties":{"city":"Pembroke Pines","geo_score":0.0,"sold price":6400.0,"id":"abnbtiqu6xpu","address":"7490 Nw 21st Place","zip/postal code":33024,"geo_precision":"unmatched"},"type":"Feature","geometry":null},{"properties":{"city":"Boynton Beach","geo_score":0.0,"sold price":22840.0,"id":"abnbtih777id","address":"8833 VIa Tuscany Drive","zip/postal code":33472,"geo_precision":"unmatched"},"type":"Feature","geometry":null},{"properties":{"city":"Highland Beach","geo_score":0.0,"sold price":9850.0,"id":"abnbtifg02cf","address":"4750 S Ocean Blvd","zip/postal code":33487,"geo_precision":"unmatched"},"type":"Feature","geometry":null},{"properties":{"city":"Pembroke Pines","geo_score":0.0,"sold price":4150.0,"id":"abnbtisc924g","address":"1419 Nw 113th Way","zip/postal code":33026,"geo_precision":"unmatched"},"type":"Feature","geometry":null},{"properties":{"city":"Coconut Creek","geo_score":0.0,"sold price":5350.0,"id":"abnbtiqe3xfu","address":"3801 Cocoa Plum Circle","zip/postal code":33063,"geo_precision":"unmatched"},"type":"Feature","geometry":null},{"properties":{"city":"Miami","geo_score":0.0,"sold price":6800.0,"id":"abnbtidppzpk","address":"1401 Sw 22 St","zip/postal code":33145,"geo_precision":"unmatched"},"type":"Feature","geometry":null},{"properties":{"city":"Miami","geo_score":0.0,"sold price":9500.0,"id":"abnbtisvoxbv","address":"4790 Sw 141st Avenue","zip/postal code":33175,"geo_precision":"unmatched"},"type":"Feature","geometry":null},{"properties":{"city":"Tamarac","geo_score":0.0,"sold price":15865.0,"id":"abnbtilf8hhk","address":"7403 N Devon Drive","zip/postal code":33321,"geo_precision":"unmatched"},"type":"Feature","geometry":null},{"properties":{"city":"Weston","geo_score":0.0,"sold price":6745.0,"id":"abnbtifwqhgh","address":"2452 Provence Court","zip/postal code":33327,"geo_precision":"unmatched"},"type":"Feature","geometry":null},{"properties":{"city":"Plantation","geo_score":0.0,"sold price":11500.0,"id":"abnbtil0hd6s","address":"9528 Nw 9th Court","zip/postal code":33324,"geo_precision":"unmatched"},"type":"Feature","geometry":null},{"properties":{"city":"Tamarac","geo_score":0.0,"sold price":6400.0,"id":"abnbtiqq4a4w","address":"7204 Nw 68th Street","zip/postal code":33321,"geo_precision":"unmatched"},"type":"Feature","geometry":null},{"properties":{"city":"Pompano Beach","geo_score":0.0,"sold price":12530.0,"id":"abnbtiiqcttp","address":"2212 S Cypress Bend Dr","zip/postal code":33069,"geo_precision":"unmatched"},"type":"Feature","geometry":null},{"properties":{"city":"Weston","geo_score":0.0,"sold price":14220.0,"id":"abnbtihfntz3","address":"829 Azalea Place","zip/postal code":33327,"geo_precision":"unmatched"},"type":"Feature","geometry":null},{"properties":{"city":"Aventura","geo_score":0.0,"sold price":10750.0,"id":"abnbtihj55l3","address":"19355 Turn Berry Way","zip/postal code":33180,"geo_precision":"unmatched"},"type":"Feature","geometry":null},{"properties":{"city":"Miramar","geo_score":0.0,"sold price":8210.0,"id":"abnbtiscyw32","address":"3410 Foxcroft Road","zip/postal code":33025,"geo_precision":"unmatched"},"type":"Feature","geometry":null},{"properties":{"city":"Lake Park","geo_score":0.0,"sold price":250.0,"id":"abnbtirrwn6x","address":"516 Teak Drive","zip/postal code":33403,"geo_precision":"unmatched"},"type":"Feature","geometry":null},{"properties":{"city":"Miami Beach","geo_score":0.0,"sold price":7739.0,"id":"abnbtiqsoydb","address":"7620 Carlyle Avenue","zip/postal code":33141,"geo_precision":"unmatched"},"type":"Feature","geometry":null},{"properties":{"city":"Miami","geo_score":0.0,"sold price":7225.0,"id":"abnbtidxxev3","address":"19900 E Country Club Drive,","zip/postal code":33180,"geo_precision":"unmatched"},"type":"Feature","geometry":null},{"properties":{"city":"Delray Beach","geo_score":0.0,"sold price":3800.0,"id":"abnbtifeewpz","address":"16769 Oakhill Trail Unit","zip/postal code":33484,"geo_precision":"unmatched"},"type":"Feature","geometry":null},{"properties":{"city":"Davie","geo_score":0.0,"sold price":8134.0,"id":"abnbtist4e0x","address":"9001 Southern Orchard Road","zip/postal code":33328,"geo_precision":"unmatched"},"type":"Feature","geometry":null},{"properties":{"city":"Fort Lauderdale","geo_score":0.0,"sold price":6597.0,"id":"abnbtiq9sy4k","address":"5811 Ne 22nd Avenue","zip/postal code":33308,"geo_precision":"unmatched"},"type":"Feature","geometry":null},{"properties":{"city":"Weston","geo_score":0.0,"sold price":8841.0,"id":"abnbtirfxgkx","address":"1050 Bayside Lane","zip/postal code":33326,"geo_precision":"unmatched"},"type":"Feature","geometry":null},{"properties":{"city":"Miramar","geo_score":0.0,"sold price":11000.0,"id":"abnbtid253i7","address":"9040 Sw 20th Street","zip/postal code":33025,"geo_precision":"unmatched"},"type":"Feature","geometry":null},{"properties":{"city":"Boca Raton","geo_score":0.0,"sold price":9000.0,"id":"abnbtipsmtr3","address":"9676 A Boca Gardens Circle N","zip/postal code":33496,"geo_precision":"unmatched"},"type":"Feature","geometry":null},{"properties":{"city":"Miramar","geo_score":0.0,"sold price":15500.0,"id":"abnbtigqgiwu","address":"19311 Sw 31st Court","zip/postal code":33029,"geo_precision":"unmatched"},"type":"Feature","geometry":null},{"properties":{"city":"West Palm Beach","geo_score":0.0,"sold price":26500.0,"id":"abnbtie2n93n","address":"263 Barcelona Road","zip/postal code":33401,"geo_precision":"unmatched"},"type":"Feature","geometry":null},{"properties":{"city":"Sunrise","geo_score":0.0,"sold price":7500.0,"id":"abnbtio7rmuq","address":"6441 Nw 29th Court","zip/postal code":33313,"geo_precision":"unmatched"},"type":"Feature","geometry":null},{"properties":{"city":"Miami","geo_score":0.0,"sold price":10508.0,"id":"abnbtiggs4yb","address":"5340 Sw 153rd Court","zip/postal code":33185,"geo_precision":"unmatched"},"type":"Feature","geometry":null},{"properties":{"city":"Plantation","geo_score":0.0,"sold price":9500.0,"id":"abnbtihi6h3q","address":"1028 Nw 99th Avenue","zip/postal code":33322,"geo_precision":"unmatched"},"type":"Feature","geometry":null},{"properties":{"city":"Hollywood","geo_score":0.0,"sold price":444.0,"id":"abnbtiipirdn","address":"6651 Forrest Street","zip/postal code":33024,"geo_precision":"unmatched"},"type":"Feature","geometry":null},{"properties":{"city":"Miramar","geo_score":0.0,"sold price":9650.0,"id":"abnbtii0j9yh","address":"6440 Sw 25th Street","zip/postal code":33023,"geo_precision":"unmatched"},"type":"Feature","geometry":null},{"properties":{"city":"Aventura","geo_score":0.0,"sold price":17591.43,"id":"abnbtih11vcv","address":"19195 Mystic Pointe Drive","zip/postal code":33180,"geo_precision":"unmatched"},"type":"Feature","geometry":null},{"properties":{"city":"Sunrise","geo_score":0.0,"sold price":14839.0,"id":"abnbtijd1ij9","address":"7191 Nw 24th Court","zip/postal code":33313,"geo_precision":"unmatched"},"type":"Feature","geometry":null},{"properties":{"city":"Wilton Manors","geo_score":0.0,"sold price":8200.0,"id":"abnbtin75a08","address":"2909 Nw 12th Avenue","zip/postal code":33311,"geo_precision":"unmatched"},"type":"Feature","geometry":null},{"properties":{"city":"Weston","geo_score":0.0,"sold price":29536.0,"id":"abnbtim4o38q","address":"2690 Riveria Court","zip/postal code":33332,"geo_precision":"unmatched"},"type":"Feature","geometry":null},{"properties":{"city":"Sunrise","geo_score":0.0,"sold price":7895.0,"id":"abnbtirb12kf","address":"13233 Nw 12th Court","zip/postal code":33323,"geo_precision":"unmatched"},"type":"Feature","geometry":null},{"properties":{"city":"Boynton Beach","geo_score":0.0,"sold price":19000.0,"id":"abnbtiqchkvd","address":"12529 Imperial Isle Drive","zip/postal code":33437,"geo_precision":"unmatched"},"type":"Feature","geometry":null},{"properties":{"city":"Miami","geo_score":0.0,"sold price":20888.07,"id":"abnbtijzjpya","address":"10020 Sw 147th Court","zip/postal code":33196,"geo_precision":"unmatched"},"type":"Feature","geometry":null},{"properties":{"city":"North Lauderdale","geo_score":0.0,"sold price":8200.0,"id":"abnbtih6omau","address":"7955 Sw 5th Street","zip/postal code":33068,"geo_precision":"unmatched"},"type":"Feature","geometry":null},{"properties":{"city":"Miami","geo_score":0.0,"sold price":6225.0,"id":"abnbtit0ul89","address":"5077 Nw 7th Street,","zip/postal code":33126,"geo_precision":"unmatched"},"type":"Feature","geometry":null},{"properties":{"city":"Fort Lauderdale","geo_score":0.0,"sold price":4575.0,"id":"abnbtincsihy","address":"8745 Sw 57th Place","zip/postal code":33328,"geo_precision":"unmatched"},"type":"Feature","geometry":null},{"properties":{"city":"Pompano Beach","geo_score":0.0,"sold price":16780.0,"id":"abnbtis90u3q","address":"2951 NW 1st Drive","zip/postal code":33064,"geo_precision":"unmatched"},"type":"Feature","geometry":null},{"properties":{"city":"Boca Raton","geo_score":0.0,"sold price":1650.0,"id":"abnbtify69iu","address":"6662 Villa Sonrisa Drive","zip/postal code":33433,"geo_precision":"unmatched"},"type":"Feature","geometry":null},{"properties":{"city":"Fort Lauderdale","geo_score":0.0,"sold price":10993.0,"id":"abnbtidvexj0","address":"5202 Sw 90th Terrace","zip/postal code":33328,"geo_precision":"unmatched"},"type":"Feature","geometry":null},{"properties":{"city":"Miami Lakes","geo_score":0.0,"sold price":10328.05,"id":"abnbtilgqzmo","address":"20061 Nw 66th Place","zip/postal code":33015,"geo_precision":"unmatched"},"type":"Feature","geometry":null},{"properties":{"city":"Miami Beach","geo_score":0.0,"sold price":5450.0,"id":"abnbtik218ql","address":"3131 N Bay Road","zip/postal code":33140,"geo_precision":"unmatched"},"type":"Feature","geometry":null},{"properties":{"city":"Delray Beach","geo_score":0.0,"sold price":21000.0,"id":"abnbtiho41wa","address":"950 Flanders T","zip/postal code":33484,"geo_precision":"unmatched"},"type":"Feature","geometry":null},{"properties":{"city":"Sunny Isles Beach","geo_score":0.0,"sold price":11160.0,"id":"abnbtif0kyri","address":"400 Kings Point Drive","zip/postal code":33160,"geo_precision":"unmatched"},"type":"Feature","geometry":null},{"properties":{"city":"Oakland Park","geo_score":0.0,"sold price":8500.0,"id":"abnbtilzgo9g","address":"711 Ne 60th Street","zip/postal code":33334,"geo_precision":"unmatched"},"type":"Feature","geometry":null},{"properties":{"city":"Weston","geo_score":0.0,"sold price":6100.0,"id":"abnbtienenlk","address":"2546 Jardin Drive","zip/postal code":33327,"geo_precision":"unmatched"},"type":"Feature","geometry":null},{"properties":{"city":"Miami","geo_score":0.0,"sold price":500.0,"id":"abnbtiesta06","address":"3521 Sw 117th Court","zip/postal code":33175,"geo_precision":"unmatched"},"type":"Feature","geometry":null},{"properties":{"city":"West Palm Beach","geo_score":0.0,"sold price":4490.0,"id":"abnbtiicsc9t","address":"11090 81st Court N","zip/postal code":33412,"geo_precision":"unmatched"},"type":"Feature","geometry":null},{"properties":{"city":"Hollywood","geo_score":0.0,"sold price":12770.0,"id":"abnbtiimsivk","address":"1720 Jefferson Street","zip/postal code":33020,"geo_precision":"unmatched"},"type":"Feature","geometry":null},{"properties":{"city":"Coconut Creek","geo_score":0.0,"sold price":15000.0,"id":"abnbtihs0sdn","address":"711 Lyons Road","zip/postal code":33063,"geo_precision":"unmatched"},"type":"Feature","geometry":null},{"properties":{"city":"Miami","geo_score":0.0,"sold price":8350.0,"id":"abnbtifei4jw","address":"10645 Sw 113th Place","zip/postal code":33176,"geo_precision":"unmatched"},"type":"Feature","geometry":null},{"properties":{"city":"West Palm Beach","geo_score":0.0,"sold price":6450.0,"id":"abnbtijrmfxf","address":"432 34th Street","zip/postal code":33407,"geo_precision":"unmatched"},"type":"Feature","geometry":null},{"properties":{"city":"Miami Lakes","geo_score":0.0,"sold price":14758.0,"id":"abnbtisw288s","address":"8326 Dundee Terrace","zip/postal code":33016,"geo_precision":"unmatched"},"type":"Feature","geometry":null},{"properties":{"city":"Davie","geo_score":0.0,"sold price":23456.0,"id":"abnbtirflww5","address":"14421 Bedford Court","zip/postal code":33325,"geo_precision":"unmatched"},"type":"Feature","geometry":null},{"properties":{"city":"Delray Beach","geo_score":0.0,"sold price":12992.0,"id":"abnbtin0wd1i","address":"6064 Petunia Road","zip/postal code":33484,"geo_precision":"unmatched"},"type":"Feature","geometry":null},{"properties":{"city":"Pembroke Pines","geo_score":0.0,"sold price":19553.2,"id":"abnbtist9zze","address":"2480 Nw 193rd Avenue","zip/postal code":33029,"geo_precision":"unmatched"},"type":"Feature","geometry":null},{"properties":{"city":"Aventura","geo_score":0.0,"sold price":8300.0,"id":"abnbtinj21zq","address":"19195 Mystic Point Drive P","zip/postal code":33180,"geo_precision":"unmatched"},"type":"Feature","geometry":null},{"properties":{"city":"Fort Lauderdale","geo_score":0.0,"sold price":17338.9,"id":"abnbtidhhoyl","address":"4010 Galt Ocean Drive","zip/postal code":33308,"geo_precision":"unmatched"},"type":"Feature","geometry":null},{"properties":{"city":"Deerfield Beach","geo_score":0.0,"sold price":24350.0,"id":"abnbtiqqh2rh","address":"2015 Newport G","zip/postal code":33442,"geo_precision":"unmatched"},"type":"Feature","geometry":null},{"properties":{"city":"Palm Beach Shores","geo_score":0.0,"sold price":13850.0,"id":"abnbtifngwwu","address":"340 Inlet Way","zip/postal code":33404,"geo_precision":"unmatched"},"type":"Feature","geometry":null},{"properties":{"city":"Palm Beach Gardens","geo_score":0.0,"sold price":4500.0,"id":"abnbtimmsoyn","address":"10313 Daphne Avenue","zip/postal code":33410,"geo_precision":"unmatched"},"type":"Feature","geometry":null},{"properties":{"city":"Miami","geo_score":0.0,"sold price":7991.0,"id":"abnbtierzluf","address":"11750 Sw 18th Street","zip/postal code":33175,"geo_precision":"unmatched"},"type":"Feature","geometry":null},{"properties":{"city":"Loxahatchee","geo_score":0.0,"sold price":18640.57,"id":"abnbtijrxfli","address":"17646 88th Road N","zip/postal code":33470,"geo_precision":"unmatched"},"type":"Feature","geometry":null},{"properties":{"city":"Davie","geo_score":0.0,"sold price":11000.0,"id":"abnbtirr9fe5","address":"12770 Sw 34th Place","zip/postal code":33330,"geo_precision":"unmatched"},"type":"Feature","geometry":null},{"properties":{"city":"Miami","geo_score":0.0,"sold price":6760.0,"id":"abnbtijv864m","address":"14335 Sw 162nd Street","zip/postal code":33157,"geo_precision":"unmatched"},"type":"Feature","geometry":null},{"properties":{"city":"Jupiter","geo_score":0.0,"sold price":8046.0,"id":"abnbtih0ih0t","address":"126 N River Drive W","zip/postal code":33458,"geo_precision":"unmatched"},"type":"Feature","geometry":null},{"properties":{"city":"Pembroke Pines","geo_score":0.0,"sold price":14000.0,"id":"abnbtikzhvps","address":"801 Sw 149th Terrace","zip/postal code":33027,"geo_precision":"unmatched"},"type":"Feature","geometry":null},{"properties":{"city":"Weston","geo_score":0.0,"sold price":15630.0,"id":"abnbtil6y3ln","address":"780 Verona Lake Drive","zip/postal code":33326,"geo_precision":"unmatched"},"type":"Feature","geometry":null},{"properties":{"city":"Hollywood","geo_score":0.0,"sold price":19580.0,"id":"abnbtijidlm8","address":"3920 Hayes Street","zip/postal code":33021,"geo_precision":"unmatched"},"type":"Feature","geometry":null},{"properties":{"city":"Coral Springs","geo_score":0.0,"sold price":6400.0,"id":"abnbtidx8q54","address":"4756 Nw 115th Terrace","zip/postal code":33076,"geo_precision":"unmatched"},"type":"Feature","geometry":null},{"properties":{"city":"Fort Lauderdale","geo_score":0.0,"sold price":20900.0,"id":"abnbtinwh4zt","address":"5821 Ne 21st Avenue","zip/postal code":33308,"geo_precision":"unmatched"},"type":"Feature","geometry":null},{"properties":{"city":"Hollywood","geo_score":0.0,"sold price":5850.0,"id":"abnbtilgh8ib","address":"815 N Golf Drive","zip/postal code":33021,"geo_precision":"unmatched"},"type":"Feature","geometry":null},{"properties":{"city":"Hialeah","geo_score":0.0,"sold price":7965.0,"id":"abnbtijbtnc1","address":"1074 W 79th Street","zip/postal code":33014,"geo_precision":"unmatched"},"type":"Feature","geometry":null},{"properties":{"city":"Jupiter","geo_score":0.0,"sold price":13625.0,"id":"abnbtifnehka","address":"825 Center Street","zip/postal code":33458,"geo_precision":"unmatched"},"type":"Feature","geometry":null},{"properties":{"city":"Fort Lauderdale","geo_score":0.0,"sold price":7250.0,"id":"abnbtiqskaqk","address":"850 NE 59th Court","zip/postal code":33334,"geo_precision":"unmatched"},"type":"Feature","geometry":null},{"properties":{"city":"Sunny Isles Beach","geo_score":0.0,"sold price":9800.0,"id":"abnbtihf6elk","address":"17021 N Bay Road","zip/postal code":33160,"geo_precision":"unmatched"},"type":"Feature","geometry":null},{"properties":{"city":"Miami","geo_score":0.0,"sold price":8000.0,"id":"abnbtier26bl","address":"9801 Sw 195th Street","zip/postal code":33157,"geo_precision":"unmatched"},"type":"Feature","geometry":null},{"properties":{"city":"Miami","geo_score":0.0,"sold price":12800.0,"id":"abnbtiqfch08","address":"20220 Sw 85th Court","zip/postal code":33189,"geo_precision":"unmatched"},"type":"Feature","geometry":null},{"properties":{"city":"Fort Lauderdale","geo_score":0.0,"sold price":8500.0,"id":"abnbtie7ouu2","address":"4050 Ocean Drive N","zip/postal code":33308,"geo_precision":"unmatched"},"type":"Feature","geometry":null},{"properties":{"city":"Boca Raton","geo_score":0.0,"sold price":8000.0,"id":"abnbtird92op","address":"9589 Tropical Park Place","zip/postal code":33428,"geo_precision":"unmatched"},"type":"Feature","geometry":null},{"properties":{"city":"Pembroke Pines","geo_score":0.0,"sold price":25000.0,"id":"abnbtig8beo6","address":"12839 Nw 23rd Street","zip/postal code":33028,"geo_precision":"unmatched"},"type":"Feature","geometry":null},{"properties":{"city":"West Palm Beach","geo_score":0.0,"sold price":7800.0,"id":"abnbtihdubpg","address":"2305 Bermuda Drive","zip/postal code":33406,"geo_precision":"unmatched"},"type":"Feature","geometry":null},{"properties":{"city":"Hallandale","geo_score":0.0,"sold price":8815.0,"id":"abnbtipg8a2t","address":"137 Golden Isles Drive","zip/postal code":33009,"geo_precision":"unmatched"},"type":"Feature","geometry":null},{"properties":{"city":"Davie","geo_score":0.0,"sold price":13898.1,"id":"abnbtifwebxe","address":"8300 Sw 55th Court","zip/postal code":33328,"geo_precision":"unmatched"},"type":"Feature","geometry":null},{"properties":{"city":"Weston","geo_score":0.0,"sold price":9154.0,"id":"abnbtipgzj1g","address":"16200 Golf Club Road","zip/postal code":33326,"geo_precision":"unmatched"},"type":"Feature","geometry":null},{"properties":{"city":"Hialeah","geo_score":0.0,"sold price":1.0,"id":"abnbtin3bxfi","address":"3559 W 71st Terrace","zip/postal code":33018,"geo_precision":"unmatched"},"type":"Feature","geometry":null},{"properties":{"city":"Fort Lauderdale","geo_score":0.0,"sold price":1.0,"id":"abnbtils6tnc","address":"4800 Bayview Drive","zip/postal code":33308,"geo_precision":"unmatched"},"type":"Feature","geometry":null},{"properties":{"city":"Lake Worth","geo_score":0.0,"sold price":1.0,"id":"abnbtiesdcs8","address":"4731 Poseidon Place","zip/postal code":33463,"geo_precision":"unmatched"},"type":"Feature","geometry":null},{"properties":{"city":"Hollywood","geo_score":0.0,"sold price":1.0,"id":"abnbtiex3on0","address":"338 Roosevelt Drive","zip/postal code":33019,"geo_precision":"unmatched"},"type":"Feature","geometry":null},{"properties":{"city":"Columbus","geo_score":0.0,"sold price":1.0,"id":"abnbtigvmf5x","address":"40 West 1st Ave","zip/postal code":43201,"geo_precision":"unmatched"},"type":"Feature","geometry":null},{"properties":{"city":"Cooper City","geo_score":0.0,"sold price":1.0,"id":"abnbtinjohrh","address":"10240 Port Of Spain Street","zip/postal code":33026,"geo_precision":"unmatched"},"type":"Feature","geometry":null},{"properties":{"city":"Aventura","geo_score":0.0,"sold price":1.0,"id":"abnbtis48ihe","address":"3375 N Country Club Drive","zip/postal code":33180,"geo_precision":"unmatched"},"type":"Feature","geometry":null},{"properties":{"city":"Plantation","geo_score":0.0,"sold price":1.0,"id":"abnbtin0egmi","address":"10170 Nw 10th Street","zip/postal code":33322,"geo_precision":"unmatched"},"type":"Feature","geometry":null},{"properties":{"city":"Cooper City","geo_score":0.0,"sold price":1.0,"id":"abnbtipabkx4","address":"11305 Roundelay Road","zip/postal code":33026,"geo_precision":"unmatched"},"type":"Feature","geometry":null},{"properties":{"city":"Homestead","geo_score":0.0,"sold price":1.0,"id":"abnbtie4mopu","address":"15971 Sw 154th Street","zip/postal code":33031,"geo_precision":"unmatched"},"type":"Feature","geometry":null},{"properties":{"city":"Jupiter","geo_score":0.0,"sold price":1.0,"id":"abnbtis0d2m8","address":"506 N Dover Road","zip/postal code":33469,"geo_precision":"unmatched"},"type":"Feature","geometry":null},{"properties":{"city":"Miami","geo_score":0.0,"sold price":1.0,"id":"abnbtieful6w","address":"80 Ne 94th Street","zip/postal code":33138,"geo_precision":"unmatched"},"type":"Feature","geometry":null},{"properties":{"city":"Plantation","geo_score":0.0,"sold price":1.0,"id":"abnbtikk945s","address":"140 Royal Palm Court","zip/postal code":33311,"geo_precision":"unmatched"},"type":"Feature","geometry":null},{"properties":{"city":"Miami Beach","geo_score":0.0,"sold price":1.0,"id":"abnbtihd2wyp","address":"200 Alton Road","zip/postal code":33139,"geo_precision":"unmatched"},"type":"Feature","geometry":null},{"properties":{"city":"Miami","geo_score":0.0,"sold price":1.0,"id":"abnbtiis9kki","address":"15247 Sw 109th Street","zip/postal code":33196,"geo_precision":"unmatched"},"type":"Feature","geometry":null},{"properties":{"city":"Fort Lauderdale","geo_score":0.0,"sold price":1.0,"id":"abnbtiiie56q","address":"2504 Sw 34th Ave","zip/postal code":33312,"geo_precision":"unmatched"},"type":"Feature","geometry":null},{"properties":{"city":"Weston","geo_score":0.0,"sold price":1.0,"id":"abnbtigsz9fq","address":"4011 Turquoise Trail","zip/postal code":33331,"geo_precision":"unmatched"},"type":"Feature","geometry":null},{"properties":{"city":"Fort Lauderdale","geo_score":0.0,"sold price":1.0,"id":"abnbtik3f3pf","address":"2930 Nw 24th Avenue","zip/postal code":33311,"geo_precision":"unmatched"},"type":"Feature","geometry":null},{"properties":{"city":"Boca Raton","geo_score":0.0,"sold price":1.0,"id":"abnbtigc8itn","address":"13 Royal Palm","zip/postal code":33432,"geo_precision":"unmatched"},"type":"Feature","geometry":null},{"properties":{"city":"Pembroke Pines","geo_score":0.0,"sold price":1.0,"id":"abnbtih521x3","address":"1366 Sw 106th Avenue","zip/postal code":33025,"geo_precision":"unmatched"},"type":"Feature","geometry":null},{"properties":{"city":"Coconut Grove","geo_score":0.0,"sold price":1.0,"id":"abnbtijkslpl","address":"2325 Sw 27th Lane","zip/postal code":33133,"geo_precision":"unmatched"},"type":"Feature","geometry":null},{"properties":{"city":"Sunrise","geo_score":0.0,"sold price":1.0,"id":"abnbtispzmgh","address":"4010 Nw 88th Avenue","zip/postal code":33331,"geo_precision":"unmatched"},"type":"Feature","geometry":null},{"properties":{"city":"Coral Springs","geo_score":0.0,"sold price":1.0,"id":"abnbtim12k71","address":"11050 Cypress Run Drive","zip/postal code":33071,"geo_precision":"unmatched"},"type":"Feature","geometry":null},{"properties":{"city":"Miami","geo_score":0.0,"sold price":1.0,"id":"abnbtiprbcsj","address":"14335 Sw 162nd Street","zip/postal code":33157,"geo_precision":"unmatched"},"type":"Feature","geometry":null},{"properties":{"city":"Miami","geo_score":0.0,"sold price":1.0,"id":"abnbtitglfo5","address":"9463 SW 220th Street","zip/postal code":33190,"geo_precision":"unmatched"},"type":"Feature","geometry":null},{"properties":{"city":"Hollywood","geo_score":0.0,"sold price":1.0,"id":"abnbtil58uii","address":"2965 Dove Drive","zip/postal code":33026,"geo_precision":"unmatched"},"type":"Feature","geometry":null},{"properties":{"city":"Boca Raton","geo_score":0.0,"sold price":1.0,"id":"abnbtigpasv1","address":"6875 Willow Wood Drive","zip/postal code":33434,"geo_precision":"unmatched"},"type":"Feature","geometry":null},{"properties":{"city":"Coconut Creek","geo_score":0.0,"sold price":1.0,"id":"abnbtid89oun","address":"5320 Eagle Cay Way","zip/postal code":33073,"geo_precision":"unmatched"},"type":"Feature","geometry":null},{"properties":{"city":"Miami","geo_score":0.0,"sold price":1.0,"id":"abnbtik805vb","address":"14525 Sw 92nd Court","zip/postal code":33176,"geo_precision":"unmatched"},"type":"Feature","geometry":null},{"properties":{"city":"Aventura","geo_score":0.0,"sold price":1.0,"id":"abnbtinzbs5p","address":"3115 Ne 184th Street","zip/postal code":33160,"geo_precision":"unmatched"},"type":"Feature","geometry":null},{"properties":{"city":"Weston","geo_score":0.0,"sold price":1.0,"id":"abnbtij9ubvo","address":"16091 Blatt Blvd","zip/postal code":33326,"geo_precision":"unmatched"},"type":"Feature","geometry":null},{"properties":{"city":"Boca Raton","geo_score":0.0,"sold price":1.0,"id":"abnbtil5xc1n","address":"3034 Ainslie C","zip/postal code":33434,"geo_precision":"unmatched"},"type":"Feature","geometry":null},{"properties":{"city":"Hollywood","geo_score":0.0,"sold price":1.0,"id":"abnbtijx45z2","address":"4217 Monroe Street","zip/postal code":33021,"geo_precision":"unmatched"},"type":"Feature","geometry":null},{"properties":{"city":"Plantation","geo_score":0.0,"sold price":1.0,"id":"abnbtiiec43s","address":"100 Nw 76th Avenue","zip/postal code":33324,"geo_precision":"unmatched"},"type":"Feature","geometry":null},{"properties":{"city":"Davie","geo_score":0.0,"sold price":1.0,"id":"abnbtie9fnws","address":"1480 SW 155th Avenue","zip/postal code":33326,"geo_precision":"unmatched"},"type":"Feature","geometry":null},{"properties":{"city":"Highland Beach","geo_score":0.0,"sold price":1.0,"id":"abnbtig45g4u","address":"4511 S Ocean Blvd","zip/postal code":33487,"geo_precision":"unmatched"},"type":"Feature","geometry":null},{"properties":{"city":"Miami Beach","geo_score":0.0,"sold price":1.0,"id":"abnbtislumyj","address":"5701 Collins Avenue","zip/postal code":33140,"geo_precision":"unmatched"},"type":"Feature","geometry":null},{"properties":{"city":"Plantation","geo_score":0.0,"sold price":1.0,"id":"abnbtieoqm6r","address":"504 NW 103rd Avenue","zip/postal code":33324,"geo_precision":"unmatched"},"type":"Feature","geometry":null},{"properties":{"city":"Davie","geo_score":0.0,"sold price":1.0,"id":"abnbtit7etue","address":"9480 Poinciana Place","zip/postal code":33324,"geo_precision":"unmatched"},"type":"Feature","geometry":null},{"properties":{"city":"Coral Springs","geo_score":0.0,"sold price":1.0,"id":"abnbtio7059u","address":"4756 Nw 115th Terrace","zip/postal code":33076,"geo_precision":"unmatched"},"type":"Feature","geometry":null},{"properties":{"city":"Boca Raton","geo_score":0.0,"sold price":1.0,"id":"abnbtih5x8t4","address":"1078 Wolverton D","zip/postal code":33434,"geo_precision":"unmatched"},"type":"Feature","geometry":null},{"properties":{"city":"Hollywood","geo_score":0.0,"sold price":1.0,"id":"abnbtil08597","address":"2415 Jackson Street","zip/postal code":33020,"geo_precision":"unmatched"},"type":"Feature","geometry":null},{"properties":{"city":"Hollywood","geo_score":0.0,"sold price":1.0,"id":"abnbties2xen","address":"2945 Sw 133 Avenue","zip/postal code":33027,"geo_precision":"unmatched"},"type":"Feature","geometry":null},{"properties":{"city":"Pembroke Pines","geo_score":0.0,"sold price":1.0,"id":"abnbtil6rh74","address":"1520 Nw 140th Manor","zip/postal code":33028,"geo_precision":"unmatched"},"type":"Feature","geometry":null},{"properties":{"city":"Miami","geo_score":0.0,"sold price":1.0,"id":"abnbtin5yog9","address":"13198 Sw 91st","zip/postal code":33176,"geo_precision":"unmatched"},"type":"Feature","geometry":null},{"properties":{"city":"Miami","geo_score":0.0,"sold price":1.0,"id":"abnbtil25m5f","address":"12745 Sw 71 Avenue","zip/postal code":33156,"geo_precision":"unmatched"},"type":"Feature","geometry":null},{"properties":{"city":"Jupiter","geo_score":0.0,"sold price":1.0,"id":"abnbtit3mii5","address":"6280 Longleaf Pine Drive","zip/postal code":33458,"geo_precision":"unmatched"},"type":"Feature","geometry":null},{"properties":{"city":"Davie","geo_score":0.0,"sold price":1.0,"id":"abnbtimm3l3j","address":"9001 Southern Orchard Road","zip/postal code":33328,"geo_precision":"unmatched"},"type":"Feature","geometry":null},{"properties":{"city":"Sunrise","geo_score":0.0,"sold price":1.0,"id":"abnbtiic0exv","address":"15893 E Wind Circle","zip/postal code":33326,"geo_precision":"unmatched"},"type":"Feature","geometry":null},{"properties":{"city":"Pembroke Pines","geo_score":0.0,"sold price":1.0,"id":"abnbtinarbl5","address":"12839 Nw 23rd Street","zip/postal code":33028,"geo_precision":"unmatched"},"type":"Feature","geometry":null},{"properties":{"city":"Lake Worth","geo_score":0.0,"sold price":1.0,"id":"abnbtirgtemy","address":"8431 Linden Way","zip/postal code":33467,"geo_precision":"unmatched"},"type":"Feature","geometry":null},{"properties":{"city":"Coral Gables","geo_score":0.0,"sold price":1.0,"id":"abnbtihy22l4","address":"5035 Orduna Drive","zip/postal code":33146,"geo_precision":"unmatched"},"type":"Feature","geometry":null},{"properties":{"city":"Fort Lauderdale","geo_score":0.0,"sold price":1.0,"id":"abnbtihe79gt","address":"5811 Ne 22nd Avenue","zip/postal code":33308,"geo_precision":"unmatched"},"type":"Feature","geometry":null},{"properties":{"city":"Davie","geo_score":0.0,"sold price":1.0,"id":"abnbtihxiufn","address":"1710 Whitehall Drive","zip/postal code":33324,"geo_precision":"unmatched"},"type":"Feature","geometry":null},{"properties":{"city":"Davie","geo_score":0.0,"sold price":1.0,"id":"abnbtiqjryy2","address":"931 Richwood Terrace","zip/postal code":33325,"geo_precision":"unmatched"},"type":"Feature","geometry":null},{"properties":{"city":"Plantation","geo_score":0.0,"sold price":1.0,"id":"abnbtidgdvb1","address":"9815 Nw 3rd Street","zip/postal code":33324,"geo_precision":"unmatched"},"type":"Feature","geometry":null},{"properties":{"city":"Weston","geo_score":0.0,"sold price":1.0,"id":"abnbtiqpms8s","address":"1109 Hidden Valley Way","zip/postal code":33327,"geo_precision":"unmatched"},"type":"Feature","geometry":null},{"properties":{"city":"Palm Beach","geo_score":0.0,"sold price":1.0,"id":"abnbtifks9zn","address":"80 Middle Road","zip/postal code":33480,"geo_precision":"unmatched"},"type":"Feature","geometry":null},{"properties":{"city":"West Palm Beach","geo_score":0.0,"sold price":1.0,"id":"abnbtik5uxjk","address":"88 Satinwood Lane","zip/postal code":33410,"geo_precision":"unmatched"},"type":"Feature","geometry":null},{"properties":{"city":"Boynton Beach","geo_score":0.0,"sold price":1.0,"id":"abnbtisv5qc2","address":"8833 VIa Tuscany Drive","zip/postal code":33472,"geo_precision":"unmatched"},"type":"Feature","geometry":null},{"properties":{"city":"Pembroke Pines","geo_score":0.0,"sold price":1.0,"id":"abnbtipsf76z","address":"19063 Nw 23rd Place","zip/postal code":33029,"geo_precision":"unmatched"},"type":"Feature","geometry":null},{"properties":{"city":"West Palm Beach","geo_score":0.0,"sold price":1.0,"id":"abnbtiggb2ee","address":"1056 W 27th Street","zip/postal code":33404,"geo_precision":"unmatched"},"type":"Feature","geometry":null},{"properties":{"city":"Fort Lauderdale","geo_score":0.0,"sold price":1.0,"id":"abnbtilpvfa4","address":"4120 Staghorn Ln","zip/postal code":33331,"geo_precision":"unmatched"},"type":"Feature","geometry":null},{"properties":{"city":"Cooper City","geo_score":0.0,"sold price":1.0,"id":"abnbtiijfgrn","address":"13180 Parkside Terrace","zip/postal code":33330,"geo_precision":"unmatched"},"type":"Feature","geometry":null},{"properties":{"city":"Coral Gables","geo_score":0.0,"sold price":1.0,"id":"abnbtik68oea","address":"1529 Palermo Avenue","zip/postal code":33134,"geo_precision":"unmatched"},"type":"Feature","geometry":null},{"properties":{"city":"Miami","geo_score":0.0,"sold price":1.0,"id":"abnbtiszcvxi","address":"12500 Sw 90th Avenue","zip/postal code":33176,"geo_precision":"unmatched"},"type":"Feature","geometry":null},{"properties":{"city":"Fort Lauderdale","geo_score":0.0,"sold price":1.0,"id":"abnbtih64w6y","address":"4100 Galt Ocean Drive","zip/postal code":33308,"geo_precision":"unmatched"},"type":"Feature","geometry":null},{"properties":{"city":"Weston","geo_score":0.0,"sold price":1.0,"id":"abnbtinxprtq","address":"808 Stanton Drive","zip/postal code":33326,"geo_precision":"unmatched"},"type":"Feature","geometry":null},{"properties":{"city":"Plantation","geo_score":0.0,"sold price":1.0,"id":"abnbtioetbhj","address":"1410 Nw 90th Way","zip/postal code":33322,"geo_precision":"unmatched"},"type":"Feature","geometry":null},{"properties":{"city":"West Palm Beach","geo_score":0.0,"sold price":1.0,"id":"abnbtiswlwif","address":"4207 Hyacinth Circle N","zip/postal code":33410,"geo_precision":"unmatched"},"type":"Feature","geometry":null},{"properties":{"city":"Fort Lauderdale","geo_score":0.0,"sold price":1.0,"id":"abnbtihgbtjc","address":"3604 Sw 21st Court","zip/postal code":33312,"geo_precision":"unmatched"},"type":"Feature","geometry":null},{"properties":{"city":"Coconut Creek","geo_score":0.0,"sold price":1.0,"id":"abnbtien7yo7","address":"2373 Nw 34th Road","zip/postal code":33066,"geo_precision":"unmatched"},"type":"Feature","geometry":null},{"properties":{"city":"Davie","geo_score":0.0,"sold price":1.0,"id":"abnbtilbcb1v","address":"4271 Sw 106th Terrace","zip/postal code":33328,"geo_precision":"unmatched"},"type":"Feature","geometry":null},{"properties":{"city":"Hollywood","geo_score":0.0,"sold price":1.0,"id":"abnbtird5kin","address":"2742 Adams Street","zip/postal code":33021,"geo_precision":"unmatched"},"type":"Feature","geometry":null},{"properties":{"city":"Margate","geo_score":0.0,"sold price":1.0,"id":"abnbtiogtte5","address":"3066 W. Buenavista Dr","zip/postal code":33322,"geo_precision":"unmatched"},"type":"Feature","geometry":null},{"properties":{"city":"Pembroke Pines","geo_score":0.0,"sold price":1.0,"id":"abnbtisldl0a","address":"16090 NW 21st Street","zip/postal code":33028,"geo_precision":"unmatched"},"type":"Feature","geometry":null},{"properties":{"city":"Miami","geo_score":0.0,"sold price":1.0,"id":"abnbtidy4m5w","address":"50 Ne 119th Street","zip/postal code":33161,"geo_precision":"unmatched"},"type":"Feature","geometry":null},{"properties":{"city":"Miami","geo_score":0.0,"sold price":1.0,"id":"abnbtid5mi7u","address":"16543 Sw 97th Street","zip/postal code":33196,"geo_precision":"unmatched"},"type":"Feature","geometry":null},{"properties":{"city":"Coconut Creek","geo_score":0.0,"sold price":1.0,"id":"abnbtimndujp","address":"4930 Nw 56th Street","zip/postal code":33073,"geo_precision":"unmatched"},"type":"Feature","geometry":null},{"properties":{"city":"Plantation","geo_score":0.0,"sold price":1.0,"id":"abnbtingn7z5","address":"867 Nw 81st Terrace","zip/postal code":33324,"geo_precision":"unmatched"},"type":"Feature","geometry":null},{"properties":{"city":"Fort Lauderdale","geo_score":0.0,"sold price":1.0,"id":"abnbtiiwc2gu","address":"2421 SW 28th Avenue","zip/postal code":33312,"geo_precision":"unmatched"},"type":"Feature","geometry":null},{"properties":{"city":"Pompano Beach","geo_score":0.0,"sold price":1.0,"id":"abnbtilc95tg","address":"4000 Cypress Grove Way","zip/postal code":33069,"geo_precision":"unmatched"},"type":"Feature","geometry":null},{"properties":{"city":"Weston","geo_score":0.0,"sold price":1.0,"id":"abnbtigytvcu","address":"604 Stanton Drive","zip/postal code":33326,"geo_precision":"unmatched"},"type":"Feature","geometry":null},{"properties":{"city":"Miami","geo_score":0.0,"sold price":1.0,"id":"abnbtih5upb3","address":"10423 N Kendall Drive","zip/postal code":33176,"geo_precision":"unmatched"},"type":"Feature","geometry":null},{"properties":{"city":"Aventura","geo_score":0.0,"sold price":1.0,"id":"abnbtii9xzfk","address":"3701 N Country Club Drive","zip/postal code":33180,"geo_precision":"unmatched"},"type":"Feature","geometry":null},{"properties":{"city":"Pembroke Pines","geo_score":0.0,"sold price":1.0,"id":"abnbtifd92mb","address":"9601 Johnson Street","zip/postal code":33024,"geo_precision":"unmatched"},"type":"Feature","geometry":null},{"properties":{"city":"Fort Lauderdale","geo_score":0.0,"sold price":1.0,"id":"abnbtif19t5v","address":"5050 Bayview Drive","zip/postal code":33308,"geo_precision":"unmatched"},"type":"Feature","geometry":null},{"properties":{"city":"Miami","geo_score":0.0,"sold price":1.0,"id":"abnbtiq377ll","address":"7830 Camino Real","zip/postal code":33143,"geo_precision":"unmatched"},"type":"Feature","geometry":null},{"properties":{"city":"Miami","geo_score":0.0,"sold price":1.0,"id":"abnbtif2mu4d","address":"3148 NW 196th Street","zip/postal code":33056,"geo_precision":"unmatched"},"type":"Feature","geometry":null},{"properties":{"city":"Miramar","geo_score":0.0,"sold price":1.0,"id":"abnbtif0r5i8","address":"3672 Sw 163rd Avenue","zip/postal code":33027,"geo_precision":"unmatched"},"type":"Feature","geometry":null},{"properties":{"city":"Aventura","geo_score":0.0,"sold price":1.0,"id":"abnbtipu0ngd","address":"3000 Maros Drive","zip/postal code":33160,"geo_precision":"unmatched"},"type":"Feature","geometry":null},{"properties":{"city":"Davie","geo_score":0.0,"sold price":1.0,"id":"abnbtit2pxq4","address":"6548 Hidden Cove Drive","zip/postal code":33314,"geo_precision":"unmatched"},"type":"Feature","geometry":null},{"properties":{"city":"Hallandale","geo_score":0.0,"sold price":1.0,"id":"abnbtilycf3y","address":"460 Paradise Isle Blvd","zip/postal code":33009,"geo_precision":"unmatched"},"type":"Feature","geometry":null},{"properties":{"city":"Miami Beach","geo_score":0.0,"sold price":1.0,"id":"abnbtih0qjmm","address":"2655 Collins Avenue","zip/postal code":33140,"geo_precision":"unmatched"},"type":"Feature","geometry":null},{"properties":{"city":"Miramar","geo_score":0.0,"sold price":1.0,"id":"abnbtishp1it","address":"13650 Sw 18th Street","zip/postal code":33027,"geo_precision":"unmatched"},"type":"Feature","geometry":null},{"properties":{"city":"Miami Gardens","geo_score":0.0,"sold price":1.0,"id":"abnbtijewlei","address":"6980 NW 186th Street","zip/postal code":33015,"geo_precision":"unmatched"},"type":"Feature","geometry":null},{"properties":{"city":"Coral Springs","geo_score":0.0,"sold price":1.0,"id":"abnbtieenwp0","address":"12131 Nw 32nd Court","zip/postal code":33065,"geo_precision":"unmatched"},"type":"Feature","geometry":null},{"properties":{"city":"Miramar","geo_score":0.0,"sold price":1.0,"id":"abnbtikjle3g","address":"2094 SW 149th Avenue","zip/postal code":33027,"geo_precision":"unmatched"},"type":"Feature","geometry":null},{"properties":{"city":"Miami","geo_score":0.0,"sold price":1.0,"id":"abnbtim03nly","address":"2000 Towerside Terrace","zip/postal code":33138,"geo_precision":"unmatched"},"type":"Feature","geometry":null},{"properties":{"city":"Wilton Manors","geo_score":0.0,"sold price":1.0,"id":"abnbtin2q2bv","address":"9 Ne 19th Street","zip/postal code":33305,"geo_precision":"unmatched"},"type":"Feature","geometry":null},{"properties":{"city":"Margate","geo_score":0.0,"sold price":1.0,"id":"abnbtinlk4fi","address":"885 SW 50th Avenue","zip/postal code":33068,"geo_precision":"unmatched"},"type":"Feature","geometry":null},{"properties":{"city":"Miami","geo_score":0.0,"sold price":1.0,"id":"abnbtiid08r0","address":"87 Ne 168th Street","zip/postal code":33162,"geo_precision":"unmatched"},"type":"Feature","geometry":null},{"properties":{"city":"Miami","geo_score":0.0,"sold price":1.0,"id":"abnbtifq9n9j","address":"5551 Nw 188th Street","zip/postal code":33055,"geo_precision":"unmatched"},"type":"Feature","geometry":null},{"properties":{"city":"Parkland","geo_score":0.0,"sold price":1.0,"id":"abnbtisp2r1j","address":"8011 Falls Lane","zip/postal code":33067,"geo_precision":"unmatched"},"type":"Feature","geometry":null},{"properties":{"city":"Hialeah","geo_score":0.0,"sold price":1.0,"id":"abnbtihkhbew","address":"601 E 44th Stret","zip/postal code":33013,"geo_precision":"unmatched"},"type":"Feature","geometry":null},{"properties":{"city":"Hialeah","geo_score":0.0,"sold price":1.0,"id":"abnbtif95or3","address":"601 E 44th Stret","zip/postal code":33013,"geo_precision":"unmatched"},"type":"Feature","geometry":null},{"properties":{"city":"Miami","geo_score":0.0,"sold price":1.0,"id":"abnbtiot1ev7","address":"540 Brickell Key Drive","zip/postal code":33131,"geo_precision":"unmatched"},"type":"Feature","geometry":null},{"properties":{"city":"Miami","geo_score":0.0,"sold price":1.0,"id":"abnbtidorlnc","address":"285 Nw 128th Street","zip/postal code":33168,"geo_precision":"unmatched"},"type":"Feature","geometry":null},{"properties":{"city":"Greenacres","geo_score":0.0,"sold price":1.0,"id":"abnbtigjhcxb","address":"715 Sunny Pineway","zip/postal code":33415,"geo_precision":"unmatched"},"type":"Feature","geometry":null},{"properties":{"city":"Plantation","geo_score":0.0,"sold price":1.0,"id":"abnbtisyc7gd","address":"770 Nw 98th Way","zip/postal code":33324,"geo_precision":"unmatched"},"type":"Feature","geometry":null},{"properties":{"city":"Goulds","geo_score":0.0,"sold price":1.0,"id":"abnbtih2ys8f","address":"12195 SW 217th Street","zip/postal code":33170,"geo_precision":"unmatched"},"type":"Feature","geometry":null},{"properties":{"city":"Miami","geo_score":0.0,"sold price":1.0,"id":"abnbtisblv10","address":"14501 Sw 136th Place","zip/postal code":33186,"geo_precision":"unmatched"},"type":"Feature","geometry":null},{"properties":{"city":"Cooper City","geo_score":0.0,"sold price":1.0,"id":"abnbtit75ov8","address":"11260 Sunview Way","zip/postal code":33026,"geo_precision":"unmatched"},"type":"Feature","geometry":null},{"properties":{"city":"Miami Gardens","geo_score":0.0,"sold price":1.0,"id":"abnbtiqkz4s9","address":"2007 Nw 175th Street","zip/postal code":33055,"geo_precision":"unmatched"},"type":"Feature","geometry":null},{"properties":{"city":"Boynton Beach","geo_score":0.0,"sold price":1.0,"id":"abnbtikvqbyj","address":"2300 Ne 1st Lane","zip/postal code":33426,"geo_precision":"unmatched"},"type":"Feature","geometry":null},{"properties":{"city":"Boca Raton","geo_score":0.0,"sold price":1.0,"id":"abnbtitfv1t1","address":"13 Royal Palm","zip/postal code":33432,"geo_precision":"unmatched"},"type":"Feature","geometry":null},{"properties":{"city":"Plantation","geo_score":0.0,"sold price":1.0,"id":"abnbtiqbqmmo","address":"364 Nw 95th Avenue","zip/postal code":33324,"geo_precision":"unmatched"},"type":"Feature","geometry":null},{"properties":{"city":"Boca Raton","geo_score":0.0,"sold price":1.0,"id":"abnbtimdxerj","address":"9100 Red Oak Lane","zip/postal code":33428,"geo_precision":"unmatched"},"type":"Feature","geometry":null},{"properties":{"city":"Jupiter","geo_score":0.0,"sold price":1.0,"id":"abnbtijdeyyq","address":"19800 Sandpointe Bay Drive","zip/postal code":33469,"geo_precision":"unmatched"},"type":"Feature","geometry":null},{"properties":{"city":"Weston","geo_score":0.0,"sold price":1.0,"id":"abnbtidjzaz1","address":"2553 Jardin Terrace","zip/postal code":33327,"geo_precision":"unmatched"},"type":"Feature","geometry":null},{"properties":{"city":"Coral Springs","geo_score":0.0,"sold price":1.0,"id":"abnbtiqvt96y","address":"11704 NW 47th Drive","zip/postal code":33076,"geo_precision":"unmatched"},"type":"Feature","geometry":null},{"properties":{"city":"Jupiter","geo_score":0.0,"sold price":1.0,"id":"abnbtiem92sl","address":"104 Palomino Drive","zip/postal code":33458,"geo_precision":"unmatched"},"type":"Feature","geometry":null},{"properties":{"city":"Deerfield Beach","geo_score":0.0,"sold price":1.0,"id":"abnbtiiyhz9x","address":"540 SE 15th Avenue","zip/postal code":33441,"geo_precision":"unmatched"},"type":"Feature","geometry":null},{"properties":{"city":"Jupiter","geo_score":0.0,"sold price":1.0,"id":"abnbtihrcs0v","address":"1776 W Community Drive","zip/postal code":33458,"geo_precision":"unmatched"},"type":"Feature","geometry":null},{"properties":{"city":"Pembroke Pines","geo_score":0.0,"sold price":1.0,"id":"abnbtirleqgw","address":"828 SW 173rd Avenue","zip/postal code":33029,"geo_precision":"unmatched"},"type":"Feature","geometry":null},{"properties":{"city":"Pembroke Pines","geo_score":0.0,"sold price":1.0,"id":"abnbtif7q89i","address":"1520 Nw 140th Manor","zip/postal code":33028,"geo_precision":"unmatched"},"type":"Feature","geometry":null},{"properties":{"city":"Davie","geo_score":0.0,"sold price":1.0,"id":"abnbtih59sr4","address":"5242 Sw 35th Street","zip/postal code":33314,"geo_precision":"unmatched"},"type":"Feature","geometry":null},{"properties":{"city":"Hallandale","geo_score":0.0,"sold price":1.0,"id":"abnbtirv2q6y","address":"200 Diplomat Parkway","zip/postal code":33009,"geo_precision":"unmatched"},"type":"Feature","geometry":null},{"properties":{"city":"Miami Beach","geo_score":0.0,"sold price":1.0,"id":"abnbtimtect7","address":"4444 N Michigan Avenue","zip/postal code":33140,"geo_precision":"unmatched"},"type":"Feature","geometry":null},{"properties":{"city":"Miami","geo_score":0.0,"sold price":1.0,"id":"abnbtifyno10","address":"9040 Sw 140th Street","zip/postal code":33176,"geo_precision":"unmatched"},"type":"Feature","geometry":null},{"properties":{"city":"Davie","geo_score":0.0,"sold price":1.0,"id":"abnbtie1vcwi","address":"1111 Scarorough Drive","zip/postal code":33324,"geo_precision":"unmatched"},"type":"Feature","geometry":null},{"properties":{"city":"Tamarac","geo_score":0.0,"sold price":1.0,"id":"abnbtil4bd9f","address":"10653 W Clairmont Circle","zip/postal code":33321,"geo_precision":"unmatched"},"type":"Feature","geometry":null},{"properties":{"city":"Tamarac","geo_score":0.0,"sold price":1.0,"id":"abnbtighv2ni","address":"10814 W Clairmont Circle","zip/postal code":33321,"geo_precision":"unmatched"},"type":"Feature","geometry":null},{"properties":{"city":"Weston","geo_score":0.0,"sold price":1.0,"id":"abnbtigloxa8","address":"852 Waterview Drive","zip/postal code":33326,"geo_precision":"unmatched"},"type":"Feature","geometry":null},{"properties":{"city":"Palm Bay","geo_score":0.0,"sold price":1.0,"id":"abnbtij1mwah","address":"1283 Cimarron Circle NE","zip/postal code":32905,"geo_precision":"unmatched"},"type":"Feature","geometry":null},{"properties":{"city":"Plantation","geo_score":0.0,"sold price":1.0,"id":"abnbtior3x5f","address":"10170 Nw 10th Street","zip/postal code":33322,"geo_precision":"unmatched"},"type":"Feature","geometry":null},{"properties":{"city":"Pembroke Pines","geo_score":0.0,"sold price":1.0,"id":"abnbtilz6nb2","address":"17921 Nw 10th Street","zip/postal code":33029,"geo_precision":"unmatched"},"type":"Feature","geometry":null},{"properties":{"city":"Miami Gardens","geo_score":0.0,"sold price":1.0,"id":"abnbtif25i35","address":"20610 Nw 29th Avenue","zip/postal code":33056,"geo_precision":"unmatched"},"type":"Feature","geometry":null},{"properties":{"city":"Delray Beach","geo_score":0.0,"sold price":1.0,"id":"abnbtifi2xev","address":"4440 Brandon Drive","zip/postal code":33445,"geo_precision":"unmatched"},"type":"Feature","geometry":null},{"properties":{"city":"Davie","geo_score":0.0,"sold price":1.0,"id":"abnbtik3qcd0","address":"4271 Sw 106th Terrace","zip/postal code":33328,"geo_precision":"unmatched"},"type":"Feature","geometry":null},{"properties":{"city":"Miami Gardens","geo_score":0.0,"sold price":1.0,"id":"abnbtirpfp07","address":"20610 Nw 29th Avenue","zip/postal code":33056,"geo_precision":"unmatched"},"type":"Feature","geometry":null},{"properties":{"city":"Weston","geo_score":0.0,"sold price":1.0,"id":"abnbtipfshuk","address":"934 Opal Terrace","zip/postal code":33326,"geo_precision":"unmatched"},"type":"Feature","geometry":null},{"properties":{"city":"Plantation","geo_score":0.0,"sold price":1.0,"id":"abnbtik9snor","address":"11780 Nw 19th Street","zip/postal code":33323,"geo_precision":"unmatched"},"type":"Feature","geometry":null},{"properties":{"city":"Miami","geo_score":0.0,"sold price":1.0,"id":"abnbtiegcork","address":"9770 SW 77th Terrace","zip/postal code":33173,"geo_precision":"unmatched"},"type":"Feature","geometry":null},{"properties":{"city":"Aventura","geo_score":0.0,"sold price":1.0,"id":"abnbtiime3ob","address":"3300 Ne 191st Street","zip/postal code":33180,"geo_precision":"unmatched"},"type":"Feature","geometry":null},{"properties":{"city":"Coral Gables","geo_score":0.0,"sold price":1.0,"id":"abnbtiq5umti","address":"146 Ponce De Leon Blvd","zip/postal code":33134,"geo_precision":"unmatched"},"type":"Feature","geometry":null},{"properties":{"city":"Miami","geo_score":0.0,"sold price":1.0,"id":"abnbtikjjxfa","address":"1710 Ne 191st Street","zip/postal code":33179,"geo_precision":"unmatched"},"type":"Feature","geometry":null},{"properties":{"city":"Miami","geo_score":0.0,"sold price":1.0,"id":"abnbtijos2e4","address":"701 Brickell Key Blvd","zip/postal code":33131,"geo_precision":"unmatched"},"type":"Feature","geometry":null},{"properties":{"city":"Fort Lauderdale","geo_score":0.0,"sold price":1.0,"id":"abnbtidpbt7m","address":"1956 S Ocean Lane","zip/postal code":33316,"geo_precision":"unmatched"},"type":"Feature","geometry":null},{"properties":{"city":"Plantation","geo_score":0.0,"sold price":1.0,"id":"abnbtijifa31","address":"9221 Chelsea Drive N","zip/postal code":33324,"geo_precision":"unmatched"},"type":"Feature","geometry":null},{"properties":{"city":"Pompano Beach","geo_score":0.0,"sold price":1.0,"id":"abnbtifzric9","address":"1301 SE 9th Avenue","zip/postal code":33060,"geo_precision":"unmatched"},"type":"Feature","geometry":null},{"properties":{"city":"Delray Beach","geo_score":0.0,"sold price":1.0,"id":"abnbtiqv4614","address":"950 Flanders T","zip/postal code":33484,"geo_precision":"unmatched"},"type":"Feature","geometry":null},{"properties":{"city":"Delray Beach","geo_score":0.0,"sold price":1.0,"id":"abnbtimde84l","address":"4440 Brandon Drive","zip/postal code":33445,"geo_precision":"unmatched"},"type":"Feature","geometry":null},{"properties":{"city":"Miami Lakes","geo_score":0.0,"sold price":1.0,"id":"abnbtiet6gbc","address":"8230 NW 162nd Street","zip/postal code":33016,"geo_precision":"unmatched"},"type":"Feature","geometry":null},{"properties":{"city":"Davie","geo_score":0.0,"sold price":1.0,"id":"abnbtihkjcuz","address":"9218 Magnolia Court","zip/postal code":33328,"geo_precision":"unmatched"},"type":"Feature","geometry":null},{"properties":{"city":"Boca Raton","geo_score":0.0,"sold price":1.0,"id":"abnbtieumb5o","address":"21331 Millbrook Court","zip/postal code":33498,"geo_precision":"unmatched"},"type":"Feature","geometry":null},{"properties":{"city":"Davie","geo_score":0.0,"sold price":1.0,"id":"abnbtify77mg","address":"13021 Sw 40th Street","zip/postal code":33330,"geo_precision":"unmatched"},"type":"Feature","geometry":null},{"properties":{"city":"Hialeah","geo_score":0.0,"sold price":1.0,"id":"abnbtilr6swz","address":"5890 W 25th Court","zip/postal code":33016,"geo_precision":"unmatched"},"type":"Feature","geometry":null},{"properties":{"city":"Jupiter","geo_score":0.0,"sold price":1.0,"id":"abnbtirh4sqa","address":"126 N River Drive W","zip/postal code":33458,"geo_precision":"unmatched"},"type":"Feature","geometry":null},{"properties":{"city":"Coral Springs","geo_score":0.0,"sold price":1.0,"id":"abnbtimqqgrf","address":"11050 Cypress Run Drive","zip/postal code":33071,"geo_precision":"unmatched"},"type":"Feature","geometry":null},{"properties":{"city":"Aventura","geo_score":0.0,"sold price":1.0,"id":"abnbtid74kol","address":"20505 E Country Club Drive","zip/postal code":33180,"geo_precision":"unmatched"},"type":"Feature","geometry":null},{"properties":{"city":"Miami","geo_score":0.0,"sold price":1.0,"id":"abnbtis3tp8l","address":"9456 Sw 77th Avenue","zip/postal code":33156,"geo_precision":"unmatched"},"type":"Feature","geometry":null},{"properties":{"city":"Dania Beach","geo_score":0.0,"sold price":1.0,"id":"abnbtii6s2e5","address":"5941 SW 36th Terrace","zip/postal code":33312,"geo_precision":"unmatched"},"type":"Feature","geometry":null},{"properties":{"city":"Hallandale Beach","geo_score":0.0,"sold price":1.0,"id":"abnbtii7j4dp","address":"1965 S Ocean Drive","zip/postal code":33025,"geo_precision":"unmatched"},"type":"Feature","geometry":null},{"properties":{"city":"Miami","geo_score":0.0,"sold price":1.0,"id":"abnbtipsrtid","address":"8101 Sw 128th Street","zip/postal code":33156,"geo_precision":"unmatched"},"type":"Feature","geometry":null},{"properties":{"city":"Tamarac","geo_score":0.0,"sold price":1.0,"id":"abnbtigttuv5","address":"7614 Nw 72nd Terrace","zip/postal code":33321,"geo_precision":"unmatched"},"type":"Feature","geometry":null},{"properties":{"city":"Pembroke Pines","geo_score":0.0,"sold price":1.0,"id":"abnbtif8llls","address":"639 SW 168th Lane","zip/postal code":33027,"geo_precision":"unmatched"},"type":"Feature","geometry":null},{"properties":{"city":"Pembroke Pines","geo_score":0.0,"sold price":1.0,"id":"abnbtinaa5ir","address":"801 Sw 149th Terrace","zip/postal code":33027,"geo_precision":"unmatched"},"type":"Feature","geometry":null},{"properties":{"city":"North Miami Beach","geo_score":0.0,"sold price":1.0,"id":"abnbtirwz2jq","address":"2780 Ne 183st","zip/postal code":33160,"geo_precision":"unmatched"},"type":"Feature","geometry":null},{"properties":{"city":"Lake Worth","geo_score":0.0,"sold price":1.0,"id":"abnbtin1g6mg","address":"4355 Trevi Court","zip/postal code":33467,"geo_precision":"unmatched"},"type":"Feature","geometry":null},{"properties":{"city":"Parkland","geo_score":0.0,"sold price":1.0,"id":"abnbtirj7n5f","address":"6390 NW 80th Drive","zip/postal code":33067,"geo_precision":"unmatched"},"type":"Feature","geometry":null},{"properties":{"city":"Boca Raton","geo_score":0.0,"sold price":1.0,"id":"abnbtioot6b0","address":"5698 St.Anne's Way","zip/postal code":33496,"geo_precision":"unmatched"},"type":"Feature","geometry":null},{"properties":{"city":"Plantation","geo_score":0.0,"sold price":1.0,"id":"abnbtikdsnz2","address":"6237 Pine Terrace","zip/postal code":33317,"geo_precision":"unmatched"},"type":"Feature","geometry":null},{"properties":{"city":"Fort Lauderdale","geo_score":0.0,"sold price":1.0,"id":"abnbtigsi5hl","address":"3608 Sw 23rd Ct","zip/postal code":33312,"geo_precision":"unmatched"},"type":"Feature","geometry":null},{"properties":{"city":"Fort Lauderdale","geo_score":0.0,"sold price":1.0,"id":"abnbtirm5v5k","address":"610 Se 14th Court","zip/postal code":33316,"geo_precision":"unmatched"},"type":"Feature","geometry":null},{"properties":{"city":"Coconut Creek","geo_score":0.0,"sold price":1.0,"id":"abnbtigtnem9","address":"4364 Carambola Cir","zip/postal code":33066,"geo_precision":"unmatched"},"type":"Feature","geometry":null},{"properties":{"city":"Sunrise","geo_score":0.0,"sold price":1.0,"id":"abnbtisjzj56","address":"8421 Sunset Strip","zip/postal code":33322,"geo_precision":"unmatched"},"type":"Feature","geometry":null},{"properties":{"city":"Miramar","geo_score":0.0,"sold price":1.0,"id":"abnbtikv5tsz","address":"15342 Sw 20th St","zip/postal code":33027,"geo_precision":"unmatched"},"type":"Feature","geometry":null},{"properties":{"city":"Sunrise","geo_score":0.0,"sold price":1.0,"id":"abnbtis040b4","address":"1257 Sw 149th Lane","zip/postal code":33326,"geo_precision":"unmatched"},"type":"Feature","geometry":null},{"properties":{"city":"Fort Lauderdale","geo_score":0.0,"sold price":1.0,"id":"abnbtisz9rtk","address":"3015 N Ocean Blvd Berkely South","zip/postal code":33311,"geo_precision":"unmatched"},"type":"Feature","geometry":null},{"properties":{"city":"Fort Lauderdale","geo_score":0.0,"sold price":1.0,"id":"abnbtiqjcthw","address":"5932 Ne 14th Rd","zip/postal code":33334,"geo_precision":"unmatched"},"type":"Feature","geometry":null},{"properties":{"city":"Coral Springs","geo_score":0.0,"sold price":1.0,"id":"abnbtillxa35","address":"9830 Nw 1st Manor","zip/postal code":33071,"geo_precision":"unmatched"},"type":"Feature","geometry":null},{"properties":{"city":"Pompano Beach","geo_score":0.0,"sold price":1.0,"id":"abnbtid8utgb","address":"525 N Ocean Blvd","zip/postal code":33062,"geo_precision":"unmatched"},"type":"Feature","geometry":null},{"properties":{"city":"Miami Beach","geo_score":0.0,"sold price":1.0,"id":"abnbtigigpmq","address":"1521 Nw 64th Street","zip/postal code":33141,"geo_precision":"unmatched"},"type":"Feature","geometry":null},{"properties":{"city":"Miami","geo_score":0.0,"sold price":1.0,"id":"abnbtims7nof","address":"11031 Sw 156th Street","zip/postal code":33157,"geo_precision":"unmatched"},"type":"Feature","geometry":null},{"properties":{"city":"Miami","geo_score":0.0,"sold price":1.0,"id":"abnbtilgqne3","address":"14052 Sw 167th Terrace","zip/postal code":33177,"geo_precision":"unmatched"},"type":"Feature","geometry":null},{"properties":{"city":"Hialeah","geo_score":0.0,"sold price":1.0,"id":"abnbtihtgqb7","address":"771 East 30th Street","zip/postal code":33013,"geo_precision":"unmatched"},"type":"Feature","geometry":null},{"properties":{"city":"Aventura","geo_score":0.0,"sold price":1.0,"id":"abnbtiiwcsa7","address":"2750 Ne 183rd Street","zip/postal code":33160,"geo_precision":"unmatched"},"type":"Feature","geometry":null},{"properties":{"city":"Pembroke Pines","geo_score":0.0,"sold price":1.0,"id":"abnbtidvyjw2","address":"1231 Nw 193rd Avenue","zip/postal code":33029,"geo_precision":"unmatched"},"type":"Feature","geometry":null},{"properties":{"city":"Miami","geo_score":0.0,"sold price":1.0,"id":"abnbtijxru46","address":"16335 Sw 81st Street","zip/postal code":33193,"geo_precision":"unmatched"},"type":"Feature","geometry":null},{"properties":{"city":"Juno Beach","geo_score":0.0,"sold price":1.0,"id":"abnbtid9i4x0","address":"530 Ocean Drive","zip/postal code":33408,"geo_precision":"unmatched"},"type":"Feature","geometry":null},{"properties":{"city":"Hollywood","geo_score":0.0,"sold price":1.0,"id":"abnbtidmxi45","address":"2751 S Ocean Drive","zip/postal code":33019,"geo_precision":"unmatched"},"type":"Feature","geometry":null},{"properties":{"city":"Pompano Beach","geo_score":0.0,"sold price":1.0,"id":"abnbtisqj6u0","address":"3100 N Palm Aire Drive","zip/postal code":33069,"geo_precision":"unmatched"},"type":"Feature","geometry":null},{"properties":{"city":"Boca Raton","geo_score":0.0,"sold price":1.0,"id":"abnbtigtbve9","address":"7178 Melbourne Lane","zip/postal code":33434,"geo_precision":"unmatched"},"type":"Feature","geometry":null},{"properties":{"city":"Hialeah","geo_score":0.0,"sold price":1.0,"id":"abnbtihoryzp","address":"740 E 38th Street","zip/postal code":33013,"geo_precision":"unmatched"},"type":"Feature","geometry":null},{"properties":{"city":"Fort Lauderdale","geo_score":0.0,"sold price":1.0,"id":"abnbtiplp0m4","address":"530 Sw 28th Avenue","zip/postal code":33312,"geo_precision":"unmatched"},"type":"Feature","geometry":null},{"properties":{"city":"Deerfield Beach","geo_score":0.0,"sold price":1.0,"id":"abnbtiecpreo","address":"75 Centennial Court","zip/postal code":33442,"geo_precision":"unmatched"},"type":"Feature","geometry":null},{"properties":{"city":"Boca Raton","geo_score":0.0,"sold price":1.0,"id":"abnbtiltimab","address":"1301 SW 20th Street","zip/postal code":33486,"geo_precision":"unmatched"},"type":"Feature","geometry":null},{"properties":{"city":"Hollywood","geo_score":0.0,"sold price":1.0,"id":"abnbtimudkgt","address":"4105 E Sailboat Drive","zip/postal code":33026,"geo_precision":"unmatched"},"type":"Feature","geometry":null},{"properties":{"city":"West Palm Beach","geo_score":0.0,"sold price":1.0,"id":"abnbtimmrve1","address":"2800 N Ocean Drive","zip/postal code":33404,"geo_precision":"unmatched"},"type":"Feature","geometry":null},{"properties":{"city":"Miami","geo_score":0.0,"sold price":1.0,"id":"abnbtieqoj8a","address":"3920 Crawford Avenue","zip/postal code":33133,"geo_precision":"unmatched"},"type":"Feature","geometry":null},{"properties":{"city":"Weston","geo_score":0.0,"sold price":1.0,"id":"abnbtiqcntt8","address":"3909 Hawks Court","zip/postal code":33331,"geo_precision":"unmatched"},"type":"Feature","geometry":null},{"properties":{"city":"Miami","geo_score":0.0,"sold price":1.0,"id":"abnbtigvznik","address":"1925 Brickell Avenue","zip/postal code":33129,"geo_precision":"unmatched"},"type":"Feature","geometry":null},{"properties":{"city":"Miami","geo_score":0.0,"sold price":1.0,"id":"abnbtikd2j97","address":"9013 Sw 138th Street","zip/postal code":33176,"geo_precision":"unmatched"},"type":"Feature","geometry":null},{"properties":{"city":"North Palm Beach","geo_score":0.0,"sold price":1.0,"id":"abnbtie5z8xe","address":"336 Golfview Road","zip/postal code":33408,"geo_precision":"unmatched"},"type":"Feature","geometry":null},{"properties":{"city":"Sw Ranches","geo_score":0.0,"sold price":1.0,"id":"abnbtisvev69","address":"7010 Hancock Road","zip/postal code":33330,"geo_precision":"unmatched"},"type":"Feature","geometry":null},{"properties":{"city":"Hollywood","geo_score":0.0,"sold price":1.0,"id":"abnbtis5pt9n","address":"5312 Garfield Street","zip/postal code":33021,"geo_precision":"unmatched"},"type":"Feature","geometry":null},{"properties":{"city":"Plantation","geo_score":0.0,"sold price":1.0,"id":"abnbtiorvio9","address":"9889 Nw 2nd Street","zip/postal code":33324,"geo_precision":"unmatched"},"type":"Feature","geometry":null},{"properties":{"city":"West Palm Beach","geo_score":0.0,"sold price":1.0,"id":"abnbtijkcg14","address":"8923 Sunset Drive","zip/postal code":33410,"geo_precision":"unmatched"},"type":"Feature","geometry":null},{"properties":{"city":"Miami","geo_score":0.0,"sold price":1.0,"id":"abnbtii61lg9","address":"8250 Sw 118th Terrace","zip/postal code":33156,"geo_precision":"unmatched"},"type":"Feature","geometry":null},{"properties":{"city":"Hollywood","geo_score":0.0,"sold price":1.0,"id":"abnbtinhhbha","address":"3800 Hillcrest Drive","zip/postal code":33021,"geo_precision":"unmatched"},"type":"Feature","geometry":null},{"properties":{"city":"Coral Springs","geo_score":0.0,"sold price":1.0,"id":"abnbtir7ylca","address":"250 NW 123rd Way","zip/postal code":33071,"geo_precision":"unmatched"},"type":"Feature","geometry":null},{"properties":{"city":"Pompano Beach","geo_score":0.0,"sold price":1.0,"id":"abnbtipf4i87","address":"3204 Leigh Road","zip/postal code":33062,"geo_precision":"unmatched"},"type":"Feature","geometry":null},{"properties":{"city":"Tamarac","geo_score":0.0,"sold price":1.0,"id":"abnbtighyrhp","address":"4502 NW 42nd Court","zip/postal code":33319,"geo_precision":"unmatched"},"type":"Feature","geometry":null},{"properties":{"city":"Miami","geo_score":0.0,"sold price":1.0,"id":"abnbtio7wt6p","address":"9373 Sw 155th Avenue","zip/postal code":33196,"geo_precision":"unmatched"},"type":"Feature","geometry":null},{"properties":{"city":"Aventura","geo_score":0.0,"sold price":1.0,"id":"abnbtiphei6x","address":"20191 E Country Club Drive","zip/postal code":33180,"geo_precision":"unmatched"},"type":"Feature","geometry":null},{"properties":{"city":"Coral Springs","geo_score":0.0,"sold price":1.0,"id":"abnbtii4ry9s","address":"5673 NW 109th Lane","zip/postal code":33076,"geo_precision":"unmatched"},"type":"Feature","geometry":null},{"properties":{"city":"Miami","geo_score":0.0,"sold price":1.0,"id":"abnbtih8vy3i","address":"651 Plover Avenue","zip/postal code":33166,"geo_precision":"unmatched"},"type":"Feature","geometry":null},{"properties":{"city":"Palm Beach","geo_score":0.0,"sold price":1.0,"id":"abnbtisl0p9s","address":"3540 S Ocean Blvd #408","zip/postal code":33480,"geo_precision":"unmatched"},"type":"Feature","geometry":null},{"properties":{"city":"Jupiter","geo_score":0.0,"sold price":1.0,"id":"abnbtifdtj02","address":"146 Stonebriar Blvd","zip/postal code":33458,"geo_precision":"unmatched"},"type":"Feature","geometry":null},{"properties":{"city":"Coral Springs","geo_score":0.0,"sold price":1.0,"id":"abnbtilte9wf","address":"4751 NW 88th Terrace","zip/postal code":33067,"geo_precision":"unmatched"},"type":"Feature","geometry":null},{"properties":{"city":"Fort Lauderdale","geo_score":0.0,"sold price":1.0,"id":"abnbtimmg6nn","address":"1430 Nw 20th Court","zip/postal code":33311,"geo_precision":"unmatched"},"type":"Feature","geometry":null},{"properties":{"city":"Fort Lauderdale","geo_score":0.0,"sold price":1.0,"id":"abnbtipkdqbb","address":"6111 Ne 19th Avenue","zip/postal code":33308,"geo_precision":"unmatched"},"type":"Feature","geometry":null},{"properties":{"city":"Miami","geo_score":0.0,"sold price":1.0,"id":"abnbtiff612z","address":"4280 Sw 137th Court","zip/postal code":33175,"geo_precision":"unmatched"},"type":"Feature","geometry":null},{"properties":{"city":"Miami","geo_score":0.0,"sold price":1.0,"id":"abnbtisyopyv","address":"13824 Sw 22nd Terrace","zip/postal code":33175,"geo_precision":"unmatched"},"type":"Feature","geometry":null},{"properties":{"city":"Aventura","geo_score":0.0,"sold price":1.0,"id":"abnbtihebcn1","address":"3625 N Country Club Drive","zip/postal code":33180,"geo_precision":"unmatched"},"type":"Feature","geometry":null},{"properties":{"city":"Pembroke Pines","geo_score":0.0,"sold price":1.0,"id":"abnbtig823v2","address":"1633 Fairway Road","zip/postal code":33026,"geo_precision":"unmatched"},"type":"Feature","geometry":null},{"properties":{"city":"Plantation","geo_score":0.0,"sold price":1.0,"id":"abnbtiigh0gq","address":"11401 Nw 24th Street","zip/postal code":33323,"geo_precision":"unmatched"},"type":"Feature","geometry":null},{"properties":{"city":"Weston","geo_score":0.0,"sold price":1.0,"id":"abnbticxaqug","address":"2527 Eagle","zip/postal code":33327,"geo_precision":"unmatched"},"type":"Feature","geometry":null},{"properties":{"city":"Fort Lauderdale","geo_score":0.0,"sold price":1.0,"id":"abnbtiqzc53r","address":"5811 Ne 22nd Avenue","zip/postal code":33308,"geo_precision":"unmatched"},"type":"Feature","geometry":null},{"properties":{"city":"West Palm Beach","geo_score":0.0,"sold price":1.0,"id":"abnbtip5aqia","address":"13715 75th Lane North","zip/postal code":33412,"geo_precision":"unmatched"},"type":"Feature","geometry":null},{"properties":{"city":"Miami","geo_score":0.0,"sold price":1.0,"id":"abnbtipkqnl6","address":"17725 Sw 176 Street","zip/postal code":33187,"geo_precision":"unmatched"},"type":"Feature","geometry":null},{"properties":{"city":"Coral Gables","geo_score":0.0,"sold price":1.0,"id":"abnbtid0bprd","address":"1529 Palermo Avenue","zip/postal code":33134,"geo_precision":"unmatched"},"type":"Feature","geometry":null},{"properties":{"city":"Miami","geo_score":0.0,"sold price":1.0,"id":"abnbtisgamud","address":"15650 Sw 46th Terrace","zip/postal code":33185,"geo_precision":"unmatched"},"type":"Feature","geometry":null},{"properties":{"city":"Sunrise","geo_score":0.0,"sold price":1.0,"id":"abnbtiqpfc9j","address":"13796 Nw 22nd Street","zip/postal code":33323,"geo_precision":"unmatched"},"type":"Feature","geometry":null},{"properties":{"city":"Miami","geo_score":0.0,"sold price":1.0,"id":"abnbtisvrg36","address":"14301 Sw 88th Street","zip/postal code":33183,"geo_precision":"unmatched"},"type":"Feature","geometry":null},{"properties":{"city":"Lake Worth","geo_score":0.0,"sold price":1.0,"id":"abnbtiexqyf1","address":"1213 North B Street","zip/postal code":33460,"geo_precision":"unmatched"},"type":"Feature","geometry":null},{"properties":{"city":"Miami","geo_score":0.0,"sold price":1.0,"id":"abnbtiowh6ve","address":"20220 Sw 85th Court","zip/postal code":33189,"geo_precision":"unmatched"},"type":"Feature","geometry":null},{"properties":{"city":"Hallandale","geo_score":0.0,"sold price":1.0,"id":"abnbtigqogp3","address":"111 Golden Isle Drive","zip/postal code":33009,"geo_precision":"unmatched"},"type":"Feature","geometry":null},{"properties":{"city":"Pembroke Pines","geo_score":0.0,"sold price":1.0,"id":"abnbtipe5ot8","address":"16453 Nw 22nd Street","zip/postal code":33028,"geo_precision":"unmatched"},"type":"Feature","geometry":null},{"properties":{"city":"Oakland Park","geo_score":0.0,"sold price":1.0,"id":"abnbtiebsach","address":"2912 NE 8th Terrace","zip/postal code":33334,"geo_precision":"unmatched"},"type":"Feature","geometry":null},{"properties":{"city":"Miami","geo_score":0.0,"sold price":1.0,"id":"abnbtiob9d2v","address":"4790 Sw 141st Avenue","zip/postal code":33175,"geo_precision":"unmatched"},"type":"Feature","geometry":null},{"properties":{"city":"Miami","geo_score":0.0,"sold price":1.0,"id":"abnbtigd5w2w","address":"130 Ne 202nd Terrace","zip/postal code":33179,"geo_precision":"unmatched"},"type":"Feature","geometry":null},{"properties":{"city":"Miami","geo_score":0.0,"sold price":1.0,"id":"abnbtigte0t7","address":"11111 Biscayne Blvd","zip/postal code":33181,"geo_precision":"unmatched"},"type":"Feature","geometry":null},{"properties":{"city":"Deerfield Beach","geo_score":0.0,"sold price":1.0,"id":"abnbtif7tbbx","address":"2015 Newport G","zip/postal code":33442,"geo_precision":"unmatched"},"type":"Feature","geometry":null},{"properties":{"city":"Sw Ranches","geo_score":0.0,"sold price":1.0,"id":"abnbtin6eznl","address":"7010 Hancock Road","zip/postal code":33330,"geo_precision":"unmatched"},"type":"Feature","geometry":null},{"properties":{"city":"Margate","geo_score":0.0,"sold price":1.0,"id":"abnbtisu1b7z","address":"1910 Nw 80th Avenue","zip/postal code":33063,"geo_precision":"unmatched"},"type":"Feature","geometry":null},{"properties":{"city":"Miami","geo_score":0.0,"sold price":1.0,"id":"abnbtimw8hl3","address":"8780 Sw 160th Street","zip/postal code":33157,"geo_precision":"unmatched"},"type":"Feature","geometry":null},{"properties":{"city":"Weston","geo_score":0.0,"sold price":1.0,"id":"abnbtirlocr4","address":"4289 Pine Ridge Court","zip/postal code":33331,"geo_precision":"unmatched"},"type":"Feature","geometry":null},{"properties":{"city":"Fort Lauderdale","geo_score":0.0,"sold price":1.0,"id":"abnbtif1odux","address":"2504 Sw 34th Ave","zip/postal code":33312,"geo_precision":"unmatched"},"type":"Feature","geometry":null},{"properties":{"city":"Miami","geo_score":0.0,"sold price":1.0,"id":"abnbtinnnnhw","address":"905 Ne 199th Street","zip/postal code":33179,"geo_precision":"unmatched"},"type":"Feature","geometry":null},{"properties":{"city":"Fort Lauderdale","geo_score":0.0,"sold price":1.0,"id":"abnbtiqmr36o","address":"2100 S Ocean Drive","zip/postal code":33316,"geo_precision":"unmatched"},"type":"Feature","geometry":null},{"properties":{"city":"Margate","geo_score":0.0,"sold price":1.0,"id":"abnbtijue2cz","address":"7205 Nw 57th Place","zip/postal code":33063,"geo_precision":"unmatched"},"type":"Feature","geometry":null},{"properties":{"city":"Hialeah","geo_score":0.0,"sold price":1.0,"id":"abnbtijmptjr","address":"6121 W 24th Avenue","zip/postal code":33016,"geo_precision":"unmatched"},"type":"Feature","geometry":null},{"properties":{"city":"Fort Lauderdale","geo_score":0.0,"sold price":1.0,"id":"abnbtil7jbzi","address":"5202 Sw 90th Terrace","zip/postal code":33328,"geo_precision":"unmatched"},"type":"Feature","geometry":null},{"properties":{"city":"Miami Gardens","geo_score":0.0,"sold price":1.0,"id":"abnbtijyyy9v","address":"18557 Nw 55th Avenue","zip/postal code":33055,"geo_precision":"unmatched"},"type":"Feature","geometry":null},{"properties":{"city":"Sunny Isles Beach","geo_score":0.0,"sold price":1.0,"id":"abnbtif7twff","address":"400 Kings Point Drive","zip/postal code":33160,"geo_precision":"unmatched"},"type":"Feature","geometry":null},{"properties":{"city":"Fort Lauderdale","geo_score":0.0,"sold price":1.0,"id":"abnbtio7vyg5","address":"3145 Peachtree Way, Davie","zip/postal code":33328,"geo_precision":"unmatched"},"type":"Feature","geometry":null},{"properties":{"city":"Miami","geo_score":0.0,"sold price":1.0,"id":"abnbtij2jq9y","address":"7720 Sw 59th Court","zip/postal code":33143,"geo_precision":"unmatched"},"type":"Feature","geometry":null},{"properties":{"city":"Davie","geo_score":0.0,"sold price":1.0,"id":"abnbtijpa036","address":"1710 Whitehall Drive","zip/postal code":33324,"geo_precision":"unmatched"},"type":"Feature","geometry":null},{"properties":{"city":"Jupiter","geo_score":0.0,"sold price":1.0,"id":"abnbtindn4kj","address":"302 Hammock Point N","zip/postal code":33458,"geo_precision":"unmatched"},"type":"Feature","geometry":null},{"properties":{"city":"Deerfield","geo_score":0.0,"sold price":1.0,"id":"abnbtisuqmfr","address":"1374 Sw 28th Ave.","zip/postal code":33342,"geo_precision":"unmatched"},"type":"Feature","geometry":null},{"properties":{"city":"Coral Springs","geo_score":0.0,"sold price":1.0,"id":"abnbtitdj037","address":"364 Nw 113th Avenue","zip/postal code":33071,"geo_precision":"unmatched"},"type":"Feature","geometry":null},{"properties":{"city":"Boynton Beach","geo_score":0.0,"sold price":1.0,"id":"abnbtiigftbp","address":"5631 Fairway Park Drive","zip/postal code":33437,"geo_precision":"unmatched"},"type":"Feature","geometry":null},{"properties":{"city":"Weston","geo_score":0.0,"sold price":1.0,"id":"abnbtilanvc8","address":"2458 Poinciana Court","zip/postal code":33327,"geo_precision":"unmatched"},"type":"Feature","geometry":null},{"properties":{"city":"Fort Lauderdale","geo_score":0.0,"sold price":1.0,"id":"abnbtikm18o1","address":"3300 Ne 36th Street","zip/postal code":33308,"geo_precision":"unmatched"},"type":"Feature","geometry":null},{"properties":{"city":"Boca Raton","geo_score":0.0,"sold price":1.0,"id":"abnbtil37jop","address":"22222 Martella Avenue","zip/postal code":33433,"geo_precision":"unmatched"},"type":"Feature","geometry":null},{"properties":{"city":"Miami","geo_score":0.0,"sold price":1.0,"id":"abnbtiqsx8fo","address":"19320 Royal Birkdale Dr.","zip/postal code":33015,"geo_precision":"unmatched"},"type":"Feature","geometry":null},{"properties":{"city":"Homestead","geo_score":0.0,"sold price":1.0,"id":"abnbtiom9gly","address":"2320 Se 5th Court","zip/postal code":33033,"geo_precision":"unmatched"},"type":"Feature","geometry":null},{"properties":{"city":"Miami","geo_score":0.0,"sold price":1.0,"id":"abnbtil4vokz","address":"1315 Sw 78th Pl","zip/postal code":33144,"geo_precision":"unmatched"},"type":"Feature","geometry":null},{"properties":{"city":"Miami","geo_score":0.0,"sold price":1.0,"id":"abnbtinyes02","address":"11405 Sw 123rd Terrace","zip/postal code":33176,"geo_precision":"unmatched"},"type":"Feature","geometry":null},{"properties":{"city":"Miami","geo_score":0.0,"sold price":1.0,"id":"abnbtiknput4","address":"9456 Sw 77th Avenue","zip/postal code":33156,"geo_precision":"unmatched"},"type":"Feature","geometry":null},{"properties":{"city":"West Park","geo_score":0.0,"sold price":1.0,"id":"abnbtio6e29x","address":"3810 Sw 32nd Avenue","zip/postal code":33023,"geo_precision":"unmatched"},"type":"Feature","geometry":null},{"properties":{"city":"Miami","geo_score":0.0,"sold price":1.0,"id":"abnbtikek1dw","address":"3221 Sw 68th Avenue","zip/postal code":33155,"geo_precision":"unmatched"},"type":"Feature","geometry":null},{"properties":{"city":"Boynton Beach","geo_score":0.0,"sold price":1.0,"id":"abnbtiq1pme8","address":"12529 Imperial Isle Drive","zip/postal code":33437,"geo_precision":"unmatched"},"type":"Feature","geometry":null},{"properties":{"city":"Boca Raton","geo_score":0.0,"sold price":1.0,"id":"abnbtiqiuai2","address":"10619 Maple Chase Drive","zip/postal code":33498,"geo_precision":"unmatched"},"type":"Feature","geometry":null},{"properties":{"city":"Redland","geo_score":0.0,"sold price":1.0,"id":"abnbtigv6rpc","address":"26801 Sw 197th Avenue","zip/postal code":33031,"geo_precision":"unmatched"},"type":"Feature","geometry":null},{"properties":{"city":"Fort Lauderdale","geo_score":0.0,"sold price":1.0,"id":"abnbtitanzi4","address":"2000 S Ocean Lane","zip/postal code":33316,"geo_precision":"unmatched"},"type":"Feature","geometry":null},{"properties":{"city":"Sunny Isles Beach","geo_score":0.0,"sold price":1.0,"id":"abnbtipokxpf","address":"400 Kings Point Drive","zip/postal code":33160,"geo_precision":"unmatched"},"type":"Feature","geometry":null},{"properties":{"city":"North Palm Beach","geo_score":0.0,"sold price":1.0,"id":"abnbtil90uwb","address":"805 Buttonwood Road","zip/postal code":33408,"geo_precision":"unmatched"},"type":"Feature","geometry":null},{"properties":{"city":"Coconut Creek","geo_score":0.0,"sold price":1.0,"id":"abnbtimb0mio","address":"3326 NW 64th Court","zip/postal code":33073,"geo_precision":"unmatched"},"type":"Feature","geometry":null},{"properties":{"city":"Jupiter","geo_score":0.0,"sold price":1.0,"id":"abnbtik87xx3","address":"164 Turtle Creek Drive","zip/postal code":33469,"geo_precision":"unmatched"},"type":"Feature","geometry":null},{"properties":{"city":"Weston","geo_score":0.0,"sold price":1.0,"id":"abnbtijlvh19","address":"934 Opal Terrace","zip/postal code":33326,"geo_precision":"unmatched"},"type":"Feature","geometry":null},{"properties":{"city":"Sunny Isles","geo_score":0.0,"sold price":1.0,"id":"abnbtimfka21","address":"230 174th Street","zip/postal code":33160,"geo_precision":"unmatched"},"type":"Feature","geometry":null},{"properties":{"city":"Hialeah","geo_score":0.0,"sold price":1.0,"id":"abnbtiepu8vx","address":"2313 W 60th Court","zip/postal code":33016,"geo_precision":"unmatched"},"type":"Feature","geometry":null},{"properties":{"city":"Palm Beach","geo_score":0.0,"sold price":1.0,"id":"abnbtisuah4c","address":"2840 S Ocean Blvd","zip/postal code":33480,"geo_precision":"unmatched"},"type":"Feature","geometry":null},{"properties":{"city":"Miami","geo_score":0.0,"sold price":1.0,"id":"abnbtiqptdz2","address":"7355 Sw 154th Terrace","zip/postal code":33157,"geo_precision":"unmatched"},"type":"Feature","geometry":null},{"properties":{"city":"Coconut Creek","geo_score":0.0,"sold price":1.0,"id":"abnbtikndo8s","address":"5140 Stagecoach Drive","zip/postal code":33073,"geo_precision":"unmatched"},"type":"Feature","geometry":null},{"properties":{"city":"Sunrise","geo_score":0.0,"sold price":1.0,"id":"abnbtiemni58","address":"3840 Nw 120th Way","zip/postal code":33323,"geo_precision":"unmatched"},"type":"Feature","geometry":null},{"properties":{"city":"Plantation","geo_score":0.0,"sold price":1.0,"id":"abnbtiqeznln","address":"1100 Nw 100th Way","zip/postal code":33322,"geo_precision":"unmatched"},"type":"Feature","geometry":null},{"properties":{"city":"Miami","geo_score":0.0,"sold price":1.0,"id":"abnbtii2jz3v","address":"13580 Sw 99th Street","zip/postal code":33186,"geo_precision":"unmatched"},"type":"Feature","geometry":null},{"properties":{"city":"Miami","geo_score":0.0,"sold price":1.0,"id":"abnbtir375fu","address":"11309 Sw 109th Road","zip/postal code":33176,"geo_precision":"unmatched"},"type":"Feature","geometry":null},{"properties":{"city":"Lauderdale Lakes","geo_score":0.0,"sold price":1.0,"id":"abnbtigiwgqs","address":"4480 Nw 41st Terrace","zip/postal code":33319,"geo_precision":"unmatched"},"type":"Feature","geometry":null},{"properties":{"city":"Boca Raton","geo_score":0.0,"sold price":1.0,"id":"abnbtit89shs","address":"518 Fanshaw M","zip/postal code":33434,"geo_precision":"unmatched"},"type":"Feature","geometry":null},{"properties":{"city":"Pembroke Pines","geo_score":0.0,"sold price":1.0,"id":"abnbtie5aiby","address":"336 Nw 106th Terrace","zip/postal code":33026,"geo_precision":"unmatched"},"type":"Feature","geometry":null},{"properties":{"city":"Highland Beach","geo_score":0.0,"sold price":1.0,"id":"abnbtid14lag","address":"4750 S Ocean Blvd","zip/postal code":33487,"geo_precision":"unmatched"},"type":"Feature","geometry":null},{"properties":{"city":"Miami","geo_score":0.0,"sold price":1.0,"id":"abnbtie2pmyg","address":"1299 Sw 191st Terrace","zip/postal code":33177,"geo_precision":"unmatched"},"type":"Feature","geometry":null},{"properties":{"city":"Pembroke Pines","geo_score":0.0,"sold price":1.0,"id":"abnbtisdvz04","address":"7490 Nw 21st Place","zip/postal code":33024,"geo_precision":"unmatched"},"type":"Feature","geometry":null},{"properties":{"city":"Davie","geo_score":0.0,"sold price":1.0,"id":"abnbtily7tkx","address":"14421 Bedford Court","zip/postal code":33325,"geo_precision":"unmatched"},"type":"Feature","geometry":null},{"properties":{"city":"Weston","geo_score":0.0,"sold price":1.0,"id":"abnbtisib0fg","address":"380 Mallard Drive","zip/postal code":33327,"geo_precision":"unmatched"},"type":"Feature","geometry":null},{"properties":{"city":"Tamarac","geo_score":0.0,"sold price":1.0,"id":"abnbtip1epmy","address":"5705 Mulberry Road","zip/postal code":33319,"geo_precision":"unmatched"},"type":"Feature","geometry":null},{"properties":{"city":"Miramar","geo_score":0.0,"sold price":1.0,"id":"abnbtijk7vxd","address":"15755 Sw 20th Street","zip/postal code":33027,"geo_precision":"unmatched"},"type":"Feature","geometry":null},{"properties":{"city":"Hallandale","geo_score":0.0,"sold price":1.0,"id":"abnbtihx4vw7","address":"250 Layne Blvd","zip/postal code":33009,"geo_precision":"unmatched"},"type":"Feature","geometry":null},{"properties":{"city":"Boca Raton","geo_score":0.0,"sold price":1.0,"id":"abnbtim6igwt","address":"21306 Raindance Terrace","zip/postal code":33428,"geo_precision":"unmatched"},"type":"Feature","geometry":null},{"properties":{"city":"Hialeah","geo_score":0.0,"sold price":1.0,"id":"abnbtiqxf878","address":"601 E 44th Stret","zip/postal code":33013,"geo_precision":"unmatched"},"type":"Feature","geometry":null},{"properties":{"city":"Fort Lauderdale","geo_score":0.0,"sold price":1.0,"id":"abnbtijqn6y7","address":"817 Se 2nd Street","zip/postal code":33301,"geo_precision":"unmatched"},"type":"Feature","geometry":null},{"properties":{"city":"Hallandale Beach","geo_score":0.0,"sold price":1.0,"id":"abnbtif8g31g","address":"201 Atlantic Shores Blvd","zip/postal code":33009,"geo_precision":"unmatched"},"type":"Feature","geometry":null},{"properties":{"city":"Pompano Beach","geo_score":0.0,"sold price":1.0,"id":"abnbtir8dl1c","address":"840 Se 1st Terrace","zip/postal code":33060,"geo_precision":"unmatched"},"type":"Feature","geometry":null},{"properties":{"city":"Miramar","geo_score":0.0,"sold price":1.0,"id":"abnbtinled3c","address":"4405 Sw 160th Avenue","zip/postal code":33027,"geo_precision":"unmatched"},"type":"Feature","geometry":null},{"properties":{"city":"Weston","geo_score":0.0,"sold price":1.0,"id":"abnbtiniq9f3","address":"1967 Pisces Terrace","zip/postal code":33327,"geo_precision":"unmatched"},"type":"Feature","geometry":null},{"properties":{"city":"Lake Worth","geo_score":0.0,"sold price":1.0,"id":"abnbtiquuwp5","address":"8431 Linden Way","zip/postal code":33467,"geo_precision":"unmatched"},"type":"Feature","geometry":null},{"properties":{"city":"Fort Lauderdale","geo_score":0.0,"sold price":1.0,"id":"abnbtirbmnvj","address":"2870 Sw 58th Court","zip/postal code":33312,"geo_precision":"unmatched"},"type":"Feature","geometry":null},{"properties":{"city":"Delray Beach","geo_score":0.0,"sold price":1.0,"id":"abnbticxed2q","address":"16075 Sims Road","zip/postal code":33484,"geo_precision":"unmatched"},"type":"Feature","geometry":null},{"properties":{"city":"Cooper City","geo_score":0.0,"sold price":1.0,"id":"abnbtippb9uc","address":"12142 Sw 50th Court","zip/postal code":33330,"geo_precision":"unmatched"},"type":"Feature","geometry":null},{"properties":{"city":"West Palm Beach","geo_score":0.0,"sold price":1.0,"id":"abnbtim7kggj","address":"13124 Silver Fox Lane","zip/postal code":33418,"geo_precision":"unmatched"},"type":"Feature","geometry":null},{"properties":{"city":"Boca Raton","geo_score":0.0,"sold price":1.0,"id":"abnbtij0dwio","address":"8607 Via Serena","zip/postal code":33433,"geo_precision":"unmatched"},"type":"Feature","geometry":null},{"properties":{"city":"Loxahatchee","geo_score":0.0,"sold price":1.0,"id":"abnbtidwsgeg","address":"16087 Gold Cup Drive E","zip/postal code":33470,"geo_precision":"unmatched"},"type":"Feature","geometry":null},{"properties":{"city":"Boynton Beach","geo_score":0.0,"sold price":1.0,"id":"abnbtif4ue8x","address":"5622 Mirror Lakes Blvd","zip/postal code":33472,"geo_precision":"unmatched"},"type":"Feature","geometry":null},{"properties":{"city":"Deerfield Beach","geo_score":0.0,"sold price":1.0,"id":"abnbtihirvay","address":"1112 Se 15th Ave.","zip/postal code":33441,"geo_precision":"unmatched"},"type":"Feature","geometry":null},{"properties":{"city":"Weston","geo_score":0.0,"sold price":1.0,"id":"abnbtigaksa9","address":"1214 Iris Court","zip/postal code":33326,"geo_precision":"unmatched"},"type":"Feature","geometry":null},{"properties":{"city":"West Palm Beach","geo_score":0.0,"sold price":1.0,"id":"abnbtipmjs1a","address":"12698 Headwater Circle","zip/postal code":33414,"geo_precision":"unmatched"},"type":"Feature","geometry":null},{"properties":{"city":"Hollywood","geo_score":0.0,"sold price":1.0,"id":"abnbtiq0ko25","address":"4500 Buchanann Street","zip/postal code":33021,"geo_precision":"unmatched"},"type":"Feature","geometry":null},{"properties":{"city":"Haverhill","geo_score":0.0,"sold price":1.0,"id":"abnbtikpjb6d","address":"1061 Pineway Drive","zip/postal code":33417,"geo_precision":"unmatched"},"type":"Feature","geometry":null},{"properties":{"city":"Margate","geo_score":0.0,"sold price":1.0,"id":"abnbtikqh65g","address":"3066 W. Buenavista Dr","zip/postal code":33322,"geo_precision":"unmatched"},"type":"Feature","geometry":null},{"properties":{"city":"Sunny Isles Beach","geo_score":0.0,"sold price":1.0,"id":"abnbtioghn1w","address":"18001 Collins Avenue","zip/postal code":33160,"geo_precision":"unmatched"},"type":"Feature","geometry":null},{"properties":{"city":"West Palm Beach","geo_score":0.0,"sold price":1.0,"id":"abnbtikroehn","address":"8225 Forego Road","zip/postal code":33418,"geo_precision":"unmatched"},"type":"Feature","geometry":null},{"properties":{"city":"Coral Springs","geo_score":0.0,"sold price":1.0,"id":"abnbtid05dyf","address":"4732 Nw 100th Terrace","zip/postal code":33076,"geo_precision":"unmatched"},"type":"Feature","geometry":null},{"properties":{"city":"Vero Beach","geo_score":0.0,"sold price":1.0,"id":"abnbtisqd12u","address":"6500 Oxford Circle","zip/postal code":32966,"geo_precision":"unmatched"},"type":"Feature","geometry":null},{"properties":{"city":"Miramar","geo_score":0.0,"sold price":1.0,"id":"abnbtijjxgkl","address":"6208 E Forge Road","zip/postal code":33028,"geo_precision":"unmatched"},"type":"Feature","geometry":null},{"properties":{"city":"Palm Beach Gardens","geo_score":0.0,"sold price":1.0,"id":"abnbtiss2cue","address":"1 Auston Road","zip/postal code":33418,"geo_precision":"unmatched"},"type":"Feature","geometry":null},{"properties":{"city":"Hallandale","geo_score":0.0,"sold price":1.0,"id":"abnbtigg9teg","address":"3113 S Ocean Drive","zip/postal code":33009,"geo_precision":"unmatched"},"type":"Feature","geometry":null},{"properties":{"city":"Deerfield Beach","geo_score":0.0,"sold price":1.0,"id":"abnbtidwjm3g","address":"2400 Deer Creek Country Club Blvd","zip/postal code":33442,"geo_precision":"unmatched"},"type":"Feature","geometry":null},{"properties":{"city":"Weston","geo_score":0.0,"sold price":1.0,"id":"abnbtijw5i36","address":"16200 Golf Club Road","zip/postal code":33326,"geo_precision":"unmatched"},"type":"Feature","geometry":null},{"properties":{"city":"Pembroke Pines","geo_score":0.0,"sold price":1.0,"id":"abnbtiskhx4r","address":"804 Nw 208th Circle","zip/postal code":33029,"geo_precision":"unmatched"},"type":"Feature","geometry":null},{"properties":{"city":"Miami Beach","geo_score":0.0,"sold price":1.0,"id":"abnbtinibtu5","address":"1446 Ocean Drive","zip/postal code":33139,"geo_precision":"unmatched"},"type":"Feature","geometry":null},{"properties":{"city":"Pembroke Pines","geo_score":0.0,"sold price":1.0,"id":"abnbtimoqhts","address":"9501 Nw 24th Street","zip/postal code":33024,"geo_precision":"unmatched"},"type":"Feature","geometry":null},{"properties":{"city":"Boca Raton","geo_score":0.0,"sold price":1.0,"id":"abnbtikzz86o","address":"10941 Lake Front Place","zip/postal code":33498,"geo_precision":"unmatched"},"type":"Feature","geometry":null},{"properties":{"city":"Lake Worth","geo_score":0.0,"sold price":1.0,"id":"abnbtiewqw89","address":"5830 Cadillac Drive","zip/postal code":33463,"geo_precision":"unmatched"},"type":"Feature","geometry":null},{"properties":{"city":"Miami","geo_score":0.0,"sold price":1.0,"id":"abnbtid9nkyv","address":"9373 Sw 155th Avenue","zip/postal code":33196,"geo_precision":"unmatched"},"type":"Feature","geometry":null},{"properties":{"city":"Miami","geo_score":0.0,"sold price":1.0,"id":"abnbtilocu2m","address":"12525 Sw 72nd Avenue","zip/postal code":33156,"geo_precision":"unmatched"},"type":"Feature","geometry":null},{"properties":{"city":"Hollywood","geo_score":0.0,"sold price":1.0,"id":"abnbtitek423","address":"338 Roosevelt Drive","zip/postal code":33019,"geo_precision":"unmatched"},"type":"Feature","geometry":null},{"properties":{"city":"Miami","geo_score":0.0,"sold price":1.0,"id":"abnbtinnurml","address":"2918 64th Avenue","zip/postal code":33155,"geo_precision":"unmatched"},"type":"Feature","geometry":null},{"properties":{"city":"Boca Raton","geo_score":0.0,"sold price":1.0,"id":"abnbtidz0ixz","address":"6562 Boca Del Mar Drive","zip/postal code":33433,"geo_precision":"unmatched"},"type":"Feature","geometry":null},{"properties":{"city":"Palm Beach Gardens","geo_score":0.0,"sold price":1.0,"id":"abnbtipw8lb3","address":"910 Mill Creek Drive","zip/postal code":33410,"geo_precision":"unmatched"},"type":"Feature","geometry":null},{"properties":{"city":"Jupiter","geo_score":0.0,"sold price":1.0,"id":"abnbtinluhlb","address":"1605 S Us Hgwy 1","zip/postal code":33477,"geo_precision":"unmatched"},"type":"Feature","geometry":null},{"properties":{"city":"Deerfield Beach","geo_score":0.0,"sold price":1.0,"id":"abnbtij7rklb","address":"2015 Newport G","zip/postal code":33442,"geo_precision":"unmatched"},"type":"Feature","geometry":null},{"properties":{"city":"Pompano Beach","geo_score":0.0,"sold price":1.0,"id":"abnbtigbupmd","address":"5232 NE 18th Avenue","zip/postal code":33064,"geo_precision":"unmatched"},"type":"Feature","geometry":null},{"properties":{"city":"Singer Island","geo_score":0.0,"sold price":1.0,"id":"abnbtielopy0","address":"340 Inlet Way","zip/postal code":33404,"geo_precision":"unmatched"},"type":"Feature","geometry":null},{"properties":{"city":"Pembroke Pines","geo_score":0.0,"sold price":1.0,"id":"abnbtihffwb8","address":"16120 Sw 11th Street","zip/postal code":33027,"geo_precision":"unmatched"},"type":"Feature","geometry":null},{"properties":{"city":"Boynton Beach","geo_score":0.0,"sold price":1.0,"id":"abnbtik2iat3","address":"4351 Dovewood Road","zip/postal code":33436,"geo_precision":"unmatched"},"type":"Feature","geometry":null},{"properties":{"city":"Fort Lauderdale","geo_score":0.0,"sold price":1.0,"id":"abnbtilu5wgf","address":"4800 Bayview Drive","zip/postal code":33308,"geo_precision":"unmatched"},"type":"Feature","geometry":null},{"properties":{"city":"Lauderdale Lakes","geo_score":0.0,"sold price":1.0,"id":"abnbtij2dyby","address":"3941 NW 46th Avenue","zip/postal code":33319,"geo_precision":"unmatched"},"type":"Feature","geometry":null},{"properties":{"city":"Hialeah","geo_score":0.0,"sold price":1.0,"id":"abnbtipsu7eg","address":"7589 Nw 182 Terrace","zip/postal code":33015,"geo_precision":"unmatched"},"type":"Feature","geometry":null},{"properties":{"city":"Palm Beach Gardens","geo_score":0.0,"sold price":1.0,"id":"abnbtim77yjk","address":"15173 71st Drive N","zip/postal code":33418,"geo_precision":"unmatched"},"type":"Feature","geometry":null},{"properties":{"city":"Miami","geo_score":0.0,"sold price":1.0,"id":"abnbtite47c7","address":"2475 Brickell Avenue","zip/postal code":33129,"geo_precision":"unmatched"},"type":"Feature","geometry":null},{"properties":{"city":"Coconut Creek","geo_score":0.0,"sold price":1.0,"id":"abnbtiplisez","address":"4421 Nw 68th Street","zip/postal code":33073,"geo_precision":"unmatched"},"type":"Feature","geometry":null},{"properties":{"city":"Boynton Beach","geo_score":0.0,"sold price":1.0,"id":"abnbtiqvrf8d","address":"8881 Livingston Way","zip/postal code":33437,"geo_precision":"unmatched"},"type":"Feature","geometry":null},{"properties":{"city":"Miami","geo_score":0.0,"sold price":1.0,"id":"abnbtiht7dol","address":"8101 Sw 128th Street","zip/postal code":33156,"geo_precision":"unmatched"},"type":"Feature","geometry":null},{"properties":{"city":"Jupiter","geo_score":0.0,"sold price":1.0,"id":"abnbtij7ig8r","address":"302 New Haven Blvd","zip/postal code":33458,"geo_precision":"unmatched"},"type":"Feature","geometry":null},{"properties":{"city":"Hallandale","geo_score":0.0,"sold price":1.0,"id":"abnbtitepd5y","address":"2030 S Ocean Drive","zip/postal code":33009,"geo_precision":"unmatched"},"type":"Feature","geometry":null},{"properties":{"city":"Delray Beach","geo_score":0.0,"sold price":1.0,"id":"abnbtify0xmb","address":"13594 Paisley Drive","zip/postal code":33446,"geo_precision":"unmatched"},"type":"Feature","geometry":null},{"properties":{"city":"Miami","geo_score":0.0,"sold price":1.0,"id":"abnbtiil31bi","address":"8540 Nw 6th Lane","zip/postal code":33126,"geo_precision":"unmatched"},"type":"Feature","geometry":null},{"properties":{"city":"Boca Raton","geo_score":0.0,"sold price":1.0,"id":"abnbtimylb5d","address":"23355 Mirabella Circle South","zip/postal code":33433,"geo_precision":"unmatched"},"type":"Feature","geometry":null},{"properties":{"city":"Pembroke Pines","geo_score":0.0,"sold price":1.0,"id":"abnbtigbbn55","address":"21551 NW 3rd Place","zip/postal code":33029,"geo_precision":"unmatched"},"type":"Feature","geometry":null},{"properties":{"city":"Plantation","geo_score":0.0,"sold price":1.0,"id":"abnbtigtzz5g","address":"701 Azalea Court","zip/postal code":33317,"geo_precision":"unmatched"},"type":"Feature","geometry":null},{"properties":{"city":"Florida City","geo_score":0.0,"sold price":1.0,"id":"abnbtihlsrco","address":"974 NW 3rd Street","zip/postal code":33034,"geo_precision":"unmatched"},"type":"Feature","geometry":null},{"properties":{"city":"Miami","geo_score":0.0,"sold price":1.0,"id":"abnbtijzqi7e","address":"8945 Sw 96th Avenue","zip/postal code":33176,"geo_precision":"unmatched"},"type":"Feature","geometry":null},{"properties":{"city":"Hollywood","geo_score":0.0,"sold price":1.0,"id":"abnbtidbjwvu","address":"2401 S Ocean Drive","zip/postal code":33019,"geo_precision":"unmatched"},"type":"Feature","geometry":null},{"properties":{"city":"Doral","geo_score":0.0,"sold price":1.0,"id":"abnbtit8u1rl","address":"10032 Nw 43rd Terrace","zip/postal code":33178,"geo_precision":"unmatched"},"type":"Feature","geometry":null},{"properties":{"city":"Sunny Isles","geo_score":0.0,"sold price":1.0,"id":"abnbtiqqdrkx","address":"230 174th Street","zip/postal code":33160,"geo_precision":"unmatched"},"type":"Feature","geometry":null},{"properties":{"city":"Fort Lauderdale","geo_score":0.0,"sold price":1.0,"id":"abnbtikuge2f","address":"936 Intracoastal Drive","zip/postal code":33304,"geo_precision":"unmatched"},"type":"Feature","geometry":null},{"properties":{"city":"Coconut Grove","geo_score":0.0,"sold price":1.0,"id":"abnbtis6e6th","address":"3820 Wood Avenue","zip/postal code":33145,"geo_precision":"unmatched"},"type":"Feature","geometry":null},{"properties":{"city":"Lake Park","geo_score":0.0,"sold price":1.0,"id":"abnbtiitmhbm","address":"801 Lakeshore Drive","zip/postal code":33403,"geo_precision":"unmatched"},"type":"Feature","geometry":null},{"properties":{"city":"Weston","geo_score":0.0,"sold price":1.0,"id":"abnbtimiq52v","address":"3918 W Hibiscus Street","zip/postal code":33332,"geo_precision":"unmatched"},"type":"Feature","geometry":null},{"properties":{"city":"Miramar","geo_score":0.0,"sold price":1.0,"id":"abnbtimj8ler","address":"11411 Sw 21st Street","zip/postal code":33025,"geo_precision":"unmatched"},"type":"Feature","geometry":null},{"properties":{"city":"Boca Raton","geo_score":0.0,"sold price":1.0,"id":"abnbtiswxili","address":"725 NE 70th Street","zip/postal code":33487,"geo_precision":"unmatched"},"type":"Feature","geometry":null},{"properties":{"city":"Weston","geo_score":0.0,"sold price":1.0,"id":"abnbtiqytxuv","address":"2727 Meadowbrook Drive","zip/postal code":33332,"geo_precision":"unmatched"},"type":"Feature","geometry":null},{"properties":{"city":"Pompano Beach","geo_score":0.0,"sold price":1.0,"id":"abnbtils1tkl","address":"2220 N Cypress Bend Drive","zip/postal code":33069,"geo_precision":"unmatched"},"type":"Feature","geometry":null},{"properties":{"city":"West Palm Beach","geo_score":0.0,"sold price":1.0,"id":"abnbtik8mf13","address":"259 Russlyn Drive","zip/postal code":33405,"geo_precision":"unmatched"},"type":"Feature","geometry":null},{"properties":{"city":"Miami","geo_score":0.0,"sold price":1.0,"id":"abnbtisuisge","address":"10363 Sw 88th Street","zip/postal code":33176,"geo_precision":"unmatched"},"type":"Feature","geometry":null},{"properties":{"city":"Royal Palm Beach","geo_score":0.0,"sold price":1.0,"id":"abnbtih47lwn","address":"11328 Okeechobie Blvd","zip/postal code":33414,"geo_precision":"unmatched"},"type":"Feature","geometry":null},{"properties":{"city":"Pompano Beach","geo_score":0.0,"sold price":1.0,"id":"abnbtipfe32c","address":"5452 Nw 54th Dr","zip/postal code":33073,"geo_precision":"unmatched"},"type":"Feature","geometry":null},{"properties":{"city":"Boca Raton","geo_score":0.0,"sold price":1.0,"id":"abnbtiojvgoi","address":"5747 Golfway Drive","zip/postal code":33433,"geo_precision":"unmatched"},"type":"Feature","geometry":null},{"properties":{"city":"Lake Worth","geo_score":0.0,"sold price":1.0,"id":"abnbtifvfshd","address":"8431 Linden Way","zip/postal code":33467,"geo_precision":"unmatched"},"type":"Feature","geometry":null},{"properties":{"city":"Weston","geo_score":0.0,"sold price":1.0,"id":"abnbtimulv4z","address":"780 Verona Lake Drive","zip/postal code":33326,"geo_precision":"unmatched"},"type":"Feature","geometry":null},{"properties":{"city":"Fort Lauderdale","geo_score":0.0,"sold price":1.0,"id":"abnbtig5hsep","address":"2684 Palmer Place","zip/postal code":33332,"geo_precision":"unmatched"},"type":"Feature","geometry":null},{"properties":{"city":"Miami","geo_score":0.0,"sold price":1.0,"id":"abnbtid0eknq","address":"13300 Sw 136th Terrace","zip/postal code":33186,"geo_precision":"unmatched"},"type":"Feature","geometry":null},{"properties":{"city":"Davie","geo_score":0.0,"sold price":1.0,"id":"abnbtijh2tv3","address":"12770 Sw 34th Place","zip/postal code":33330,"geo_precision":"unmatched"},"type":"Feature","geometry":null},{"properties":{"city":"Miami","geo_score":0.0,"sold price":1.0,"id":"abnbtil7m6t2","address":"7391 Sw 117th Terrace","zip/postal code":33156,"geo_precision":"unmatched"},"type":"Feature","geometry":null},{"properties":{"city":"Miami","geo_score":0.0,"sold price":1.0,"id":"abnbtig5q603","address":"16801 Ne 14th Avenue","zip/postal code":33162,"geo_precision":"unmatched"},"type":"Feature","geometry":null},{"properties":{"city":"Miami","geo_score":0.0,"sold price":1.0,"id":"abnbtioghnye","address":"285 Nw 128th Street","zip/postal code":33168,"geo_precision":"unmatched"},"type":"Feature","geometry":null},{"properties":{"city":"Fort Lauderdale","geo_score":0.0,"sold price":1.0,"id":"abnbtilkt6cl","address":"350 SE 2nd Street","zip/postal code":33301,"geo_precision":"unmatched"},"type":"Feature","geometry":null},{"properties":{"city":"Coral Springs","geo_score":0.0,"sold price":1.0,"id":"abnbtiorqobc","address":"5411 Nw 86th Way","zip/postal code":33067,"geo_precision":"unmatched"},"type":"Feature","geometry":null},{"properties":{"city":"Dania","geo_score":0.0,"sold price":1.0,"id":"abnbtis0atc9","address":"1025 Se 3rd Avenue","zip/postal code":33004,"geo_precision":"unmatched"},"type":"Feature","geometry":null},{"properties":{"city":"Pompano Beach","geo_score":0.0,"sold price":1.0,"id":"abnbtiijqfbd","address":"1350 Se 6th Terrace","zip/postal code":33060,"geo_precision":"unmatched"},"type":"Feature","geometry":null},{"properties":{"city":"Delray Beach","geo_score":0.0,"sold price":1.0,"id":"abnbtir5ywdr","address":"145 Ne 6th Avenue","zip/postal code":33483,"geo_precision":"unmatched"},"type":"Feature","geometry":null},{"properties":{"city":"West Palm Beach","geo_score":0.0,"sold price":1.0,"id":"abnbtiebbxlq","address":"432 34th Street","zip/postal code":33407,"geo_precision":"unmatched"},"type":"Feature","geometry":null},{"properties":{"city":"Miami","geo_score":0.0,"sold price":1.0,"id":"abnbtindnece","address":"7220 Nw 114th Avenue","zip/postal code":33178,"geo_precision":"unmatched"},"type":"Feature","geometry":null},{"properties":{"city":"Hollywood","geo_score":0.0,"sold price":1.0,"id":"abnbtisrud34","address":"2751 S Ocean Drive","zip/postal code":33019,"geo_precision":"unmatched"},"type":"Feature","geometry":null},{"properties":{"city":"Tamarac","geo_score":0.0,"sold price":1.0,"id":"abnbtinegmyj","address":"6193 Rock Island Road","zip/postal code":33321,"geo_precision":"unmatched"},"type":"Feature","geometry":null},{"properties":{"city":"Pompano Beach","geo_score":0.0,"sold price":1.0,"id":"abnbtidau5el","address":"111 Se 6th Court","zip/postal code":33060,"geo_precision":"unmatched"},"type":"Feature","geometry":null},{"properties":{"city":"Miami","geo_score":0.0,"sold price":1.0,"id":"abnbtit8v1m0","address":"5085 Nw 7th Street Unit","zip/postal code":33126,"geo_precision":"unmatched"},"type":"Feature","geometry":null},{"properties":{"city":"Fort Lauderdale","geo_score":0.0,"sold price":1.0,"id":"abnbtimjksgd","address":"4025 N Federal Hwy","zip/postal code":33308,"geo_precision":"unmatched"},"type":"Feature","geometry":null},{"properties":{"city":"Miami","geo_score":0.0,"sold price":1.0,"id":"abnbtieogfvv","address":"1701 Ne 191st Street","zip/postal code":33179,"geo_precision":"unmatched"},"type":"Feature","geometry":null},{"properties":{"city":"Hollywood","geo_score":0.0,"sold price":1.0,"id":"abnbtifu47bd","address":"4316 Garfield Street","zip/postal code":33021,"geo_precision":"unmatched"},"type":"Feature","geometry":null},{"properties":{"city":"North Palm Beach","geo_score":0.0,"sold price":1.0,"id":"abnbtifvbhft","address":"336 Golfview Road","zip/postal code":33408,"geo_precision":"unmatched"},"type":"Feature","geometry":null},{"properties":{"city":"Margate","geo_score":0.0,"sold price":1.0,"id":"abnbtiswy74y","address":"7785 Highlands Circle","zip/postal code":33063,"geo_precision":"unmatched"},"type":"Feature","geometry":null},{"properties":{"city":"Plantation","geo_score":0.0,"sold price":1.0,"id":"abnbtiq5d78o","address":"761 Nw 74th Avenue","zip/postal code":33317,"geo_precision":"unmatched"},"type":"Feature","geometry":null},{"properties":{"city":"North Palm Beach","geo_score":0.0,"sold price":1.0,"id":"abnbtie2ey1d","address":"336 Golfview Road","zip/postal code":33408,"geo_precision":"unmatched"},"type":"Feature","geometry":null},{"properties":{"city":"Deerfield Beach","geo_score":0.0,"sold price":1.0,"id":"abnbtir7olkn","address":"1548 Se 5th Street","zip/postal code":33441,"geo_precision":"unmatched"},"type":"Feature","geometry":null},{"properties":{"city":"Coral Gables","geo_score":0.0,"sold price":1.0,"id":"abnbtihn2eyj","address":"341 Aledo Avenue","zip/postal code":33134,"geo_precision":"unmatched"},"type":"Feature","geometry":null},{"properties":{"city":"Fort Lauderdale","geo_score":0.0,"sold price":1.0,"id":"abnbtiormfn6","address":"2625 Ne 27th Way","zip/postal code":33311,"geo_precision":"unmatched"},"type":"Feature","geometry":null},{"properties":{"city":"Wilton Manors","geo_score":0.0,"sold price":1.0,"id":"abnbtijkud3z","address":"1540 Ne 27th Drive","zip/postal code":33334,"geo_precision":"unmatched"},"type":"Feature","geometry":null},{"properties":{"city":"Plantation","geo_score":0.0,"sold price":1.0,"id":"abnbtink2c0r","address":"11613 Nw 5th Street","zip/postal code":33325,"geo_precision":"unmatched"},"type":"Feature","geometry":null},{"properties":{"city":"Pembroke Pines","geo_score":0.0,"sold price":1.0,"id":"abnbtimk53p5","address":"10252 SW 9th Lane","zip/postal code":33025,"geo_precision":"unmatched"},"type":"Feature","geometry":null},{"properties":{"city":"Miami Beach","geo_score":0.0,"sold price":1.0,"id":"abnbtiru149k","address":"1446 Ocean Drive #45","zip/postal code":33139,"geo_precision":"unmatched"},"type":"Feature","geometry":null},{"properties":{"city":"Fort Lauderdale","geo_score":0.0,"sold price":1.0,"id":"abnbtiprtm7t","address":"4660 Sw 37th Avenue","zip/postal code":33312,"geo_precision":"unmatched"},"type":"Feature","geometry":null},{"properties":{"city":"Aventura","geo_score":0.0,"sold price":1.0,"id":"abnbtirvfw6j","address":"3530 Mystic Point Drive","zip/postal code":33180,"geo_precision":"unmatched"},"type":"Feature","geometry":null},{"properties":{"city":"Weston","geo_score":0.0,"sold price":1.0,"id":"abnbtidk14j1","address":"852 Waterview Drive","zip/postal code":33326,"geo_precision":"unmatched"},"type":"Feature","geometry":null},{"properties":{"city":"Miami Beach","geo_score":0.0,"sold price":1.0,"id":"abnbtiehew2w","address":"9 Island Avenue","zip/postal code":33139,"geo_precision":"unmatched"},"type":"Feature","geometry":null},{"properties":{"city":"Hollywood","geo_score":0.0,"sold price":1.0,"id":"abnbtilyjm8i","address":"900 W Fairway Road","zip/postal code":33026,"geo_precision":"unmatched"},"type":"Feature","geometry":null},{"properties":{"city":"Singer Island","geo_score":0.0,"sold price":1.0,"id":"abnbtikbv7fn","address":"1261 S Harbor Drive","zip/postal code":33404,"geo_precision":"unmatched"},"type":"Feature","geometry":null},{"properties":{"city":"Hallandale","geo_score":0.0,"sold price":1.0,"id":"abnbtisgha3y","address":"441 Leslie Drive","zip/postal code":33009,"geo_precision":"unmatched"},"type":"Feature","geometry":null},{"properties":{"city":"Cooper City","geo_score":0.0,"sold price":1.0,"id":"abnbtinrzeek","address":"5329 SW 117th Avenue","zip/postal code":33330,"geo_precision":"unmatched"},"type":"Feature","geometry":null},{"properties":{"city":"Plantation","geo_score":0.0,"sold price":1.0,"id":"abnbtiqx7zhn","address":"701 NW 108th Avenue","zip/postal code":33324,"geo_precision":"unmatched"},"type":"Feature","geometry":null},{"properties":{"city":"North Lauderdale","geo_score":0.0,"sold price":1.0,"id":"abnbtio52m9w","address":"8280 Sw 24th Street","zip/postal code":33068,"geo_precision":"unmatched"},"type":"Feature","geometry":null},{"properties":{"city":"Tamarac","geo_score":0.0,"sold price":1.0,"id":"abnbtil81eqz","address":"7201 NW 70th Street","zip/postal code":33321,"geo_precision":"unmatched"},"type":"Feature","geometry":null},{"properties":{"city":"Fort Lauderdale","geo_score":0.0,"sold price":1.0,"id":"abnbtiorc6qc","address":"14444 Sw 21st Street","zip/postal code":33325,"geo_precision":"unmatched"},"type":"Feature","geometry":null},{"properties":{"city":"Miramar","geo_score":0.0,"sold price":1.0,"id":"abnbtir45vuz","address":"2308 Sw 177th Avenue","zip/postal code":33029,"geo_precision":"unmatched"},"type":"Feature","geometry":null},{"properties":{"city":"Coral Gables","geo_score":0.0,"sold price":1.0,"id":"abnbtiljy369","address":"2351 Douglas Road","zip/postal code":33145,"geo_precision":"unmatched"},"type":"Feature","geometry":null},{"properties":{"city":"Highland Beach","geo_score":0.0,"sold price":1.0,"id":"abnbtinom59m","address":"4511 S Ocean Blvd","zip/postal code":33487,"geo_precision":"unmatched"},"type":"Feature","geometry":null},{"properties":{"city":"Boca Raton","geo_score":0.0,"sold price":1.0,"id":"abnbtifnx3u3","address":"10670 Boca Woods Lane","zip/postal code":33428,"geo_precision":"unmatched"},"type":"Feature","geometry":null},{"properties":{"city":"Boca Raton","geo_score":0.0,"sold price":1.0,"id":"abnbtij5aunq","address":"13 Royal Palm","zip/postal code":33432,"geo_precision":"unmatched"},"type":"Feature","geometry":null},{"properties":{"city":"Fort Lauderdale","geo_score":0.0,"sold price":1.0,"id":"abnbtiryrlr4","address":"4800 Bayview Drive","zip/postal code":33308,"geo_precision":"unmatched"},"type":"Feature","geometry":null},{"properties":{"city":"Hialeah","geo_score":0.0,"sold price":1.0,"id":"abnbtil1fvjh","address":"601 E 44th Stret","zip/postal code":33013,"geo_precision":"unmatched"},"type":"Feature","geometry":null},{"properties":{"city":"Coconut Creek","geo_score":0.0,"sold price":1.0,"id":"abnbtim35d07","address":"1846 Tamarind Lane","zip/postal code":33063,"geo_precision":"unmatched"},"type":"Feature","geometry":null},{"properties":{"city":"Davie","geo_score":0.0,"sold price":1.0,"id":"abnbtil6sils","address":"14421 Bedford Court","zip/postal code":33325,"geo_precision":"unmatched"},"type":"Feature","geometry":null},{"properties":{"city":"Key Biscayne","geo_score":0.0,"sold price":1.0,"id":"abnbtipnkhhk","address":"255 Sunrise Drive","zip/postal code":33149,"geo_precision":"unmatched"},"type":"Feature","geometry":null},{"properties":{"city":"Boca Raton","geo_score":0.0,"sold price":1.0,"id":"abnbtiisozuk","address":"120 Se 5th Avenue","zip/postal code":33432,"geo_precision":"unmatched"},"type":"Feature","geometry":null},{"properties":{"city":"Boca Raton","geo_score":0.0,"sold price":1.0,"id":"abnbtiia4024","address":"2309 NW 66th Drive","zip/postal code":33496,"geo_precision":"unmatched"},"type":"Feature","geometry":null},{"properties":{"city":"Miami","geo_score":0.0,"sold price":1.0,"id":"abnbtij73gqc","address":"3606 Alcantara Avenue","zip/postal code":33178,"geo_precision":"unmatched"},"type":"Feature","geometry":null},{"properties":{"city":"Miami","geo_score":0.0,"sold price":1.0,"id":"abnbtimvhhv5","address":"1441 Nw 138th Street","zip/postal code":33167,"geo_precision":"unmatched"},"type":"Feature","geometry":null},{"properties":{"city":"Miami","geo_score":0.0,"sold price":1.0,"id":"abnbtirdx24b","address":"9401 Sw 61st Street","zip/postal code":33173,"geo_precision":"unmatched"},"type":"Feature","geometry":null},{"properties":{"city":"Plantation","geo_score":0.0,"sold price":1.0,"id":"abnbtiggmc7o","address":"201 Nw 46th Avenue","zip/postal code":33317,"geo_precision":"unmatched"},"type":"Feature","geometry":null},{"properties":{"city":"West Palm Beach","geo_score":0.0,"sold price":1.0,"id":"abnbtijhudb8","address":"12698 Headwater Circle","zip/postal code":33414,"geo_precision":"unmatched"},"type":"Feature","geometry":null},{"properties":{"city":"Miramar","geo_score":0.0,"sold price":1.0,"id":"abnbtijw53hp","address":"13503 Sw 50th Court","zip/postal code":33027,"geo_precision":"unmatched"},"type":"Feature","geometry":null},{"properties":{"city":"West Palm Beach","geo_score":0.0,"sold price":1.0,"id":"abnbtis1gumu","address":"236 Ponce De Leon Street","zip/postal code":33411,"geo_precision":"unmatched"},"type":"Feature","geometry":null},{"properties":{"city":"Miramar","geo_score":0.0,"sold price":1.0,"id":"abnbtimlh9oe","address":"18611 Sw 39th Court","zip/postal code":33029,"geo_precision":"unmatched"},"type":"Feature","geometry":null},{"properties":{"city":"Davie","geo_score":0.0,"sold price":1.0,"id":"abnbtijplpsi","address":"14401 Arlington Place","zip/postal code":33325,"geo_precision":"unmatched"},"type":"Feature","geometry":null},{"properties":{"city":"Weston","geo_score":0.0,"sold price":1.0,"id":"abnbtimup6za","address":"622 Bedford Way","zip/postal code":33326,"geo_precision":"unmatched"},"type":"Feature","geometry":null},{"properties":{"city":"Miami","geo_score":0.0,"sold price":1.0,"id":"abnbtin16u3v","address":"21085 Ne 34th Avenue","zip/postal code":33180,"geo_precision":"unmatched"},"type":"Feature","geometry":null},{"properties":{"city":"North Bay Village","geo_score":0.0,"sold price":1.0,"id":"abnbtiodgk3t","address":"1880 S Treasure Drive","zip/postal code":33141,"geo_precision":"unmatched"},"type":"Feature","geometry":null},{"properties":{"city":"Deerfield Beach","geo_score":0.0,"sold price":1.0,"id":"abnbtiedxfzy","address":"3270 Sw 3rd Street","zip/postal code":33442,"geo_precision":"unmatched"},"type":"Feature","geometry":null},{"properties":{"city":"Fort Lauderdale","geo_score":0.0,"sold price":1.0,"id":"abnbtike6pzz","address":"245 Sw 13th Terrace","zip/postal code":33312,"geo_precision":"unmatched"},"type":"Feature","geometry":null},{"properties":{"city":"Homestead","geo_score":0.0,"sold price":1.0,"id":"abnbtikzzcjm","address":"15895 Sw 242nd Street","zip/postal code":33031,"geo_precision":"unmatched"},"type":"Feature","geometry":null},{"properties":{"city":"Lake Worth","geo_score":0.0,"sold price":1.0,"id":"abnbtimwf73d","address":"8431 Linden Way","zip/postal code":33467,"geo_precision":"unmatched"},"type":"Feature","geometry":null},{"properties":{"city":"Plantation","geo_score":0.0,"sold price":1.0,"id":"abnbtiof5ku4","address":"1701 Nw 75th Avenue","zip/postal code":33313,"geo_precision":"unmatched"},"type":"Feature","geometry":null},{"properties":{"city":"Hollywood","geo_score":0.0,"sold price":1.0,"id":"abnbtieqcsvu","address":"1700 Peirce Street","zip/postal code":33020,"geo_precision":"unmatched"},"type":"Feature","geometry":null},{"properties":{"city":"Miami Shores","geo_score":0.0,"sold price":1.0,"id":"abnbtiqwlh5x","address":"102 Nw 100th Street","zip/postal code":33150,"geo_precision":"unmatched"},"type":"Feature","geometry":null},{"properties":{"city":"Aventura","geo_score":0.0,"sold price":1.0,"id":"abnbtiqhdnr2","address":"20191 E Country Club Drive","zip/postal code":33180,"geo_precision":"unmatched"},"type":"Feature","geometry":null},{"properties":{"city":"Lake Worth","geo_score":0.0,"sold price":1.0,"id":"abnbtidttrw8","address":"7491 Ridgefield Lane","zip/postal code":33467,"geo_precision":"unmatched"},"type":"Feature","geometry":null},{"properties":{"city":"Homestead","geo_score":0.0,"sold price":1.0,"id":"abnbtihculfa","address":"2604 Augusta Drive","zip/postal code":33035,"geo_precision":"unmatched"},"type":"Feature","geometry":null},{"properties":{"city":"Greenacres","geo_score":0.0,"sold price":1.0,"id":"abnbtin5m0ji","address":"5702 Channel Drive","zip/postal code":33463,"geo_precision":"unmatched"},"type":"Feature","geometry":null},{"properties":{"city":"Boca Raton","geo_score":0.0,"sold price":1.0,"id":"abnbtiogt5rq","address":"1124 Sw 21st Lane","zip/postal code":33486,"geo_precision":"unmatched"},"type":"Feature","geometry":null},{"properties":{"city":"Margate","geo_score":0.0,"sold price":1.0,"id":"abnbtioau7p8","address":"1910 Nw 80th Avenue","zip/postal code":33063,"geo_precision":"unmatched"},"type":"Feature","geometry":null},{"properties":{"city":"Coral Gables","geo_score":0.0,"sold price":1.0,"id":"abnbtisdqxob","address":"1205 Mariposa Avenue","zip/postal code":33146,"geo_precision":"unmatched"},"type":"Feature","geometry":null},{"properties":{"city":"Miami","geo_score":0.0,"sold price":1.0,"id":"abnbtidhmpju","address":"7940 SW 139th Terrace","zip/postal code":33158,"geo_precision":"unmatched"},"type":"Feature","geometry":null},{"properties":{"city":"Miami","geo_score":0.0,"sold price":1.0,"id":"abnbtiplbajl","address":"20281 E Country Club Drive","zip/postal code":33180,"geo_precision":"unmatched"},"type":"Feature","geometry":null},{"properties":{"city":"North Lauderdale","geo_score":0.0,"sold price":1.0,"id":"abnbtip35vx3","address":"942 Sw 68th Avenue","zip/postal code":33068,"geo_precision":"unmatched"},"type":"Feature","geometry":null},{"properties":{"city":"Fort Lauderdale","geo_score":0.0,"sold price":1.0,"id":"abnbtiqpyfcy","address":"2230 NE 16th Court","zip/postal code":33305,"geo_precision":"unmatched"},"type":"Feature","geometry":null},{"properties":{"city":"Boca Raton","geo_score":0.0,"sold price":1.0,"id":"abnbtihjulvi","address":"18313 104th Terrace South","zip/postal code":33498,"geo_precision":"unmatched"},"type":"Feature","geometry":null},{"properties":{"city":"Miami","geo_score":0.0,"sold price":1.0,"id":"abnbtiectk3d","address":"17225 Sw 78th Court","zip/postal code":33157,"geo_precision":"unmatched"},"type":"Feature","geometry":null},{"properties":{"city":"Plantation","geo_score":0.0,"sold price":1.0,"id":"abnbtip6099t","address":"6100 Sw 20th Street","zip/postal code":33317,"geo_precision":"unmatched"},"type":"Feature","geometry":null},{"properties":{"city":"Hollywood","geo_score":0.0,"sold price":1.0,"id":"abnbtih2wjpw","address":"5412 Roosevelt Street","zip/postal code":33021,"geo_precision":"unmatched"},"type":"Feature","geometry":null},{"properties":{"city":"Miami","geo_score":0.0,"sold price":1.0,"id":"abnbtigh0o1s","address":"3606 Alcantara Avenue","zip/postal code":33178,"geo_precision":"unmatched"},"type":"Feature","geometry":null},{"properties":{"city":"Palm Beach Gardens","geo_score":0.0,"sold price":1.0,"id":"abnbtifvpkfu","address":"2420 Windsor Road","zip/postal code":33410,"geo_precision":"unmatched"},"type":"Feature","geometry":null},{"properties":{"city":"Pompano Beach","geo_score":0.0,"sold price":1.0,"id":"abnbtig64a4s","address":"3204 Leigh Road","zip/postal code":33062,"geo_precision":"unmatched"},"type":"Feature","geometry":null},{"properties":{"city":"Greenacres","geo_score":0.0,"sold price":1.0,"id":"abnbtikfjsa9","address":"6101 Fairfield Circle","zip/postal code":33463,"geo_precision":"unmatched"},"type":"Feature","geometry":null},{"properties":{"city":"West Palm Beach","geo_score":0.0,"sold price":1.0,"id":"abnbtim63b6u","address":"263 Barcelona Road","zip/postal code":33401,"geo_precision":"unmatched"},"type":"Feature","geometry":null},{"properties":{"city":"Bal Harbour","geo_score":0.0,"sold price":1.0,"id":"abnbtiq2uqff","address":"10178 Collins Avenue","zip/postal code":33154,"geo_precision":"unmatched"},"type":"Feature","geometry":null},{"properties":{"city":"Sunrise","geo_score":0.0,"sold price":1.0,"id":"abnbtilm570p","address":"9210 Nw 26th Street","zip/postal code":33322,"geo_precision":"unmatched"},"type":"Feature","geometry":null},{"properties":{"city":"Pembroke Pines","geo_score":0.0,"sold price":1.0,"id":"abnbtinifbtt","address":"601 Sw 141st Avenue","zip/postal code":33027,"geo_precision":"unmatched"},"type":"Feature","geometry":null},{"properties":{"city":"Hallandale","geo_score":0.0,"sold price":1.0,"id":"abnbtihqusz0","address":"137 Golden Isles Drive","zip/postal code":33009,"geo_precision":"unmatched"},"type":"Feature","geometry":null},{"properties":{"city":"Lauderdale Lakes","geo_score":0.0,"sold price":1.0,"id":"abnbtio05k27","address":"4480 Nw 41st Terrace","zip/postal code":33319,"geo_precision":"unmatched"},"type":"Feature","geometry":null},{"properties":{"city":"Pembroke Pines","geo_score":0.0,"sold price":1.0,"id":"abnbtisbd3jw","address":"9421 Nw 19th Street","zip/postal code":33024,"geo_precision":"unmatched"},"type":"Feature","geometry":null},{"properties":{"city":"Lake Worth","geo_score":0.0,"sold price":1.0,"id":"abnbtiim2jac","address":"7685 Springfield Lake Drive","zip/postal code":33467,"geo_precision":"unmatched"},"type":"Feature","geometry":null},{"properties":{"city":"Jupiter","geo_score":0.0,"sold price":1.0,"id":"abnbtie7ki3u","address":"6280 Longleaf Pine Drive","zip/postal code":33458,"geo_precision":"unmatched"},"type":"Feature","geometry":null},{"properties":{"city":"Pembroke Pines","geo_score":0.0,"sold price":1.0,"id":"abnbtimcpwfm","address":"270 Nw 161st Avenue","zip/postal code":33028,"geo_precision":"unmatched"},"type":"Feature","geometry":null},{"properties":{"city":"Boca Raton","geo_score":0.0,"sold price":1.0,"id":"abnbtid9uyrd","address":"20237 Back Nine Drive","zip/postal code":33498,"geo_precision":"unmatched"},"type":"Feature","geometry":null},{"properties":{"city":"Davie","geo_score":0.0,"sold price":1.0,"id":"abnbtii0ve9s","address":"4900 Sw 58th Avenue","zip/postal code":33314,"geo_precision":"unmatched"},"type":"Feature","geometry":null},{"properties":{"city":"Hollywood","geo_score":0.0,"sold price":1.0,"id":"abnbtiizk559","address":"10331 Iris Court","zip/postal code":33026,"geo_precision":"unmatched"},"type":"Feature","geometry":null},{"properties":{"city":"Plantation","geo_score":0.0,"sold price":1.0,"id":"abnbtimbeam3","address":"100 Nw 76th Avenue","zip/postal code":33324,"geo_precision":"unmatched"},"type":"Feature","geometry":null},{"properties":{"city":"Miami","geo_score":0.0,"sold price":1.0,"id":"abnbtim2wz9u","address":"12500 Sw 90th Avenue","zip/postal code":33176,"geo_precision":"unmatched"},"type":"Feature","geometry":null},{"properties":{"city":"West Palm Beach","geo_score":0.0,"sold price":1.0,"id":"abnbtifr1qjm","address":"833 35th Street","zip/postal code":33407,"geo_precision":"unmatched"},"type":"Feature","geometry":null},{"properties":{"city":"Wilton Manors","geo_score":0.0,"sold price":1.0,"id":"abnbtifho8xk","address":"2909 Nw 12th Avenue","zip/postal code":33311,"geo_precision":"unmatched"},"type":"Feature","geometry":null},{"properties":{"city":"Fort Lauderdale","geo_score":0.0,"sold price":1.0,"id":"abnbtipuzpte","address":"1721 Sw 119th Terrace","zip/postal code":33325,"geo_precision":"unmatched"},"type":"Feature","geometry":null},{"properties":{"city":"Coral Springs","geo_score":0.0,"sold price":1.0,"id":"abnbtifsplrt","address":"11629 Nw 47th Drive","zip/postal code":33076,"geo_precision":"unmatched"},"type":"Feature","geometry":null},{"properties":{"city":"Fort Lauderdale","geo_score":0.0,"sold price":1.0,"id":"abnbtiqhanqn","address":"7358 Ashmount Circle","zip/postal code":33321,"geo_precision":"unmatched"},"type":"Feature","geometry":null},{"properties":{"city":"Sunrise","geo_score":0.0,"sold price":1.0,"id":"abnbtidkwieq","address":"11810 NW 31st Street","zip/postal code":33323,"geo_precision":"unmatched"},"type":"Feature","geometry":null},{"properties":{"city":"Miramar","geo_score":0.0,"sold price":1.0,"id":"abnbtijxuvmn","address":"17447 SW 20th Court","zip/postal code":33029,"geo_precision":"unmatched"},"type":"Feature","geometry":null},{"properties":{"city":"Pembroke Pines","geo_score":0.0,"sold price":1.0,"id":"abnbtid8a3xg","address":"367 SW 188th Terrace","zip/postal code":33029,"geo_precision":"unmatched"},"type":"Feature","geometry":null},{"properties":{"city":"West Palm Beach","geo_score":0.0,"sold price":1.0,"id":"abnbtihhk5wn","address":"10275 Osprey Trace","zip/postal code":33412,"geo_precision":"unmatched"},"type":"Feature","geometry":null},{"properties":{"city":"Hialeah","geo_score":0.0,"sold price":1.0,"id":"abnbtim1z87q","address":"18015 Nw 62nd Court","zip/postal code":33015,"geo_precision":"unmatched"},"type":"Feature","geometry":null},{"properties":{"city":"Miami","geo_score":0.0,"sold price":1.0,"id":"abnbtin41i25","address":"2418 Sw 18th Avenue","zip/postal code":33145,"geo_precision":"unmatched"},"type":"Feature","geometry":null},{"properties":{"city":"Margate","geo_score":0.0,"sold price":1.0,"id":"abnbtir47t4p","address":"3066 W. Buenavista Dr","zip/postal code":33322,"geo_precision":"unmatched"},"type":"Feature","geometry":null},{"properties":{"city":"Okeechobee","geo_score":0.0,"sold price":1.0,"id":"abnbtim2ahcq","address":"1052 Lime Street Buckhead Ridge","zip/postal code":34974,"geo_precision":"unmatched"},"type":"Feature","geometry":null},{"properties":{"city":"Pembroke Pines","geo_score":0.0,"sold price":1.0,"id":"abnbtinenuuj","address":"1271 Nw 143rd Ave","zip/postal code":33028,"geo_precision":"unmatched"},"type":"Feature","geometry":null},{"properties":{"city":"Juno Beach","geo_score":0.0,"sold price":1.0,"id":"abnbtid0nezp","address":"303 Sea Oats Drive","zip/postal code":33408,"geo_precision":"unmatched"},"type":"Feature","geometry":null},{"properties":{"city":"Jupiter","geo_score":0.0,"sold price":1.0,"id":"abnbtir55rs4","address":"2510 25th Court","zip/postal code":33477,"geo_precision":"unmatched"},"type":"Feature","geometry":null},{"properties":{"city":"Miami","geo_score":0.0,"sold price":1.0,"id":"abnbtil40fei","address":"9727 Sw 92nd Terrace","zip/postal code":33176,"geo_precision":"unmatched"},"type":"Feature","geometry":null},{"properties":{"city":"Margate","geo_score":0.0,"sold price":1.0,"id":"abnbtinoq2v8","address":"1835 Nw 66th Terrace","zip/postal code":33063,"geo_precision":"unmatched"},"type":"Feature","geometry":null},{"properties":{"city":"Miami","geo_score":0.0,"sold price":1.0,"id":"abnbtin7pgaf","address":"269 Nw 7th Street","zip/postal code":33136,"geo_precision":"unmatched"},"type":"Feature","geometry":null},{"properties":{"city":"Sw Ranches","geo_score":0.0,"sold price":1.0,"id":"abnbtif4he61","address":"7010 Hancock Road","zip/postal code":33330,"geo_precision":"unmatched"},"type":"Feature","geometry":null},{"properties":{"city":"Lauderhill","geo_score":0.0,"sold price":1.0,"id":"abnbtim3ypg9","address":"3463 Spring Bluff Place","zip/postal code":33319,"geo_precision":"unmatched"},"type":"Feature","geometry":null},{"properties":{"city":"Miami","geo_score":0.0,"sold price":1.0,"id":"abnbtifsvsql","address":"3000 Sw 57th Avenue","zip/postal code":33155,"geo_precision":"unmatched"},"type":"Feature","geometry":null},{"properties":{"city":"Miami","geo_score":0.0,"sold price":1.0,"id":"abnbtinfsxq0","address":"3120 NW 205th Street","zip/postal code":33056,"geo_precision":"unmatched"},"type":"Feature","geometry":null},{"properties":{"city":"Cooper City","geo_score":0.0,"sold price":1.0,"id":"abnbtifgld2v","address":"12660 Countryside Terrace","zip/postal code":33330,"geo_precision":"unmatched"},"type":"Feature","geometry":null},{"properties":{"city":"Miami","geo_score":0.0,"sold price":1.0,"id":"abnbtilam49n","address":"17000 NW 67th Avenue","zip/postal code":33015,"geo_precision":"unmatched"},"type":"Feature","geometry":null},{"properties":{"city":"Fort Lauderdale","geo_score":0.0,"sold price":1.0,"id":"abnbtinocm1u","address":"3900 Galt Ocean Drive","zip/postal code":33308,"geo_precision":"unmatched"},"type":"Feature","geometry":null},{"properties":{"city":"Hallandale","geo_score":0.0,"sold price":1.0,"id":"abnbtifg74bo","address":"1000 Ne 12th Avenue","zip/postal code":33009,"geo_precision":"unmatched"},"type":"Feature","geometry":null},{"properties":{"city":"Miami","geo_score":0.0,"sold price":1.0,"id":"abnbtiimht59","address":"8301 Sw 142 Avenue Apt","zip/postal code":33183,"geo_precision":"unmatched"},"type":"Feature","geometry":null},{"properties":{"city":"Miami","geo_score":0.0,"sold price":1.0,"id":"abnbtimkqljd","address":"7380 Sw 114th Street","zip/postal code":33156,"geo_precision":"unmatched"},"type":"Feature","geometry":null},{"properties":{"city":"Margate","geo_score":0.0,"sold price":1.0,"id":"abnbtifkcuvv","address":"6404 Brandywine Drive N","zip/postal code":33063,"geo_precision":"unmatched"},"type":"Feature","geometry":null},{"properties":{"city":"Davie","geo_score":0.0,"sold price":1.0,"id":"abnbtij8cwgw","address":"9072 Lake Park Circle S","zip/postal code":33328,"geo_precision":"unmatched"},"type":"Feature","geometry":null},{"properties":{"city":"Deerfield Beach","geo_score":0.0,"sold price":1.0,"id":"abnbtirk8541","address":"2400 Deer Creek Country Club Blvd","zip/postal code":33442,"geo_precision":"unmatched"},"type":"Feature","geometry":null},{"properties":{"city":"Fort Lauderdale","geo_score":0.0,"sold price":1.0,"id":"abnbtiiaipsw","address":"1721 NE 17th Avenue","zip/postal code":33305,"geo_precision":"unmatched"},"type":"Feature","geometry":null},{"properties":{"city":"Coconut Grove","geo_score":0.0,"sold price":1.0,"id":"abnbtiho0zkh","address":"3104 Shipping Ave","zip/postal code":33133,"geo_precision":"unmatched"},"type":"Feature","geometry":null},{"properties":{"city":"Key Biscayne","geo_score":0.0,"sold price":1.0,"id":"abnbtig0ptnp","address":"521 Crandon Blvd","zip/postal code":33149,"geo_precision":"unmatched"},"type":"Feature","geometry":null},{"properties":{"city":"Miami","geo_score":0.0,"sold price":1.0,"id":"abnbtinwf3ip","address":"3640 Yacht Club Drive","zip/postal code":33180,"geo_precision":"unmatched"},"type":"Feature","geometry":null},{"properties":{"city":"Cooper City","geo_score":0.0,"sold price":1.0,"id":"abnbtiggwhfg","address":"13364 Lakeside Terrace","zip/postal code":33330,"geo_precision":"unmatched"},"type":"Feature","geometry":null},{"properties":{"city":"Miami Gardens","geo_score":0.0,"sold price":1.0,"id":"abnbtik69mcf","address":"3321 Nw 208th Terrace","zip/postal code":33056,"geo_precision":"unmatched"},"type":"Feature","geometry":null},{"properties":{"city":"Cooper City","geo_score":0.0,"sold price":1.0,"id":"abnbtiryl4xc","address":"12924 Spring Lake Drive","zip/postal code":33330,"geo_precision":"unmatched"},"type":"Feature","geometry":null},{"properties":{"city":"Hialeah","geo_score":0.0,"sold price":1.0,"id":"abnbtid9lsg5","address":"19642 Nw 84th Place","zip/postal code":33015,"geo_precision":"unmatched"},"type":"Feature","geometry":null},{"properties":{"city":"Miami","geo_score":0.0,"sold price":1.0,"id":"abnbtiqpixw4","address":"15101 SW 159th Street","zip/postal code":33187,"geo_precision":"unmatched"},"type":"Feature","geometry":null},{"properties":{"city":"West Palm Beach","geo_score":0.0,"sold price":1.0,"id":"abnbtigztyf8","address":"13124 Silver Fox Lane","zip/postal code":33418,"geo_precision":"unmatched"},"type":"Feature","geometry":null},{"properties":{"city":"Cooper City","geo_score":0.0,"sold price":1.0,"id":"abnbtid9bzoi","address":"3335 E Point Drive","zip/postal code":33026,"geo_precision":"unmatched"},"type":"Feature","geometry":null},{"properties":{"city":"Weston","geo_score":0.0,"sold price":1.0,"id":"abnbtiif7zca","address":"1068 Laguna Springs Drive","zip/postal code":33326,"geo_precision":"unmatched"},"type":"Feature","geometry":null},{"properties":{"city":"West Palm Beach","geo_score":0.0,"sold price":1.0,"id":"abnbtiolllza","address":"5400 N Ocean Drive","zip/postal code":33404,"geo_precision":"unmatched"},"type":"Feature","geometry":null},{"properties":{"city":"Miami","geo_score":0.0,"sold price":1.0,"id":"abnbtiq8ha74","address":"2131 SW 25th Street","zip/postal code":33133,"geo_precision":"unmatched"},"type":"Feature","geometry":null},{"properties":{"city":"Miami","geo_score":0.0,"sold price":1.0,"id":"abnbtijnzrxi","address":"540 Brickell Key Drive","zip/postal code":33131,"geo_precision":"unmatched"},"type":"Feature","geometry":null},{"properties":{"city":"Sunny Isles Beach","geo_score":0.0,"sold price":1.0,"id":"abnbtiridjx2","address":"17021 N Bay Road","zip/postal code":33160,"geo_precision":"unmatched"},"type":"Feature","geometry":null},{"properties":{"city":"South Palm Beach","geo_score":0.0,"sold price":1.0,"id":"abnbtip75zzp","address":"3580 S Ocean Avenue","zip/postal code":33480,"geo_precision":"unmatched"},"type":"Feature","geometry":null},{"properties":{"city":"Miami","geo_score":0.0,"sold price":1.0,"id":"abnbtidb4y7j","address":"17301 Sw 149th Court","zip/postal code":33187,"geo_precision":"unmatched"},"type":"Feature","geometry":null},{"properties":{"city":"West Palm Beach","geo_score":0.0,"sold price":1.0,"id":"abnbtifmyouu","address":"3808 Florida Blvd","zip/postal code":33410,"geo_precision":"unmatched"},"type":"Feature","geometry":null},{"properties":{"city":"Palm Beach","geo_score":0.0,"sold price":1.0,"id":"abnbtiof83hv","address":"139 Sunrise Avenue","zip/postal code":33480,"geo_precision":"unmatched"},"type":"Feature","geometry":null},{"properties":{"city":"Palm Beach Gardens","geo_score":0.0,"sold price":1.0,"id":"abnbtijvvvk8","address":"1119 11th Lane","zip/postal code":33418,"geo_precision":"unmatched"},"type":"Feature","geometry":null},{"properties":{"city":"Boca Raton","geo_score":0.0,"sold price":1.0,"id":"abnbtim8ra3v","address":"13 Royal Palm","zip/postal code":33432,"geo_precision":"unmatched"},"type":"Feature","geometry":null},{"properties":{"city":"Fort Lauderdale","geo_score":0.0,"sold price":1.0,"id":"abnbtin3v85m","address":"4938 Sw 33rd Avenue","zip/postal code":33312,"geo_precision":"unmatched"},"type":"Feature","geometry":null},{"properties":{"city":"Homestead","geo_score":0.0,"sold price":1.0,"id":"abnbtiqduef6","address":"24767 SW 109th Avenue","zip/postal code":33032,"geo_precision":"unmatched"},"type":"Feature","geometry":null},{"properties":{"city":"Pahokee","geo_score":0.0,"sold price":1.0,"id":"abnbtikx5b83","address":"1049 E Main Street","zip/postal code":33476,"geo_precision":"unmatched"},"type":"Feature","geometry":null},{"properties":{"city":"Jupiter","geo_score":0.0,"sold price":1.0,"id":"abnbtijo3zvo","address":"309 Circle W","zip/postal code":33458,"geo_precision":"unmatched"},"type":"Feature","geometry":null},{"properties":{"city":"Boca Raton","geo_score":0.0,"sold price":1.0,"id":"abnbtiif2m6l","address":"23378 Barlake Drive,","zip/postal code":33433,"geo_precision":"unmatched"},"type":"Feature","geometry":null},{"properties":{"city":"Hollywood","geo_score":0.0,"sold price":1.0,"id":"abnbtikv72yt","address":"3191 Crystal Way","zip/postal code":33025,"geo_precision":"unmatched"},"type":"Feature","geometry":null},{"properties":{"city":"Boca Raton","geo_score":0.0,"sold price":1.0,"id":"abnbtijh8ovn","address":"10375 Canoe Brook Circle","zip/postal code":33498,"geo_precision":"unmatched"},"type":"Feature","geometry":null},{"properties":{"city":"Fort Lauderdale","geo_score":0.0,"sold price":1.0,"id":"abnbtiicd3of","address":"4100 Galt Ocean Drive","zip/postal code":33308,"geo_precision":"unmatched"},"type":"Feature","geometry":null},{"properties":{"city":"Weston","geo_score":0.0,"sold price":1.0,"id":"abnbtir4f2mm","address":"829 Azalea Place","zip/postal code":33327,"geo_precision":"unmatched"},"type":"Feature","geometry":null},{"properties":{"city":"Miami Lakes","geo_score":0.0,"sold price":1.0,"id":"abnbtidk21vi","address":"19543 Cypress Court East","zip/postal code":33015,"geo_precision":"unmatched"},"type":"Feature","geometry":null},{"properties":{"city":"Miami","geo_score":0.0,"sold price":1.0,"id":"abnbtiexnh2f","address":"12905 Cherry Road","zip/postal code":33181,"geo_precision":"unmatched"},"type":"Feature","geometry":null},{"properties":{"city":"Miami","geo_score":0.0,"sold price":1.0,"id":"abnbtieyi6uv","address":"11308 Griffing Blvd","zip/postal code":33161,"geo_precision":"unmatched"},"type":"Feature","geometry":null},{"properties":{"city":"Highland Beach","geo_score":0.0,"sold price":1.0,"id":"abnbtilkgrys","address":"3114 S Ocean Blvd","zip/postal code":33487,"geo_precision":"unmatched"},"type":"Feature","geometry":null},{"properties":{"city":"Plantation","geo_score":0.0,"sold price":1.0,"id":"abnbtilhjeo0","address":"7910 Nw 4th Street","zip/postal code":33324,"geo_precision":"unmatched"},"type":"Feature","geometry":null},{"properties":{"city":"Coconut Creek","geo_score":0.0,"sold price":1.0,"id":"abnbtijxyeyn","address":"3303 Aruba Way","zip/postal code":33066,"geo_precision":"unmatched"},"type":"Feature","geometry":null},{"properties":{"city":"Weston","geo_score":0.0,"sold price":1.0,"id":"abnbtidtubbx","address":"1861 Salerno Circle","zip/postal code":33327,"geo_precision":"unmatched"},"type":"Feature","geometry":null},{"properties":{"city":"Pembroke Pines","geo_score":0.0,"sold price":1.0,"id":"abnbtiipuxlv","address":"8401 W Cypress Drive","zip/postal code":33025,"geo_precision":"unmatched"},"type":"Feature","geometry":null},{"properties":{"city":"Miami","geo_score":0.0,"sold price":1.0,"id":"abnbtidnjsjm","address":"1631 Sw 32nd Court","zip/postal code":33145,"geo_precision":"unmatched"},"type":"Feature","geometry":null},{"properties":{"city":"Boynton Beach","geo_score":0.0,"sold price":1.0,"id":"abnbtit7iiis","address":"3303 Tuscany Way","zip/postal code":33435,"geo_precision":"unmatched"},"type":"Feature","geometry":null},{"properties":{"city":"Weston","geo_score":0.0,"sold price":1.0,"id":"abnbtis6pd09","address":"533 Lakeside Circle","zip/postal code":33326,"geo_precision":"unmatched"},"type":"Feature","geometry":null},{"properties":{"city":"Coral Springs","geo_score":0.0,"sold price":1.0,"id":"abnbtiluf13o","address":"9740 Nw 14th Street","zip/postal code":33071,"geo_precision":"unmatched"},"type":"Feature","geometry":null},{"properties":{"city":"Miami","geo_score":0.0,"sold price":1.0,"id":"abnbtinobwkz","address":"6311 Nw 39th Terrace","zip/postal code":33166,"geo_precision":"unmatched"},"type":"Feature","geometry":null},{"properties":{"city":"Oakland Park","geo_score":0.0,"sold price":1.0,"id":"abnbtipj1xkh","address":"3251 NW 44th Street","zip/postal code":33309,"geo_precision":"unmatched"},"type":"Feature","geometry":null},{"properties":{"city":"Miami Beach","geo_score":0.0,"sold price":1.0,"id":"abnbtipr6by1","address":"1450 Lincoln Road","zip/postal code":33139,"geo_precision":"unmatched"},"type":"Feature","geometry":null},{"properties":{"city":"Coral Springs","geo_score":0.0,"sold price":1.0,"id":"abnbtid2kku3","address":"4732 Nw 100th Terrace","zip/postal code":33076,"geo_precision":"unmatched"},"type":"Feature","geometry":null},{"properties":{"city":"Miami","geo_score":0.0,"sold price":1.0,"id":"abnbtimbcqwv","address":"87 Ne 168th Street","zip/postal code":33162,"geo_precision":"unmatched"},"type":"Feature","geometry":null},{"properties":{"city":"Hollywood","geo_score":0.0,"sold price":1.0,"id":"abnbtilcv5h1","address":"7701 Nw 42nd Court","zip/postal code":33024,"geo_precision":"unmatched"},"type":"Feature","geometry":null},{"properties":{"city":"Cooper City","geo_score":0.0,"sold price":1.0,"id":"abnbtip8rmff","address":"11321 Sw 58th Court","zip/postal code":33330,"geo_precision":"unmatched"},"type":"Feature","geometry":null},{"properties":{"city":"Margate","geo_score":0.0,"sold price":1.0,"id":"abnbtilt1w7l","address":"7611 Nw 18 Court","zip/postal code":33063,"geo_precision":"unmatched"},"type":"Feature","geometry":null},{"properties":{"city":"Davie","geo_score":0.0,"sold price":1.0,"id":"abnbtid08eaf","address":"9030 Lake Park Circle N","zip/postal code":33328,"geo_precision":"unmatched"},"type":"Feature","geometry":null},{"properties":{"city":"Miami","geo_score":0.0,"sold price":1.0,"id":"abnbtikqgchz","address":"12725 Ne 11th Avenue","zip/postal code":33161,"geo_precision":"unmatched"},"type":"Feature","geometry":null},{"properties":{"city":"Hollywood","geo_score":0.0,"sold price":1.0,"id":"abnbtip0ps54","address":"3800 Hollywood Blvd","zip/postal code":33021,"geo_precision":"unmatched"},"type":"Feature","geometry":null},{"properties":{"city":"Davie","geo_score":0.0,"sold price":1.0,"id":"abnbtind0khz","address":"10754 Sw 17th Place","zip/postal code":33324,"geo_precision":"unmatched"},"type":"Feature","geometry":null},{"properties":{"city":"Tamarac","geo_score":0.0,"sold price":1.0,"id":"abnbtigyco9s","address":"5503 White Oak Lane","zip/postal code":33319,"geo_precision":"unmatched"},"type":"Feature","geometry":null},{"properties":{"city":"Miami","geo_score":0.0,"sold price":1.0,"id":"abnbtiteef8l","address":"7201 Sw 5th Street","zip/postal code":33144,"geo_precision":"unmatched"},"type":"Feature","geometry":null},{"properties":{"city":"Miami","geo_score":0.0,"sold price":1.0,"id":"abnbtie98i6g","address":"540 Brickell Key Drive","zip/postal code":33131,"geo_precision":"unmatched"},"type":"Feature","geometry":null},{"properties":{"city":"Palm Beach","geo_score":0.0,"sold price":1.0,"id":"abnbtitggwv4","address":"245 Oscelea Way","zip/postal code":33480,"geo_precision":"unmatched"},"type":"Feature","geometry":null},{"properties":{"city":"Hollywood","geo_score":0.0,"sold price":1.0,"id":"abnbtijyja1a","address":"4217 Monroe Street","zip/postal code":33021,"geo_precision":"unmatched"},"type":"Feature","geometry":null},{"properties":{"city":"Hialeah","geo_score":0.0,"sold price":1.0,"id":"abnbtim4k313","address":"8019 W 36th Avenue","zip/postal code":33018,"geo_precision":"unmatched"},"type":"Feature","geometry":null},{"properties":{"city":"Fort Lauderdale","geo_score":0.0,"sold price":1.0,"id":"abnbtifq9zlw","address":"4050 Ocean Drive N","zip/postal code":33308,"geo_precision":"unmatched"},"type":"Feature","geometry":null},{"properties":{"city":"Sunny Isles Beach","geo_score":0.0,"sold price":1.0,"id":"abnbtierz8tz","address":"17021 N Bay Road","zip/postal code":33160,"geo_precision":"unmatched"},"type":"Feature","geometry":null},{"properties":{"city":"Coral Gables","geo_score":0.0,"sold price":1.0,"id":"abnbtii0bc3b","address":"151 E Sunrise Avenue","zip/postal code":33145,"geo_precision":"unmatched"},"type":"Feature","geometry":null},{"properties":{"city":"Delray Beach","geo_score":0.0,"sold price":1.0,"id":"abnbtikwv5gu","address":"304 Seville M","zip/postal code":33446,"geo_precision":"unmatched"},"type":"Feature","geometry":null},{"properties":{"city":"Palm Beach","geo_score":0.0,"sold price":1.0,"id":"abnbtinlh7ti","address":"2840 S Ocean Blvd","zip/postal code":33480,"geo_precision":"unmatched"},"type":"Feature","geometry":null},{"properties":{"city":"Aventura","geo_score":0.0,"sold price":1.0,"id":"abnbtigs2ykc","address":"20355 Ne 34th Court","zip/postal code":33180,"geo_precision":"unmatched"},"type":"Feature","geometry":null},{"properties":{"city":"Miami","geo_score":0.0,"sold price":1.0,"id":"abnbtih2g1cy","address":"1581 Brickell Avenue","zip/postal code":33129,"geo_precision":"unmatched"},"type":"Feature","geometry":null},{"properties":{"city":"Fort Lauderdale","geo_score":0.0,"sold price":1.0,"id":"abnbtijksweo","address":"1209 SE 1st Street","zip/postal code":33301,"geo_precision":"unmatched"},"type":"Feature","geometry":null},{"properties":{"city":"Boynton Beach","geo_score":0.0,"sold price":1.0,"id":"abnbtid59j5y","address":"8260 Palm Gate Drive","zip/postal code":33436,"geo_precision":"unmatched"},"type":"Feature","geometry":null},{"properties":{"city":"Fort Lauderdale","geo_score":0.0,"sold price":1.0,"id":"abnbtijks6zf","address":"4560 SW 24th Avenue","zip/postal code":33312,"geo_precision":"unmatched"},"type":"Feature","geometry":null},{"properties":{"city":"Fort Lauderdale","geo_score":0.0,"sold price":1.0,"id":"abnbtisdex5i","address":"9441 Evergreen Place","zip/postal code":33324,"geo_precision":"unmatched"},"type":"Feature","geometry":null},{"properties":{"city":"Miami","geo_score":0.0,"sold price":1.0,"id":"abnbtigkwpof","address":"7555 Sw 79th Avenue","zip/postal code":33143,"geo_precision":"unmatched"},"type":"Feature","geometry":null},{"properties":{"city":"Margate","geo_score":0.0,"sold price":1.0,"id":"abnbtigdbbiv","address":"7785 Highlands Circle","zip/postal code":33063,"geo_precision":"unmatched"},"type":"Feature","geometry":null},{"properties":{"city":"Oakland Park","geo_score":0.0,"sold price":1.0,"id":"abnbtipiican","address":"4180 Nw 12th Terrace","zip/postal code":33309,"geo_precision":"unmatched"},"type":"Feature","geometry":null},{"properties":{"city":"Lauderdale By The Sea","geo_score":0.0,"sold price":1.0,"id":"abnbtiqtzy6c","address":"5100 N Ocean Blvd.","zip/postal code":33308,"geo_precision":"unmatched"},"type":"Feature","geometry":null},{"properties":{"city":"Pompano Beach","geo_score":0.0,"sold price":1.0,"id":"abnbtiikh37i","address":"2212 S Cypress Bend Dr","zip/postal code":33069,"geo_precision":"unmatched"},"type":"Feature","geometry":null},{"properties":{"city":"Lauderdale By The Sea","geo_score":0.0,"sold price":1.0,"id":"abnbtinzyn88","address":"239 East Commercial Blvd.","zip/postal code":33308,"geo_precision":"unmatched"},"type":"Feature","geometry":null},{"properties":{"city":"Weston","geo_score":0.0,"sold price":1.0,"id":"abnbtim4l34q","address":"2690 Riveria Court","zip/postal code":33332,"geo_precision":"unmatched"},"type":"Feature","geometry":null},{"properties":{"city":"Coral Springs","geo_score":0.0,"sold price":1.0,"id":"abnbtierpv6c","address":"5797 NW 119th Terrace","zip/postal code":33076,"geo_precision":"unmatched"},"type":"Feature","geometry":null},{"properties":{"city":"Fort Lauderdale","geo_score":0.0,"sold price":1.0,"id":"abnbtidoruze","address":"5251 Ne 26th Avenue","zip/postal code":33308,"geo_precision":"unmatched"},"type":"Feature","geometry":null},{"properties":{"city":"Miami","geo_score":0.0,"sold price":1.0,"id":"abnbtik3dv0g","address":"13000 Sw 92nd Avenue","zip/postal code":33176,"geo_precision":"unmatched"},"type":"Feature","geometry":null},{"properties":{"city":"Palm Beach Gardens","geo_score":0.0,"sold price":1.0,"id":"abnbtiqmzd4q","address":"8612 Wakefield Drive","zip/postal code":33410,"geo_precision":"unmatched"},"type":"Feature","geometry":null},{"properties":{"city":"Jupiter","geo_score":0.0,"sold price":1.0,"id":"abnbtif5tfuv","address":"208 Sims Creek Drive","zip/postal code":33458,"geo_precision":"unmatched"},"type":"Feature","geometry":null},{"properties":{"city":"Miami Beach","geo_score":0.0,"sold price":1.0,"id":"abnbtidp3dmj","address":"1881 Washington Avenue","zip/postal code":33139,"geo_precision":"unmatched"},"type":"Feature","geometry":null},{"properties":{"city":"Boca Raton","geo_score":0.0,"sold price":1.0,"id":"abnbtiivf3ud","address":"4085 Bay Laurel Way","zip/postal code":33487,"geo_precision":"unmatched"},"type":"Feature","geometry":null},{"properties":{"city":"Miramar","geo_score":0.0,"sold price":1.0,"id":"abnbtiktimty","address":"2508 Canal Road","zip/postal code":33025,"geo_precision":"unmatched"},"type":"Feature","geometry":null},{"properties":{"city":"Miami","geo_score":0.0,"sold price":1.0,"id":"abnbtipevxyk","address":"52 Nw 99th Street","zip/postal code":33000,"geo_precision":"unmatched"},"type":"Feature","geometry":null},{"properties":{"city":"Palmetto Bay","geo_score":0.0,"sold price":1.0,"id":"abnbtim9rv15","address":"16820 Sw 87th Court","zip/postal code":33157,"geo_precision":"unmatched"},"type":"Feature","geometry":null},{"properties":{"city":"Weston","geo_score":0.0,"sold price":1.0,"id":"abnbtilq101a","address":"2457 Greenbrier Court","zip/postal code":33327,"geo_precision":"unmatched"},"type":"Feature","geometry":null},{"properties":{"city":"Miami Beach","geo_score":0.0,"sold price":1.0,"id":"abnbtihl50ki","address":"1750 James Avenue #8l","zip/postal code":33139,"geo_precision":"unmatched"},"type":"Feature","geometry":null},{"properties":{"city":"Miami","geo_score":0.0,"sold price":1.0,"id":"abnbtimo8asr","address":"9860 Sw 164th Terrace","zip/postal code":33157,"geo_precision":"unmatched"},"type":"Feature","geometry":null},{"properties":{"city":"Miami","geo_score":0.0,"sold price":1.0,"id":"abnbtilu2jvz","address":"3731 N Country Club Drive","zip/postal code":33180,"geo_precision":"unmatched"},"type":"Feature","geometry":null},{"properties":{"city":"Pembroke Pines","geo_score":0.0,"sold price":1.0,"id":"abnbtii9mk24","address":"16316 Nw 8th Drive","zip/postal code":33028,"geo_precision":"unmatched"},"type":"Feature","geometry":null},{"properties":{"city":"West Palm Beach","geo_score":0.0,"sold price":1.0,"id":"abnbtipoc6jl","address":"3701 S Flagler Drive","zip/postal code":33405,"geo_precision":"unmatched"},"type":"Feature","geometry":null},{"properties":{"city":"Fort Lauderdale","geo_score":0.0,"sold price":1.0,"id":"abnbtigr1ysp","address":"11050 Sw 57th Street","zip/postal code":33328,"geo_precision":"unmatched"},"type":"Feature","geometry":null},{"properties":{"city":"Hollywood","geo_score":0.0,"sold price":1.0,"id":"abnbtipe9ihf","address":"815 N Golf Drive","zip/postal code":33021,"geo_precision":"unmatched"},"type":"Feature","geometry":null},{"properties":{"city":"Miami","geo_score":0.0,"sold price":1.0,"id":"abnbtiqrdp8u","address":"285 Nw 128th Street","zip/postal code":33168,"geo_precision":"unmatched"},"type":"Feature","geometry":null},{"properties":{"city":"Miami Beach","geo_score":0.0,"sold price":1.0,"id":"abnbtih6jlt3","address":"1446 Ocean Drive #45","zip/postal code":33139,"geo_precision":"unmatched"},"type":"Feature","geometry":null},{"properties":{"city":"Miami","geo_score":0.0,"sold price":1.0,"id":"abnbtidktaqo","address":"6825 Sw 71st Court","zip/postal code":33143,"geo_precision":"unmatched"},"type":"Feature","geometry":null},{"properties":{"city":"West Palm Beach","geo_score":0.0,"sold price":1.0,"id":"abnbtin6fx69","address":"12698 Headwater Circle","zip/postal code":33414,"geo_precision":"unmatched"},"type":"Feature","geometry":null},{"properties":{"city":"Lake Worth","geo_score":0.0,"sold price":1.0,"id":"abnbtiosj4rd","address":"7491 Ridgefield Lane","zip/postal code":33467,"geo_precision":"unmatched"},"type":"Feature","geometry":null},{"properties":{"city":"Boca Raton","geo_score":0.0,"sold price":1.0,"id":"abnbtis2387v","address":"136 Nw 10th Street","zip/postal code":33432,"geo_precision":"unmatched"},"type":"Feature","geometry":null},{"properties":{"city":"North Bay Village","geo_score":0.0,"sold price":1.0,"id":"abnbtipohudv","address":"7601 E Treasure Drive","zip/postal code":33141,"geo_precision":"unmatched"},"type":"Feature","geometry":null},{"properties":{"city":"Hialeah","geo_score":0.0,"sold price":1.0,"id":"abnbtie9gk9c","address":"631 E 38th Street","zip/postal code":33013,"geo_precision":"unmatched"},"type":"Feature","geometry":null},{"properties":{"city":"Boca Raton","geo_score":0.0,"sold price":1.0,"id":"abnbtim9c8sv","address":"2799 NW Boca Baton Blvd","zip/postal code":33431,"geo_precision":"unmatched"},"type":"Feature","geometry":null},{"properties":{"city":"Fort Lauderdale","geo_score":0.0,"sold price":1.0,"id":"abnbtinvocmn","address":"124 Ne 17th Avenue","zip/postal code":33301,"geo_precision":"unmatched"},"type":"Feature","geometry":null},{"properties":{"city":"Miami","geo_score":0.0,"sold price":1.0,"id":"abnbtimukpd7","address":"12620 Sw 87th Place","zip/postal code":33176,"geo_precision":"unmatched"},"type":"Feature","geometry":null},{"properties":{"city":"West Palm Beach","geo_score":0.0,"sold price":1.0,"id":"abnbtif920co","address":"1020 10th Way","zip/postal code":33407,"geo_precision":"unmatched"},"type":"Feature","geometry":null},{"properties":{"city":"Palm Beach Gardens","geo_score":0.0,"sold price":1.0,"id":"abnbtim2wsbh","address":"53 Admirals Court","zip/postal code":33418,"geo_precision":"unmatched"},"type":"Feature","geometry":null},{"properties":{"city":"Pembroke Pines","geo_score":0.0,"sold price":1.0,"id":"abnbtikdzz8l","address":"1413 Nw 124th Avenue","zip/postal code":33026,"geo_precision":"unmatched"},"type":"Feature","geometry":null},{"properties":{"city":"West Palm Beach","geo_score":0.0,"sold price":1.0,"id":"abnbtii7uel7","address":"1900 Consulate Place","zip/postal code":33401,"geo_precision":"unmatched"},"type":"Feature","geometry":null},{"properties":{"city":"Boca Raton","geo_score":0.0,"sold price":1.0,"id":"abnbtiggyqj5","address":"900 Sw 9th Street Circle","zip/postal code":33486,"geo_precision":"unmatched"},"type":"Feature","geometry":null},{"properties":{"city":"Pembroke Pines","geo_score":0.0,"sold price":1.0,"id":"abnbtidwyn21","address":"639 SW 168th Lane","zip/postal code":33027,"geo_precision":"unmatched"},"type":"Feature","geometry":null},{"properties":{"city":"Miami","geo_score":0.0,"sold price":1.0,"id":"abnbtighifrk","address":"1701 Ne 115th Street","zip/postal code":33181,"geo_precision":"unmatched"},"type":"Feature","geometry":null},{"properties":{"city":"West Palm Beach","geo_score":0.0,"sold price":1.0,"id":"abnbtiitebv3","address":"236 Ponce De Leon Street","zip/postal code":33411,"geo_precision":"unmatched"},"type":"Feature","geometry":null},{"properties":{"city":"Davie","geo_score":0.0,"sold price":1.0,"id":"abnbtios0r81","address":"3715 Sw 59th Avenue","zip/postal code":33314,"geo_precision":"unmatched"},"type":"Feature","geometry":null},{"properties":{"city":"Weston","geo_score":0.0,"sold price":1.0,"id":"abnbtidbfx9d","address":"829 Azalea Place","zip/postal code":33327,"geo_precision":"unmatched"},"type":"Feature","geometry":null},{"properties":{"city":"Delray Beach","geo_score":0.0,"sold price":1.0,"id":"abnbtimgk3jz","address":"304 Seville M","zip/postal code":33446,"geo_precision":"unmatched"},"type":"Feature","geometry":null},{"properties":{"city":"Homestead","geo_score":0.0,"sold price":1.0,"id":"abnbtit8xzvr","address":"2007 Se 26th Lane","zip/postal code":33035,"geo_precision":"unmatched"},"type":"Feature","geometry":null},{"properties":{"city":"Palm Beach Gardens","geo_score":0.0,"sold price":1.0,"id":"abnbtiemteo8","address":"4 Lexington Lane E","zip/postal code":33418,"geo_precision":"unmatched"},"type":"Feature","geometry":null},{"properties":{"city":"Hollywood","geo_score":0.0,"sold price":1.0,"id":"abnbtihr378i","address":"4900 Johnson Street","zip/postal code":33021,"geo_precision":"unmatched"},"type":"Feature","geometry":null},{"properties":{"city":"Plantation","geo_score":0.0,"sold price":1.0,"id":"abnbtioy07hq","address":"300 NW 78th Avenue","zip/postal code":33324,"geo_precision":"unmatched"},"type":"Feature","geometry":null},{"properties":{"city":"Miami","geo_score":0.0,"sold price":1.0,"id":"abnbtigfn8y0","address":"23140 Sw 124th Court","zip/postal code":33170,"geo_precision":"unmatched"},"type":"Feature","geometry":null},{"properties":{"city":"West Palm Beach","geo_score":0.0,"sold price":1.0,"id":"abnbtiles1ja","address":"917 39th Court","zip/postal code":33407,"geo_precision":"unmatched"},"type":"Feature","geometry":null},{"properties":{"city":"Lake Worth","geo_score":0.0,"sold price":1.0,"id":"abnbtip2kif7","address":"4356 Fountains Drive","zip/postal code":33467,"geo_precision":"unmatched"},"type":"Feature","geometry":null},{"properties":{"city":"Hollywood","geo_score":0.0,"sold price":1.0,"id":"abnbtii5ydqn","address":"5630 Garfield Street","zip/postal code":33021,"geo_precision":"unmatched"},"type":"Feature","geometry":null},{"properties":{"city":"West Palm Beach","geo_score":0.0,"sold price":1.0,"id":"abnbtip2ogxv","address":"13547 73rd Street N","zip/postal code":33412,"geo_precision":"unmatched"},"type":"Feature","geometry":null},{"properties":{"city":"Miami","geo_score":0.0,"sold price":1.0,"id":"abnbtimczjel","address":"13120 SW 92nd Avenue","zip/postal code":33176,"geo_precision":"unmatched"},"type":"Feature","geometry":null},{"properties":{"city":"Hollywood","geo_score":0.0,"sold price":1.0,"id":"abnbtikjqnt2","address":"5706 Harrison Street","zip/postal code":33023,"geo_precision":"unmatched"},"type":"Feature","geometry":null},{"properties":{"city":"Pompano Beach","geo_score":0.0,"sold price":1.0,"id":"abnbtihnw99k","address":"3370 Beaurivage Drive","zip/postal code":33064,"geo_precision":"unmatched"},"type":"Feature","geometry":null},{"properties":{"city":"Miami","geo_score":0.0,"sold price":1.0,"id":"abnbtijwd7z4","address":"285 Nw 128th Street","zip/postal code":33168,"geo_precision":"unmatched"},"type":"Feature","geometry":null},{"properties":{"city":"Hollywood","geo_score":0.0,"sold price":1.0,"id":"abnbtinwy0eb","address":"3561 N 37th Street","zip/postal code":33021,"geo_precision":"unmatched"},"type":"Feature","geometry":null},{"properties":{"city":"Miami","geo_score":0.0,"sold price":1.0,"id":"abnbtieavoi0","address":"8260 Sw 102nd Street","zip/postal code":33156,"geo_precision":"unmatched"},"type":"Feature","geometry":null},{"properties":{"city":"Boca Raton","geo_score":0.0,"sold price":1.0,"id":"abnbtik3o1mn","address":"3034 Ainslie C","zip/postal code":33434,"geo_precision":"unmatched"},"type":"Feature","geometry":null},{"properties":{"city":"Miami","geo_score":0.0,"sold price":1.0,"id":"abnbtikgrosc","address":"3101 N Country Drive","zip/postal code":33180,"geo_precision":"unmatched"},"type":"Feature","geometry":null},{"properties":{"city":"Delray Beach","geo_score":0.0,"sold price":1.0,"id":"abnbtieg2rgb","address":"210 Flanders E","zip/postal code":33484,"geo_precision":"unmatched"},"type":"Feature","geometry":null},{"properties":{"city":"Boca Raton","geo_score":0.0,"sold price":1.0,"id":"abnbtie2l873","address":"20237 Back Nine Drive","zip/postal code":33498,"geo_precision":"unmatched"},"type":"Feature","geometry":null},{"properties":{"city":"West Palm Beach","geo_score":0.0,"sold price":1.0,"id":"abnbtis9zyn1","address":"104 Valencia Street","zip/postal code":33411,"geo_precision":"unmatched"},"type":"Feature","geometry":null},{"properties":{"city":"Delray Beach","geo_score":0.0,"sold price":1.0,"id":"abnbtif34b3k","address":"16075 Sims Road","zip/postal code":33484,"geo_precision":"unmatched"},"type":"Feature","geometry":null},{"properties":{"city":"Sunny Isles Beach","geo_score":0.0,"sold price":1.0,"id":"abnbtir3czda","address":"100 Bayview Drive","zip/postal code":33160,"geo_precision":"unmatched"},"type":"Feature","geometry":null},{"properties":{"city":"Wilton Manors","geo_score":0.0,"sold price":1.0,"id":"abnbtir0e9tx","address":"1730 Ne 28th Drive","zip/postal code":33334,"geo_precision":"unmatched"},"type":"Feature","geometry":null},{"properties":{"city":"Pompano Beach","geo_score":0.0,"sold price":1.0,"id":"abnbtih9g71p","address":"806 Cypress Grove Lane","zip/postal code":33069,"geo_precision":"unmatched"},"type":"Feature","geometry":null},{"properties":{"city":"Tamarac","geo_score":0.0,"sold price":1.0,"id":"abnbtisdirux","address":"8280 NW 68th Terrace","zip/postal code":33321,"geo_precision":"unmatched"},"type":"Feature","geometry":null},{"properties":{"city":"Jupiter","geo_score":0.0,"sold price":1.0,"id":"abnbtir4zewe","address":"109 Mainsail Circle","zip/postal code":33477,"geo_precision":"unmatched"},"type":"Feature","geometry":null},{"properties":{"city":"Pembroke Pines","geo_score":0.0,"sold price":1.0,"id":"abnbtilqj3ko","address":"1122 Nw 171st Terrace","zip/postal code":33028,"geo_precision":"unmatched"},"type":"Feature","geometry":null},{"properties":{"city":"Miami","geo_score":0.0,"sold price":1.0,"id":"abnbtiglch0h","address":"19320 Royal Birkdale Dr.","zip/postal code":33015,"geo_precision":"unmatched"},"type":"Feature","geometry":null},{"properties":{"city":"Parkland","geo_score":0.0,"sold price":1.0,"id":"abnbtig029v2","address":"12162 NW 75th Place","zip/postal code":33076,"geo_precision":"unmatched"},"type":"Feature","geometry":null},{"properties":{"city":"Jupiter","geo_score":0.0,"sold price":1.0,"id":"abnbtiht791l","address":"825 Center Street #46c","zip/postal code":33458,"geo_precision":"unmatched"},"type":"Feature","geometry":null},{"properties":{"city":"Lake Worth","geo_score":0.0,"sold price":1.0,"id":"abnbtiiko257","address":"3980 Summer Chase Court","zip/postal code":33467,"geo_precision":"unmatched"},"type":"Feature","geometry":null},{"properties":{"city":"Lauderhill","geo_score":0.0,"sold price":1.0,"id":"abnbtilxi0i2","address":"4451 NW 24th Street","zip/postal code":33313,"geo_precision":"unmatched"},"type":"Feature","geometry":null},{"properties":{"city":"Fort Lauderdale","geo_score":0.0,"sold price":1.0,"id":"abnbtidzc7c5","address":"1712 Sw 14th Street","zip/postal code":33312,"geo_precision":"unmatched"},"type":"Feature","geometry":null},{"properties":{"city":"Hollywood","geo_score":0.0,"sold price":1.0,"id":"abnbtinhovhj","address":"2965 Dove Drive","zip/postal code":33026,"geo_precision":"unmatched"},"type":"Feature","geometry":null},{"properties":{"city":"Pembroke Pines","geo_score":0.0,"sold price":1.0,"id":"abnbtikx8ot5","address":"13055 Sw 15th Court","zip/postal code":33027,"geo_precision":"unmatched"},"type":"Feature","geometry":null},{"properties":{"city":"Weston","geo_score":0.0,"sold price":1.0,"id":"abnbtiphdji9","address":"16571 Blatt Blvd","zip/postal code":33326,"geo_precision":"unmatched"},"type":"Feature","geometry":null},{"properties":{"city":"Miami","geo_score":0.0,"sold price":1.0,"id":"abnbticxjv37","address":"16255 Sw 55th Terrace","zip/postal code":33185,"geo_precision":"unmatched"},"type":"Feature","geometry":null},{"properties":{"city":"Weston","geo_score":0.0,"sold price":1.0,"id":"abnbtik1e82z","address":"949 Spoonbill Circle","zip/postal code":33326,"geo_precision":"unmatched"},"type":"Feature","geometry":null},{"properties":{"city":"Miami","geo_score":0.0,"sold price":1.0,"id":"abnbtiiwwhc9","address":"10551 SW 56th Terrace","zip/postal code":33173,"geo_precision":"unmatched"},"type":"Feature","geometry":null},{"properties":{"city":"Miami","geo_score":0.0,"sold price":1.0,"id":"abnbtionz3zr","address":"1647 Nw 29th Avenue","zip/postal code":33125,"geo_precision":"unmatched"},"type":"Feature","geometry":null},{"properties":{"city":"Fort Lauderdale","geo_score":0.0,"sold price":1.0,"id":"abnbtikucji0","address":"1774 NE 19th Street","zip/postal code":33305,"geo_precision":"unmatched"},"type":"Feature","geometry":null},{"properties":{"city":"Hollywood","geo_score":0.0,"sold price":1.0,"id":"abnbtikv336s","address":"801 Sw 141th Avenue","zip/postal code":33027,"geo_precision":"unmatched"},"type":"Feature","geometry":null},{"properties":{"city":"Tamarac","geo_score":0.0,"sold price":1.0,"id":"abnbtidgmvvi","address":"7595 Nw 73rd Terrace","zip/postal code":33321,"geo_precision":"unmatched"},"type":"Feature","geometry":null},{"properties":{"city":"Boca Raton","geo_score":0.0,"sold price":1.0,"id":"abnbtilh4avi","address":"19759 Diner Key Drive","zip/postal code":33498,"geo_precision":"unmatched"},"type":"Feature","geometry":null},{"properties":{"city":"Miami","geo_score":0.0,"sold price":1.0,"id":"abnbtio5x7t5","address":"11444 Sw 127th Court","zip/postal code":33186,"geo_precision":"unmatched"},"type":"Feature","geometry":null},{"properties":{"city":"North Palm Beach","geo_score":0.0,"sold price":1.0,"id":"abnbtijw0fls","address":"327 Southwind Drive","zip/postal code":33408,"geo_precision":"unmatched"},"type":"Feature","geometry":null},{"properties":{"city":"Miami Lakes","geo_score":0.0,"sold price":1.0,"id":"abnbtiezwx4g","address":"16346 Wood Walk","zip/postal code":33014,"geo_precision":"unmatched"},"type":"Feature","geometry":null},{"properties":{"city":"Miami","geo_score":0.0,"sold price":1.0,"id":"abnbtiqyszh1","address":"525 Ne 138th Street","zip/postal code":33161,"geo_precision":"unmatched"},"type":"Feature","geometry":null},{"properties":{"city":"Oakland Park","geo_score":0.0,"sold price":1.0,"id":"abnbtidh1pa9","address":"669 W Oakland Park Blvd","zip/postal code":33311,"geo_precision":"unmatched"},"type":"Feature","geometry":null},{"properties":{"city":"Weston","geo_score":0.0,"sold price":1.0,"id":"abnbtil0mus6","address":"700 Heritage Way","zip/postal code":33326,"geo_precision":"unmatched"},"type":"Feature","geometry":null},{"properties":{"city":"Miami","geo_score":0.0,"sold price":1.0,"id":"abnbtilt6j21","address":"7300 Sw 114th Street","zip/postal code":33156,"geo_precision":"unmatched"},"type":"Feature","geometry":null},{"properties":{"city":"Miami","geo_score":0.0,"sold price":1.0,"id":"abnbtify8sv9","address":"20515 E Country Club Drive","zip/postal code":33180,"geo_precision":"unmatched"},"type":"Feature","geometry":null},{"properties":{"city":"Pembroke Pines","geo_score":0.0,"sold price":1.0,"id":"abnbtispqhk1","address":"1239 Nw 161st Avenue","zip/postal code":33024,"geo_precision":"unmatched"},"type":"Feature","geometry":null},{"properties":{"city":"Pembroke Pines","geo_score":0.0,"sold price":1.0,"id":"abnbtil304h3","address":"19063 Nw 23rd Place","zip/postal code":33029,"geo_precision":"unmatched"},"type":"Feature","geometry":null},{"properties":{"city":"Hallandale","geo_score":0.0,"sold price":1.0,"id":"abnbtiew6ctp","address":"2101 Atlantic Shores Blvd","zip/postal code":33009,"geo_precision":"unmatched"},"type":"Feature","geometry":null},{"properties":{"city":"Miami Gardens","geo_score":0.0,"sold price":1.0,"id":"abnbtiergsl4","address":"20111 Nw 42nd Avenue","zip/postal code":33055,"geo_precision":"unmatched"},"type":"Feature","geometry":null},{"properties":{"city":"Miami","geo_score":0.0,"sold price":1.0,"id":"abnbtilriwjd","address":"12808 Sw 146th Terrace","zip/postal code":33186,"geo_precision":"unmatched"},"type":"Feature","geometry":null},{"properties":{"city":"Key Biscayne","geo_score":0.0,"sold price":1.0,"id":"abnbtipn3ota","address":"250 Galen Drive","zip/postal code":33149,"geo_precision":"unmatched"},"type":"Feature","geometry":null}],"is_temporal":false,"author":{"url":"","metadata":"","contact_name":"","contact_address":"","source":"","contact_phone":""},"source":"","pagination":{"sort":null,"start":0,"total":815,"limit":1000000},"state":"complete","tags":"","published":"2014-08-16T17:54:32-04:00","id":313401}