{"type":"FeatureCollection","data_type":"Dataset","url_type":null,"permissions":[{"permissions":{"download":true,"view":true},"group_id":"everyone"}],"classification":null,"title":"Copy_of_IPTV-Sycamore-Jan-16-2013_-_CSV","count":125,"stream_id":313775,"contributor":{"url":"http://geocommons.com/users/59404","name":"KatieEtgen"},"data_attributes":null,"calculation_params":null,"icon_link":null,"link":"http://geocommons.com/overlays/313775.json","extent":[-83.2677,40.8617,-83.0881,41.0262],"geometry_types":["point"],"unique_name":null,"name":"Copy_of_IPTV-Sycamore-Jan-16-2013_-_CSV","feature_count":125,"description":"","next_feature":null,"is_raster":false,"short_classification":"Y","stats":{},"features":[{"properties":{"city":"Sycamore","zip":"44882","geo_score":1.0,"id":"abo41fb32bck","address":"104 Front St","geo_precision":"range","state":"OH"},"type":"Feature","geometry":{"type":"Point","coordinates":[-83.168776,40.955194]}},{"properties":{"city":"Sycamore","zip":"44882","geo_score":0.733,"id":"abo41f8kximf","address":"6700 State Hwy 67","geo_precision":"street","state":"OH"},"type":"Feature","geometry":{"type":"Point","coordinates":[-83.109545,41.023234]}},{"properties":{"city":"Sycamore","zip":"44882","geo_score":0.78,"id":"abo41fjbyyv3","address":"4282 SH 67N","geo_precision":"range","state":"OH"},"type":"Feature","geometry":{"type":"Point","coordinates":[-83.198503,40.929084]}},{"properties":{"city":"Sycamore","zip":"44882","geo_score":0.604,"id":"abo41f9fim3f","address":"113 W. Saffel Ave.","geo_precision":"street","state":"OH"},"type":"Feature","geometry":{"type":"Point","coordinates":[-83.170302,40.949718]}},{"properties":{"city":"Sycamore","zip":"44882","geo_score":0.604,"id":"abo41f5hyd78","address":"209 W. Saffel Ave.","geo_precision":"street","state":"OH"},"type":"Feature","geometry":{"type":"Point","coordinates":[-83.170302,40.949718]}},{"properties":{"city":"McCutchenville","zip":"44844","geo_score":0.829,"id":"abo41ffevp35","address":"8889 S SR 53","geo_precision":"range","state":"OH"},"type":"Feature","geometry":{"type":"Point","coordinates":[-83.256576,40.994204]}},{"properties":{"city":"Sycamore","zip":"44882","geo_score":1.0,"id":"abo41fell4b3","address":"949 Petersburg St","geo_precision":"range","state":"OH"},"type":"Feature","geometry":{"type":"Point","coordinates":[-83.129938,40.929011]}},{"properties":{"city":"Sycamore","zip":"44882","geo_score":0.883,"id":"abo41faiwfgr","address":"964 CH 34","geo_precision":"range","state":"OH"},"type":"Feature","geometry":{"type":"Point","coordinates":[-83.130801,40.92835]}},{"properties":{"city":"Sycamore","zip":"44882","geo_score":0.87,"id":"abo41fine2vj","address":"3139 CH 16","geo_precision":"range","state":"OH"},"type":"Feature","geometry":{"type":"Point","coordinates":[-83.172321,40.964109]}},{"properties":{"city":"McCutchenville","zip":"44844","geo_score":0.74,"id":"abo41fepgjop","address":"326 Cty Hwy 5","geo_precision":"street","state":"OH"},"type":"Feature","geometry":{"type":"Point","coordinates":[-83.26395,40.985521]}},{"properties":{"city":"McCutchenville","zip":"44844","geo_score":0.61,"id":"abo41fl1oaad","address":"562 CH35","geo_precision":"street","state":"OH"},"type":"Feature","geometry":{"type":"Point","coordinates":[-83.26395,40.985521]}},{"properties":{"city":"Upper Sandusky","zip":"44882","geo_score":0.509,"id":"abo41f9fu7lr","address":"6654 SH 67N","geo_precision":"street","state":"OH"},"type":"Feature","geometry":{"type":"Point","coordinates":[-83.109545,41.023234]}},{"properties":{"city":"Sycamore","zip":"44882","geo_score":0.688,"id":"abo41f7rq8pj","address":"5763 CH 30","geo_precision":"street","state":"OH"},"type":"Feature","geometry":{"type":"Point","coordinates":[-83.189337,40.935213]}},{"properties":{"city":"SYCAMORE","zip":"44882","geo_score":0.625,"id":"abo41fcxfitb","address":"104 E. 7TH ST","geo_precision":"street","state":"OH"},"type":"Feature","geometry":{"type":"Point","coordinates":[-83.16839,40.948513]}},{"properties":{"city":"Sycamore","zip":"44882","geo_score":0.935,"id":"abo41fef2h8d","address":"3362 Cty Hwy 9","geo_precision":"range","state":"OH"},"type":"Feature","geometry":{"type":"Point","coordinates":[-83.174667,40.988915]}},{"properties":{"city":"Sycamore","zip":"44882","geo_score":0.625,"id":"abo41f7lda7u","address":"204 E. 7th St.","geo_precision":"street","state":"OH"},"type":"Feature","geometry":{"type":"Point","coordinates":[-83.16839,40.948513]}},{"properties":{"city":"Sycamore","zip":"44882","geo_score":0.89,"id":"abo41fddmsul","address":"106 E 8th St","geo_precision":"range","state":"OH"},"type":"Feature","geometry":{"type":"Point","coordinates":[-83.169969,40.947311]}},{"properties":{"city":"Sycamore","zip":"44882","geo_score":0.602,"id":"abo41fc10edw","address":"513 N. Sycamore Ave","geo_precision":"street","state":"OH"},"type":"Feature","geometry":{"type":"Point","coordinates":[-83.170006,40.950019]}},{"properties":{"city":"Sycamore","zip":"44882","geo_score":1.0,"id":"abo41fk22ho1","address":"411 S Griffith St","geo_precision":"range","state":"OH"},"type":"Feature","geometry":{"type":"Point","coordinates":[-83.168445,40.945503]}},{"properties":{"city":"Sycamore","zip":"44882","geo_score":0.817,"id":"abo41f8q7jp1","address":"329 Kilbourne St","geo_precision":"street","state":"OH"},"type":"Feature","geometry":{"type":"Point","coordinates":[-83.175161,40.952441]}},{"properties":{"city":"Sycamore","zip":"44882","geo_score":0.842,"id":"abo41f8zfjnk","address":"843 SR 231","geo_precision":"range","state":"OH"},"type":"Feature","geometry":{"type":"Point","coordinates":[-83.170288,40.981401]}},{"properties":{"city":"Sycamore","zip":"44882","geo_score":0.675,"id":"abo41fkatugd","address":"4467 CH 36","geo_precision":"street","state":"OH"},"type":"Feature","geometry":{"type":"Point","coordinates":[-83.189306,40.920809]}},{"properties":{"city":"Sycamore","zip":"44882","geo_score":0.902,"id":"abo41f8dfznt","address":"4417 Co Hwy 36","geo_precision":"range","state":"OH"},"type":"Feature","geometry":{"type":"Point","coordinates":[-83.195927,40.920507]}},{"properties":{"city":"Sycamore","zip":"44882","geo_score":0.883,"id":"abo41fe5g9qx","address":"3065 CH 30","geo_precision":"range","state":"OH"},"type":"Feature","geometry":{"type":"Point","coordinates":[-83.17079,40.935168]}},{"properties":{"city":"Sycamore","zip":"44882","geo_score":0.61,"id":"abo41flgbmh1","address":"5624 CH30","geo_precision":"street","state":"OH"},"type":"Feature","geometry":{"type":"Point","coordinates":[-83.190938,40.986942]}},{"properties":{"city":"Sycamore","zip":"44882","geo_score":0.902,"id":"abo41fcl0850","address":"371 Co Rd 37","geo_precision":"range","state":"OH"},"type":"Feature","geometry":{"type":"Point","coordinates":[-83.191031,40.98661]}},{"properties":{"city":"Sycamore","zip":"44882","geo_score":0.721,"id":"abo41fd9x7tj","address":"408 New Washington Rd","geo_precision":"street","state":"OH"},"type":"Feature","geometry":{"type":"Point","coordinates":[-83.0936,40.928332]}},{"properties":{"city":"Sycamore","zip":"44882","geo_score":1.0,"id":"abo41fev461w","address":"301 S Sycamore Ave","geo_precision":"range","state":"OH"},"type":"Feature","geometry":{"type":"Point","coordinates":[-83.169969,40.947311]}},{"properties":{"city":"McCutchenville","zip":"44844","geo_score":0.829,"id":"abo41finriae","address":"8568 S SR 53","geo_precision":"range","state":"OH"},"type":"Feature","geometry":{"type":"Point","coordinates":[-83.249377,41.00137]}},{"properties":{"city":"Sycamore","zip":"44882","geo_score":0.604,"id":"abo41f7hsd5u","address":"107 E. Saffel Ave","geo_precision":"street","state":"OH"},"type":"Feature","geometry":{"type":"Point","coordinates":[-83.170302,40.949718]}},{"properties":{"city":"Sycamore","zip":"44882","geo_score":0.61,"id":"abo41f9xeu7l","address":"411 S. Sycamore Ave","geo_precision":"street","state":"OH"},"type":"Feature","geometry":{"type":"Point","coordinates":[-83.166399,40.9614]}},{"properties":{"city":"Sycamore","zip":"44882","geo_score":0.941,"id":"abo41fbi0d71","address":"3375 Cty Hwy 37","geo_precision":"range","state":"OH"},"type":"Feature","geometry":{"type":"Point","coordinates":[-83.231379,40.943694]}},{"properties":{"city":"Sycamore","zip":"44882","geo_score":1.0,"id":"abo41fbsza64","address":"5659 Twp Hwy 30","geo_precision":"range","state":"OH"},"type":"Feature","geometry":{"type":"Point","coordinates":[-83.222075,40.934656]}},{"properties":{"city":"Sycamore","zip":"44882","geo_score":0.571,"id":"abo41fd6js9i","address":"511 1/2 N. Sycamore Ave","geo_precision":"street","state":"OH"},"type":"Feature","geometry":{"type":"Point","coordinates":[-83.170006,40.950019]}},{"properties":{"city":"Sycamore","zip":"44882","geo_score":1.0,"id":"abo41fe52l1k","address":"102 N Pennington St","geo_precision":"range","state":"OH"},"type":"Feature","geometry":{"type":"Point","coordinates":[-83.17168,40.950714]}},{"properties":{"city":"Tiffin","zip":"44883","geo_score":0.894,"id":"abo41fd6omx3","address":"1415 E TR 28","geo_precision":"range","state":"OH"},"type":"Feature","geometry":{"type":"Point","coordinates":[-83.138389,41.012784]}},{"properties":{"city":"Sycamore","zip":"44882","geo_score":0.797,"id":"abo41f96t4dt","address":"324 Kilbourn St","geo_precision":"street","state":"OH"},"type":"Feature","geometry":{"type":"Point","coordinates":[-83.175161,40.952441]}},{"properties":{"city":"Sycamore","zip":"44882","geo_score":0.604,"id":"abo41fc87yyy","address":"210 N. Griffith St","geo_precision":"street","state":"OH"},"type":"Feature","geometry":{"type":"Point","coordinates":[-83.168414,40.950343]}},{"properties":{"city":"Tiffin","zip":"44883","geo_score":0.912,"id":"abo41f7uc71s","address":"7731 S CR 19","geo_precision":"range","state":"OH"},"type":"Feature","geometry":{"type":"Point","coordinates":[-83.181315,41.012529]}},{"properties":{"city":"Tiffin","zip":"44883","geo_score":0.842,"id":"abo41fekopya","address":"8525 S SR 231","geo_precision":"range","state":"OH"},"type":"Feature","geometry":{"type":"Point","coordinates":[-83.170348,40.997945]}},{"properties":{"city":"Sycamore","zip":"44882","geo_score":0.604,"id":"abo41f8hh91a","address":"206 E. Saffel Ave","geo_precision":"street","state":"OH"},"type":"Feature","geometry":{"type":"Point","coordinates":[-83.170302,40.949718]}},{"properties":{"city":"McCutchenville","zip":"44844","geo_score":0.857,"id":"abo41feo0fw6","address":"94 W. Jackson St","geo_precision":"zip","state":"OH"},"type":"Feature","geometry":{"type":"Point","coordinates":[-83.247403,40.958503]}},{"properties":{"city":"McCutchenville","zip":"44844","geo_score":0.883,"id":"abo41fe2znj2","address":"560 CH 35","geo_precision":"range","state":"OH"},"type":"Feature","geometry":{"type":"Point","coordinates":[-83.247056,40.982994]}},{"properties":{"city":"McCutchenville","zip":"44844","geo_score":0.805,"id":"abo41fidzo5r","address":"187 SH 53","geo_precision":"range","state":"OH"},"type":"Feature","geometry":{"type":"Point","coordinates":[-83.259797,40.99073]}},{"properties":{"city":"Tiffin","zip":"44883","geo_score":1.0,"id":"abo41f62k9tn","address":"1064 E Twp Rd 28","geo_precision":"range","state":"OH"},"type":"Feature","geometry":{"type":"Point","coordinates":[-83.142674,41.012948]}},{"properties":{"city":"Sycamore","zip":"44882","geo_score":0.932,"id":"abo41fl3a68i","address":"221 St Rte 103","geo_precision":"range","state":"OH"},"type":"Feature","geometry":{"type":"Point","coordinates":[-83.168153,40.949664]}},{"properties":{"city":"Sycamore","zip":"44882","geo_score":0.983,"id":"abo41favr1rn","address":"7038 Marion Melmore Rd","geo_precision":"range","state":"OH"},"type":"Feature","geometry":{"type":"Point","coordinates":[-83.093499,40.958957]}},{"properties":{"city":"Sycamoer","zip":"44882","geo_score":0.988,"id":"abo41fikgqph","address":"305 Kilborn St","geo_precision":"range","state":"OH"},"type":"Feature","geometry":{"type":"Point","coordinates":[-83.171068,40.956536]}},{"properties":{"city":"Sycamore","zip":"44882","geo_score":0.854,"id":"abo41fbjiti2","address":"582 TH 13","geo_precision":"range","state":"OH"},"type":"Feature","geometry":{"type":"Point","coordinates":[-83.18004,40.982659]}},{"properties":{"city":"Sycamore","zip":"44882","geo_score":0.639,"id":"abo41fj67ong","address":"303 W 10th St","geo_precision":"street","state":"OH"},"type":"Feature","geometry":{"type":"Point","coordinates":[-83.169945,40.945294]}},{"properties":{"city":"Sycamore","zip":"44882","geo_score":0.977,"id":"abo41fe13hew","address":"305 E Saffel Ave","geo_precision":"range","state":"OH"},"type":"Feature","geometry":{"type":"Point","coordinates":[-83.165092,40.949694]}},{"properties":{"city":"McCutchenville","zip":"44844","geo_score":0.614,"id":"abo41fcp44q7","address":"4457 W. Cty Rd 58","geo_precision":"street","state":"OH"},"type":"Feature","geometry":{"type":"Point","coordinates":[-83.207798,40.992962]}},{"properties":{"city":"McCutchenville","zip":"44844","geo_score":0.854,"id":"abo41fl2gmb8","address":"6869 CH 2","geo_precision":"range","state":"OH"},"type":"Feature","geometry":{"type":"Point","coordinates":[-83.24748,40.99275]}},{"properties":{"city":"Upper Sandusky","zip":"43351","geo_score":0.61,"id":"abo41fdbnrbf","address":"5322 SH 67S","geo_precision":"street","state":"OH"},"type":"Feature","geometry":{"type":"Point","coordinates":[-83.267749,40.861691]}},{"properties":{"city":"Sycamore","zip":"44882","geo_score":0.829,"id":"abo41f67gowp","address":"8080 S SR 67","geo_precision":"range","state":"OH"},"type":"Feature","geometry":{"type":"Point","coordinates":[-83.124695,41.005344]}},{"properties":{"city":"Sycamore","zip":"44882","geo_score":0.772,"id":"abo41fd4zyzi","address":"4267 CH 36","geo_precision":"range","state":"OH"},"type":"Feature","geometry":{"type":"Point","coordinates":[-83.193852,40.920553]}},{"properties":{"city":"Sycamore","zip":"44882","geo_score":0.61,"id":"abo41fd9qc9q","address":"332 CH35","geo_precision":"street","state":"OH"},"type":"Feature","geometry":{"type":"Point","coordinates":[-83.163417,40.992944]}},{"properties":{"city":"Sycamore","zip":"44882","geo_score":0.914,"id":"abo41fawocpf","address":"300 Pemberton St Rear","geo_precision":"range","state":"OH"},"type":"Feature","geometry":{"type":"Point","coordinates":[-83.166772,40.946492]}},{"properties":{"city":"Sycamore","zip":"44882","geo_score":0.614,"id":"abo41fbng6od","address":"204 W. 10th St","geo_precision":"street","state":"OH"},"type":"Feature","geometry":{"type":"Point","coordinates":[-83.112678,40.975187]}},{"properties":{"city":"Sycamore","zip":"44882","geo_score":0.614,"id":"abo41f78hvcr","address":"308 W. 10th St","geo_precision":"street","state":"OH"},"type":"Feature","geometry":{"type":"Point","coordinates":[-83.112678,40.975187]}},{"properties":{"city":"Sycamore","zip":"44882","geo_score":0.916,"id":"abo41fbjr7vl","address":"125 S Sycamore","geo_precision":"range","state":"OH"},"type":"Feature","geometry":{"type":"Point","coordinates":[-83.170075,40.9495]}},{"properties":{"city":"Sycamore","zip":"44882","geo_score":0.87,"id":"abo41fcifv7x","address":"4248 CH 36","geo_precision":"range","state":"OH"},"type":"Feature","geometry":{"type":"Point","coordinates":[-83.193502,40.920711]}},{"properties":{"city":"Sycamore","zip":"44882","geo_score":0.935,"id":"abo41f7tmhmt","address":"3280 Cty Hwy 9","geo_precision":"range","state":"OH"},"type":"Feature","geometry":{"type":"Point","coordinates":[-83.173855,40.98931]}},{"properties":{"city":"Sycamore","zip":"44882","geo_score":1.0,"id":"abo41f6n2q7t","address":"328 Kilborn St","geo_precision":"range","state":"OH"},"type":"Feature","geometry":{"type":"Point","coordinates":[-83.168886,40.958741]}},{"properties":{"city":"Tiffin","zip":"44883","geo_score":0.894,"id":"abo41fa4k9df","address":"81 E TR 28","geo_precision":"range","state":"OH"},"type":"Feature","geometry":{"type":"Point","coordinates":[-83.168318,41.014976]}},{"properties":{"city":"Sycamore","zip":"44882","geo_score":0.927,"id":"abo41fltj5wa","address":"306 E 7th St","geo_precision":"range","state":"OH"},"type":"Feature","geometry":{"type":"Point","coordinates":[-83.166004,40.948635]}},{"properties":{"city":"Sycamore","zip":"44882","geo_score":0.806,"id":"abo41fhzmsxq","address":"104 Kilborn St","geo_precision":"street","state":"OH"},"type":"Feature","geometry":{"type":"Point","coordinates":[-83.174061,40.95348]}},{"properties":{"city":"Tiffin","zip":"44883","geo_score":0.912,"id":"abo41ff0j21f","address":"7810 S CR 19","geo_precision":"range","state":"OH"},"type":"Feature","geometry":{"type":"Point","coordinates":[-83.180911,41.010507]}},{"properties":{"city":"Sycamore","zip":"44882","geo_score":1.0,"id":"abo41f9k659l","address":"404 S Griffith St","geo_precision":"range","state":"OH"},"type":"Feature","geometry":{"type":"Point","coordinates":[-83.168297,40.946188]}},{"properties":{"city":"Sycamore","zip":"44882","geo_score":1.0,"id":"abo41f8go5xx","address":"208 Benton Rd","geo_precision":"range","state":"OH"},"type":"Feature","geometry":{"type":"Point","coordinates":[-83.104512,40.928166]}},{"properties":{"city":"Sycamore","zip":"44882","geo_score":0.854,"id":"abo41f76u9n7","address":"207 E 9th St","geo_precision":"range","state":"OH"},"type":"Feature","geometry":{"type":"Point","coordinates":[-83.168069,40.946412]}},{"properties":{"city":"Sycamore","zip":"44882","geo_score":0.863,"id":"abo41fdp5u95","address":"6513 Crawford-Wyandot Rd","geo_precision":"range","state":"OH"},"type":"Feature","geometry":{"type":"Point","coordinates":[-83.112729,40.902187]}},{"properties":{"city":"McCutchenville","zip":"44844","geo_score":1.0,"id":"abo41ffll6gi","address":"327 Co Hwy 35","geo_precision":"range","state":"OH"},"type":"Feature","geometry":{"type":"Point","coordinates":[-83.252517,40.987204]}},{"properties":{"city":"Tiffin","zip":"44883","geo_score":0.842,"id":"abo41f9qu8jm","address":"6789 S SR 100","geo_precision":"range","state":"OH"},"type":"Feature","geometry":{"type":"Point","coordinates":[-83.11131,41.026216]}},{"properties":{"city":"Sycamore","zip":"44882","geo_score":0.941,"id":"abo41f9q3lrv","address":"4662 Cty Hwy 35","geo_precision":"range","state":"OH"},"type":"Feature","geometry":{"type":"Point","coordinates":[-83.201008,40.926216]}},{"properties":{"city":"Sycamore","zip":"44882","geo_score":0.887,"id":"abo41fdt7ij3","address":"106 E Saffel","geo_precision":"range","state":"OH"},"type":"Feature","geometry":{"type":"Point","coordinates":[-83.169798,40.949797]}},{"properties":{"city":"Sycamore","zip":"44882","geo_score":0.625,"id":"abo41f5zs5gh","address":"210 W. 7th St","geo_precision":"street","state":"OH"},"type":"Feature","geometry":{"type":"Point","coordinates":[-83.169986,40.948499]}},{"properties":{"city":"Sycamore","zip":"44882","geo_score":1.0,"id":"abo41fe91q8b","address":"409 S Sycamore Ave","geo_precision":"range","state":"OH"},"type":"Feature","geometry":{"type":"Point","coordinates":[-83.170032,40.946368]}},{"properties":{"city":"McCutchenville","zip":"44844","geo_score":0.78,"id":"abo41fdn8nu4","address":"146 SH 53N","geo_precision":"range","state":"OH"},"type":"Feature","geometry":{"type":"Point","coordinates":[-83.259432,40.99139]}},{"properties":{"city":"Sycamore","zip":"44882","geo_score":0.977,"id":"abo41fh0fgpi","address":"204 W Saffel Ave","geo_precision":"range","state":"OH"},"type":"Feature","geometry":{"type":"Point","coordinates":[-83.173112,40.949637]}},{"properties":{"city":"Sycamore","zip":"44882","geo_score":0.714,"id":"abo41f8qrujr","address":"101 Kilborn St. Apt. C","geo_precision":"street","state":"OH"},"type":"Feature","geometry":{"type":"Point","coordinates":[-83.168917,40.991042]}},{"properties":{"city":"Sycamoer","zip":"44882","geo_score":0.967,"id":"abo41f7dazcl","address":"703 S Sycamore Av","geo_precision":"range","state":"OH"},"type":"Feature","geometry":{"type":"Point","coordinates":[-83.169994,40.942973]}},{"properties":{"city":"Sycamore","zip":"44882","geo_score":1.0,"id":"abo41f7599ep","address":"408 Pemberton St.","geo_precision":"range","state":"OH"},"type":"Feature","geometry":{"type":"Point","coordinates":[-83.166761,40.946135]}},{"properties":{"city":"Sycamore","zip":"44882","geo_score":0.805,"id":"abo41f6uvqze","address":"3126 CH9","geo_precision":"range","state":"OH"},"type":"Feature","geometry":{"type":"Point","coordinates":[-83.172042,40.990039]}},{"properties":{"city":"Sycamore","zip":"44882","geo_score":0.983,"id":"abo41feji3bx","address":"6257 Marion Melmore Rd","geo_precision":"range","state":"OH"},"type":"Feature","geometry":{"type":"Point","coordinates":[-83.093204,40.929259]}},{"properties":{"city":"McCutchenville","zip":"44844","geo_score":1.0,"id":"abo41f5kmgmu","address":"7441 Co Hwy 2","geo_precision":"range","state":"OH"},"type":"Feature","geometry":{"type":"Point","coordinates":[-83.252254,40.992721]}},{"properties":{"city":"Sycamore","zip":"44882","geo_score":0.604,"id":"abo41fbdguzz","address":"203 E. Saffel Ave.","geo_precision":"street","state":"OH"},"type":"Feature","geometry":{"type":"Point","coordinates":[-83.170302,40.949718]}},{"properties":{"city":"Sycamore","zip":"44882","geo_score":1.0,"id":"abo41ffeis4v","address":"279 Benton Rd","geo_precision":"range","state":"OH"},"type":"Feature","geometry":{"type":"Point","coordinates":[-83.102316,40.92884]}},{"properties":{"city":"Tiffin","zip":"44883","geo_score":0.894,"id":"abo41fj7juyz","address":"119 E TR 28","geo_precision":"range","state":"OH"},"type":"Feature","geometry":{"type":"Point","coordinates":[-83.167379,41.014981]}},{"properties":{"city":"Sycamore","zip":"44882","geo_score":1.0,"id":"abo41fbh1as8","address":"408 S Sycamore Ave","geo_precision":"range","state":"OH"},"type":"Feature","geometry":{"type":"Point","coordinates":[-83.169882,40.946369]}},{"properties":{"city":"Sycamore","zip":"44882","geo_score":0.735,"id":"abo41f5c7yg4","address":"326 Kilbourne Rear","geo_precision":"street","state":"OH"},"type":"Feature","geometry":{"type":"Point","coordinates":[-83.175161,40.952441]}},{"properties":{"city":"McCutchenville","zip":"44844","geo_score":0.695,"id":"abo41fb6cdw2","address":"7023 Co Rd 5","geo_precision":"street","state":"OH"},"type":"Feature","geometry":{"type":"Point","coordinates":[-83.26395,40.985521]}},{"properties":{"city":"Sycamore","zip":"44882","geo_score":1.0,"id":"abo41fldts0a","address":"197 Benton Rd","geo_precision":"range","state":"OH"},"type":"Feature","geometry":{"type":"Point","coordinates":[-83.105082,40.928147]}},{"properties":{"city":"Sycamore","zip":"44882","geo_score":1.0,"id":"abo41f79pstw","address":"406 S Pennington St","geo_precision":"range","state":"OH"},"type":"Feature","geometry":{"type":"Point","coordinates":[-83.17148,40.946424]}},{"properties":{"city":"Sycamore","zip":"44882","geo_score":0.912,"id":"abo41f6u4o4o","address":"405 Osborn Ave","geo_precision":"range","state":"OH"},"type":"Feature","geometry":{"type":"Point","coordinates":[-83.173881,40.94601]}},{"properties":{"city":"Sycamore","zip":"44882","geo_score":0.805,"id":"abo41f8ekhut","address":"3583 CH37","geo_precision":"range","state":"OH"},"type":"Feature","geometry":{"type":"Point","coordinates":[-83.177818,40.988243]}},{"properties":{"city":"Sycamore","zip":"44882","geo_score":0.82,"id":"abo41fd5sfed","address":"4476 SH 231","geo_precision":"range","state":"OH"},"type":"Feature","geometry":{"type":"Point","coordinates":[-83.131481,40.929337]}},{"properties":{"city":"Sycamore","zip":"44882","geo_score":0.78,"id":"abo41feh6z9k","address":"4911 SH 67N","geo_precision":"range","state":"OH"},"type":"Feature","geometry":{"type":"Point","coordinates":[-83.20557,40.921586]}},{"properties":{"city":"Tiffin","zip":"44883","geo_score":0.894,"id":"abo41f8heupp","address":"1202 E TR 28","geo_precision":"range","state":"OH"},"type":"Feature","geometry":{"type":"Point","coordinates":[-83.139371,41.012641]}},{"properties":{"city":"Tiffin","zip":"44883","geo_score":0.894,"id":"abo41feul1yb","address":"761 E TR 28","geo_precision":"range","state":"OH"},"type":"Feature","geometry":{"type":"Point","coordinates":[-83.151077,41.015036]}},{"properties":{"city":"Sycamore","zip":"44882","geo_score":1.0,"id":"abo41f8dtb9p","address":"505 S Sycamore Ave","geo_precision":"range","state":"OH"},"type":"Feature","geometry":{"type":"Point","coordinates":[-83.170019,40.945231]}},{"properties":{"city":"Sycamore","zip":"44882","geo_score":0.935,"id":"abo41fifiyve","address":"3721 Cty Hwy 9","geo_precision":"range","state":"OH"},"type":"Feature","geometry":{"type":"Point","coordinates":[-83.180493,40.987971]}},{"properties":{"city":"Sycamore","zip":"44882","geo_score":0.983,"id":"abo41f85djxe","address":"5979 Marion Melmore Rd","geo_precision":"range","state":"OH"},"type":"Feature","geometry":{"type":"Point","coordinates":[-83.093148,40.920671]}},{"properties":{"city":"Sycamore","zip":"44882","geo_score":0.648,"id":"abo41f802u9y","address":"7421 S SR 231","geo_precision":"street","state":"OH"},"type":"Feature","geometry":{"type":"Point","coordinates":[-83.131663,40.891496]}},{"properties":{"city":"Tiffin","zip":"44883","geo_score":0.894,"id":"abo41fe3rn95","address":"31 E TR 28","geo_precision":"range","state":"OH"},"type":"Feature","geometry":{"type":"Point","coordinates":[-83.169554,41.01497]}},{"properties":{"city":"Sycamore","zip":"44882","geo_score":1.0,"id":"abo41f95xh1j","address":"307 Kilbourne St","geo_precision":"range","state":"OH"},"type":"Feature","geometry":{"type":"Point","coordinates":[-83.174973,40.952422]}},{"properties":{"city":"Sycamore","zip":"44882","geo_score":0.61,"id":"abo41feelxrw","address":"5544 CH134","geo_precision":"street","state":"OH"},"type":"Feature","geometry":{"type":"Point","coordinates":[-83.190938,40.986942]}},{"properties":{"city":"Sycamore","zip":"44882","geo_score":0.751,"id":"abo41ffrzvjl","address":"209 W 8th St","geo_precision":"street","state":"OH"},"type":"Feature","geometry":{"type":"Point","coordinates":[-83.170773,40.947311]}},{"properties":{"city":"Sycamore","zip":"44882","geo_score":1.0,"id":"abo41f9qhq38","address":"307 S Sycamore Ave","geo_precision":"range","state":"OH"},"type":"Feature","geometry":{"type":"Point","coordinates":[-83.170043,40.947258]}},{"properties":{"city":"Sycamore","zip":"44882","geo_score":0.977,"id":"abo41fi1kzfk","address":"302 E Saffel Ave","geo_precision":"range","state":"OH"},"type":"Feature","geometry":{"type":"Point","coordinates":[-83.165067,40.949845]}},{"properties":{"city":"Sycamore","zip":"44882","geo_score":0.983,"id":"abo41f80a83c","address":"6219 Marion Melmore Rd","geo_precision":"range","state":"OH"},"type":"Feature","geometry":{"type":"Point","coordinates":[-83.093203,40.928584]}},{"properties":{"city":"Tiffin","zip":"44883","geo_score":0.732,"id":"abo41fddmzub","address":"6811 S SR 67","geo_precision":"range","state":"OH"},"type":"Feature","geometry":{"type":"Point","coordinates":[-83.108667,41.026107]}},{"properties":{"city":"Sycamore","zip":"44882","geo_score":0.772,"id":"abo41fhmw48t","address":"4460 CH 36","geo_precision":"range","state":"OH"},"type":"Feature","geometry":{"type":"Point","coordinates":[-83.197459,40.920573]}},{"properties":{"city":"Sycamore","zip":"44882","geo_score":0.927,"id":"abo41fayqce7","address":"210 S Sycamore Apt 8","geo_precision":"range","state":"OH"},"type":"Feature","geometry":{"type":"Point","coordinates":[-83.16991,40.948379]}},{"properties":{"city":"Tiffin","zip":"44883","geo_score":1.0,"id":"abo41fb8c27j","address":"237 W Twp Rd 28","geo_precision":"range","state":"OH"},"type":"Feature","geometry":{"type":"Point","coordinates":[-83.174095,41.014961]}},{"properties":{"city":"Sycamore","zip":"44882","geo_score":0.805,"id":"abo41fgqxlc3","address":"4058 CH134","geo_precision":"range","state":"OH"},"type":"Feature","geometry":{"type":"Point","coordinates":[-83.18982,40.986583]}},{"properties":{"city":"Sycamore","zip":"44882","geo_score":0.604,"id":"abo41fbfbfbc","address":"305 S. Griffith St","geo_precision":"street","state":"OH"},"type":"Feature","geometry":{"type":"Point","coordinates":[-83.16839,40.948513]}},{"properties":{"city":"Sycamore","zip":"44882","geo_score":0.78,"id":"abo41f9wlm2e","address":"3810 SH 67N","geo_precision":"range","state":"OH"},"type":"Feature","geometry":{"type":"Point","coordinates":[-83.190839,40.93684]}},{"properties":{"city":"Sycamore","zip":"44882","geo_score":0.6,"id":"abo41fjow65t","address":"306 S. Pennington","geo_precision":"street","state":"OH"},"type":"Feature","geometry":{"type":"Point","coordinates":[-83.171559,40.947314]}},{"properties":{"city":"Sycamore","zip":"44882","geo_score":0.743,"id":"abo41ff0vopr","address":"210 S Sycamore Ave - Apt 10","geo_precision":"street","state":"OH"},"type":"Feature","geometry":{"type":"Point","coordinates":[-83.112678,40.975187]}},{"properties":{"city":"Sycamore","zip":"44882","geo_score":0.983,"id":"abo41f6i4n9l","address":"7021 Marion Melmore Rd","geo_precision":"range","state":"OH"},"type":"Feature","geometry":{"type":"Point","coordinates":[-83.093348,40.959584]}},{"properties":{"city":"Sycamore","zip":"44882","geo_score":0.604,"id":"abo41f8zyqoy","address":"413 S. Griffith St","geo_precision":"street","state":"OH"},"type":"Feature","geometry":{"type":"Point","coordinates":[-83.16839,40.948513]}},{"properties":{"city":"Sycamore","zip":"44882","geo_score":0.625,"id":"abo41fgltb79","address":"203 W. 9th St.","geo_precision":"street","state":"OH"},"type":"Feature","geometry":{"type":"Point","coordinates":[-83.168917,40.991042]}},{"properties":{"city":"Sycamore","zip":"44882","geo_score":1.0,"id":"abo41fe5ysw0","address":"614 State Rte 103","geo_precision":"range","state":"OH"},"type":"Feature","geometry":{"type":"Point","coordinates":[-83.088102,40.950152]}},{"properties":{"city":"Sycamore","zip":"44882","geo_score":0.927,"id":"abo41f7hppa7","address":"300 W 7th St","geo_precision":"range","state":"OH"},"type":"Feature","geometry":{"type":"Point","coordinates":[-83.173965,40.948494]}}],"is_temporal":false,"author":{"url":"","metadata":null,"contact_name":null,"contact_address":null,"source":null,"contact_phone":null},"source":"","pagination":{"sort":null,"start":0,"total":125,"limit":1000000},"state":"complete","tags":"","published":"2014-08-16T18:22:32-04:00","id":313775}