{"type":"FeatureCollection","data_type":"Dataset","url_type":null,"permissions":[{"permissions":{"download":true,"view":true},"group_id":"everyone"}],"classification":null,"title":"Copy_of_IPTV-Ridgeville-Jan-16-2013_-_CSV","count":155,"stream_id":313772,"contributor":{"url":"http://geocommons.com/users/59404","name":"KatieEtgen"},"data_attributes":null,"calculation_params":null,"icon_link":null,"link":"http://geocommons.com/overlays/313772.json","extent":[-84.4144,41.4032,-84.1121,41.5792],"geometry_types":["point"],"unique_name":null,"name":"Copy_of_IPTV-Ridgeville-Jan-16-2013_-_CSV","feature_count":155,"description":"","next_feature":null,"is_raster":false,"short_classification":"Y","stats":{},"features":[{"properties":{"city":"Archbold","zip":"43502","geo_score":1.0,"id":"abo410pp4sp9","address":"112 Sylvanus St.","geo_precision":"range","state":"OH"},"type":"Feature","geometry":{"type":"Point","coordinates":[-84.311957,41.508518]}},{"properties":{"city":"Archbold","zip":"43502","geo_score":0.739,"id":"abo410gkdnbl","address":"213 Sylvanus","geo_precision":"street","state":"OH"},"type":"Feature","geometry":{"type":"Point","coordinates":[-84.313738,41.508604]}},{"properties":{"city":"Archbold","zip":"43502","geo_score":1.0,"id":"abo410nljnd8","address":"305 Middle St.","geo_precision":"range","state":"OH"},"type":"Feature","geometry":{"type":"Point","coordinates":[-84.302733,41.518955]}},{"properties":{"city":"Archbold,","zip":"43502","geo_score":0.98,"id":"abo410srvh07","address":"241 Dogwood Ct.","geo_precision":"range","state":"OH"},"type":"Feature","geometry":{"type":"Point","coordinates":[-84.299626,41.497232]}},{"properties":{"city":"Archbold","zip":"43502","geo_score":1.0,"id":"abo410n2hhot","address":"128 Quail Run","geo_precision":"range","state":"OH"},"type":"Feature","geometry":{"type":"Point","coordinates":[-84.306959,41.535505]}},{"properties":{"city":"Napoleon","zip":"43545","geo_score":1.0,"id":"abo410uv388r","address":"17404 US Highway 6","geo_precision":"range","state":"OH"},"type":"Feature","geometry":{"type":"Point","coordinates":[-84.198068,41.423871]}},{"properties":{"city":"Archbold","zip":"43502","geo_score":1.0,"id":"abo410ooml4e","address":"317 Primrose Ln.","geo_precision":"range","state":"OH"},"type":"Feature","geometry":{"type":"Point","coordinates":[-84.311437,41.530551]}},{"properties":{"city":"Napoleon","zip":"43545","geo_score":0.513,"id":"abo410g62sw5","address":"S364 C.R. 20","geo_precision":"street","state":"OH"},"type":"Feature","geometry":{"type":"Point","coordinates":[-84.112078,41.413635]}},{"properties":{"city":"Archbold","zip":"43502","geo_score":1.0,"id":"abo410gy6o82","address":"315 Murbach St","geo_precision":"range","state":"OH"},"type":"Feature","geometry":{"type":"Point","coordinates":[-84.303555,41.524439]}},{"properties":{"city":"Defiance","zip":"43512","geo_score":1.0,"id":"abo410ogi9ro","address":"02466 Harper Rd.","geo_precision":"range","state":"OH"},"type":"Feature","geometry":{"type":"Point","coordinates":[-84.285928,41.404619]}},{"properties":{"city":"Ridgeville Corners","zip":"43545","geo_score":0.805,"id":"abo410k4aho7","address":"152 Ridge Dr.","geo_precision":"range","state":"OH"},"type":"Feature","geometry":{"type":"Point","coordinates":[-84.249848,41.442091]}},{"properties":{"city":"Archbold","zip":"43502","geo_score":1.0,"id":"abo410wdlb8p","address":"508 Ditto St.","geo_precision":"range","state":"OH"},"type":"Feature","geometry":{"type":"Point","coordinates":[-84.307509,41.528662]}},{"properties":{"city":"Napoleon","zip":"43545","geo_score":0.732,"id":"abo410h2skuq","address":"28142 County Road S","geo_precision":"street","state":"OH"},"type":"Feature","geometry":{"type":"Point","coordinates":[-84.228096,41.40597]}},{"properties":{"city":"Archbold","zip":"43502","geo_score":0.633,"id":"abo410n84jfc","address":"19950 County Rd. X","geo_precision":"street","state":"OH"},"type":"Feature","geometry":{"type":"Point","coordinates":[-84.211677,41.474118]}},{"properties":{"city":"Ridgeville Corners","zip":"43555","geo_score":0.805,"id":"abo410iatofh","address":"20695 County Road X","geo_precision":"range","state":"OH"},"type":"Feature","geometry":{"type":"Point","coordinates":[-84.264481,41.434652]}},{"properties":{"city":"Archbold","zip":"43502","geo_score":1.0,"id":"abo410uxy2uv","address":"403 E Holland St","geo_precision":"range","state":"OH"},"type":"Feature","geometry":{"type":"Point","coordinates":[-84.301662,41.522605]}},{"properties":{"city":"Archbold","zip":"43502","geo_score":0.927,"id":"abo410obar2x","address":"319 W Holland","geo_precision":"range","state":"OH"},"type":"Feature","geometry":{"type":"Point","coordinates":[-84.309629,41.522701]}},{"properties":{"city":"Archbold","zip":"43502","geo_score":0.902,"id":"abo410ja3lrg","address":"404 W Lutz","geo_precision":"range","state":"OH"},"type":"Feature","geometry":{"type":"Point","coordinates":[-84.31109,41.528858]}},{"properties":{"city":"Archbold","zip":"43502","geo_score":1.0,"id":"abo410n6fl51","address":"201 Park St.","geo_precision":"range","state":"OH"},"type":"Feature","geometry":{"type":"Point","coordinates":[-84.308739,41.518997]}},{"properties":{"city":"Archbold","zip":"43502","geo_score":0.633,"id":"abo410i83bul","address":"23386 C.R. U","geo_precision":"street","state":"OH"},"type":"Feature","geometry":{"type":"Point","coordinates":[-84.238965,41.514357]}},{"properties":{"city":"Archbold","zip":"43502","geo_score":1.0,"id":"abo410g9b1xk","address":"505 Stamm St.","geo_precision":"range","state":"OH"},"type":"Feature","geometry":{"type":"Point","coordinates":[-84.308908,41.527852]}},{"properties":{"city":"Archbold","zip":"43502","geo_score":0.92,"id":"abo410maoxx5","address":"320 North Pointe","geo_precision":"range","state":"OH"},"type":"Feature","geometry":{"type":"Point","coordinates":[-84.310137,41.533839]}},{"properties":{"city":"Archbold","zip":"43502","geo_score":1.0,"id":"abo410niirj2","address":"4 Monterey Ct.","geo_precision":"range","state":"OH"},"type":"Feature","geometry":{"type":"Point","coordinates":[-84.318365,41.524282]}},{"properties":{"city":"Napoleon","zip":"43545","geo_score":0.633,"id":"abo410nfximf","address":"18779 C.R. R1","geo_precision":"street","state":"OH"},"type":"Feature","geometry":{"type":"Point","coordinates":[-84.113429,41.41362]}},{"properties":{"city":"Archbold","zip":"43502","geo_score":0.585,"id":"abo410k3pwk3","address":"308 Buckeye St.","geo_precision":"zip","state":"OH"},"type":"Feature","geometry":{"type":"Point","coordinates":[-84.308283,41.579218]}},{"properties":{"city":"Archbold,","zip":"43502","geo_score":0.604,"id":"abo410t8kt8w","address":"23312 C.R. U","geo_precision":"street","state":"OH"},"type":"Feature","geometry":{"type":"Point","coordinates":[-84.238965,41.514357]}},{"properties":{"city":"Aarchbold","zip":"43502","geo_score":0.617,"id":"abo410kmvmjc","address":"23592 C.R. U","geo_precision":"street","state":"OH"},"type":"Feature","geometry":{"type":"Point","coordinates":[-84.238965,41.514357]}},{"properties":{"city":"Archbold","zip":"43502","geo_score":1.0,"id":"abo410pm2vfe","address":"311 Park Pl.","geo_precision":"range","state":"OH"},"type":"Feature","geometry":{"type":"Point","coordinates":[-84.309439,41.524868]}},{"properties":{"city":"Archbold","zip":"43502","geo_score":1.0,"id":"abo410gz44ik","address":"1009 N Defiance St.","geo_precision":"range","state":"OH"},"type":"Feature","geometry":{"type":"Point","coordinates":[-84.306518,41.532287]}},{"properties":{"city":"Napoleon","zip":"43545","geo_score":0.513,"id":"abo410h4mtpi","address":"01516 C.R. 19","geo_precision":"street","state":"OH"},"type":"Feature","geometry":{"type":"Point","coordinates":[-84.112078,41.413635]}},{"properties":{"city":"Defiance","zip":"43512","geo_score":1.0,"id":"abo410tjzkt4","address":"29605 Nagel Rd","geo_precision":"range","state":"OH"},"type":"Feature","geometry":{"type":"Point","coordinates":[-84.255793,41.413294]}},{"properties":{"city":"Archbold","zip":"43502","geo_score":0.92,"id":"abo410iazlgg","address":"101 North Pointe","geo_precision":"range","state":"OH"},"type":"Feature","geometry":{"type":"Point","coordinates":[-84.310221,41.531568]}},{"properties":{"city":"Archbold","zip":"43502","geo_score":1.0,"id":"abo410hi340m","address":"720 W Lutz Rd.","geo_precision":"range","state":"OH"},"type":"Feature","geometry":{"type":"Point","coordinates":[-84.316573,41.528858]}},{"properties":{"city":"Archbold","zip":"43502","geo_score":0.633,"id":"abo410rblog9","address":"23700 County Rd. U","geo_precision":"street","state":"OH"},"type":"Feature","geometry":{"type":"Point","coordinates":[-84.233933,41.456885]}},{"properties":{"city":"Napoleon","zip":"43545","geo_score":1.0,"id":"abo410h6ftch","address":"17870 US HWY 6","geo_precision":"range","state":"OH"},"type":"Feature","geometry":{"type":"Point","coordinates":[-84.205581,41.429205]}},{"properties":{"city":"Archbold","zip":"43502","geo_score":1.0,"id":"abo410ribuk8","address":"180 Ridge Dr.","geo_precision":"range","state":"OH"},"type":"Feature","geometry":{"type":"Point","coordinates":[-84.249778,41.441892]}},{"properties":{"city":"Archbold","zip":"43502","geo_score":0.89,"id":"abo410qzj7iq","address":"107 Ditto","geo_precision":"range","state":"OH"},"type":"Feature","geometry":{"type":"Point","coordinates":[-84.307654,41.522207]}},{"properties":{"city":"Archbold","zip":"43502","geo_score":0.875,"id":"abo410j8k9vp","address":"505 West St.","geo_precision":"range","state":"OH"},"type":"Feature","geometry":{"type":"Point","coordinates":[-84.303948,41.516924]}},{"properties":{"city":"Archbold","zip":"43502","geo_score":1.0,"id":"abo410vnxq5b","address":"320 Park Place","geo_precision":"range","state":"OH"},"type":"Feature","geometry":{"type":"Point","coordinates":[-84.309589,41.524965]}},{"properties":{"city":"Archbold","zip":"43502","geo_score":1.0,"id":"abo410lcurw0","address":"337 Sawmill Ct.","geo_precision":"range","state":"OH"},"type":"Feature","geometry":{"type":"Point","coordinates":[-84.302038,41.522422]}},{"properties":{"city":"Archbold","zip":"43502","geo_score":1.0,"id":"abo410isnsi6","address":"22951 Monroe St.","geo_precision":"range","state":"OH"},"type":"Feature","geometry":{"type":"Point","coordinates":[-84.306552,41.571244]}},{"properties":{"city":"Archbold","zip":"43502","geo_score":0.585,"id":"abo410n68tzw","address":"509 Buckeye St.","geo_precision":"zip","state":"OH"},"type":"Feature","geometry":{"type":"Point","coordinates":[-84.308283,41.579218]}},{"properties":{"city":"Archbold","zip":"43502","geo_score":0.604,"id":"abo410kd2006","address":"609 N. Defiance St.","geo_precision":"street","state":"OH"},"type":"Feature","geometry":{"type":"Point","coordinates":[-84.414354,41.503972]}},{"properties":{"city":"Archbold","zip":"43502","geo_score":0.625,"id":"abo410h9skwl","address":"V653 County Road 19","geo_precision":"street","state":"OH"},"type":"Feature","geometry":{"type":"Point","coordinates":[-84.235819,41.471399]}},{"properties":{"city":"Archbold","zip":"43502","geo_score":1.0,"id":"abo410u2dp3r","address":"129 Garden Dr.","geo_precision":"range","state":"OH"},"type":"Feature","geometry":{"type":"Point","coordinates":[-84.293969,41.527851]}},{"properties":{"city":"Archbold","zip":"43502","geo_score":1.0,"id":"abo410uq7xfa","address":"411 Vine St.","geo_precision":"range","state":"OH"},"type":"Feature","geometry":{"type":"Point","coordinates":[-84.305166,41.527117]}},{"properties":{"city":"Archbold","zip":"43502","geo_score":1.0,"id":"abo410k0qqas","address":"301 S Defiance St.","geo_precision":"range","state":"OH"},"type":"Feature","geometry":{"type":"Point","coordinates":[-84.306367,41.517827]}},{"properties":{"city":"Ridgeville","zip":"43555","geo_score":0.859,"id":"abo410qgambm","address":"20290 US HWY 6","geo_precision":"range","state":"OH"},"type":"Feature","geometry":{"type":"Point","coordinates":[-84.252544,41.437169]}},{"properties":{"city":"Archbold","zip":"43502","geo_score":0.927,"id":"abo410pkjhxj","address":"324 Short Buehrer","geo_precision":"range","state":"OH"},"type":"Feature","geometry":{"type":"Point","coordinates":[-84.311739,41.507639]}},{"properties":{"city":"County Road U","zip":"43555","geo_score":0.585,"id":"abo410uumoeg","address":"23346","geo_precision":"zip","state":"OH"},"type":"Feature","geometry":{"type":"Point","coordinates":[-84.254414,41.435059]}},{"properties":{"city":"Archbold","zip":"43502","geo_score":1.0,"id":"abo410qw8bma","address":"215 Farmington Rd","geo_precision":"range","state":"OH"},"type":"Feature","geometry":{"type":"Point","coordinates":[-84.298145,41.523652]}},{"properties":{"city":"Archbold","zip":"43502","geo_score":1.0,"id":"abo410ummoeg","address":"600 Brussel St.","geo_precision":"range","state":"OH"},"type":"Feature","geometry":{"type":"Point","coordinates":[-84.305056,41.515252]}},{"properties":{"city":"Archbold","zip":"43502","geo_score":0.927,"id":"abo410uvql3u","address":"1303 S Buehrer","geo_precision":"range","state":"OH"},"type":"Feature","geometry":{"type":"Point","coordinates":[-84.308773,41.508723]}},{"properties":{"city":"Archbold","zip":"43502","geo_score":1.0,"id":"abo410o2cqgu","address":"78 Willow Way","geo_precision":"range","state":"OH"},"type":"Feature","geometry":{"type":"Point","coordinates":[-84.302272,41.498023]}},{"properties":{"city":"Archbold","zip":"43502","geo_score":1.0,"id":"abo410vzy6lt","address":"1103 Lindau St.","geo_precision":"range","state":"OH"},"type":"Feature","geometry":{"type":"Point","coordinates":[-84.30998,41.511057]}},{"properties":{"city":"Archbold","zip":"43502","geo_score":0.604,"id":"abo410knf549","address":"1201 N. Defiance St.","geo_precision":"street","state":"OH"},"type":"Feature","geometry":{"type":"Point","coordinates":[-84.414354,41.503972]}},{"properties":{"city":"Archbold","zip":"43502","geo_score":0.633,"id":"abo410on959b","address":"19998 C.R. X","geo_precision":"street","state":"OH"},"type":"Feature","geometry":{"type":"Point","coordinates":[-84.211677,41.474118]}},{"properties":{"city":"Archbold","zip":"43502","geo_score":1.0,"id":"abo410tbtsbj","address":"106 Bankey Ave.","geo_precision":"range","state":"OH"},"type":"Feature","geometry":{"type":"Point","coordinates":[-84.314637,41.522123]}},{"properties":{"city":"Archbold","zip":"43502","geo_score":0.927,"id":"abo410lq56sp","address":"203 Short Buehrer","geo_precision":"range","state":"OH"},"type":"Feature","geometry":{"type":"Point","coordinates":[-84.309864,41.50748]}},{"properties":{"city":"Ridgeville Corners","zip":"43555","geo_score":0.902,"id":"abo410n76ohm","address":"601 First St.","geo_precision":"range","state":"OH"},"type":"Feature","geometry":{"type":"Point","coordinates":[-84.260644,41.438693]}},{"properties":{"city":"Archbold","zip":"43502","geo_score":1.0,"id":"abo410pqcbei","address":"104 Charles St.","geo_precision":"range","state":"OH"},"type":"Feature","geometry":{"type":"Point","coordinates":[-84.308158,41.529795]}},{"properties":{"city":"Archbold","zip":"43502","geo_score":1.0,"id":"abo410r03nfj","address":"428 Primrose Ln.","geo_precision":"range","state":"OH"},"type":"Feature","geometry":{"type":"Point","coordinates":[-84.31141,41.534669]}},{"properties":{"city":"Archbold","zip":"43502","geo_score":1.0,"id":"abo410nslc5c","address":"408 Ditto St.","geo_precision":"range","state":"OH"},"type":"Feature","geometry":{"type":"Point","coordinates":[-84.307529,41.527201]}},{"properties":{"city":"Archbold","zip":"43502","geo_score":1.0,"id":"abo410io8mv4","address":"312 Stryker St.","geo_precision":"range","state":"OH"},"type":"Feature","geometry":{"type":"Point","coordinates":[-84.311801,41.521542]}},{"properties":{"city":"Archbold","zip":"43502","geo_score":1.0,"id":"abo410thu741","address":"309 W Lutz Rd.","geo_precision":"range","state":"OH"},"type":"Feature","geometry":{"type":"Point","coordinates":[-84.308974,41.528706]}},{"properties":{"city":"Archbold","zip":"43502","geo_score":1.0,"id":"abo410rz8p01","address":"304 Quail Run","geo_precision":"range","state":"OH"},"type":"Feature","geometry":{"type":"Point","coordinates":[-84.309759,41.535505]}},{"properties":{"city":"Archbold","zip":"43502","geo_score":0.571,"id":"abo410o4xfdf","address":"105 W. Lugbill Rd.","geo_precision":"street","state":"OH"},"type":"Feature","geometry":{"type":"Point","coordinates":[-84.307142,41.509671]}},{"properties":{"city":"Archbold","zip":"43502","geo_score":1.0,"id":"abo410uwnqnd","address":"403 Stryker St.","geo_precision":"range","state":"OH"},"type":"Feature","geometry":{"type":"Point","coordinates":[-84.312617,41.52146]}},{"properties":{"city":"Stryker","zip":"43557","geo_score":0.625,"id":"abo410vyfewa","address":"24429 U.S. HWY 6","geo_precision":"street","state":"OH"},"type":"Feature","geometry":{"type":"Point","coordinates":[-84.401327,41.441942]}},{"properties":{"city":"Archbold","zip":"43502","geo_score":1.0,"id":"abo410rj4ihb","address":"308 Meadow Rd.","geo_precision":"range","state":"OH"},"type":"Feature","geometry":{"type":"Point","coordinates":[-84.297162,41.525382]}},{"properties":{"city":"Defiance","zip":"43512","geo_score":1.0,"id":"abo410vtv5ln","address":"02610 Harper Rd.","geo_precision":"range","state":"OH"},"type":"Feature","geometry":{"type":"Point","coordinates":[-84.285899,41.403221]}},{"properties":{"city":"Defiance","zip":"43512","geo_score":1.0,"id":"abo410kbw4vm","address":"01827 Adams Ridge Rd.","geo_precision":"range","state":"OH"},"type":"Feature","geometry":{"type":"Point","coordinates":[-84.261739,41.415718]}},{"properties":{"city":"Archbold","zip":"43502","geo_score":1.0,"id":"abo410n6ws8t","address":"501 Murbach St.","geo_precision":"range","state":"OH"},"type":"Feature","geometry":{"type":"Point","coordinates":[-84.300969,41.52443]}},{"properties":{"city":"Archbold","zip":"43502","geo_score":1.0,"id":"abo410qsl8dz","address":"204 Lafayette St","geo_precision":"range","state":"OH"},"type":"Feature","geometry":{"type":"Point","coordinates":[-84.308372,41.514257]}},{"properties":{"city":"Ridgeville Corners","zip":"43502","geo_score":0.585,"id":"abo410w5bun8","address":"20281","geo_precision":"zip","state":"OH"},"type":"Feature","geometry":{"type":"Point","coordinates":[-84.308283,41.579218]}},{"properties":{"city":"Archbold","zip":"43502","geo_score":0.625,"id":"abo410oi8c58","address":"400 Stamm St. Apt-4","geo_precision":"street","state":"OH"},"type":"Feature","geometry":{"type":"Point","coordinates":[-84.308832,41.525693]}},{"properties":{"city":"Defiance","zip":"43512","geo_score":1.0,"id":"abo410rezxsk","address":"1650 Adams Ridge Rd.","geo_precision":"range","state":"OH"},"type":"Feature","geometry":{"type":"Point","coordinates":[-84.262057,41.41931]}},{"properties":{"city":"Archbold","zip":"43502","geo_score":0.585,"id":"abo410lopbjz","address":"311 Buckeye St.","geo_precision":"zip","state":"OH"},"type":"Feature","geometry":{"type":"Point","coordinates":[-84.308283,41.579218]}},{"properties":{"city":"Archbold","zip":"43502","geo_score":0.955,"id":"abo410ibl4ni","address":"112 Pleasant St.","geo_precision":"range","state":"OH"},"type":"Feature","geometry":{"type":"Point","coordinates":[-84.307469,41.520221]}},{"properties":{"city":"Archbold","zip":"43502","geo_score":1.0,"id":"abo410iqkqlz","address":"106 W Lutz Rd","geo_precision":"range","state":"OH"},"type":"Feature","geometry":{"type":"Point","coordinates":[-84.306911,41.528851]}},{"properties":{"city":"Archbold","zip":"43502","geo_score":0.607,"id":"abo410i9k4jd","address":"802 W. Holland St.","geo_precision":"street","state":"OH"},"type":"Feature","geometry":{"type":"Point","coordinates":[-84.308221,41.522714]}},{"properties":{"city":"Archbold","zip":"43502","geo_score":1.0,"id":"abo410rzxjiz","address":"301 Park St.","geo_precision":"range","state":"OH"},"type":"Feature","geometry":{"type":"Point","coordinates":[-84.308739,41.518997]}},{"properties":{"city":"Archbold","zip":"43502","geo_score":1.0,"id":"abo410wlir3b","address":"424 Vine St.","geo_precision":"range","state":"OH"},"type":"Feature","geometry":{"type":"Point","coordinates":[-84.305019,41.526703]}},{"properties":{"city":"Napoleon","zip":"43545","geo_score":0.513,"id":"abo410scqboj","address":"S707 C.R. 22A","geo_precision":"street","state":"OH"},"type":"Feature","geometry":{"type":"Point","coordinates":[-84.112078,41.413635]}},{"properties":{"city":"Archbold","zip":"43502","geo_score":1.0,"id":"abo410oca7mb","address":"200 Dogwood Ct.","geo_precision":"range","state":"OH"},"type":"Feature","geometry":{"type":"Point","coordinates":[-84.299599,41.499344]}},{"properties":{"city":"Ridgeville Corners","zip":"43555","geo_score":0.429,"id":"abo410st0ukx","address":"S588 Rd 20A","geo_precision":"street","state":"OH"},"type":"Feature","geometry":{"type":"Point","coordinates":[-84.257451,41.438406]}},{"properties":{"city":"Archbold","zip":"43502","geo_score":1.0,"id":"abo410uu2akg","address":"217 Meadow Rd","geo_precision":"range","state":"OH"},"type":"Feature","geometry":{"type":"Point","coordinates":[-84.297254,41.52422]}},{"properties":{"city":"Atchbold","zip":"43502","geo_score":0.988,"id":"abo410jijkt7","address":"113 Charles St","geo_precision":"range","state":"OH"},"type":"Feature","geometry":{"type":"Point","coordinates":[-84.307508,41.529645]}},{"properties":{"city":"Archbold","zip":"43502","geo_score":1.0,"id":"abo410v9xi69","address":"121 Dogwood Ct.","geo_precision":"range","state":"OH"},"type":"Feature","geometry":{"type":"Point","coordinates":[-84.299671,41.499041]}},{"properties":{"city":"Archbold","zip":"43502","geo_score":0.951,"id":"abo410j4kqd2","address":"325 Promerose Ln.","geo_precision":"range","state":"OH"},"type":"Feature","geometry":{"type":"Point","coordinates":[-84.311352,41.529838]}},{"properties":{"city":"Archbold","zip":"43502","geo_score":0.607,"id":"abo410ufnii8","address":"105 E. Holland","geo_precision":"street","state":"OH"},"type":"Feature","geometry":{"type":"Point","coordinates":[-84.306263,41.522763]}},{"properties":{"city":"Napoleon","zip":"43545","geo_score":0.513,"id":"abo410s7r9aa","address":"01138 C.R. 19","geo_precision":"street","state":"OH"},"type":"Feature","geometry":{"type":"Point","coordinates":[-84.112078,41.413635]}},{"properties":{"city":"Archbold","zip":"43502","geo_score":1.0,"id":"abo410ica93b","address":"204 Dogwood Ct.","geo_precision":"range","state":"OH"},"type":"Feature","geometry":{"type":"Point","coordinates":[-84.299523,41.499147]}},{"properties":{"city":"Napoleon","zip":"43545","geo_score":0.902,"id":"abo410g80tub","address":"21815 St Rt 34","geo_precision":"range","state":"OH"},"type":"Feature","geometry":{"type":"Point","coordinates":[-84.280537,41.444344]}},{"properties":{"city":"Defiance","zip":"43512","geo_score":0.989,"id":"abo410hww94d","address":"27360 Brandt Rd.","geo_precision":"range","state":"OH"},"type":"Feature","geometry":{"type":"Point","coordinates":[-84.292942,41.420411]}},{"properties":{"city":"Archbold","zip":"43502","geo_score":1.0,"id":"abo4110yvxcn","address":"241 Westfield Dr.","geo_precision":"range","state":"OH"},"type":"Feature","geometry":{"type":"Point","coordinates":[-84.324156,41.524635]}},{"properties":{"city":"Ridgeville Corners","zip":"43555","geo_score":0.625,"id":"abo4110kivqp","address":"22809 U.S. HWY 6","geo_precision":"street","state":"OH"},"type":"Feature","geometry":{"type":"Point","coordinates":[-84.24779,41.436417]}},{"properties":{"city":"Archbold","zip":"43502","geo_score":0.607,"id":"abo410zfpgaq","address":"325 W. Holland St.","geo_precision":"street","state":"OH"},"type":"Feature","geometry":{"type":"Point","coordinates":[-84.308221,41.522714]}},{"properties":{"city":"Ridgeville Corners","zip":"43555","geo_score":1.0,"id":"abo410zs5s95","address":"304 Walnut St","geo_precision":"range","state":"OH"},"type":"Feature","geometry":{"type":"Point","coordinates":[-84.255331,41.438509]}},{"properties":{"city":"Archbold","zip":"43502","geo_score":1.0,"id":"abo410zjkyba","address":"20 Monterey Ct.","geo_precision":"range","state":"OH"},"type":"Feature","geometry":{"type":"Point","coordinates":[-84.318577,41.524133]}},{"properties":{"city":"Archbold","zip":"43502","geo_score":0.973,"id":"abo4117fnnw2","address":"212 Douglass Dr.","geo_precision":"range","state":"OH"},"type":"Feature","geometry":{"type":"Point","coordinates":[-84.31727,41.523537]}},{"properties":{"city":"Arcbold","zip":"43502","geo_score":0.587,"id":"abo4112lxe1g","address":"205 S. Defiance St.","geo_precision":"street","state":"OH"},"type":"Feature","geometry":{"type":"Point","coordinates":[-84.414354,41.503972]}},{"properties":{"city":"Ridgeville Corners","zip":"43545","geo_score":0.924,"id":"abo411759yz9","address":"18438 US HWY 6","geo_precision":"range","state":"OH"},"type":"Feature","geometry":{"type":"Point","coordinates":[-84.220455,41.431973]}},{"properties":{"city":"Archbold","zip":"43502","geo_score":1.0,"id":"abo41106jfi7","address":"500 W Barre Rd.","geo_precision":"range","state":"OH"},"type":"Feature","geometry":{"type":"Point","coordinates":[-84.30142,41.514266]}},{"properties":{"city":"Archbold","zip":"43502","geo_score":1.0,"id":"abo4116p5fvk","address":"612 Murbach St","geo_precision":"range","state":"OH"},"type":"Feature","geometry":{"type":"Point","coordinates":[-84.300203,41.52458]}},{"properties":{"city":"Archbold","zip":"43502","geo_score":1.0,"id":"abo4116puwtv","address":"212 Meadow Rd.","geo_precision":"range","state":"OH"},"type":"Feature","geometry":{"type":"Point","coordinates":[-84.297104,41.524289]}},{"properties":{"city":"Archbold","zip":"43502","geo_score":1.0,"id":"abo411cdqr8j","address":"112 Flory Ln","geo_precision":"range","state":"OH"},"type":"Feature","geometry":{"type":"Point","coordinates":[-84.306677,41.533662]}},{"properties":{"city":"Ridgeville Corners","zip":"43555","geo_score":0.429,"id":"abo4110o8raa","address":"S732 Rd 20B","geo_precision":"street","state":"OH"},"type":"Feature","geometry":{"type":"Point","coordinates":[-84.257451,41.438406]}},{"properties":{"city":"Ridgeville Corners","zip":"43555","geo_score":0.429,"id":"abo410z10vwi","address":"S732 Rd 20B","geo_precision":"street","state":"OH"},"type":"Feature","geometry":{"type":"Point","coordinates":[-84.257451,41.438406]}},{"properties":{"city":"Ridgeville Corners","zip":"43555","geo_score":0.429,"id":"abo4117fe3xq","address":"S732 Rd 20B","geo_precision":"street","state":"OH"},"type":"Feature","geometry":{"type":"Point","coordinates":[-84.257451,41.438406]}},{"properties":{"city":"Ridgeville Corners","zip":"43555","geo_score":0.429,"id":"abo411860kwe","address":"S732 Rd 20B","geo_precision":"street","state":"OH"},"type":"Feature","geometry":{"type":"Point","coordinates":[-84.257451,41.438406]}},{"properties":{"city":"RIDGEVILLE CORNERS","zip":"43555","geo_score":0.429,"id":"abo410yycsot","address":"S732 COUNTY ROAD 20B","geo_precision":"street","state":"OH"},"type":"Feature","geometry":{"type":"Point","coordinates":[-84.257451,41.438406]}},{"properties":{"city":"RIDGEVILLE CORNERS","zip":"43555","geo_score":0.429,"id":"abo4118a4mvy","address":"S732 COUNTY ROAD 20B","geo_precision":"street","state":"OH"},"type":"Feature","geometry":{"type":"Point","coordinates":[-84.257451,41.438406]}},{"properties":{"city":"Ridgeville Corners","zip":"43555","geo_score":0.429,"id":"abo41173y3br","address":"S732 Rd 20B","geo_precision":"street","state":"OH"},"type":"Feature","geometry":{"type":"Point","coordinates":[-84.257451,41.438406]}},{"properties":{"city":"Ridgeville Corners","zip":"43555","geo_score":0.429,"id":"abo4115czs5n","address":"S732 Rd 20B","geo_precision":"street","state":"OH"},"type":"Feature","geometry":{"type":"Point","coordinates":[-84.257451,41.438406]}},{"properties":{"city":"Ridgeville Corners","zip":"43555","geo_score":0.429,"id":"abo4110e993r","address":"S732 Rd 20B","geo_precision":"street","state":"OH"},"type":"Feature","geometry":{"type":"Point","coordinates":[-84.257451,41.438406]}},{"properties":{"city":"Ridgeville Corners","zip":"43555","geo_score":0.429,"id":"abo4117wwgs4","address":"S732 Rd 20B","geo_precision":"street","state":"OH"},"type":"Feature","geometry":{"type":"Point","coordinates":[-84.257451,41.438406]}},{"properties":{"city":"Ridgeville Corners","zip":"43555","geo_score":0.429,"id":"abo4113k6v9s","address":"S732 Rd 20B","geo_precision":"street","state":"OH"},"type":"Feature","geometry":{"type":"Point","coordinates":[-84.257451,41.438406]}},{"properties":{"city":"Archbold","zip":"43502","geo_score":1.0,"id":"abo4113wsd1c","address":"102 Park St.","geo_precision":"range","state":"OH"},"type":"Feature","geometry":{"type":"Point","coordinates":[-84.307574,41.518997]}},{"properties":{"city":"Archbold","zip":"43502","geo_score":0.955,"id":"abo41158isdv","address":"211 Williams St.","geo_precision":"range","state":"OH"},"type":"Feature","geometry":{"type":"Point","coordinates":[-84.303883,41.523527]}},{"properties":{"city":"Archbold","zip":"43502","geo_score":0.633,"id":"abo411bxodoq","address":"19447 C.R. X","geo_precision":"street","state":"OH"},"type":"Feature","geometry":{"type":"Point","coordinates":[-84.211677,41.474118]}},{"properties":{"city":"Archbold","zip":"43502","geo_score":0.955,"id":"abo4111na0rt","address":"405 Pleasant St.","geo_precision":"range","state":"OH"},"type":"Feature","geometry":{"type":"Point","coordinates":[-84.307646,41.516083]}},{"properties":{"city":"Archbold","zip":"43502","geo_score":1.0,"id":"abo4111ovo9i","address":"108 Charles St.","geo_precision":"range","state":"OH"},"type":"Feature","geometry":{"type":"Point","coordinates":[-84.30767,41.529795]}},{"properties":{"city":"Archbold","zip":"43502","geo_score":0.571,"id":"abo411cekr2j","address":"203 W. Lugbill Rd.","geo_precision":"street","state":"OH"},"type":"Feature","geometry":{"type":"Point","coordinates":[-84.307142,41.509671]}},{"properties":{"city":"Archbold","zip":"43502","geo_score":0.614,"id":"abo411cpiaoo","address":"700 W Barre Rd. APT-1","geo_precision":"street","state":"OH"},"type":"Feature","geometry":{"type":"Point","coordinates":[-84.303885,41.514269]}},{"properties":{"city":"Archbold","zip":"43502","geo_score":1.0,"id":"abo411bs8exs","address":"901 Olds LN","geo_precision":"range","state":"OH"},"type":"Feature","geometry":{"type":"Point","coordinates":[-84.308836,41.531973]}},{"properties":{"city":"Archbold","zip":"43502","geo_score":1.0,"id":"abo41140p1oi","address":"302 Vine St.","geo_precision":"range","state":"OH"},"type":"Feature","geometry":{"type":"Point","coordinates":[-84.304958,41.524505]}},{"properties":{"city":"Archbold, Oh.","zip":"43502","geo_score":0.962,"id":"abo411a6mkfv","address":"17 Monterey Ct.","geo_precision":"range","state":"OH"},"type":"Feature","geometry":{"type":"Point","coordinates":[-84.318377,41.524132]}},{"properties":{"city":"Archbold","zip":"43502","geo_score":1.0,"id":"abo41195b945","address":"308 North Pointe drive","geo_precision":"range","state":"OH"},"type":"Feature","geometry":{"type":"Point","coordinates":[-84.31014,41.533965]}},{"properties":{"city":"Archbold","zip":"43502","geo_score":1.0,"id":"abo411454iwv","address":"405 Quail Run","geo_precision":"range","state":"OH"},"type":"Feature","geometry":{"type":"Point","coordinates":[-84.311299,41.53536]}},{"properties":{"city":"Archbold","zip":"43502","geo_score":0.633,"id":"abo41152p2ba","address":"18742 C.R. X","geo_precision":"street","state":"OH"},"type":"Feature","geometry":{"type":"Point","coordinates":[-84.211677,41.474118]}},{"properties":{"city":"Archbold","zip":"43502","geo_score":1.0,"id":"abo4117ghkq3","address":"105 Dogwood Ct.","geo_precision":"range","state":"OH"},"type":"Feature","geometry":{"type":"Point","coordinates":[-84.299674,41.499283]}},{"properties":{"city":"Ridgeville Corners","zip":"43555","geo_score":0.625,"id":"abo4111w8t4h","address":"20165 U.S. HWY 6","geo_precision":"street","state":"OH"},"type":"Feature","geometry":{"type":"Point","coordinates":[-84.24779,41.436417]}},{"properties":{"city":"Archbold","zip":"43502","geo_score":0.951,"id":"abo4118fjuah","address":"1306 S Buehrer Rd.","geo_precision":"range","state":"OH"},"type":"Feature","geometry":{"type":"Point","coordinates":[-84.308616,41.508255]}},{"properties":{"city":"Archbold","zip":"43502","geo_score":0.619,"id":"abo410xo9j98","address":"204 W. Lutz Rd.","geo_precision":"street","state":"OH"},"type":"Feature","geometry":{"type":"Point","coordinates":[-84.306969,41.528776]}},{"properties":{"city":"Archbold","zip":"43502","geo_score":0.809,"id":"abo4111fn9dz","address":"560 Stamm St.","geo_precision":"street","state":"OH"},"type":"Feature","geometry":{"type":"Point","coordinates":[-84.308833,41.527387]}},{"properties":{"city":"Ridgeville Corners","zip":"43555","geo_score":0.429,"id":"abo410ywfqa4","address":"S732 Rd 20B","geo_precision":"street","state":"OH"},"type":"Feature","geometry":{"type":"Point","coordinates":[-84.257451,41.438406]}},{"properties":{"city":"Archbold","zip":"43502","geo_score":1.0,"id":"abo4119p6wr6","address":"113 Pheasant Ln.","geo_precision":"range","state":"OH"},"type":"Feature","geometry":{"type":"Point","coordinates":[-84.312831,41.535422]}},{"properties":{"city":"Ridgeville Corners","zip":"43555","geo_score":0.902,"id":"abo4112tvzrt","address":"332 Walnut","geo_precision":"range","state":"OH"},"type":"Feature","geometry":{"type":"Point","coordinates":[-84.255468,41.438458]}},{"properties":{"city":"Archbold","zip":"43502","geo_score":0.585,"id":"abo410xxewij","address":"816 West St Apt-7","geo_precision":"zip","state":"OH"},"type":"Feature","geometry":{"type":"Point","coordinates":[-84.308283,41.579218]}},{"properties":{"city":"Archbold","zip":"43502","geo_score":1.0,"id":"abo411d0xcwq","address":"505 Stryker St.","geo_precision":"range","state":"OH"},"type":"Feature","geometry":{"type":"Point","coordinates":[-84.314679,41.521455]}},{"properties":{"city":"Archbold","zip":"43502","geo_score":0.607,"id":"abo410ztim3x","address":"200 S. Lincoln St.","geo_precision":"street","state":"OH"},"type":"Feature","geometry":{"type":"Point","coordinates":[-84.3014,41.517831]}},{"properties":{"city":"Archbold","zip":"43502","geo_score":1.0,"id":"abo4119mis4y","address":"203 Murbach St.","geo_precision":"range","state":"OH"},"type":"Feature","geometry":{"type":"Point","coordinates":[-84.305015,41.524447]}},{"properties":{"city":"Napoleon","zip":"43545","geo_score":0.633,"id":"abo411abv1rs","address":"18227 C.R. R1","geo_precision":"street","state":"OH"},"type":"Feature","geometry":{"type":"Point","coordinates":[-84.113429,41.41362]}},{"properties":{"city":"Archbold","zip":"43502","geo_score":0.633,"id":"abo4110clnw0","address":"U587 Rd 21","geo_precision":"street","state":"OH"},"type":"Feature","geometry":{"type":"Point","coordinates":[-84.233933,41.456885]}},{"properties":{"city":"Archbold","zip":"43502","geo_score":0.92,"id":"abo41115bnb3","address":"120 Sylvanus","geo_precision":"range","state":"OH"},"type":"Feature","geometry":{"type":"Point","coordinates":[-84.312073,41.508518]}},{"properties":{"city":"Archbold","zip":"43502","geo_score":1.0,"id":"abo411amsr9w","address":"100 Charles St.","geo_precision":"range","state":"OH"},"type":"Feature","geometry":{"type":"Point","coordinates":[-84.308646,41.52972]}},{"properties":{"city":"Archbold","zip":"43502","geo_score":0.935,"id":"abo4112zweki","address":"100 West Park Place","geo_precision":"range","state":"OH"},"type":"Feature","geometry":{"type":"Point","coordinates":[-84.318247,41.522033]}},{"properties":{"city":"Archbold","zip":"43502","geo_score":0.512,"id":"abo411apgioo","address":"S986 C.R. 20B","geo_precision":"street","state":"OH"},"type":"Feature","geometry":{"type":"Point","coordinates":[-84.229197,41.514421]}},{"properties":{"city":"Archbold","zip":"43502","geo_score":1.0,"id":"abo4116l5chl","address":"412 Vine St.","geo_precision":"range","state":"OH"},"type":"Feature","geometry":{"type":"Point","coordinates":[-84.305017,41.527056]}},{"properties":{"city":"Archbold","zip":"43502","geo_score":1.0,"id":"abo410y8vjac","address":"308 Middle St.","geo_precision":"range","state":"OH"},"type":"Feature","geometry":{"type":"Point","coordinates":[-84.302583,41.518907]}},{"properties":{"city":"Archbold","zip":"43502","geo_score":1.0,"id":"abo411bb4pk5","address":"412 Ditto St.","geo_precision":"range","state":"OH"},"type":"Feature","geometry":{"type":"Point","coordinates":[-84.307529,41.527113]}},{"properties":{"city":"Archbold","zip":"43502","geo_score":0.92,"id":"abo4116h3vxt","address":"328 North Pointe","geo_precision":"range","state":"OH"},"type":"Feature","geometry":{"type":"Point","coordinates":[-84.310135,41.533755]}},{"properties":{"city":"Ridgeville Corners","zip":"43555","geo_score":0.902,"id":"abo4112ruy1j","address":"674 Fauver","geo_precision":"range","state":"OH"},"type":"Feature","geometry":{"type":"Point","coordinates":[-84.253198,41.438075]}},{"properties":{"city":"Archbold","zip":"43502","geo_score":1.0,"id":"abo410xnyvgr","address":"510 Ditto St.","geo_precision":"range","state":"OH"},"type":"Feature","geometry":{"type":"Point","coordinates":[-84.30751,41.528633]}}],"is_temporal":false,"author":{"url":"","metadata":null,"contact_name":null,"contact_address":null,"source":null,"contact_phone":null},"source":"","pagination":{"sort":null,"start":0,"total":155,"limit":1000000},"state":"complete","tags":"","published":"2014-08-16T18:22:15-04:00","id":313772}