{"type":"FeatureCollection","data_type":"Dataset","url_type":null,"permissions":[{"permissions":{"download":true,"view":true},"group_id":"everyone"}],"classification":null,"title":"Copy_of_IPTV-Kalida-Jan-16-2013_-_CSV","count":178,"stream_id":313766,"contributor":{"url":"http://geocommons.com/users/59404","name":"KatieEtgen"},"data_attributes":null,"calculation_params":null,"icon_link":null,"link":"http://geocommons.com/overlays/313766.json","extent":[-84.3019,40.8826,-84.1462,41.0412],"geometry_types":["point"],"unique_name":null,"name":"Copy_of_IPTV-Kalida-Jan-16-2013_-_CSV","feature_count":178,"description":"","next_feature":null,"is_raster":false,"short_classification":"Y","stats":{},"features":[{"properties":{"city":"KALIDA","zip":"45853","geo_score":0.941,"id":"abo406kl8a3t","address":"523 E RALPH ST","geo_precision":"range","state":"OH"},"type":"Feature","geometry":{"type":"Point","coordinates":[-84.194129,40.984004]}},{"properties":{"city":"KALIDA","zip":"45853","geo_score":0.837,"id":"abo40669a3xl","address":"209 E MAIN ST","geo_precision":"street","state":"OH"},"type":"Feature","geometry":{"type":"Point","coordinates":[-84.202792,40.982062]}},{"properties":{"city":"KALIDA","zip":"45853","geo_score":0.854,"id":"abo406dc6emm","address":"103 S SECOND ST","geo_precision":"range","state":"OH"},"type":"Feature","geometry":{"type":"Point","coordinates":[-84.20223,40.983859]}},{"properties":{"city":"KALIDA","zip":"45853","geo_score":1.0,"id":"abo4068rw43i","address":"535 RALPH ST","geo_precision":"range","state":"OH"},"type":"Feature","geometry":{"type":"Point","coordinates":[-84.194095,40.983973]}},{"properties":{"city":"KALIDA","zip":"45853","geo_score":0.614,"id":"abo406k69zg2","address":"408 W. NORTH ST","geo_precision":"street","state":"OH"},"type":"Feature","geometry":{"type":"Point","coordinates":[-84.202995,40.984756]}},{"properties":{"city":"KALIDA","zip":"45853","geo_score":0.837,"id":"abo406d9t9ll","address":"309 LOCUST DR","geo_precision":"range","state":"OH"},"type":"Feature","geometry":{"type":"Point","coordinates":[-84.198868,40.989246]}},{"properties":{"city":"KALIDA","zip":"45853","geo_score":0.902,"id":"abo406cp38yi","address":"414 OTTAWA ST","geo_precision":"range","state":"OH"},"type":"Feature","geometry":{"type":"Point","coordinates":[-84.191168,40.981137]}},{"properties":{"city":"OTTAWA","zip":"45875","geo_score":0.842,"id":"abo406dhs3q3","address":"12194 SR 115","geo_precision":"range","state":"OH"},"type":"Feature","geometry":{"type":"Point","coordinates":[-84.19794,41.003201]}},{"properties":{"city":"KALIDA","zip":"45853","geo_score":0.941,"id":"abo406ev3n5x","address":"110 N BROAD ST","geo_precision":"range","state":"OH"},"type":"Feature","geometry":{"type":"Point","coordinates":[-84.199344,40.983473]}},{"properties":{"city":"KALIDA","zip":"45853","geo_score":1.0,"id":"abo4066usnhz","address":"527 RALPH ST","geo_precision":"range","state":"OH"},"type":"Feature","geometry":{"type":"Point","coordinates":[-84.194118,40.983994]}},{"properties":{"city":"KALIDA","zip":"45853","geo_score":0.935,"id":"abo40651df4p","address":"108 E PLUM ST","geo_precision":"range","state":"OH"},"type":"Feature","geometry":{"type":"Point","coordinates":[-84.200967,40.982037]}},{"properties":{"city":"KALIDA","zip":"45853","geo_score":0.829,"id":"abo406cek99x","address":"312 N 6TH ST","geo_precision":"range","state":"OH"},"type":"Feature","geometry":{"type":"Point","coordinates":[-84.194432,40.983211]}},{"properties":{"city":"KALIDA","zip":"45853","geo_score":1.0,"id":"abo4069epf8f","address":"414 VEACH ST","geo_precision":"range","state":"OH"},"type":"Feature","geometry":{"type":"Point","coordinates":[-84.195313,40.982431]}},{"properties":{"city":"KALIDA","zip":"45853","geo_score":0.742,"id":"abo406jryinx","address":"513 W PLUM ST","geo_precision":"street","state":"OH"},"type":"Feature","geometry":{"type":"Point","coordinates":[-84.203824,40.984049]}},{"properties":{"city":"KALIDA","zip":"45853","geo_score":1.0,"id":"abo4068v1501","address":"311 DRAY ST","geo_precision":"range","state":"OH"},"type":"Feature","geometry":{"type":"Point","coordinates":[-84.193776,40.982778]}},{"properties":{"city":"KALIDA","zip":"45853","geo_score":0.902,"id":"abo4066wb7lj","address":"225 EASTOWN RD","geo_precision":"range","state":"OH"},"type":"Feature","geometry":{"type":"Point","coordinates":[-84.183458,40.981111]}},{"properties":{"city":"KALIDA","zip":"45853","geo_score":0.921,"id":"abo406appnm0","address":"313 EAST MAIN ST","geo_precision":"range","state":"OH"},"type":"Feature","geometry":{"type":"Point","coordinates":[-84.204662,40.983208]}},{"properties":{"city":"KALIDA","zip":"45853","geo_score":1.0,"id":"abo4066mefqa","address":"531 RALPH ST","geo_precision":"range","state":"OH"},"type":"Feature","geometry":{"type":"Point","coordinates":[-84.194106,40.983984]}},{"properties":{"city":"OTTAWA","zip":"45875","geo_score":1.0,"id":"abo406airr9i","address":"17452 FAIRWAY DRIVE","geo_precision":"range","state":"OH"},"type":"Feature","geometry":{"type":"Point","coordinates":[-84.197602,41.028679]}},{"properties":{"city":"OTTAWA","zip":"45875","geo_score":1.0,"id":"abo40690o0o4","address":"15898 RD M","geo_precision":"range","state":"OH"},"type":"Feature","geometry":{"type":"Point","coordinates":[-84.169394,40.991701]}},{"properties":{"city":"COLUMBUS GROVE","zip":"45827","geo_score":0.805,"id":"abo4067eovz8","address":"14840 RD 15-M","geo_precision":"range","state":"OH"},"type":"Feature","geometry":{"type":"Point","coordinates":[-84.159183,40.964334]}},{"properties":{"city":"KALIDA","zip":"45853","geo_score":1.0,"id":"abo4067lggx6","address":"302 LOCUST ST","geo_precision":"range","state":"OH"},"type":"Feature","geometry":{"type":"Point","coordinates":[-84.199521,40.989398]}},{"properties":{"city":"CLOVERDALE","zip":"45827","geo_score":0.949,"id":"abo4065lag92","address":"13730 RD 22-K","geo_precision":"range","state":"OH"},"type":"Feature","geometry":{"type":"Point","coordinates":[-84.254567,40.98004]}},{"properties":{"city":"COLUMBUS GROVE","zip":"45830","geo_score":0.836,"id":"abo406ewsshr","address":"15902 SR 115","geo_precision":"range","state":"OH"},"type":"Feature","geometry":{"type":"Point","coordinates":[-84.164891,40.949015]}},{"properties":{"city":"KALIDA","zip":"45853","geo_score":0.902,"id":"abo4067yleyu","address":"510 RALPH ST","geo_precision":"street","state":"OH"},"type":"Feature","geometry":{"type":"Point","coordinates":[-84.192138,40.982198]}},{"properties":{"city":"OTTAWA","zip":"45875","geo_score":0.986,"id":"abo406du6llk","address":"17470 FAIRWAY DR","geo_precision":"range","state":"OH"},"type":"Feature","geometry":{"type":"Point","coordinates":[-84.197585,41.028678]}},{"properties":{"city":"KALIDA","zip":"45853","geo_score":0.941,"id":"abo4065t1cbf","address":"404 N BROAD ST","geo_precision":"range","state":"OH"},"type":"Feature","geometry":{"type":"Point","coordinates":[-84.197149,40.985302]}},{"properties":{"city":"OTTAWA","zip":"45875","geo_score":0.986,"id":"abo406c8poxn","address":"16221 RD L","geo_precision":"range","state":"OH"},"type":"Feature","geometry":{"type":"Point","coordinates":[-84.173416,41.006212]}},{"properties":{"city":"KALIDA","zip":"45853","geo_score":0.66,"id":"abo4064p2ser","address":"115 N THIRD ST","geo_precision":"street","state":"OH"},"type":"Feature","geometry":{"type":"Point","coordinates":[-84.202792,40.982062]}},{"properties":{"city":"KALIDA","zip":"45853","geo_score":0.683,"id":"abo406afnymu","address":"419 E NORTH ST","geo_precision":"street","state":"OH"},"type":"Feature","geometry":{"type":"Point","coordinates":[-84.202995,40.984756]}},{"properties":{"city":"KALIDA","zip":"45853","geo_score":0.935,"id":"abo40686uf5z","address":"310 E MAIN ST","geo_precision":"range","state":"OH"},"type":"Feature","geometry":{"type":"Point","coordinates":[-84.204187,40.98306]}},{"properties":{"city":"KALIDA","zip":"45853","geo_score":0.805,"id":"abo406guix6y","address":"801 OAK PARKWAY","geo_precision":"range","state":"OH"},"type":"Feature","geometry":{"type":"Point","coordinates":[-84.190564,40.993581]}},{"properties":{"city":"OTTAWA","zip":"45875","geo_score":1.0,"id":"abo406l0qnbq","address":"16040 RD M","geo_precision":"range","state":"OH"},"type":"Feature","geometry":{"type":"Point","coordinates":[-84.172973,40.991689]}},{"properties":{"city":"OTTAWA","zip":"45875","geo_score":0.842,"id":"abo406bo72mz","address":"17013 SR 694","geo_precision":"range","state":"OH"},"type":"Feature","geometry":{"type":"Point","coordinates":[-84.189316,41.027967]}},{"properties":{"city":"FT JENNINGS","zip":"45844","geo_score":0.871,"id":"abo406jdd17h","address":"14260 RD 17-N","geo_precision":"range","state":"OH"},"type":"Feature","geometry":{"type":"Point","coordinates":[-84.199215,40.974292]}},{"properties":{"city":"CLOVERDALE","zip":"45827","geo_score":0.842,"id":"abo406ap3snd","address":"18971 SR 114","geo_precision":"range","state":"OH"},"type":"Feature","geometry":{"type":"Point","coordinates":[-84.21409,40.992079]}},{"properties":{"city":"KALIDA","zip":"45853","geo_score":0.82,"id":"abo406fwoi99","address":"114 E WATER ST","geo_precision":"range","state":"OH"},"type":"Feature","geometry":{"type":"Point","coordinates":[-84.2035,40.981099]}},{"properties":{"city":"OTTAWA","zip":"45875","geo_score":0.828,"id":"abo406ivxn8c","address":"17374 SR 694","geo_precision":"range","state":"OH"},"type":"Feature","geometry":{"type":"Point","coordinates":[-84.196402,41.028082]}},{"properties":{"city":"FT JENNINGS","zip":"45844","geo_score":0.977,"id":"abo4067w40zq","address":"15112 RD 19","geo_precision":"range","state":"OH"},"type":"Feature","geometry":{"type":"Point","coordinates":[-84.226144,40.961019]}},{"properties":{"city":"KALIDA","zip":"45853","geo_score":0.854,"id":"abo406cm5n5d","address":"311 S THIRD ST.","geo_precision":"range","state":"OH"},"type":"Feature","geometry":{"type":"Point","coordinates":[-84.202998,40.981705]}},{"properties":{"city":"columbus grove","zip":"45830","geo_score":1.0,"id":"abo406ksh5mg","address":"16890 RD Z","geo_precision":"range","state":"OH"},"type":"Feature","geometry":{"type":"Point","coordinates":[-84.184721,40.972264]}},{"properties":{"city":"OTTAWA","zip":"45875","geo_score":0.585,"id":"abo4067ne7j2","address":"14701 RD K-14","geo_precision":"zip","state":"OH"},"type":"Feature","geometry":{"type":"Point","coordinates":[-84.169112,41.020884]}},{"properties":{"city":"KALIDA","zip":"45853","geo_score":0.805,"id":"abo406jir47t","address":"109 BACON ST","geo_precision":"range","state":"OH"},"type":"Feature","geometry":{"type":"Point","coordinates":[-84.19211,40.990548]}},{"properties":{"city":"KALIDA","zip":"45853","geo_score":0.927,"id":"abo4069fbur4","address":"504 N 5TH ST","geo_precision":"range","state":"OH"},"type":"Feature","geometry":{"type":"Point","coordinates":[-84.194356,40.985008]}},{"properties":{"city":"KALIDA","zip":"45853","geo_score":0.927,"id":"abo406ixn4ty","address":"315 BIRCH DR","geo_precision":"range","state":"OH"},"type":"Feature","geometry":{"type":"Point","coordinates":[-84.198782,40.988239]}},{"properties":{"city":"KALIDA","zip":"45853","geo_score":0.941,"id":"abo4069mesgq","address":"404 N BROAD ST","geo_precision":"range","state":"OH"},"type":"Feature","geometry":{"type":"Point","coordinates":[-84.197149,40.985302]}},{"properties":{"city":"KALIDA","zip":"45853","geo_score":0.935,"id":"abo406dnsb52","address":"424 W MAIN ST","geo_precision":"range","state":"OH"},"type":"Feature","geometry":{"type":"Point","coordinates":[-84.206212,40.984345]}},{"properties":{"city":"COLUMBUS GROVE","zip":"45830","geo_score":0.836,"id":"abo40671n3fs","address":"15860 SR 115","geo_precision":"range","state":"OH"},"type":"Feature","geometry":{"type":"Point","coordinates":[-84.165854,40.949714]}},{"properties":{"city":"KALIDA","zip":"45853","geo_score":0.844,"id":"abo4064n31q1","address":"507 N BROAD ST","geo_precision":"range","state":"OH"},"type":"Feature","geometry":{"type":"Point","coordinates":[-84.197172,40.985386]}},{"properties":{"city":"OTTAWA","zip":"45875","geo_score":0.842,"id":"abo406a9g20a","address":"12238 sr 115","geo_precision":"range","state":"OH"},"type":"Feature","geometry":{"type":"Point","coordinates":[-84.197937,41.002537]}},{"properties":{"city":"FT JENNINGS","zip":"45844","geo_score":0.868,"id":"abo406hlonr7","address":"18371 SR 224","geo_precision":"range","state":"OH"},"type":"Feature","geometry":{"type":"Point","coordinates":[-84.219979,40.96981]}},{"properties":{"city":"FT. JENNINGS","zip":"45844","geo_score":0.977,"id":"abo4065blvmk","address":"18019 RD Q","geo_precision":"range","state":"OH"},"type":"Feature","geometry":{"type":"Point","coordinates":[-84.206928,40.932767]}},{"properties":{"city":"KALIDA","zip":"45853","geo_score":1.0,"id":"abo4069snxnz","address":"104 CARNATION ST","geo_precision":"range","state":"OH"},"type":"Feature","geometry":{"type":"Point","coordinates":[-84.191179,40.985745]}},{"properties":{"city":"KALIDA","zip":"45853","geo_score":0.844,"id":"abo406a5xjh9","address":"409 S BROAD ST","geo_precision":"range","state":"OH"},"type":"Feature","geometry":{"type":"Point","coordinates":[-84.197254,40.985408]}},{"properties":{"city":"KALIDA","zip":"45853","geo_score":0.941,"id":"abo406kyn059","address":"307 E RALPH ST","geo_precision":"range","state":"OH"},"type":"Feature","geometry":{"type":"Point","coordinates":[-84.194747,40.984554]}},{"properties":{"city":"FORT JENNINGS","zip":"45844","geo_score":1.0,"id":"abo406dxvgft","address":"16184 RD 19","geo_precision":"range","state":"OH"},"type":"Feature","geometry":{"type":"Point","coordinates":[-84.225883,40.947419]}},{"properties":{"city":"KALIDA","zip":"45853","geo_score":0.747,"id":"abo406dqomro","address":"404 W NORTH ST","geo_precision":"range","state":"OH"},"type":"Feature","geometry":{"type":"Point","coordinates":[-84.203845,40.985224]}},{"properties":{"city":"KALIDA","zip":"45853","geo_score":0.69,"id":"abo406gydpy4","address":"311 W NORTH ST","geo_precision":"street","state":"OH"},"type":"Feature","geometry":{"type":"Point","coordinates":[-84.204122,40.985505]}},{"properties":{"city":"KALIDA","zip":"45853","geo_score":1.0,"id":"abo4064m53jy","address":"205 CANABERRY DRIVE","geo_precision":"range","state":"OH"},"type":"Feature","geometry":{"type":"Point","coordinates":[-84.199428,40.99037]}},{"properties":{"city":"Kalida","zip":"45853","geo_score":0.935,"id":"abo406cbj48x","address":"121 East Main Street","geo_precision":"range","state":"OH"},"type":"Feature","geometry":{"type":"Point","coordinates":[-84.202792,40.982062]}},{"properties":{"city":"OTTAWA","zip":"45875","geo_score":1.0,"id":"abo406i1vgiu","address":"15873 RD L","geo_precision":"range","state":"OH"},"type":"Feature","geometry":{"type":"Point","coordinates":[-84.16648,41.006211]}},{"properties":{"city":"KALIDA","zip":"45853","geo_score":0.805,"id":"abo406bs1tu0","address":"135 WALNUT DR","geo_precision":"range","state":"OH"},"type":"Feature","geometry":{"type":"Point","coordinates":[-84.195162,40.989708]}},{"properties":{"city":"KALIDA","zip":"45853","geo_score":0.605,"id":"abo406dcbfgb","address":"416 W NORTH ST","geo_precision":"street","state":"OH"},"type":"Feature","geometry":{"type":"Point","coordinates":[-84.202995,40.984756]}},{"properties":{"city":"KALIDA","zip":"45853","geo_score":0.815,"id":"abo406l36x9f","address":"322 N 6TH ST","geo_precision":"range","state":"OH"},"type":"Feature","geometry":{"type":"Point","coordinates":[-84.195449,40.98262]}},{"properties":{"city":"OTTAWA","zip":"45853","geo_score":0.805,"id":"abo4066x9sac","address":"12545 RD 18","geo_precision":"range","state":"OH"},"type":"Feature","geometry":{"type":"Point","coordinates":[-84.207362,40.995345]}},{"properties":{"city":"OTTAWA","zip":"45875","geo_score":1.0,"id":"abo4066p0e9h","address":"17450 FAIRWAY DR","geo_precision":"range","state":"OH"},"type":"Feature","geometry":{"type":"Point","coordinates":[-84.197604,41.028679]}},{"properties":{"city":"FORT JENNINGS","zip":"45844","geo_score":1.0,"id":"abo406bzin1g","address":"16766 RD 18","geo_precision":"range","state":"OH"},"type":"Feature","geometry":{"type":"Point","coordinates":[-84.206651,40.933042]}},{"properties":{"city":"KALIDA","zip":"45853","geo_score":0.927,"id":"abo40674rbg2","address":"601 N SIXTH ST","geo_precision":"range","state":"OH"},"type":"Feature","geometry":{"type":"Point","coordinates":[-84.193618,40.983984]}},{"properties":{"city":"COLUMBUS GROVE","zip":"45830","geo_score":0.836,"id":"abo406huw360","address":"15918 SR 115","geo_precision":"range","state":"OH"},"type":"Feature","geometry":{"type":"Point","coordinates":[-84.164583,40.94875]}},{"properties":{"city":"KALIDA","zip":"45853","geo_score":0.941,"id":"abo4068lygfl","address":"210 E PRICE ST","geo_precision":"range","state":"OH"},"type":"Feature","geometry":{"type":"Point","coordinates":[-84.198336,40.982791]}},{"properties":{"city":"KALIDA","zip":"45853","geo_score":0.935,"id":"abo406bxepx1","address":"309 E MAIN ST","geo_precision":"range","state":"OH"},"type":"Feature","geometry":{"type":"Point","coordinates":[-84.204708,40.983232]}},{"properties":{"city":"KALIDA","zip":"45853","geo_score":0.805,"id":"abo406ddxjol","address":"165 WALNUT DR","geo_precision":"range","state":"OH"},"type":"Feature","geometry":{"type":"Point","coordinates":[-84.192634,40.989704]}},{"properties":{"city":"KALIDA","zip":"45853","geo_score":0.935,"id":"abo4068o345q","address":"203 W PLUM ST","geo_precision":"range","state":"OH"},"type":"Feature","geometry":{"type":"Point","coordinates":[-84.202899,40.98341]}},{"properties":{"city":"OTTAWA","zip":"45875","geo_score":0.91,"id":"abo406kthx5w","address":"17141 ST RT 694","geo_precision":"range","state":"OH"},"type":"Feature","geometry":{"type":"Point","coordinates":[-84.191936,41.027954]}},{"properties":{"city":"KALIDA","zip":"45853","geo_score":0.569,"id":"abo406emjxmo","address":"410 W NORTHLAND DR","geo_precision":"street","state":"OH"},"type":"Feature","geometry":{"type":"Point","coordinates":[-84.190601,40.991479]}},{"properties":{"city":"FT JENNINGS","zip":"45844","geo_score":0.985,"id":"abo4069kz65s","address":"18271 RD Q","geo_precision":"range","state":"OH"},"type":"Feature","geometry":{"type":"Point","coordinates":[-84.212448,40.932695]}},{"properties":{"city":"KALIDA","zip":"45853","geo_score":0.785,"id":"abo406jtuvjq","address":"413 W NORTH ST","geo_precision":"street","state":"OH"},"type":"Feature","geometry":{"type":"Point","coordinates":[-84.202995,40.984756]}},{"properties":{"city":"CLOVERDALE","zip":"45827","geo_score":0.834,"id":"abo406g0y3ur","address":"19136 SR 114","geo_precision":"range","state":"OH"},"type":"Feature","geometry":{"type":"Point","coordinates":[-84.229851,40.996863]}},{"properties":{"city":"KALIDA","zip":"45853","geo_score":0.878,"id":"abo406khjkms","address":"305 PLUM ST","geo_precision":"street","state":"OH"},"type":"Feature","geometry":{"type":"Point","coordinates":[-84.202899,40.98341]}},{"properties":{"city":"OTTAWA","zip":"45875","geo_score":0.585,"id":"abo4067zas5j","address":"17466 FAIRWAY-C DRIVE","geo_precision":"zip","state":"OH"},"type":"Feature","geometry":{"type":"Point","coordinates":[-84.169112,41.020884]}},{"properties":{"city":"OTTAWA","zip":"45875","geo_score":1.0,"id":"abo406aaneo1","address":"17195 RD L","geo_precision":"range","state":"OH"},"type":"Feature","geometry":{"type":"Point","coordinates":[-84.191971,41.006031]}},{"properties":{"city":"KALIDA","zip":"45853","geo_score":0.69,"id":"abo40678vvtj","address":"17115 SR 224","geo_precision":"street","state":"OH"},"type":"Feature","geometry":{"type":"Point","coordinates":[-84.183458,40.981111]}},{"properties":{"city":"KALIDA","zip":"45853","geo_score":0.854,"id":"abo4067nbksw","address":"411 E NORTH ST","geo_precision":"range","state":"OH"},"type":"Feature","geometry":{"type":"Point","coordinates":[-84.202995,40.984756]}},{"properties":{"city":"FT. JENNINGS","zip":"45844","geo_score":0.977,"id":"abo406db95y1","address":"16596 RD 18","geo_precision":"range","state":"OH"},"type":"Feature","geometry":{"type":"Point","coordinates":[-84.206709,40.938292]}},{"properties":{"city":"KALIDA","zip":"45853","geo_score":0.941,"id":"abo406jpzs5u","address":"209 S BROAD ST","geo_precision":"range","state":"OH"},"type":"Feature","geometry":{"type":"Point","coordinates":[-84.198512,40.984266]}},{"properties":{"city":"KALIDA","zip":"45853","geo_score":0.883,"id":"abo406cb7x2n","address":"411 W NORTH ST","geo_precision":"range","state":"OH"},"type":"Feature","geometry":{"type":"Point","coordinates":[-84.202995,40.984756]}},{"properties":{"city":"KALIDA","zip":"45853","geo_score":0.854,"id":"abo406aph6cy","address":"205 FIFTH ST","geo_precision":"range","state":"OH"},"type":"Feature","geometry":{"type":"Point","coordinates":[-84.19902,40.980766]}},{"properties":{"city":"KALIDA","zip":"45853","geo_score":1.0,"id":"abo406bepn01","address":"507 VEACH ST","geo_precision":"range","state":"OH"},"type":"Feature","geometry":{"type":"Point","coordinates":[-84.192483,40.982211]}},{"properties":{"city":"Kalida","zip":"45853","geo_score":1.0,"id":"abo4065j6u74","address":"418 Ottawa St.","geo_precision":"range","state":"OH"},"type":"Feature","geometry":{"type":"Point","coordinates":[-84.191028,40.981211]}},{"properties":{"city":"KALIDA","zip":"45853","geo_score":0.585,"id":"abo4067irsht","address":"18116 RD M-17","geo_precision":"zip","state":"OH"},"type":"Feature","geometry":{"type":"Point","coordinates":[-84.219208,40.979612]}},{"properties":{"city":"FT JENNINGS","zip":"45844","geo_score":0.977,"id":"abo4068u0n28","address":"15160 RD 18","geo_precision":"range","state":"OH"},"type":"Feature","geometry":{"type":"Point","coordinates":[-84.206967,40.963733]}},{"properties":{"city":"COLUMBUS GROVE","zip":"45830","geo_score":1.0,"id":"abo4067cepxl","address":"16835 RD Z","geo_precision":"range","state":"OH"},"type":"Feature","geometry":{"type":"Point","coordinates":[-84.185431,40.972111]}},{"properties":{"city":"KALIDA","zip":"45853","geo_score":1.0,"id":"abo406k6fl7o","address":"529 RALPH ST","geo_precision":"range","state":"OH"},"type":"Feature","geometry":{"type":"Point","coordinates":[-84.194112,40.983989]}},{"properties":{"city":"KALIDA","zip":"45853","geo_score":0.973,"id":"abo406d1b1re","address":"621 NAPOLEON RD","geo_precision":"range","state":"OH"},"type":"Feature","geometry":{"type":"Point","coordinates":[-84.197841,40.989586]}},{"properties":{"city":"KALIDA","zip":"45853","geo_score":0.651,"id":"abo406g7a46h","address":"619 N BROAD ST","geo_precision":"street","state":"OH"},"type":"Feature","geometry":{"type":"Point","coordinates":[-84.197172,40.985386]}},{"properties":{"city":"COLUMBUS GROVE","zip":"45830","geo_score":0.836,"id":"abo406evqzs8","address":"14643 SR 115","geo_precision":"range","state":"OH"},"type":"Feature","geometry":{"type":"Point","coordinates":[-84.184135,40.964172]}},{"properties":{"city":"KALIDA","zip":"45853","geo_score":0.688,"id":"abo406f7b2ho","address":"17831 US 224","geo_precision":"street","state":"OH"},"type":"Feature","geometry":{"type":"Point","coordinates":[-84.183458,40.981111]}},{"properties":{"city":"KALIDA","zip":"45853","geo_score":0.753,"id":"abo4069ah1oe","address":"861 NAPOLEON DR","geo_precision":"street","state":"OH"},"type":"Feature","geometry":{"type":"Point","coordinates":[-84.197766,40.989607]}},{"properties":{"city":"KALIDA","zip":"45853","geo_score":0.935,"id":"abo406ih4gxd","address":"311 E PLUM ST","geo_precision":"range","state":"OH"},"type":"Feature","geometry":{"type":"Point","coordinates":[-84.203672,40.983837]}},{"properties":{"city":"OTTAWA","zip":"45875","geo_score":0.763,"id":"abo406khzz23","address":"14015 RD 15-M","geo_precision":"street","state":"OH"},"type":"Feature","geometry":{"type":"Point","coordinates":[-84.159729,41.028165]}},{"properties":{"city":"KALIDA","zip":"45853","geo_score":0.913,"id":"abo40699tfnc","address":"609 N FIFTH ST","geo_precision":"range","state":"OH"},"type":"Feature","geometry":{"type":"Point","coordinates":[-84.193275,40.985859]}},{"properties":{"city":"KALIDA","zip":"45853","geo_score":0.902,"id":"abo4068owbel","address":"511 OTTAWA ST","geo_precision":"range","state":"OH"},"type":"Feature","geometry":{"type":"Point","coordinates":[-84.195073,40.981367]}},{"properties":{"city":"COLUMBUS GROVE","zip":"45830","geo_score":0.842,"id":"abo4067b0f45","address":"14487 SR 115","geo_precision":"range","state":"OH"},"type":"Feature","geometry":{"type":"Point","coordinates":[-84.185441,40.967661]}},{"properties":{"city":"OTTAWA","zip":"45875","geo_score":0.842,"id":"abo406k3599d","address":"12758 SR 115","geo_precision":"range","state":"OH"},"type":"Feature","geometry":{"type":"Point","coordinates":[-84.197852,40.994891]}},{"properties":{"city":"KALIDA","zip":"45853","geo_score":0.935,"id":"abo4067tf9ve","address":"310 LOCUST DR","geo_precision":"range","state":"OH"},"type":"Feature","geometry":{"type":"Point","coordinates":[-84.198788,40.989395]}},{"properties":{"city":"KALIDA","zip":"45853","geo_score":0.827,"id":"abo406a8yo4l","address":"719 NAPOLEON RD","geo_precision":"street","state":"OH"},"type":"Feature","geometry":{"type":"Point","coordinates":[-84.197766,40.989607]}},{"properties":{"city":"COLUMBUS GROVE","zip":"45830","geo_score":0.842,"id":"abo40699ey72","address":"15938 SR 115","geo_precision":"range","state":"OH"},"type":"Feature","geometry":{"type":"Point","coordinates":[-84.1643,40.948417]}},{"properties":{"city":"KALIDA","zip":"45853","geo_score":0.941,"id":"abo406kw0jfi","address":"215 N BROAD ST","geo_precision":"range","state":"OH"},"type":"Feature","geometry":{"type":"Point","coordinates":[-84.19935,40.983582]}},{"properties":{"city":"OTTAWA","zip":"45875","geo_score":0.89,"id":"abo406cw9cq9","address":"17432 FAIRWAY DR APT I","geo_precision":"range","state":"OH"},"type":"Feature","geometry":{"type":"Point","coordinates":[-84.197622,41.028679]}},{"properties":{"city":"OTTAWA","zip":"45875","geo_score":0.842,"id":"abo406kxk47x","address":"16961 SR 694","geo_precision":"range","state":"OH"},"type":"Feature","geometry":{"type":"Point","coordinates":[-84.187724,41.027972]}},{"properties":{"city":"KALIDA","zip":"45853","geo_score":0.763,"id":"abo406bqwlq8","address":"136 W NORTHLAND DR","geo_precision":"range","state":"OH"},"type":"Feature","geometry":{"type":"Point","coordinates":[-84.191102,40.991554]}},{"properties":{"city":"KALIDA","zip":"45853","geo_score":0.669,"id":"abo4069q2u5c","address":"511 W PLUM","geo_precision":"street","state":"OH"},"type":"Feature","geometry":{"type":"Point","coordinates":[-84.203824,40.984049]}},{"properties":{"city":"OTTAWA","zip":"45875","geo_score":1.0,"id":"abo406ar2ex3","address":"15845 RD L","geo_precision":"range","state":"OH"},"type":"Feature","geometry":{"type":"Point","coordinates":[-84.166063,41.006217]}},{"properties":{"city":"OTTAWA","zip":"45875","geo_score":1.0,"id":"abo406boyg77","address":"11572 RD 16","geo_precision":"range","state":"OH"},"type":"Feature","geometry":{"type":"Point","coordinates":[-84.169353,41.012369]}},{"properties":{"city":"OTTAWA","zip":"45875","geo_score":0.805,"id":"abo40696n2id","address":"18838 RD L","geo_precision":"street","state":"OH"},"type":"Feature","geometry":{"type":"Point","coordinates":[-84.215655,41.006014]}},{"properties":{"city":"OTTAWA","zip":"45875","geo_score":1.0,"id":"abo406denw7s","address":"16055 RD M","geo_precision":"range","state":"OH"},"type":"Feature","geometry":{"type":"Point","coordinates":[-84.173186,40.991537]}},{"properties":{"city":"FT. JENNINGS","zip":"45844","geo_score":0.763,"id":"abo406dyjpav","address":"18256 SR 224","geo_precision":"street","state":"OH"},"type":"Feature","geometry":{"type":"Point","coordinates":[-84.219315,40.970281]}},{"properties":{"city":"OTTAWA","zip":"45875","geo_score":0.829,"id":"abo406kxur30","address":"10216 RD 17-J","geo_precision":"range","state":"OH"},"type":"Feature","geometry":{"type":"Point","coordinates":[-84.189242,41.032407]}},{"properties":{"city":"OTTAWA","zip":"45875","geo_score":1.0,"id":"abo406aygtuu","address":"11462 RD 16","geo_precision":"range","state":"OH"},"type":"Feature","geometry":{"type":"Point","coordinates":[-84.169373,41.013949]}},{"properties":{"city":"OTTAWA","zip":"45875","geo_score":0.585,"id":"abo406gw9x3r","address":"14779 K-14","geo_precision":"zip","state":"OH"},"type":"Feature","geometry":{"type":"Point","coordinates":[-84.169112,41.020884]}},{"properties":{"city":"OTTAWA","zip":"45875","geo_score":1.0,"id":"abo406kjh6vk","address":"16950 RD M","geo_precision":"range","state":"OH"},"type":"Feature","geometry":{"type":"Point","coordinates":[-84.184558,40.991605]}},{"properties":{"city":"OTTAWA","zip":"45875","geo_score":1.0,"id":"abo406jciiyr","address":"16318 RD M","geo_precision":"range","state":"OH"},"type":"Feature","geometry":{"type":"Point","coordinates":[-84.178433,40.99165]}},{"properties":{"city":"KALIDA","zip":"45853","geo_score":0.902,"id":"abo406ewmvgo","address":"206 6TH ST","geo_precision":"range","state":"OH"},"type":"Feature","geometry":{"type":"Point","coordinates":[-84.19592,40.982081]}},{"properties":{"city":"KALIDA","zip":"45853","geo_score":0.823,"id":"abo406h2dgyq","address":"200 E PLUM ST","geo_precision":"street","state":"OH"},"type":"Feature","geometry":{"type":"Point","coordinates":[-84.200009,40.981494]}},{"properties":{"city":"KALIDA","zip":"45853","geo_score":0.805,"id":"abo406b2m7fi","address":"169 WALNUT DRIVE","geo_precision":"range","state":"OH"},"type":"Feature","geometry":{"type":"Point","coordinates":[-84.192258,40.989699]}},{"properties":{"city":"KALIDA","zip":"45853","geo_score":0.805,"id":"abo406jpblz0","address":"102 BACON ST","geo_precision":"range","state":"OH"},"type":"Feature","geometry":{"type":"Point","coordinates":[-84.191303,40.990694]}},{"properties":{"city":"KALIDA","zip":"45853","geo_score":0.585,"id":"abo4065jht8a","address":"642 HICKORY ST","geo_precision":"zip","state":"OH"},"type":"Feature","geometry":{"type":"Point","coordinates":[-84.219208,40.979612]}},{"properties":{"city":"KALIDA","zip":"45853","geo_score":0.837,"id":"abo4066bqtnq","address":"301 W PLUM ST","geo_precision":"street","state":"OH"},"type":"Feature","geometry":{"type":"Point","coordinates":[-84.201928,40.982782]}},{"properties":{"city":"OTTAWA","zip":"45875","geo_score":0.745,"id":"abo4068yktu3","address":"18006 SR 694","geo_precision":"range","state":"OH"},"type":"Feature","geometry":{"type":"Point","coordinates":[-84.200968,41.028054]}},{"properties":{"city":"OTTAWA","zip":"45875","geo_score":0.585,"id":"abo406879lbw","address":"14857 RD K-14","geo_precision":"zip","state":"OH"},"type":"Feature","geometry":{"type":"Point","coordinates":[-84.169112,41.020884]}},{"properties":{"city":"KALIDA","zip":"45853","geo_score":1.0,"id":"abo406bj67xm","address":"202 RALPH ST","geo_precision":"range","state":"OH"},"type":"Feature","geometry":{"type":"Point","coordinates":[-84.195781,40.985064]}},{"properties":{"city":"OTTAWA","zip":"45875","geo_score":1.0,"id":"abo4066hkygm","address":"16140 RD M","geo_precision":"range","state":"OH"},"type":"Feature","geometry":{"type":"Point","coordinates":[-84.174925,40.991671]}},{"properties":{"city":"KALIDA","zip":"45853","geo_score":1.0,"id":"abo406aab3f1","address":"102 RIVERVIEW DR","geo_precision":"range","state":"OH"},"type":"Feature","geometry":{"type":"Point","coordinates":[-84.20511,40.987427]}},{"properties":{"city":"KALIDA","zip":"45853","geo_score":0.585,"id":"abo406gturc9","address":"607 BUCKEYE DR","geo_precision":"zip","state":"OH"},"type":"Feature","geometry":{"type":"Point","coordinates":[-84.219208,40.979612]}},{"properties":{"city":"KALIDA","zip":"45853","geo_score":0.585,"id":"abo4064tqxo3","address":"661 HICKORY ST","geo_precision":"zip","state":"OH"},"type":"Feature","geometry":{"type":"Point","coordinates":[-84.219208,40.979612]}},{"properties":{"city":"KALIDA","zip":"45853","geo_score":0.805,"id":"abo4069uqt0p","address":"142 WALNUT DRIVE","geo_precision":"range","state":"OH"},"type":"Feature","geometry":{"type":"Point","coordinates":[-84.194385,40.989855]}},{"properties":{"city":"FT JENNINGS","zip":"45844","geo_score":0.706,"id":"abo4065takai","address":"18919 RD N-18","geo_precision":"street","state":"OH"},"type":"Feature","geometry":{"type":"Point","coordinates":[-84.206578,40.932856]}},{"properties":{"city":"KALIDA","zip":"45853","geo_score":0.707,"id":"abo406hiclj2","address":"133 WALNUT","geo_precision":"range","state":"OH"},"type":"Feature","geometry":{"type":"Point","coordinates":[-84.146246,40.882648]}},{"properties":{"city":"KALIDA","zip":"45853","geo_score":0.927,"id":"abo40699zjzz","address":"503 N 6TH ST","geo_precision":"range","state":"OH"},"type":"Feature","geometry":{"type":"Point","coordinates":[-84.190253,40.984853]}},{"properties":{"city":"KALIDA","zip":"45853","geo_score":1.0,"id":"abo406k6978m","address":"410 OTTAWA ST","geo_precision":"range","state":"OH"},"type":"Feature","geometry":{"type":"Point","coordinates":[-84.191182,40.981138]}},{"properties":{"city":"CLOVERDALE","zip":"45827","geo_score":0.699,"id":"abo406jc3uv9","address":"20019 RD N","geo_precision":"street","state":"OH"},"type":"Feature","geometry":{"type":"Point","coordinates":[-84.301914,40.96846]}},{"properties":{"city":"FT JENNINGS","zip":"45844","geo_score":0.985,"id":"abo406f6sy4h","address":"16356 RD 18","geo_precision":"range","state":"OH"},"type":"Feature","geometry":{"type":"Point","coordinates":[-84.206773,40.94546]}},{"properties":{"city":"KALIDA","zip":"45853","geo_score":0.688,"id":"abo406e3kgs2","address":"18489 US 224","geo_precision":"street","state":"OH"},"type":"Feature","geometry":{"type":"Point","coordinates":[-84.183458,40.981111]}},{"properties":{"city":"KALIDA","zip":"45853","geo_score":0.878,"id":"abo406bya8gl","address":"109 RIVERVIEW DR","geo_precision":"range","state":"OH"},"type":"Feature","geometry":{"type":"Point","coordinates":[-84.204651,40.987136]}},{"properties":{"city":"KALIDA","zip":"45853","geo_score":1.0,"id":"abo406fdkkhy","address":"209 CANABERRY DR","geo_precision":"range","state":"OH"},"type":"Feature","geometry":{"type":"Point","coordinates":[-84.199909,40.990235]}},{"properties":{"city":"OTTAWA","zip":"45875","geo_score":0.889,"id":"abo406874ede","address":"12390 RD 18","geo_precision":"range","state":"OH"},"type":"Feature","geometry":{"type":"Point","coordinates":[-84.207531,40.998311]}},{"properties":{"city":"KALIDA","zip":"45853","geo_score":0.837,"id":"abo406kmwl3w","address":"210 W PLUM ST","geo_precision":"street","state":"OH"},"type":"Feature","geometry":{"type":"Point","coordinates":[-84.201928,40.982782]}},{"properties":{"city":"KALIDA","zip":"45853","geo_score":0.864,"id":"abo4065hp4xe","address":"104 ROSEWOOD DR","geo_precision":"street","state":"OH"},"type":"Feature","geometry":{"type":"Point","coordinates":[-84.200582,40.99032]}},{"properties":{"city":"FT JENNINGS","zip":"45844","geo_score":0.985,"id":"abo406ehggg3","address":"17644 RD P","geo_precision":"range","state":"OH"},"type":"Feature","geometry":{"type":"Point","coordinates":[-84.202551,40.947224]}},{"properties":{"city":"OTTAWA","zip":"45875","geo_score":0.986,"id":"abo4069lutqi","address":"16628 RD L","geo_precision":"range","state":"OH"},"type":"Feature","geometry":{"type":"Point","coordinates":[-84.181237,41.006155]}},{"properties":{"city":"kalida","zip":"45853","geo_score":0.878,"id":"abo406eohyeg","address":"107 RIVERVIEW DR","geo_precision":"range","state":"OH"},"type":"Feature","geometry":{"type":"Point","coordinates":[-84.204807,40.987218]}},{"properties":{"city":"COLUMBUS GROVE","zip":"45830","geo_score":0.993,"id":"abo406awl467","address":"14483 RD 15-M","geo_precision":"range","state":"OH"},"type":"Feature","geometry":{"type":"Point","coordinates":[-84.159116,40.969636]}},{"properties":{"city":"OTTAWA","zip":"45875","geo_score":0.842,"id":"abo406a715uv","address":"17887 SR 694","geo_precision":"range","state":"OH"},"type":"Feature","geometry":{"type":"Point","coordinates":[-84.202349,41.027896]}},{"properties":{"city":"OTTAWA","zip":"45875","geo_score":1.0,"id":"abo406g0grxo","address":"10839 RD 16","geo_precision":"range","state":"OH"},"type":"Feature","geometry":{"type":"Point","coordinates":[-84.169361,41.023204]}},{"properties":{"city":"KALIDA","zip":"45853","geo_score":0.675,"id":"abo406d7m57d","address":"115 W NORTH ST","geo_precision":"street","state":"OH"},"type":"Feature","geometry":{"type":"Point","coordinates":[-84.204122,40.985505]}},{"properties":{"city":"KALIDA","zip":"45853","geo_score":1.0,"id":"abo406a3no1s","address":"527 RALPH ST","geo_precision":"range","state":"OH"},"type":"Feature","geometry":{"type":"Point","coordinates":[-84.194118,40.983994]}},{"properties":{"city":"CLOVERDALE","zip":"45827","geo_score":0.991,"id":"abo406dwuc9u","address":"18349 RD K","geo_precision":"range","state":"OH"},"type":"Feature","geometry":{"type":"Point","coordinates":[-84.210031,41.020573]}},{"properties":{"city":"OTTAWA","zip":"45875","geo_score":0.828,"id":"abo40679feez","address":"9632 SR 115","geo_precision":"range","state":"OH"},"type":"Feature","geometry":{"type":"Point","coordinates":[-84.19822,41.041243]}},{"properties":{"city":"CLOVERDALE","zip":"45827","geo_score":1.0,"id":"abo406fs33k0","address":"18111 RD K","geo_precision":"range","state":"OH"},"type":"Feature","geometry":{"type":"Point","coordinates":[-84.203826,41.020588]}},{"properties":{"city":"CLOVERDALE","zip":"45827","geo_score":1.0,"id":"abo406kh9959","address":"18013 RD K","geo_precision":"range","state":"OH"},"type":"Feature","geometry":{"type":"Point","coordinates":[-84.201141,41.020584]}},{"properties":{"city":"KALIDA","zip":"45853","geo_score":0.976,"id":"abo406hg6h08","address":"104 RIVERVIEW RD","geo_precision":"range","state":"OH"},"type":"Feature","geometry":{"type":"Point","coordinates":[-84.205017,40.987344]}},{"properties":{"city":"KALIDA","zip":"45853","geo_score":0.986,"id":"abo406e0l52g","address":"108 RIVERVIEW DR.","geo_precision":"range","state":"OH"},"type":"Feature","geometry":{"type":"Point","coordinates":[-84.20476,40.987176]}},{"properties":{"city":"OTTAWA","zip":"45875","geo_score":1.0,"id":"abo4065nsrfh","address":"15950 RD M","geo_precision":"range","state":"OH"},"type":"Feature","geometry":{"type":"Point","coordinates":[-84.171225,40.991698]}},{"properties":{"city":"KALIDA","zip":"45853","geo_score":0.864,"id":"abo4064t8v48","address":"503 OTTAWA ST","geo_precision":"street","state":"OH"},"type":"Feature","geometry":{"type":"Point","coordinates":[-84.194032,40.981331]}},{"properties":{"city":"KALIDA","zip":"45853","geo_score":0.763,"id":"abo406gmgd0g","address":"137 W NORTHLAND DR","geo_precision":"range","state":"OH"},"type":"Feature","geometry":{"type":"Point","coordinates":[-84.192537,40.991472]}},{"properties":{"city":"KALIDA","zip":"45853","geo_score":0.551,"id":"abo406inu6g7","address":"430 W. MAIN ST","geo_precision":"street","state":"OH"},"type":"Feature","geometry":{"type":"Point","coordinates":[-84.201839,40.981414]}},{"properties":{"city":"KALIDA","zip":"45853","geo_score":0.569,"id":"abo40665wobv","address":"418 W NORTHLAND DR","geo_precision":"street","state":"OH"},"type":"Feature","geometry":{"type":"Point","coordinates":[-84.190601,40.991479]}},{"properties":{"city":"CLOVERDALE","zip":"45827","geo_score":1.0,"id":"abo406kxy3t5","address":"12698 RD 18","geo_precision":"range","state":"OH"},"type":"Feature","geometry":{"type":"Point","coordinates":[-84.207494,40.993542]}},{"properties":{"city":"OTTAWA","zip":"45875","geo_score":0.902,"id":"abo4065t4ak8","address":"18429 RD L","geo_precision":"range","state":"OH"},"type":"Feature","geometry":{"type":"Point","coordinates":[-84.215655,41.006014]}},{"properties":{"city":"KALIDA","zip":"45853","geo_score":0.913,"id":"abo4068iqn9m","address":"509 N SIXTH ST","geo_precision":"range","state":"OH"},"type":"Feature","geometry":{"type":"Point","coordinates":[-84.190441,40.984786]}},{"properties":{"city":"KALIDA","zip":"45853","geo_score":1.0,"id":"abo406gn1dcg","address":"533 RALPH ST","geo_precision":"range","state":"OH"},"type":"Feature","geometry":{"type":"Point","coordinates":[-84.194101,40.983978]}},{"properties":{"city":"FT JENNINGS","zip":"45844","geo_score":0.879,"id":"abo4066uyzyn","address":"14046 RD 17-N","geo_precision":"range","state":"OH"},"type":"Feature","geometry":{"type":"Point","coordinates":[-84.202319,40.976781]}},{"properties":{"city":"OTTAWA","zip":"45875","geo_score":0.842,"id":"abo406co7o69","address":"12119 SR 115","geo_precision":"range","state":"OH"},"type":"Feature","geometry":{"type":"Point","coordinates":[-84.197896,41.006085]}},{"properties":{"city":"OTTAWA","zip":"45875","geo_score":1.0,"id":"abo406ell0ec","address":"17275 RD L","geo_precision":"range","state":"OH"},"type":"Feature","geometry":{"type":"Point","coordinates":[-84.19339,41.006026]}},{"properties":{"city":"OTTAWA","zip":"45875","geo_score":1.0,"id":"abo4064m6bpf","address":"17331 RD L","geo_precision":"range","state":"OH"},"type":"Feature","geometry":{"type":"Point","coordinates":[-84.194603,41.006027]}},{"properties":{"city":"KALIDA","zip":"45853","geo_score":0.55,"id":"abo4065v7yiy","address":"102 MAPLE LEAF DR","geo_precision":"street","state":"OH"},"type":"Feature","geometry":{"type":"Point","coordinates":[-84.199705,40.989324]}},{"properties":{"city":"FT JENNINGS","zip":"45844","geo_score":0.985,"id":"abo4066v6dpv","address":"16821 RD 18","geo_precision":"range","state":"OH"},"type":"Feature","geometry":{"type":"Point","coordinates":[-84.206501,40.932912]}},{"properties":{"city":"OTTAWA","zip":"45875","geo_score":0.902,"id":"abo406dc7m4e","address":"15644 RD L","geo_precision":"range","state":"OK"},"type":"Feature","geometry":{"type":"Point","coordinates":[-84.16215,41.006403]}}],"is_temporal":false,"author":{"url":"","metadata":null,"contact_name":null,"contact_address":null,"source":null,"contact_phone":null},"source":"","pagination":{"sort":null,"start":0,"total":178,"limit":1000000},"state":"complete","tags":"","published":"2014-08-16T18:21:24-04:00","id":313766}