{"type":"FeatureCollection","data_type":"Dataset","url_type":null,"permissions":[{"permissions":{"download":true,"view":true},"group_id":"everyone"}],"classification":null,"title":"Copy_of_IPTV-TSC-Jan-16-2013_-_CSV","count":307,"stream_id":313776,"contributor":{"url":"http://geocommons.com/users/59404","name":"KatieEtgen"},"data_attributes":null,"calculation_params":null,"icon_link":null,"link":"http://geocommons.com/overlays/313776.json","extent":[-92.2836,40.497,-80.6907,46.575],"geometry_types":["point"],"unique_name":null,"name":"Copy_of_IPTV-TSC-Jan-16-2013_-_CSV","feature_count":307,"description":"","next_feature":null,"is_raster":false,"short_classification":"Y","stats":{},"features":[{"properties":{"city":"ST MARYS","zip":"45885","geo_score":0.973,"id":"abo41mfog67c","address":"12002 COUNTY ROAD 66A","geo_precision":"range","state":"OH"},"type":"Feature","geometry":{"type":"Point","coordinates":[-84.388286,40.521746]}},{"properties":{"city":"ST MARYS","zip":"45885","geo_score":0.886,"id":"abo41m4g5xfj","address":"920 S WAYNE","geo_precision":"range","state":"OH"},"type":"Feature","geometry":{"type":"Point","coordinates":[-84.389586,40.533473]}},{"properties":{"city":"WAPAKONETA","zip":"45895","geo_score":0.87,"id":"abo41m5ohulx","address":"711 GIBBS","geo_precision":"range","state":"OH"},"type":"Feature","geometry":{"type":"Point","coordinates":[-84.189683,40.563034]}},{"properties":{"city":"LIMA","zip":"45805","geo_score":1.0,"id":"abo41m7r06im","address":"2563 BREEZEWOOD LN","geo_precision":"range","state":"OH"},"type":"Feature","geometry":{"type":"Point","coordinates":[-84.155298,40.705308]}},{"properties":{"city":"ST MARYS","zip":"45885","geo_score":0.894,"id":"abo41mhigqu2","address":"626 W SPRING","geo_precision":"range","state":"OH"},"type":"Feature","geometry":{"type":"Point","coordinates":[-84.394469,40.540788]}},{"properties":{"city":"ST MARYS","zip":"45885","geo_score":0.892,"id":"abo41m2qm4wm","address":"166 SOUTHMOOR SHRS","geo_precision":"range","state":"OH"},"type":"Feature","geometry":{"type":"Point","coordinates":[-84.431443,40.515006]}},{"properties":{"city":"ST MARYS","zip":"45885","geo_score":0.585,"id":"abo41m347w7k","address":"617 W HIGH","geo_precision":"zip","state":"OH"},"type":"Feature","geometry":{"type":"Point","coordinates":[-84.424675,40.545325]}},{"properties":{"city":"ST MARYS","zip":"45885","geo_score":0.864,"id":"abo41mgbmxo2","address":"228 S ASH","geo_precision":"range","state":"OH"},"type":"Feature","geometry":{"type":"Point","coordinates":[-84.393235,40.539451]}},{"properties":{"city":"LIMA","zip":"45805","geo_score":1.0,"id":"abo41m3gnwc2","address":"2889 STONEYBROOK DR","geo_precision":"range","state":"OH"},"type":"Feature","geometry":{"type":"Point","coordinates":[-84.158957,40.70313]}},{"properties":{"city":"ST MARYS","zip":"45885","geo_score":0.9,"id":"abo41mfhbnbs","address":"1125 LANE AVE","geo_precision":"range","state":"OH"},"type":"Feature","geometry":{"type":"Point","coordinates":[-84.406078,40.547985]}},{"properties":{"city":"ST MARYS","zip":"45885","geo_score":0.864,"id":"abo41mea3skp","address":"201 MAPLE","geo_precision":"range","state":"OH"},"type":"Feature","geometry":{"type":"Point","coordinates":[-84.377696,40.545425]}},{"properties":{"city":"ST MARYS","zip":"45885","geo_score":0.876,"id":"abo41mduksmu","address":"118 S VINE","geo_precision":"range","state":"OH"},"type":"Feature","geometry":{"type":"Point","coordinates":[-84.380625,40.545816]}},{"properties":{"city":"ST MARYS","zip":"45885","geo_score":0.778,"id":"abo41mg7jql2","address":"222 N WEST","geo_precision":"range","state":"OH"},"type":"Feature","geometry":{"type":"Point","coordinates":[-84.396348,40.54224]}},{"properties":{"city":"SAT MARYS","zip":"45885","geo_score":0.885,"id":"abo41m3ptwb8","address":"301 DIEKER","geo_precision":"range","state":"OH"},"type":"Feature","geometry":{"type":"Point","coordinates":[-84.396463,40.546423]}},{"properties":{"city":"WAPAKONETA","zip":"45895","geo_score":0.814,"id":"abo41m9mmuq7","address":"10301 S DIXIE 25A","geo_precision":"range","state":"OH"},"type":"Feature","geometry":{"type":"Point","coordinates":[-84.186627,40.503544]}},{"properties":{"city":"WAPAKONETA","zip":"45895","geo_score":0.983,"id":"abo41mafjyb7","address":"11566 WAPAK FREYBURG RD","geo_precision":"range","state":"OH"},"type":"Feature","geometry":{"type":"Point","coordinates":[-84.145225,40.520674]}},{"properties":{"city":"WAPAKONETA","zip":"44589","geo_score":0.463,"id":"abo41m27rjty","address":"15286 ST RT 67","geo_precision":"street","state":"OH"},"type":"Feature","geometry":{"type":"Point","coordinates":[-80.690719,41.029305]}},{"properties":{"city":"WAPAKONETA","zip":"45895","geo_score":0.902,"id":"abo41mcagskm","address":"16975 ST RT 67","geo_precision":"range","state":"OH"},"type":"Feature","geometry":{"type":"Point","coordinates":[-84.130267,40.599607]}},{"properties":{"city":"WAPAKONETA","zip":"45895","geo_score":1.0,"id":"abo41m1femte","address":"15 WILLIPIE ST","geo_precision":"range","state":"OH"},"type":"Feature","geometry":{"type":"Point","coordinates":[-84.194059,40.570414]}},{"properties":{"city":"WAPAKONETA","zip":"45895","geo_score":1.0,"id":"abo41mgqyxrm","address":"13396 BAY RD","geo_precision":"range","state":"OH"},"type":"Feature","geometry":{"type":"Point","coordinates":[-84.277971,40.541925]}},{"properties":{"city":"ST MARYS","zip":"45885","geo_score":0.932,"id":"abo41mg4t7yw","address":"686 COVENTRY GRN","geo_precision":"range","state":"OH"},"type":"Feature","geometry":{"type":"Point","coordinates":[-84.388231,40.552288]}},{"properties":{"city":"WAPAKONETA","zip":"45895","geo_score":0.947,"id":"abo41m5z2uho","address":"402 ASHLAND A3","geo_precision":"range","state":"OH"},"type":"Feature","geometry":{"type":"Point","coordinates":[-84.199885,40.558595]}},{"properties":{"city":"WAPAKONETA","zip":"45895","geo_score":0.836,"id":"abo41md5grou","address":"402 ASHLAND AVE BLDG A APT 12","geo_precision":"range","state":"OH"},"type":"Feature","geometry":{"type":"Point","coordinates":[-84.199885,40.558595]}},{"properties":{"city":"WAPAKONETA","zip":"45895","geo_score":0.61,"id":"abo41mgb36ui","address":"12A AMY AVE","geo_precision":"street","state":"OH"},"type":"Feature","geometry":{"type":"Point","coordinates":[-84.197739,40.770479]}},{"properties":{"city":"ST MARYS","zip":"45885","geo_score":0.886,"id":"abo41mglrgb4","address":"425 N FRONT","geo_precision":"range","state":"OH"},"type":"Feature","geometry":{"type":"Point","coordinates":[-84.391473,40.545596]}},{"properties":{"city":"ST MARYS","zip":"45885","geo_score":0.894,"id":"abo41m6g31dl","address":"216 N SPRUCE","geo_precision":"range","state":"OH"},"type":"Feature","geometry":{"type":"Point","coordinates":[-84.384973,40.547061]}},{"properties":{"city":"ST MARYS","zip":"45885","geo_score":0.973,"id":"abo41mhaidbb","address":"909 ROYAL OAK DR","geo_precision":"range","state":"OH"},"type":"Feature","geometry":{"type":"Point","coordinates":[-84.412891,40.547435]}},{"properties":{"city":"WAPAKONETA","zip":"45895","geo_score":0.814,"id":"abo41m5rl3cc","address":"10139 S DIXIE 25A","geo_precision":"range","state":"OH"},"type":"Feature","geometry":{"type":"Point","coordinates":[-84.186192,40.49999]}},{"properties":{"city":"WAPAKONETA","zip":"45895","geo_score":0.902,"id":"abo41m4xgbzi","address":"16793 ST RT 67","geo_precision":"range","state":"OH"},"type":"Feature","geometry":{"type":"Point","coordinates":[-84.131209,40.599589]}},{"properties":{"city":"ST MARYS","zip":"45885","geo_score":0.894,"id":"abo41mhanawq","address":"532 N SPRUCE","geo_precision":"range","state":"OH"},"type":"Feature","geometry":{"type":"Point","coordinates":[-84.384548,40.54954]}},{"properties":{"city":"ST MARYS","zip":"45885","geo_score":0.848,"id":"abo41mabnj9a","address":"117 OHIO","geo_precision":"range","state":"OH"},"type":"Feature","geometry":{"type":"Point","coordinates":[-84.401084,40.539926]}},{"properties":{"city":"WAPAKONETA","zip":"45895","geo_score":1.0,"id":"abo41mht849n","address":"10622 RUPERT RD","geo_precision":"range","state":"OH"},"type":"Feature","geometry":{"type":"Point","coordinates":[-84.153217,40.506768]}},{"properties":{"city":"WAPAKONETA","zip":"44589","geo_score":0.512,"id":"abo41m4iouyd","address":"10140 COUNTY ROAD 33A","geo_precision":"street","state":"OH"},"type":"Feature","geometry":{"type":"Point","coordinates":[-92.283616,46.575042]}},{"properties":{"city":"WAPAKONETA","zip":"45895","geo_score":0.863,"id":"abo41mdxis22","address":"1 PERRY ST APT 45","geo_precision":"range","state":"OH"},"type":"Feature","geometry":{"type":"Point","coordinates":[-84.194764,40.570592]}},{"properties":{"city":"CRIDERSVILLE","zip":"45806","geo_score":0.75,"id":"abo41m4ksv47","address":"19839 REICHELDERFER","geo_precision":"street","state":"OH"},"type":"Feature","geometry":{"type":"Point","coordinates":[-84.150842,40.651212]}},{"properties":{"city":"ST MARYS","zip":"45885","geo_score":0.769,"id":"abo41maswt9s","address":"712 W NORTH","geo_precision":"range","state":"OH"},"type":"Feature","geometry":{"type":"Point","coordinates":[-84.396698,40.542452]}},{"properties":{"city":"ST MARYS","zip":"45885","geo_score":0.886,"id":"abo41mav432d","address":"446 N PERRY","geo_precision":"range","state":"OH"},"type":"Feature","geometry":{"type":"Point","coordinates":[-84.395997,40.546029]}},{"properties":{"city":"ST MARYS","zip":"45885","geo_score":0.585,"id":"abo41m3dq9is","address":"806 W HIGH","geo_precision":"zip","state":"OH"},"type":"Feature","geometry":{"type":"Point","coordinates":[-84.424675,40.545325]}},{"properties":{"city":"WAPAKONETA","zip":"45895","geo_score":0.841,"id":"abo41meka93n","address":"402 ASHLAND AVE BLDG E APT 2","geo_precision":"range","state":"OH"},"type":"Feature","geometry":{"type":"Point","coordinates":[-84.199885,40.558595]}},{"properties":{"city":"ST MARYS","zip":"45885","geo_score":0.894,"id":"abo41mgkl6hm","address":"455 DEFIANCE","geo_precision":"range","state":"OH"},"type":"Feature","geometry":{"type":"Point","coordinates":[-84.396509,40.551434]}},{"properties":{"city":"Wapakoneta","zip":"45895","geo_score":1.0,"id":"abo41mgkm8e4","address":"12992 Freyburg Dr","geo_precision":"range","state":"OH"},"type":"Feature","geometry":{"type":"Point","coordinates":[-84.196211,40.511345]}},{"properties":{"city":"Wapakoneta","zip":"45895","geo_score":1.0,"id":"abo41m5b9sny","address":"14685 Freyburg Dr","geo_precision":"range","state":"OH"},"type":"Feature","geometry":{"type":"Point","coordinates":[-84.173547,40.511598]}},{"properties":{"city":"Lima","zip":"45801","geo_score":0.585,"id":"abo41mbdxfpa","address":"637 N Jackson St","geo_precision":"zip","state":"OH"},"type":"Feature","geometry":{"type":"Point","coordinates":[-84.0471,40.772147]}},{"properties":{"city":"ST MARYS","zip":"45885","geo_score":0.876,"id":"abo41m4a0wlo","address":"328 S MAIN","geo_precision":"range","state":"OH"},"type":"Feature","geometry":{"type":"Point","coordinates":[-84.388564,40.539592]}},{"properties":{"city":"ST MARYS","zip":"45885","geo_score":0.864,"id":"abo41m1ifvso","address":"825 GORDON GRV","geo_precision":"range","state":"OH"},"type":"Feature","geometry":{"type":"Point","coordinates":[-84.387113,40.551437]}},{"properties":{"city":"WAPAKONETA","zip":"45895","geo_score":0.967,"id":"abo41m1pekh7","address":"10863 SHELBY-FRYBURG RD","geo_precision":"range","state":"OH"},"type":"Feature","geometry":{"type":"Point","coordinates":[-84.137154,40.507574]}},{"properties":{"city":"WAPAKONETA","zip":"45895","geo_score":1.0,"id":"abo41mdpe65t","address":"10635 GLYNWOOD RD","geo_precision":"range","state":"OH"},"type":"Feature","geometry":{"type":"Point","coordinates":[-84.24713,40.583078]}},{"properties":{"city":"Wapakoneta","zip":"45895","geo_score":0.585,"id":"abo41m1uys7y","address":"18746 Mudsock Rd","geo_precision":"zip","state":"OH"},"type":"Feature","geometry":{"type":"Point","coordinates":[-84.152138,40.582252]}},{"properties":{"city":"ST MARYS","zip":"45885","geo_score":0.894,"id":"abo41mbtka2b","address":"962 E SPRING","geo_precision":"range","state":"OH"},"type":"Feature","geometry":{"type":"Point","coordinates":[-84.377083,40.546278]}},{"properties":{"city":"ST MARYS","zip":"45885","geo_score":0.778,"id":"abo41mhe8pu4","address":"1110 HAWTHORNE","geo_precision":"range","state":"OH"},"type":"Feature","geometry":{"type":"Point","coordinates":[-84.413916,40.548402]}},{"properties":{"city":"Wapakoneta","zip":"45895","geo_score":0.927,"id":"abo41m2yunqc","address":"303 Jefferson","geo_precision":"range","state":"OH"},"type":"Feature","geometry":{"type":"Point","coordinates":[-84.196985,40.560708]}},{"properties":{"city":"ST MARYS","zip":"45885","geo_score":0.973,"id":"abo41mc775b1","address":"213 CONCORD AVE","geo_precision":"range","state":"OH"},"type":"Feature","geometry":{"type":"Point","coordinates":[-84.40111,40.541906]}},{"properties":{"city":"WAPAKONETA","zip":"45895","geo_score":0.585,"id":"abo41m7x6ci4","address":"18505 MUDSOCK RD","geo_precision":"zip","state":"OH"},"type":"Feature","geometry":{"type":"Point","coordinates":[-84.152138,40.582252]}},{"properties":{"city":"ST MARYS","zip":"45885","geo_score":0.886,"id":"abo41m8xusqi","address":"901 EDWARDS","geo_precision":"range","state":"OH"},"type":"Feature","geometry":{"type":"Point","coordinates":[-84.402964,40.545674]}},{"properties":{"city":"LIMA","zip":"45806","geo_score":0.932,"id":"abo41ma6mfi0","address":"1905 HUNTINGTON","geo_precision":"range","state":"OH"},"type":"Feature","geometry":{"type":"Point","coordinates":[-84.137378,40.660528]}},{"properties":{"city":"Wapakoneta","zip":"45895","geo_score":0.707,"id":"abo41mfj7yrp","address":"26 1/2 E Auglaize St","geo_precision":"range","state":"OH"},"type":"Feature","geometry":{"type":"Point","coordinates":[-84.194764,40.570592]}},{"properties":{"city":"LIMA","zip":"45804","geo_score":0.585,"id":"abo41mcftzl6","address":"750 BUCKEYE RD","geo_precision":"zip","state":"OH"},"type":"Feature","geometry":{"type":"Point","coordinates":[-84.063491,40.694996]}},{"properties":{"city":"Wapakoneta","zip":"45895","geo_score":0.805,"id":"abo41m78amhs","address":"10263 S Dixie Hwy 25A","geo_precision":"range","state":"OH"},"type":"Feature","geometry":{"type":"Point","coordinates":[-84.186672,40.504015]}},{"properties":{"city":"Wapakoneta","zip":"45895","geo_score":1.0,"id":"abo41ma2b3sv","address":"430 Defiance St","geo_precision":"range","state":"OH"},"type":"Feature","geometry":{"type":"Point","coordinates":[-84.200377,40.575977]}},{"properties":{"city":"WAPAKONETA","zip":"45895","geo_score":0.945,"id":"abo41mg8li8c","address":"17721 GOLDEN BRIDGE RD","geo_precision":"range","state":"OH"},"type":"Feature","geometry":{"type":"Point","coordinates":[-84.141009,40.609788]}},{"properties":{"city":"ST MARYS","zip":"45885","geo_score":0.48,"id":"abo41m4vbjk6","address":"1218 KENT CT","geo_precision":"street","state":"OH"},"type":"Feature","geometry":{"type":"Point","coordinates":[-84.198312,40.556632]}},{"properties":{"city":"ST MARYS","zip":"45885","geo_score":0.585,"id":"abo41mgcm3or","address":"1620 S KNOXVILLE AVE","geo_precision":"zip","state":"OH"},"type":"Feature","geometry":{"type":"Point","coordinates":[-84.424675,40.545325]}},{"properties":{"city":"ST MARYS","zip":"45885","geo_score":0.973,"id":"abo41m9mjneu","address":"1125 ROBIN RD","geo_precision":"range","state":"OH"},"type":"Feature","geometry":{"type":"Point","coordinates":[-84.403486,40.54886]}},{"properties":{"city":"WAPAKONETA","zip":"45895","geo_score":0.93,"id":"abo41m8nhs1z","address":"15397 SANTA FE NEW KNOX RD","geo_precision":"range","state":"OH"},"type":"Feature","geometry":{"type":"Point","coordinates":[-84.159194,40.496987]}},{"properties":{"city":"ST MARYS","zip":"45885","geo_score":0.585,"id":"abo41m8o1si3","address":"1295 S KNOXVILLE AVE","geo_precision":"zip","state":"OH"},"type":"Feature","geometry":{"type":"Point","coordinates":[-84.424675,40.545325]}},{"properties":{"city":"Wapakoneta","zip":"45895","geo_score":0.841,"id":"abo41mh77szp","address":"402 Ashland Ave BLdg C Apt 5","geo_precision":"range","state":"OH"},"type":"Feature","geometry":{"type":"Point","coordinates":[-84.199885,40.558595]}},{"properties":{"city":"ST MARYS","zip":"45885","geo_score":0.864,"id":"abo41m4ylxmy","address":"219 BEECH","geo_precision":"range","state":"OH"},"type":"Feature","geometry":{"type":"Point","coordinates":[-84.378859,40.544945]}},{"properties":{"city":"ST MARYS","zip":"45885","geo_score":0.894,"id":"abo41m8l2xmv","address":"721 COLUMBIA","geo_precision":"range","state":"OH"},"type":"Feature","geometry":{"type":"Point","coordinates":[-84.380818,40.547288]}},{"properties":{"city":"WAPAKONETA","zip":"45895","geo_score":1.0,"id":"abo41mb3lw0l","address":"12808 CANNING FACTORY RD","geo_precision":"range","state":"OH"},"type":"Feature","geometry":{"type":"Point","coordinates":[-84.206216,40.555025]}},{"properties":{"city":"ST MARYS","zip":"45885","geo_score":0.864,"id":"abo41m9zsinm","address":"322 N ASH","geo_precision":"range","state":"OH"},"type":"Feature","geometry":{"type":"Point","coordinates":[-84.395527,40.543095]}},{"properties":{"city":"LIMA","zip":"45806","geo_score":1.0,"id":"abo41m6lgthi","address":"1930 LYN GROVE DR","geo_precision":"range","state":"OH"},"type":"Feature","geometry":{"type":"Point","coordinates":[-84.137087,40.659677]}},{"properties":{"city":"ST MARYS","zip":"45885","geo_score":0.894,"id":"abo41m8775es","address":"415 N SPRUCE","geo_precision":"range","state":"OH"},"type":"Feature","geometry":{"type":"Point","coordinates":[-84.385045,40.548841]}},{"properties":{"city":"WAPAKONETA","zip":"45895","geo_score":0.897,"id":"abo41mgm1hdc","address":"402 ASHLAND AVE APT D1","geo_precision":"range","state":"OH"},"type":"Feature","geometry":{"type":"Point","coordinates":[-84.199885,40.558595]}},{"properties":{"city":"WAPAKONETA","zip":"45895","geo_score":0.665,"id":"abo41m8twxfa","address":"16790 TOWNLINE LIMA RD","geo_precision":"street","state":"OH"},"type":"Feature","geometry":{"type":"Point","coordinates":[-84.107852,40.651122]}},{"properties":{"city":"ST MARYS","zip":"45885","geo_score":0.864,"id":"abo41me9jp5k","address":"132 BEECH","geo_precision":"range","state":"OH"},"type":"Feature","geometry":{"type":"Point","coordinates":[-84.379287,40.54588]}},{"properties":{"city":"WAPAKONETA","zip":"45895","geo_score":1.0,"id":"abo41m5xn415","address":"9168 GLYNWOOD RD","geo_precision":"range","state":"OH"},"type":"Feature","geometry":{"type":"Point","coordinates":[-84.273968,40.579792]}},{"properties":{"city":"ST MARYS","zip":"45885","geo_score":0.841,"id":"abo41m1u4fhf","address":"521 ST MARYS RIVER RD","geo_precision":"street","state":"OH"},"type":"Feature","geometry":{"type":"Point","coordinates":[-84.395124,40.554945]}},{"properties":{"city":"WAPAKONETA","zip":"45895","geo_score":0.585,"id":"abo41m4fbrcf","address":"18887 MUDSOCK RD","geo_precision":"zip","state":"OH"},"type":"Feature","geometry":{"type":"Point","coordinates":[-84.152138,40.582252]}},{"properties":{"city":"ST MARYS","zip":"45885","geo_score":0.894,"id":"abo41m6vcc3s","address":"855 N SPRUCE","geo_precision":"range","state":"OH"},"type":"Feature","geometry":{"type":"Point","coordinates":[-84.38326,40.552422]}},{"properties":{"city":"WAPAKONETA","zip":"45895","geo_score":0.984,"id":"abo41m6v0hun","address":"10587 SHELBY-FREYBURG RD","geo_precision":"range","state":"OH"},"type":"Feature","geometry":{"type":"Point","coordinates":[-84.135738,40.504381]}},{"properties":{"city":"ST MARYS","zip":"45885","geo_score":0.585,"id":"abo41m3fc9rz","address":"918 JACKSON","geo_precision":"zip","state":"OH"},"type":"Feature","geometry":{"type":"Point","coordinates":[-84.424675,40.545325]}},{"properties":{"city":"WAPAKONETA","zip":"45895","geo_score":0.967,"id":"abo41marnp6r","address":"10319 SHELBY-FRYBURG RD","geo_precision":"range","state":"OH"},"type":"Feature","geometry":{"type":"Point","coordinates":[-84.135755,40.501795]}},{"properties":{"city":"ST MARYS","zip":"45885","geo_score":0.894,"id":"abo41mdni9wk","address":"1001 W SPRING","geo_precision":"range","state":"OH"},"type":"Feature","geometry":{"type":"Point","coordinates":[-84.399622,40.539311]}},{"properties":{"city":"ST MARYS","zip":"45885","geo_score":0.973,"id":"abo41m5ufzn3","address":"601 BRIARCLIFF DR","geo_precision":"range","state":"OH"},"type":"Feature","geometry":{"type":"Point","coordinates":[-84.399716,40.553504]}},{"properties":{"city":"ST MARYS","zip":"45885","geo_score":0.894,"id":"abo41mh8qrcv","address":"1026 COLUMBIA","geo_precision":"range","state":"OH"},"type":"Feature","geometry":{"type":"Point","coordinates":[-84.372695,40.547394]}},{"properties":{"city":"Wapakoneta","zip":"45895","geo_score":1.0,"id":"abo41m2oxj5d","address":"10499 Shelby Freyburg Rd","geo_precision":"range","state":"OH"},"type":"Feature","geometry":{"type":"Point","coordinates":[-84.135741,40.505963]}},{"properties":{"city":"Wapakoneta","zip":"45895","geo_score":0.585,"id":"abo41m8u64fk","address":"13991 Buckland-Holden Rd","geo_precision":"zip","state":"OH"},"type":"Feature","geometry":{"type":"Point","coordinates":[-84.152138,40.582252]}},{"properties":{"city":"WAPAKONETA","zip":"45895","geo_score":1.0,"id":"abo41m700dzt","address":"18390 HAUSS RD","geo_precision":"range","state":"OH"},"type":"Feature","geometry":{"type":"Point","coordinates":[-84.164745,40.618913]}},{"properties":{"city":"ST MARYS","zip":"45885","geo_score":0.973,"id":"abo41mepke7d","address":"133 LAGO VUE CT","geo_precision":"range","state":"OH"},"type":"Feature","geometry":{"type":"Point","coordinates":[-84.430964,40.511638]}},{"properties":{"city":"Lima","zip":"45804","geo_score":1.0,"id":"abo41mejdw5p","address":"216 E Kibby St","geo_precision":"range","state":"OH"},"type":"Feature","geometry":{"type":"Point","coordinates":[-84.102345,40.730217]}},{"properties":{"city":"St Marys","zip":"45885","geo_score":0.973,"id":"abo41m7zuz9x","address":"505 Southway Drive","geo_precision":"range","state":"OH"},"type":"Feature","geometry":{"type":"Point","coordinates":[-84.423161,40.544788]}},{"properties":{"city":"WAPAKONETA","zip":"45895","geo_score":0.967,"id":"abo41memhlty","address":"10130 SHELBY-FRYBURG RD","geo_precision":"range","state":"OH"},"type":"Feature","geometry":{"type":"Point","coordinates":[-84.135606,40.501384]}},{"properties":{"city":"WAPAKONETA","zip":"45895","geo_score":0.902,"id":"abo41mhtby13","address":"15398 ST RT 67","geo_precision":"range","state":"OH"},"type":"Feature","geometry":{"type":"Point","coordinates":[-84.157006,40.590038]}},{"properties":{"city":"ST MARYS","zip":"45885","geo_score":0.973,"id":"abo41mb4beig","address":"866 TOWNVIEW DR","geo_precision":"range","state":"OH"},"type":"Feature","geometry":{"type":"Point","coordinates":[-84.386179,40.533949]}},{"properties":{"city":"ST MARYS","zip":"45885","geo_score":0.894,"id":"abo41m9ibvf7","address":"849 W SPRING","geo_precision":"range","state":"OH"},"type":"Feature","geometry":{"type":"Point","coordinates":[-84.397652,40.539472]}},{"properties":{"city":"ST MARYS","zip":"45885","geo_score":0.973,"id":"abo41m8cdep0","address":"104 MEADOWBROOK LN","geo_precision":"range","state":"OH"},"type":"Feature","geometry":{"type":"Point","coordinates":[-84.35015,40.546364]}},{"properties":{"city":"ST MARYS","zip":"45885","geo_score":0.973,"id":"abo41m2lllme","address":"855 DOROTHY LN","geo_precision":"range","state":"OH"},"type":"Feature","geometry":{"type":"Point","coordinates":[-84.384646,40.552422]}},{"properties":{"city":"ST MARYS","zip":"45885","geo_score":0.973,"id":"abo41melfd3e","address":"1927 KINGSBURY DR","geo_precision":"range","state":"OH"},"type":"Feature","geometry":{"type":"Point","coordinates":[-84.41502,40.550658]}},{"properties":{"city":"Wapakoneta","zip":"45895","geo_score":0.92,"id":"abo41mex7yip","address":"913 Defiance","geo_precision":"range","state":"OH"},"type":"Feature","geometry":{"type":"Point","coordinates":[-84.203258,40.579744]}},{"properties":{"city":"WAPAKONETA","zip":"45895","geo_score":0.967,"id":"abo41mful6ai","address":"10457 SHELBY-FRYBURG RD","geo_precision":"range","state":"OH"},"type":"Feature","geometry":{"type":"Point","coordinates":[-84.13574,40.503949]}},{"properties":{"city":"WAPAKONETA","zip":"45895","geo_score":0.814,"id":"abo41m2a037a","address":"11875 S DIXIE 25A","geo_precision":"range","state":"OH"},"type":"Feature","geometry":{"type":"Point","coordinates":[-84.189466,40.525868]}},{"properties":{"city":"WAPAKONETA","zip":"45895","geo_score":1.0,"id":"abo41m7jgxrg","address":"17768 HAUSS RD","geo_precision":"range","state":"OH"},"type":"Feature","geometry":{"type":"Point","coordinates":[-84.164701,40.609831]}},{"properties":{"city":"WAPAKONETA","zip":"45895","geo_score":0.841,"id":"abo41md7fjur","address":"402 ASHLAND AVE BLDG E APT 4","geo_precision":"range","state":"OH"},"type":"Feature","geometry":{"type":"Point","coordinates":[-84.199885,40.558595]}},{"properties":{"city":"CRIDERSVILLE","zip":"45806","geo_score":0.716,"id":"abo41m1y564k","address":"19483 S DIXIE 25A","geo_precision":"range","state":"OH"},"type":"Feature","geometry":{"type":"Point","coordinates":[-84.138826,40.635675]}},{"properties":{"city":"ST MARYS","zip":"45885","geo_score":0.894,"id":"abo41m3rxtmx","address":"2001 CHESHIRE","geo_precision":"range","state":"OH"},"type":"Feature","geometry":{"type":"Point","coordinates":[-84.415242,40.54931]}},{"properties":{"city":"ST MARYS","zip":"45885","geo_score":0.892,"id":"abo41m72ia0i","address":"168 SOUTHMOOR SHRS","geo_precision":"range","state":"OH"},"type":"Feature","geometry":{"type":"Point","coordinates":[-84.43153,40.514931]}},{"properties":{"city":"Wapakoneta","zip":"45895","geo_score":0.585,"id":"abo41m9dcr7h","address":"16903 BUCKLAND-HOLDEN RD","geo_precision":"zip","state":"OH"},"type":"Feature","geometry":{"type":"Point","coordinates":[-84.152138,40.582252]}},{"properties":{"city":"ST MARYS","zip":"45885","geo_score":0.827,"id":"abo41m1pb8d1","address":"515 OIL","geo_precision":"range","state":"OH"},"type":"Feature","geometry":{"type":"Point","coordinates":[-84.382605,40.549793]}},{"properties":{"city":"LIMA","zip":"45805","geo_score":0.746,"id":"abo41m508mg4","address":"2957 STONEYBROOK","geo_precision":"street","state":"OH"},"type":"Feature","geometry":{"type":"Point","coordinates":[-84.159419,40.703157]}},{"properties":{"city":"WAPAKONETA","zip":"45895","geo_score":1.0,"id":"abo41ma1jrw9","address":"16119 HENGSTLER RD","geo_precision":"range","state":"OH"},"type":"Feature","geometry":{"type":"Point","coordinates":[-84.147362,40.60671]}},{"properties":{"city":"Wapakoneta","zip":"45895","geo_score":1.0,"id":"abo41m46qz2m","address":"16919 Hauss Rd","geo_precision":"range","state":"OH"},"type":"Feature","geometry":{"type":"Point","coordinates":[-84.164782,40.597788]}},{"properties":{"city":"LIMA","zip":"45806","geo_score":1.0,"id":"abo41meqc0s4","address":"1840 LYN GROVE DR","geo_precision":"range","state":"OH"},"type":"Feature","geometry":{"type":"Point","coordinates":[-84.135117,40.659697]}},{"properties":{"city":"LIMA","zip":"45806","geo_score":0.585,"id":"abo41meyb9vq","address":"2865 RIVERWALK BLVD","geo_precision":"zip","state":"OH"},"type":"Feature","geometry":{"type":"Point","coordinates":[-84.071057,40.687273]}},{"properties":{"city":"WAPAKONETA","zip":"45895","geo_score":1.0,"id":"abo41maru8qy","address":"13891 KETTLERSVILLE RD","geo_precision":"range","state":"OH"},"type":"Feature","geometry":{"type":"Point","coordinates":[-84.259908,40.551838]}},{"properties":{"city":"ST MARYS","zip":"45885","geo_score":0.973,"id":"abo41m5mkeg1","address":"1406 OAKVIEW DR","geo_precision":"range","state":"OH"},"type":"Feature","geometry":{"type":"Point","coordinates":[-84.411949,40.552472]}},{"properties":{"city":"ST MARYS","zip":"45885","geo_score":0.894,"id":"abo41m9rkljz","address":"523 N SPRUCE","geo_precision":"range","state":"OH"},"type":"Feature","geometry":{"type":"Point","coordinates":[-84.38465,40.54969]}},{"properties":{"city":"WAPAKONETA","zip":"45895","geo_score":0.819,"id":"abo41mf3tphh","address":"1112 Timber Trail","geo_precision":"street","state":"OH"},"type":"Feature","geometry":{"type":"Point","coordinates":[-84.218809,40.583709]}},{"properties":{"city":"ST MARYS","zip":"45885","geo_score":0.9,"id":"abo41mcjb1pr","address":"714 HAWTHORNE","geo_precision":"range","state":"OH"},"type":"Feature","geometry":{"type":"Point","coordinates":[-84.413815,40.547667]}},{"properties":{"city":"WAPAKONETA","zip":"45895","geo_score":1.0,"id":"abo41m6vthjw","address":"14166 PUSHETA RD","geo_precision":"range","state":"OH"},"type":"Feature","geometry":{"type":"Point","coordinates":[-84.180696,40.526005]}},{"properties":{"city":"WAPAKONETA","zip":"45895","geo_score":1.0,"id":"abo41mdnuzd8","address":"14004 KETTLERSVILLE RD","geo_precision":"range","state":"OH"},"type":"Feature","geometry":{"type":"Point","coordinates":[-84.259747,40.561041]}},{"properties":{"city":"WAPAKONETA","zip":"45895","geo_score":0.75,"id":"abo41m8urpz5","address":"14981 GOLDEN BRIDGE RD","geo_precision":"street","state":"OH"},"type":"Feature","geometry":{"type":"Point","coordinates":[-84.140897,40.602931]}},{"properties":{"city":"Wapakoneta","zip":"45895","geo_score":0.902,"id":"abo41magv2bd","address":"16621 ST Rt 67","geo_precision":"range","state":"OH"},"type":"Feature","geometry":{"type":"Point","coordinates":[-84.139082,40.599415]}},{"properties":{"city":"Lima","zip":"45804","geo_score":0.805,"id":"abo41m9r8d3k","address":"1150 S Metcalf","geo_precision":"range","state":"OH"},"type":"Feature","geometry":{"type":"Point","coordinates":[-84.113191,40.722029]}},{"properties":{"city":"ST MARYS","zip":"45885","geo_score":0.585,"id":"abo41mehxvlj","address":"427 JACKSON","geo_precision":"zip","state":"OH"},"type":"Feature","geometry":{"type":"Point","coordinates":[-84.424675,40.545325]}},{"properties":{"city":"WAPAKONETA","zip":"45895","geo_score":0.902,"id":"abo41mfct5ox","address":"18835 ST RT 33","geo_precision":"range","state":"OH"},"type":"Feature","geometry":{"type":"Point","coordinates":[-84.094875,40.556307]}},{"properties":{"city":"WAPAKONETA","zip":"45895","geo_score":0.927,"id":"abo41mc69zrq","address":"16801 FRYBURG EAST RD","geo_precision":"range","state":"OH"},"type":"Feature","geometry":{"type":"Point","coordinates":[-84.128965,40.511855]}},{"properties":{"city":"Lima","zip":"45805","geo_score":0.767,"id":"abo41m9fithi","address":"2907 Stoneybrook","geo_precision":"street","state":"OH"},"type":"Feature","geometry":{"type":"Point","coordinates":[-84.159419,40.703157]}},{"properties":{"city":"WAPAKONETA","zip":"45895","geo_score":0.585,"id":"abo41m1l9yjw","address":"18910 WEIMERT RD","geo_precision":"zip","state":"OH"},"type":"Feature","geometry":{"type":"Point","coordinates":[-84.152138,40.582252]}},{"properties":{"city":"WAPAKONETA","zip":"45895","geo_score":0.945,"id":"abo41m4p1qdx","address":"17972 GOLDEN BRIDGE RD","geo_precision":"range","state":"OH"},"type":"Feature","geometry":{"type":"Point","coordinates":[-84.140905,40.613129]}},{"properties":{"city":"WAPAKONETA","zip":"45895","geo_score":0.836,"id":"abo41meif8qd","address":"402 ASHLAND AVE \tBLDG B APT 1","geo_precision":"range","state":"OH"},"type":"Feature","geometry":{"type":"Point","coordinates":[-84.199885,40.558595]}},{"properties":{"city":"WAPAKNOETA","zip":"45895","geo_score":0.887,"id":"abo41mcsf1rf","address":"402 ASHLAND AVE APT C4","geo_precision":"range","state":"OH"},"type":"Feature","geometry":{"type":"Point","coordinates":[-84.199885,40.558595]}},{"properties":{"city":"WAPAKONETA","zip":"45895","geo_score":0.91,"id":"abo41maoiwor","address":"14683 FRYBURG DR RD","geo_precision":"range","state":"OH"},"type":"Feature","geometry":{"type":"Point","coordinates":[-84.173519,40.511598]}},{"properties":{"city":"WAPAKONETA","zip":"45895","geo_score":1.0,"id":"abo41mhk1xh4","address":"14233 MOULTON-FT AMANDA RD","geo_precision":"range","state":"OH"},"type":"Feature","geometry":{"type":"Point","coordinates":[-84.298333,40.557703]}},{"properties":{"city":"ST MARYS","zip":"45885","geo_score":0.954,"id":"abo41mepxbrh","address":"153 WATERCREST AVE","geo_precision":"range","state":"OH"},"type":"Feature","geometry":{"type":"Point","coordinates":[-84.430019,40.545517]}},{"properties":{"city":"WAPAKONETA","zip":"45895","geo_score":1.0,"id":"abo41m1w5p6q","address":"9385 GLYNWOOD RD","geo_precision":"range","state":"OH"},"type":"Feature","geometry":{"type":"Point","coordinates":[-84.273334,40.579869]}},{"properties":{"city":"Cridersville","zip":"45806","geo_score":0.805,"id":"abo41m5tqm31","address":"19459 Reichelderfer Rd","geo_precision":"street","state":"OH"},"type":"Feature","geometry":{"type":"Point","coordinates":[-84.150842,40.651212]}},{"properties":{"city":"ST MARYS","zip":"45885","geo_score":0.585,"id":"abo41mch4snn","address":"219 HICKORY","geo_precision":"zip","state":"OH"},"type":"Feature","geometry":{"type":"Point","coordinates":[-84.424675,40.545325]}},{"properties":{"city":"WAPAKONETA","zip":"45895","geo_score":1.0,"id":"abo41m38e9ax","address":"10827 GLYNWOOD RD","geo_precision":"range","state":"OH"},"type":"Feature","geometry":{"type":"Point","coordinates":[-84.246793,40.582999]}},{"properties":{"city":"ST MARYS","zip":"45885","geo_score":0.973,"id":"abo41mg3xjfc","address":"419 WOODWARD","geo_precision":"range","state":"OH"},"type":"Feature","geometry":{"type":"Point","coordinates":[-84.387729,40.532743]}},{"properties":{"city":"ST MARYS","zip":"45885","geo_score":0.827,"id":"abo41m315lxq","address":"830 LAKE","geo_precision":"range","state":"OH"},"type":"Feature","geometry":{"type":"Point","coordinates":[-84.393842,40.535712]}},{"properties":{"city":"Cridersville","zip":"45806","geo_score":0.619,"id":"abo41m5qzqsw","address":"19566 S Dixie 25A","geo_precision":"street","state":"OH"},"type":"Feature","geometry":{"type":"Point","coordinates":[-84.142406,40.629959]}},{"properties":{"city":"CRIDERSVILLE","zip":"45806","geo_score":0.596,"id":"abo41meay78s","address":"19668 Wapak Cridersville Rd","geo_precision":"street","state":"OH"},"type":"Feature","geometry":{"type":"Point","coordinates":[-84.203539,40.66099]}},{"properties":{"city":"ST MARYS","zip":"45885","geo_score":0.886,"id":"abo41m6j4na5","address":"418 N PERRY","geo_precision":"range","state":"OH"},"type":"Feature","geometry":{"type":"Point","coordinates":[-84.395294,40.544856]}},{"properties":{"city":"ST MARYS","zip":"45885","geo_score":0.864,"id":"abo41m21x5dd","address":"1802 NAGEL","geo_precision":"range","state":"OH"},"type":"Feature","geometry":{"type":"Point","coordinates":[-84.413605,40.546552]}},{"properties":{"city":"WAPAKONETA","zip":"45895","geo_score":0.585,"id":"abo41m2wwvw2","address":"614 N DIXIE HWY","geo_precision":"zip","state":"OH"},"type":"Feature","geometry":{"type":"Point","coordinates":[-84.152138,40.582252]}},{"properties":{"city":"St Marys","zip":"45885","geo_score":0.585,"id":"abo41m9egw88","address":"628 E HIGH","geo_precision":"zip","state":"OH"},"type":"Feature","geometry":{"type":"Point","coordinates":[-84.424675,40.545325]}},{"properties":{"city":"WAPAKONETA","zip":"45895","geo_score":0.91,"id":"abo41m9nnygr","address":"13418 FRYBURG DR RD","geo_precision":"range","state":"OH"},"type":"Feature","geometry":{"type":"Point","coordinates":[-84.18982,40.511376]}},{"properties":{"city":"ST MARYS","zip":"45885","geo_score":0.75,"id":"abo41m7md84h","address":"11470 EAST DR","geo_precision":"street","state":"OH"},"type":"Feature","geometry":{"type":"Point","coordinates":[-84.422876,40.516307]}},{"properties":{"city":"WAPAKONETA","zip":"45895","geo_score":0.902,"id":"abo41m7nycrs","address":"16937 ST RT 67","geo_precision":"range","state":"OH"},"type":"Feature","geometry":{"type":"Point","coordinates":[-84.12929,40.599618]}},{"properties":{"city":"ST MARYS","zip":"45885","geo_score":0.973,"id":"abo41m814jcx","address":"111 MARBELLO CT","geo_precision":"range","state":"OH"},"type":"Feature","geometry":{"type":"Point","coordinates":[-84.430247,40.514196]}},{"properties":{"city":"ST MARYS","zip":"45885","geo_score":0.864,"id":"abo41mg1tau6","address":"1128 HOLLY","geo_precision":"range","state":"OH"},"type":"Feature","geometry":{"type":"Point","coordinates":[-84.406054,40.550299]}},{"properties":{"city":"ST MARYS","zip":"45885","geo_score":0.973,"id":"abo41mdrt401","address":"1505 OAKVIEW DR","geo_precision":"range","state":"OH"},"type":"Feature","geometry":{"type":"Point","coordinates":[-84.412118,40.553328]}},{"properties":{"city":"ST MARYS","zip":"45885","geo_score":0.848,"id":"abo41m9qf20o","address":"1127 MOTZ","geo_precision":"range","state":"OH"},"type":"Feature","geometry":{"type":"Point","coordinates":[-84.405151,40.546405]}},{"properties":{"city":"ST MARYS","zip":"45885","geo_score":0.886,"id":"abo41m5a443j","address":"224 S WAYNE","geo_precision":"range","state":"OH"},"type":"Feature","geometry":{"type":"Point","coordinates":[-84.390769,40.540422]}},{"properties":{"city":"Wapakoneta","zip":"45895","geo_score":1.0,"id":"abo41mh896cb","address":"10460 Glynwood Rd","geo_precision":"range","state":"OH"},"type":"Feature","geometry":{"type":"Point","coordinates":[-84.250024,40.582079]}},{"properties":{"city":"LIMA","zip":"45805","geo_score":0.807,"id":"abo41m6eeeti","address":"2974 STONEYBROOK DR","geo_precision":"street","state":"OH"},"type":"Feature","geometry":{"type":"Point","coordinates":[-84.159419,40.703157]}},{"properties":{"city":"WAPAKONETA","zip":"45895","geo_score":1.0,"id":"abo41mf6if7f","address":"15261 MIDDLE PIKE","geo_precision":"range","state":"OH"},"type":"Feature","geometry":{"type":"Point","coordinates":[-84.149991,40.570228]}},{"properties":{"city":"WAPAKONETA","zip":"45895","geo_score":1.0,"id":"abo41mhbg0wy","address":"10096 GLYNWOOD RD","geo_precision":"range","state":"OH"},"type":"Feature","geometry":{"type":"Point","coordinates":[-84.257359,40.579908]}},{"properties":{"city":"WAPAKONETA","zip":"45895","geo_score":0.92,"id":"abo41m4kfg8g","address":"402 ASHLAND C2","geo_precision":"range","state":"OH"},"type":"Feature","geometry":{"type":"Point","coordinates":[-84.199885,40.558595]}},{"properties":{"city":"CRIDERSVILLE","zip":"45806","geo_score":0.596,"id":"abo41m2si89j","address":"19076 WAPAK CRIDERSVILLE RD","geo_precision":"street","state":"OH"},"type":"Feature","geometry":{"type":"Point","coordinates":[-84.203539,40.66099]}},{"properties":{"city":"WAPAKONETA","zip":"45895","geo_score":0.902,"id":"abo41m8ytic6","address":"15257 ST RT 67","geo_precision":"range","state":"OH"},"type":"Feature","geometry":{"type":"Point","coordinates":[-84.154682,40.591872]}},{"properties":{"city":"WAPAKONETA","zip":"45895","geo_score":0.92,"id":"abo41mbcx3jw","address":"402 ASHLAND C11","geo_precision":"range","state":"OH"},"type":"Feature","geometry":{"type":"Point","coordinates":[-84.199885,40.558595]}},{"properties":{"city":"WAPAKONETA","zip":"45895","geo_score":0.562,"id":"abo41meejhbm","address":"402 ASKLAND AVE BLDG D APT 7","geo_precision":"street","state":"OH"},"type":"Feature","geometry":{"type":"Point","coordinates":[-84.190872,40.57049]}},{"properties":{"city":"Wapakoneta","zip":"45895","geo_score":1.0,"id":"abo41m7hyvi9","address":"911 SPRINGWOOD LN","geo_precision":"range","state":"OH"},"type":"Feature","geometry":{"type":"Point","coordinates":[-84.205779,40.562037]}},{"properties":{"city":"ST MARYS","zip":"45885","geo_score":0.906,"id":"abo41m2wz6zp","address":"608 N AUGUSTUS","geo_precision":"range","state":"OH"},"type":"Feature","geometry":{"type":"Point","coordinates":[-84.39792,40.545598]}},{"properties":{"city":"Wapakoneta","zip":"45895","geo_score":0.805,"id":"abo41mhrooge","address":"11326 S Dixie Hwy 25A","geo_precision":"range","state":"OH"},"type":"Feature","geometry":{"type":"Point","coordinates":[-84.188312,40.517581]}},{"properties":{"city":"LIMA","zip":"45805","geo_score":1.0,"id":"abo41mehp3kp","address":"2650 BREEZEWOOD LN","geo_precision":"range","state":"OH"},"type":"Feature","geometry":{"type":"Point","coordinates":[-84.155176,40.702457]}},{"properties":{"city":"WAPAKONETA","zip":"45895","geo_score":1.0,"id":"abo41mhjog64","address":"16780 COUNTY ROAD 25A","geo_precision":"range","state":"OH"},"type":"Feature","geometry":{"type":"Point","coordinates":[-84.163919,40.59714]}},{"properties":{"city":"ST MARYS","zip":"45885","geo_score":0.864,"id":"abo41m1knz2v","address":"111 N ASH","geo_precision":"range","state":"OH"},"type":"Feature","geometry":{"type":"Point","coordinates":[-84.394815,40.541703]}},{"properties":{"city":"WAPAKONETA","zip":"45895","geo_score":0.841,"id":"abo41meeqa9n","address":"402 ASHLAND AVE BLDG F APT 6","geo_precision":"range","state":"OH"},"type":"Feature","geometry":{"type":"Point","coordinates":[-84.199885,40.558595]}},{"properties":{"city":"WAPAKONETA","zip":"45895","geo_score":1.0,"id":"abo41m25e8ak","address":"15131 BAY RD","geo_precision":"range","state":"OH"},"type":"Feature","geometry":{"type":"Point","coordinates":[-84.277757,40.571918]}},{"properties":{"city":"Wapakoneta","zip":"45895","geo_score":1.0,"id":"abo41mdbjb7h","address":"14617 Kettlersville Rd","geo_precision":"range","state":"OH"},"type":"Feature","geometry":{"type":"Point","coordinates":[-84.259836,40.563632]}},{"properties":{"city":"WAPAKONETA","zip":"45895","geo_score":0.947,"id":"abo41me9nthx","address":"402 ASHLAND E8","geo_precision":"range","state":"OH"},"type":"Feature","geometry":{"type":"Point","coordinates":[-84.199885,40.558595]}},{"properties":{"city":"ST MARYS","zip":"45885","geo_score":0.973,"id":"abo41m7fepda","address":"542 SOUTHWAY DR","geo_precision":"range","state":"OH"},"type":"Feature","geometry":{"type":"Point","coordinates":[-84.422703,40.544748]}},{"properties":{"city":"WAPAKONETA","zip":"45895","geo_score":0.814,"id":"abo41m7wgsjk","address":"18583 N DIXIE 25A","geo_precision":"range","state":"OH"},"type":"Feature","geometry":{"type":"Point","coordinates":[-84.144957,40.626332]}},{"properties":{"city":"ST MARYS","zip":"45885","geo_score":0.585,"id":"abo41m4okz6y","address":"701 ROLLING HILLS DR","geo_precision":"zip","state":"OH"},"type":"Feature","geometry":{"type":"Point","coordinates":[-84.424675,40.545325]}},{"properties":{"city":"LIMA","zip":"45806","geo_score":0.902,"id":"abo41m6tj0ky","address":"1860 SARA LEE","geo_precision":"range","state":"OH"},"type":"Feature","geometry":{"type":"Point","coordinates":[-84.134986,40.658791]}},{"properties":{"city":"ST MARYS","zip":"45885","geo_score":0.973,"id":"abo41mfp1wmp","address":"905 KIMBERLY DR","geo_precision":"range","state":"OH"},"type":"Feature","geometry":{"type":"Point","coordinates":[-84.410858,40.547367]}},{"properties":{"city":"ST MARYS","zip":"45885","geo_score":0.585,"id":"abo41mhqjncm","address":"2005 OXFORD DR","geo_precision":"zip","state":"OH"},"type":"Feature","geometry":{"type":"Point","coordinates":[-84.424675,40.545325]}},{"properties":{"city":"ST MARYS","zip":"45885","geo_score":0.886,"id":"abo41m57wbz7","address":"119 N WAYNE","geo_precision":"range","state":"OH"},"type":"Feature","geometry":{"type":"Point","coordinates":[-84.391973,40.542022]}},{"properties":{"city":"WAPAKONETA","zip":"45895","geo_score":0.902,"id":"abo41ma87xbf","address":"15 WILLIPIE APT 3R","geo_precision":"range","state":"OH"},"type":"Feature","geometry":{"type":"Point","coordinates":[-84.194059,40.570414]}},{"properties":{"city":"ST MARYS","zip":"45885","geo_score":0.864,"id":"abo41m9x4uof","address":"101 S ASH","geo_precision":"range","state":"OH"},"type":"Feature","geometry":{"type":"Point","coordinates":[-84.394156,40.540827]}},{"properties":{"city":"WAPAKONETA","zip":"45895","geo_score":0.91,"id":"abo41mgbio27","address":"402 ASHLAND APT D3","geo_precision":"range","state":"OH"},"type":"Feature","geometry":{"type":"Point","coordinates":[-84.199885,40.558595]}},{"properties":{"city":"ST MARYS","zip":"45885","geo_score":0.827,"id":"abo41m7d1g1q","address":"728 JAY","geo_precision":"range","state":"OH"},"type":"Feature","geometry":{"type":"Point","coordinates":[-84.394181,40.537546]}},{"properties":{"city":"ST MARYS","zip":"45885","geo_score":0.973,"id":"abo41m9tpb7c","address":"1223 KIMBERLY DR","geo_precision":"range","state":"OH"},"type":"Feature","geometry":{"type":"Point","coordinates":[-84.410559,40.551699]}},{"properties":{"city":"ST MARYS","zip":"45885","geo_score":0.973,"id":"abo41m79uv5c","address":"217 N PERRY ST","geo_precision":"range","state":"OH"},"type":"Feature","geometry":{"type":"Point","coordinates":[-84.394293,40.543064]}},{"properties":{"city":"WAPAKONETA","zip":"45895","geo_score":0.814,"id":"abo41mhnfn9h","address":"17437 N DIXIE 25A","geo_precision":"range","state":"OH"},"type":"Feature","geometry":{"type":"Point","coordinates":[-84.159548,40.604126]}},{"properties":{"city":"ST MARYS","zip":"45885","geo_score":0.932,"id":"abo41mcntsy4","address":"407 MCLAIN","geo_precision":"range","state":"OH"},"type":"Feature","geometry":{"type":"Point","coordinates":[-84.387713,40.531924]}},{"properties":{"city":"Wapakoneta","zip":"45895","geo_score":1.0,"id":"abo41m1fxm45","address":"13251 Ashburn Rd","geo_precision":"range","state":"OH"},"type":"Feature","geometry":{"type":"Point","coordinates":[-84.088573,40.554216]}},{"properties":{"city":"ST MARYS","zip":"45885","geo_score":0.894,"id":"abo41m8536d0","address":"516 COLUMBIA","geo_precision":"range","state":"OH"},"type":"Feature","geometry":{"type":"Point","coordinates":[-84.383504,40.547429]}},{"properties":{"city":"WAPAKONETA","zip":"45895","geo_score":0.719,"id":"abo41m1eiaef","address":"10 E PEARL","geo_precision":"street","state":"OH"},"type":"Feature","geometry":{"type":"Point","coordinates":[-84.192726,40.567841]}},{"properties":{"city":"ST MARYS","zip":"45885","geo_score":0.894,"id":"abo41m6usq59","address":"255 N SPRUCE","geo_precision":"range","state":"OH"},"type":"Feature","geometry":{"type":"Point","coordinates":[-84.385116,40.546344]}},{"properties":{"city":"WAPAKONETA","zip":"45895","geo_score":1.0,"id":"abo41mdxv1do","address":"9544 County Road 33A","geo_precision":"range","state":"OH"},"type":"Feature","geometry":{"type":"Point","coordinates":[-84.267508,40.560065]}},{"properties":{"city":"WAPAKONETA","zip":"45895","geo_score":1.0,"id":"abo41m73hin3","address":"825 HELEN DR","geo_precision":"range","state":"OH"},"type":"Feature","geometry":{"type":"Point","coordinates":[-84.209267,40.573048]}},{"properties":{"city":"ST MARYS","zip":"45885","geo_score":0.973,"id":"abo41m4onsmh","address":"505 LINDEN AVE","geo_precision":"range","state":"OH"},"type":"Feature","geometry":{"type":"Point","coordinates":[-84.40304,40.545648]}},{"properties":{"city":"Lima","zip":"45806","geo_score":0.927,"id":"abo41mbycu7r","address":"1901 Lyn Grove","geo_precision":"range","state":"OH"},"type":"Feature","geometry":{"type":"Point","coordinates":[-84.137475,40.659596]}},{"properties":{"city":"LIMA","zip":"45804","geo_score":0.875,"id":"abo41m1ms7g8","address":"1200 E KIBBY BLDG 8","geo_precision":"range","state":"OH"},"type":"Feature","geometry":{"type":"Point","coordinates":[-84.084109,40.730546]}},{"properties":{"city":"WAPAKONETA","zip":"45895","geo_score":0.585,"id":"abo41m9tm1nb","address":"18723 MUDSOCK RD","geo_precision":"zip","state":"OH"},"type":"Feature","geometry":{"type":"Point","coordinates":[-84.152138,40.582252]}},{"properties":{"city":"WAPAKONETA","zip":"45895","geo_score":0.733,"id":"abo41mfdxp4o","address":"202 EASTOWN DR APT 35","geo_precision":"street","state":"OH"},"type":"Feature","geometry":{"type":"Point","coordinates":[-84.176463,40.568128]}},{"properties":{"city":"ST MARYS","zip":"45885","geo_score":0.611,"id":"abo41m5ib54h","address":"926 WOODRIDGE DR","geo_precision":"street","state":"OH"},"type":"Feature","geometry":{"type":"Point","coordinates":[-84.160219,40.651928]}},{"properties":{"city":"WAPAKONETA","zip":"45895","geo_score":0.991,"id":"abo41m4wskow","address":"820 GLYNWOOD RD","geo_precision":"range","state":"OH"},"type":"Feature","geometry":{"type":"Point","coordinates":[-84.204252,40.575827]}},{"properties":{"city":"Wapakoneta","zip":"45895","geo_score":1.0,"id":"abo41maphtfj","address":"2 Willipie St.","geo_precision":"range","state":"OH"},"type":"Feature","geometry":{"type":"Point","coordinates":[-84.193981,40.570562]}},{"properties":{"city":"WAPAKONETA","zip":"45895","geo_score":0.841,"id":"abo41m3qhbl4","address":"402 ASHLAND AVE BLDG F APT 5","geo_precision":"range","state":"OH"},"type":"Feature","geometry":{"type":"Point","coordinates":[-84.199885,40.558595]}},{"properties":{"city":"St Marys","zip":"45885","geo_score":0.973,"id":"abo41m7d6nzm","address":"1822 Cheshire Dr","geo_precision":"range","state":"OH"},"type":"Feature","geometry":{"type":"Point","coordinates":[-84.413415,40.551039]}},{"properties":{"city":"ST MARYS","zip":"45895","geo_score":0.805,"id":"abo41m1ggzkn","address":"854 LAKE AVE","geo_precision":"range","state":"OH"},"type":"Feature","geometry":{"type":"Point","coordinates":[-84.393444,40.535715]}},{"properties":{"city":"WAPAKONETA","zip":"45895","geo_score":0.585,"id":"abo41mfrcjro","address":"502 N DIXIE","geo_precision":"zip","state":"OH"},"type":"Feature","geometry":{"type":"Point","coordinates":[-84.152138,40.582252]}},{"properties":{"city":"ST MARYS","zip":"45885","geo_score":0.876,"id":"abo41m6630zf","address":"409 N VINE","geo_precision":"range","state":"OH"},"type":"Feature","geometry":{"type":"Point","coordinates":[-84.381394,40.548958]}},{"properties":{"city":"WAPAKONETA","zip":"45895","geo_score":1.0,"id":"abo41m9lo53u","address":"816 HELEN DR","geo_precision":"range","state":"OH"},"type":"Feature","geometry":{"type":"Point","coordinates":[-84.207251,40.572892]}},{"properties":{"city":"ST MARYS","zip":"45885","geo_score":0.932,"id":"abo41mg6cl3h","address":"413 MCLAIN","geo_precision":"range","state":"OH"},"type":"Feature","geometry":{"type":"Point","coordinates":[-84.388094,40.531925]}},{"properties":{"city":"WAPAKONETA","zip":"45895","geo_score":0.814,"id":"abo41m320d5n","address":"13626 S DIXIE 25A","geo_precision":"range","state":"OH"},"type":"Feature","geometry":{"type":"Point","coordinates":[-84.192425,40.548536]}},{"properties":{"city":"Wapakoneta","zip":"45895","geo_score":1.0,"id":"abo41mg3k3hw","address":"16991 Hengstler Rd","geo_precision":"range","state":"OH"},"type":"Feature","geometry":{"type":"Point","coordinates":[-84.135314,40.606795]}},{"properties":{"city":"WAPAKONETA","zip":"45895","geo_score":0.733,"id":"abo41mgax7en","address":"202 EASTOWN DR APT 52","geo_precision":"street","state":"OH"},"type":"Feature","geometry":{"type":"Point","coordinates":[-84.176463,40.568128]}},{"properties":{"city":"Wapakoneta","zip":"45895","geo_score":0.733,"id":"abo41mgg2qfh","address":"202 Eastown Dr Apt 34","geo_precision":"street","state":"OH"},"type":"Feature","geometry":{"type":"Point","coordinates":[-84.176463,40.568128]}},{"properties":{"city":"LIMA","zip":"45805","geo_score":0.806,"id":"abo41m3fwhiv","address":"3058 STONEYBROOK DR","geo_precision":"street","state":"OH"},"type":"Feature","geometry":{"type":"Point","coordinates":[-84.159419,40.703157]}},{"properties":{"city":"WAPAKONETA","zip":"45895","geo_score":0.902,"id":"abo41m2c79v8","address":"16754 ST RT 67","geo_precision":"range","state":"OH"},"type":"Feature","geometry":{"type":"Point","coordinates":[-84.131712,40.599426]}},{"properties":{"city":"CRIDERSVILLE","zip":"45806","geo_score":0.805,"id":"abo41m4hdfh2","address":"19701 REICHELDERFER RD","geo_precision":"street","state":"OH"},"type":"Feature","geometry":{"type":"Point","coordinates":[-84.150842,40.651212]}},{"properties":{"city":"ST MARYS","zip":"45885","geo_score":0.973,"id":"abo41m50w7wz","address":"605 LINDEN AVE","geo_precision":"range","state":"OH"},"type":"Feature","geometry":{"type":"Point","coordinates":[-84.403019,40.546456]}},{"properties":{"city":"WAPAKONETA","zip":"45895","geo_score":0.585,"id":"abo41m52582l","address":"18716 MUDSOCK RD","geo_precision":"zip","state":"OH"},"type":"Feature","geometry":{"type":"Point","coordinates":[-84.152138,40.582252]}},{"properties":{"city":"WAPAKONETA","zip":"45895","geo_score":0.902,"id":"abo41m1gn4yq","address":"15867 ST RT 67","geo_precision":"range","state":"OH"},"type":"Feature","geometry":{"type":"Point","coordinates":[-84.152859,40.594358]}},{"properties":{"city":"WAPAKONETA","zip":"45895","geo_score":0.728,"id":"abo41m37jxnn","address":"202 EASTOWN APT 51","geo_precision":"street","state":"OH"},"type":"Feature","geometry":{"type":"Point","coordinates":[-84.176463,40.568128]}},{"properties":{"city":"WAPAKONETA","zip":"45895","geo_score":0.897,"id":"abo41m5mvw1s","address":"402 ASHLAND AVE APT 4","geo_precision":"range","state":"OH"},"type":"Feature","geometry":{"type":"Point","coordinates":[-84.199885,40.558595]}},{"properties":{"city":"WAPAKONETA","zip":"45895","geo_score":1.0,"id":"abo41mbg87fu","address":"12310 WAPAK-FREYBURG RD","geo_precision":"range","state":"OH"},"type":"Feature","geometry":{"type":"Point","coordinates":[-84.145386,40.535166]}},{"properties":{"city":"ST MARYS","zip":"45885","geo_score":0.973,"id":"abo41m32vd61","address":"114 BAYSHORE CT","geo_precision":"range","state":"OH"},"type":"Feature","geometry":{"type":"Point","coordinates":[-84.423584,40.544123]}},{"properties":{"city":"WAPAKONETA","zip":"45895","geo_score":1.0,"id":"abo41m9zhyim","address":"10627 RUPERT RD","geo_precision":"range","state":"OH"},"type":"Feature","geometry":{"type":"Point","coordinates":[-84.153381,40.506768]}},{"properties":{"city":"ST MARYS","zip":"45885","geo_score":0.973,"id":"abo41m2f46tr","address":"420 WOODWARD","geo_precision":"range","state":"OH"},"type":"Feature","geometry":{"type":"Point","coordinates":[-84.387768,40.532893]}},{"properties":{"city":"WAPAKONETA","zip":"45895","geo_score":1.0,"id":"abo41mbpfv9t","address":"10280 GLYNWOOD RD","geo_precision":"range","state":"OH"},"type":"Feature","geometry":{"type":"Point","coordinates":[-84.251908,40.581378]}},{"properties":{"city":"Wapakoneta","zip":"45895","geo_score":0.585,"id":"abo41meh685x","address":"615 N Dixie","geo_precision":"zip","state":"OH"},"type":"Feature","geometry":{"type":"Point","coordinates":[-84.152138,40.582252]}},{"properties":{"city":"WAPAKONETA","zip":"45895","geo_score":0.897,"id":"abo41ma36qfb","address":"402 ASHLAND AVE APT 4","geo_precision":"range","state":"OH"},"type":"Feature","geometry":{"type":"Point","coordinates":[-84.199885,40.558595]}},{"properties":{"city":"ST MARYS","zip":"45885","geo_score":0.973,"id":"abo41mf1pmw0","address":"1711 FENWAY CT","geo_precision":"range","state":"OH"},"type":"Feature","geometry":{"type":"Point","coordinates":[-84.412419,40.551659]}},{"properties":{"city":"ST MARYS","zip":"45885","geo_score":0.848,"id":"abo41mb7j3pa","address":"1106 MOTZ","geo_precision":"range","state":"OH"},"type":"Feature","geometry":{"type":"Point","coordinates":[-84.403617,40.546482]}},{"properties":{"city":"WAPAKONETA","zip":"45895","geo_score":1.0,"id":"abo41mg8d9fl","address":"16018 HENGSTLER RD","geo_precision":"range","state":"OH"},"type":"Feature","geometry":{"type":"Point","coordinates":[-84.146405,40.60657]}},{"properties":{"city":"ST MARYS","zip":"45885","geo_score":0.973,"id":"abo41messn33","address":"1113 ROBIN RD","geo_precision":"range","state":"OH"},"type":"Feature","geometry":{"type":"Point","coordinates":[-84.404686,40.549392]}},{"properties":{"city":"WAPAKONETA","zip":"45895","geo_score":1.0,"id":"abo41md6qq6j","address":"9304 COUNTY ROAD 33A","geo_precision":"range","state":"OH"},"type":"Feature","geometry":{"type":"Point","coordinates":[-84.27617,40.558869]}},{"properties":{"city":"WAPAKONETA","zip":"45895","geo_score":0.585,"id":"abo41mdgmwam","address":"18981 MUDSOCK RD","geo_precision":"zip","state":"OH"},"type":"Feature","geometry":{"type":"Point","coordinates":[-84.152138,40.582252]}},{"properties":{"city":"ST MARYS","zip":"45885","geo_score":0.973,"id":"abo41mcmint0","address":"1825 KINGSBURY DR","geo_precision":"range","state":"OH"},"type":"Feature","geometry":{"type":"Point","coordinates":[-84.414452,40.550247]}},{"properties":{"city":"ST MARYS","zip":"45885","geo_score":0.876,"id":"abo41m8e8f8c","address":"419 S MAIN","geo_precision":"range","state":"OH"},"type":"Feature","geometry":{"type":"Point","coordinates":[-84.387997,40.53844]}},{"properties":{"city":"WAPAKONETA","zip":"45895","geo_score":0.902,"id":"abo41meuu8wr","address":"17387 ST RT 67","geo_precision":"range","state":"OH"},"type":"Feature","geometry":{"type":"Point","coordinates":[-84.121115,40.599766]}},{"properties":{"city":"ST MARYS","zip":"45885","geo_score":0.886,"id":"abo41mcxkgie","address":"327 HUFFMAN","geo_precision":"range","state":"OH"},"type":"Feature","geometry":{"type":"Point","coordinates":[-84.386576,40.535649]}},{"properties":{"city":"ST MARYS","zip":"45885","geo_score":0.876,"id":"abo41megnhnt","address":"223 CHERRY","geo_precision":"range","state":"OH"},"type":"Feature","geometry":{"type":"Point","coordinates":[-84.392726,40.547923]}},{"properties":{"city":"ST MARYS","zip":"45885","geo_score":0.894,"id":"abo41m3i92t7","address":"612 E SPRING","geo_precision":"range","state":"OH"},"type":"Feature","geometry":{"type":"Point","coordinates":[-84.380939,40.546032]}},{"properties":{"city":"WAPAKONETA","zip":"45895","geo_score":1.0,"id":"abo41mdv7qph","address":"14661 INFIRMARY RD","geo_precision":"range","state":"OH"},"type":"Feature","geometry":{"type":"Point","coordinates":[-84.178493,40.591873]}},{"properties":{"city":"ST MARYS","zip":"45885","geo_score":0.867,"id":"abo41m9fize4","address":"337 CONCORD","geo_precision":"range","state":"OH"},"type":"Feature","geometry":{"type":"Point","coordinates":[-84.400902,40.54304]}},{"properties":{"city":"LIMA","zip":"45805","geo_score":0.497,"id":"abo41mb9fucb","address":"2999 MORNING SUN","geo_precision":"street","state":"OH"},"type":"Feature","geometry":{"type":"Point","coordinates":[-84.193472,40.78102]}},{"properties":{"city":"ST MARYS","zip":"45885","geo_score":0.318,"id":"abo41mfreh91","address":"625 W HIHG","geo_precision":"street","state":"OH"},"type":"Feature","geometry":{"type":"Point","coordinates":[-84.528387,40.543274]}},{"properties":{"city":"WPAKONETA","zip":"45895","geo_score":0.585,"id":"abo41m547bmo","address":"18209 MUDSOCK RD","geo_precision":"zip","state":"OH"},"type":"Feature","geometry":{"type":"Point","coordinates":[-84.152138,40.582252]}},{"properties":{"city":"ST MARYS","zip":"45885","geo_score":0.827,"id":"abo41m454d3o","address":"814 OIL","geo_precision":"range","state":"OH"},"type":"Feature","geometry":{"type":"Point","coordinates":[-84.379117,40.549959]}},{"properties":{"city":"Lima","zip":"45805","geo_score":0.807,"id":"abo41mdon4on","address":"2998 Stoneybrook Dr","geo_precision":"street","state":"OH"},"type":"Feature","geometry":{"type":"Point","coordinates":[-84.159419,40.703157]}},{"properties":{"city":"LIMA","zip":"45801","geo_score":0.92,"id":"abo41m5idsdq","address":"300 W MARKET","geo_precision":"range","state":"OH"},"type":"Feature","geometry":{"type":"Point","coordinates":[-84.1085,40.740007]}},{"properties":{"city":"Wapakoneta","zip":"45895","geo_score":0.787,"id":"abo41mh5so36","address":"17443 Townline Lima Rd","geo_precision":"street","state":"OH"},"type":"Feature","geometry":{"type":"Point","coordinates":[-84.107852,40.651122]}},{"properties":{"city":"Wapakoneta","zip":"45895","geo_score":1.0,"id":"abo41mfae5a2","address":"8902 County Road 33A","geo_precision":"range","state":"OH"},"type":"Feature","geometry":{"type":"Point","coordinates":[-84.288692,40.557466]}},{"properties":{"city":"ST MARYS","zip":"45885","geo_score":0.973,"id":"abo41m7jlec9","address":"136 LAGO VUE CT","geo_precision":"range","state":"OH"},"type":"Feature","geometry":{"type":"Point","coordinates":[-84.431463,40.511697]}},{"properties":{"city":"WAPAKONETA","zip":"45895","geo_score":0.585,"id":"abo41m6z20do","address":"17782 MUDSOCK RD","geo_precision":"zip","state":"OH"},"type":"Feature","geometry":{"type":"Point","coordinates":[-84.152138,40.582252]}},{"properties":{"city":"ST MARYS","zip":"45885","geo_score":0.886,"id":"abo41m4tmzi7","address":"814 EDWARDS","geo_precision":"range","state":"OH"},"type":"Feature","geometry":{"type":"Point","coordinates":[-84.399466,40.545752]}},{"properties":{"city":"ST MARYS","zip":"45885","geo_score":0.864,"id":"abo41mgssaf1","address":"1106 ROBIN","geo_precision":"range","state":"OH"},"type":"Feature","geometry":{"type":"Point","coordinates":[-84.405361,40.549539]}},{"properties":{"city":"ST MARYS","zip":"45885","geo_score":0.876,"id":"abo41m7l3j0f","address":"147 WATERCREST","geo_precision":"range","state":"OH"},"type":"Feature","geometry":{"type":"Point","coordinates":[-84.429839,40.546093]}},{"properties":{"city":"WAPAKONETA","zip":"45895","geo_score":0.902,"id":"abo41melvvwb","address":"17886 ST RT 67","geo_precision":"range","state":"OH"},"type":"Feature","geometry":{"type":"Point","coordinates":[-84.10851,40.599768]}},{"properties":{"city":"WAPAKONETA","zip":"45895","geo_score":0.814,"id":"abo41m8l3v52","address":"16920 N DIXIE 25A","geo_precision":"range","state":"OH"},"type":"Feature","geometry":{"type":"Point","coordinates":[-84.160777,40.601874]}},{"properties":{"city":"ST MARYS","zip":"45885","geo_score":0.894,"id":"abo41mcv5j46","address":"526 W SPRING","geo_precision":"range","state":"OH"},"type":"Feature","geometry":{"type":"Point","coordinates":[-84.393325,40.541193]}},{"properties":{"city":"LIMA","zip":"45805","geo_score":1.0,"id":"abo41m7m5f5r","address":"1331 W MARKET ST","geo_precision":"range","state":"OH"},"type":"Feature","geometry":{"type":"Point","coordinates":[-84.131519,40.73994]}},{"properties":{"city":"WAPAKONETA","zip":"45895","geo_score":1.0,"id":"abo41m8qofow","address":"13904 BAY RD","geo_precision":"range","state":"OH"},"type":"Feature","geometry":{"type":"Point","coordinates":[-84.277787,40.551327]}},{"properties":{"city":"Lima","zip":"45805","geo_score":0.575,"id":"abo41mhr266l","address":"2935 Fort Amanda Rd","geo_precision":"street","state":"OH"},"type":"Feature","geometry":{"type":"Point","coordinates":[-84.119924,40.736008]}},{"properties":{"city":"LIMA","zip":"45806","geo_score":1.0,"id":"abo41m75u411","address":"1835 HUNTINGTON DR","geo_precision":"range","state":"OH"},"type":"Feature","geometry":{"type":"Point","coordinates":[-84.135353,40.660508]}},{"properties":{"city":"Wapakoneta","zip":"45895","geo_score":1.0,"id":"abo41m6ucrc9","address":"2 Willipie St.","geo_precision":"range","state":"OH"},"type":"Feature","geometry":{"type":"Point","coordinates":[-84.193981,40.570562]}},{"properties":{"city":"Wapakoneta","zip":"45895","geo_score":1.0,"id":"abo41m3mppql","address":"2 Willipie St.","geo_precision":"range","state":"OH"},"type":"Feature","geometry":{"type":"Point","coordinates":[-84.193981,40.570562]}},{"properties":{"city":"Cridersville","zip":"45806","geo_score":1.0,"id":"abo41mc33nse","address":"N Waverly St","geo_precision":"street","state":"OH"},"type":"Feature","geometry":{"type":"Point","coordinates":[-84.142245,40.655285]}},{"properties":{"city":"Wapakoneta","zip":"45895","geo_score":1.0,"id":"abo41meyqt8y","address":"402 Industrial Dr","geo_precision":"range","state":"OH"},"type":"Feature","geometry":{"type":"Point","coordinates":[-84.18849,40.558418]}},{"properties":{"city":"St. Marys","zip":"45885","geo_score":0.857,"id":"abo41md9lvjb","address":"155 E. High Street","geo_precision":"zip","state":"OH"},"type":"Feature","geometry":{"type":"Point","coordinates":[-84.424675,40.545325]}},{"properties":{"city":"Wapak","zip":"45895","geo_score":0.951,"id":"abo41m8lah4y","address":"2 Willipie St","geo_precision":"range","state":"OH"},"type":"Feature","geometry":{"type":"Point","coordinates":[-84.193981,40.570562]}},{"properties":{"city":"WAPAKONETA","zip":"45895","geo_score":1.0,"id":"abo41m3l9zak","address":"2 WILLIPIE ST","geo_precision":"range","state":"OH"},"type":"Feature","geometry":{"type":"Point","coordinates":[-84.193981,40.570562]}},{"properties":{"city":"Wapakoneta","zip":"45895","geo_score":0.92,"id":"abo41mb9dwj3","address":"2 Willipie","geo_precision":"range","state":"OH"},"type":"Feature","geometry":{"type":"Point","coordinates":[-84.193981,40.570562]}},{"properties":{"city":"Wapakoneta","zip":"45895","geo_score":0.92,"id":"abo41m2kr1vo","address":"2 Willipie","geo_precision":"range","state":"OH"},"type":"Feature","geometry":{"type":"Point","coordinates":[-84.193981,40.570562]}},{"properties":{"city":"WAPAKONETA","zip":"45895","geo_score":0.733,"id":"abo41mg26v6d","address":"202 EASTOWN DR APT 21","geo_precision":"street","state":"OH"},"type":"Feature","geometry":{"type":"Point","coordinates":[-84.176463,40.568128]}},{"properties":{"city":"ST MARYS","zip":"45885","geo_score":0.973,"id":"abo41mb62xhb","address":"321 CONCORD AVE","geo_precision":"range","state":"OH"},"type":"Feature","geometry":{"type":"Point","coordinates":[-84.400894,40.54332]}},{"properties":{"city":"Wapakoneta","zip":"45895","geo_score":0.878,"id":"abo41meububz","address":"14329 Bay Rd","geo_precision":"range","state":"OH"},"type":"Feature","geometry":{"type":"Point","coordinates":[-84.277739,40.562574]}},{"properties":{"city":"LIMA","zip":"45805","geo_score":0.808,"id":"abo41mb3a8ak","address":"2956 STONEYBROOK DR","geo_precision":"street","state":"OH"},"type":"Feature","geometry":{"type":"Point","coordinates":[-84.159419,40.703157]}},{"properties":{"city":"ST MARYS","zip":"45885","geo_score":0.876,"id":"abo41m81jzes","address":"708 S MAIN","geo_precision":"range","state":"OH"},"type":"Feature","geometry":{"type":"Point","coordinates":[-84.384459,40.533159]}},{"properties":{"city":"WAPAKONETA","zip":"45895","geo_score":1.0,"id":"abo41manj4gu","address":"10390 COUNTY ROAD 25A","geo_precision":"range","state":"OH"},"type":"Feature","geometry":{"type":"Point","coordinates":[-84.186316,40.502443]}},{"properties":{"city":"WAPAKONETA","zip":"45895","geo_score":0.902,"id":"abo41mbkhw3m","address":"17231 ST RT 67","geo_precision":"range","state":"OH"},"type":"Feature","geometry":{"type":"Point","coordinates":[-84.125504,40.5997]}},{"properties":{"city":"ST MARYS","zip":"45885","geo_score":0.973,"id":"abo41mbfmffa","address":"614 CAMDEN AVE","geo_precision":"range","state":"OH"},"type":"Feature","geometry":{"type":"Point","coordinates":[-84.399237,40.554521]}},{"properties":{"city":"ST MARYS","zip":"45885","geo_score":0.973,"id":"abo41m3gecms","address":"621 INDIANA AVE","geo_precision":"range","state":"OH"},"type":"Feature","geometry":{"type":"Point","coordinates":[-84.397824,40.546888]}},{"properties":{"city":"Wapakoneta","zip":"45855","geo_score":0.702,"id":"abo41mct8qku","address":"402 Ashland Ave Apt B8","geo_precision":"range","state":"OH"},"type":"Feature","geometry":{"type":"Point","coordinates":[-84.199885,40.558595]}},{"properties":{"city":"WAPAKONETA","zip":"45895","geo_score":0.585,"id":"abo41m99ollu","address":"110 E HARRISION","geo_precision":"zip","state":"OH"},"type":"Feature","geometry":{"type":"Point","coordinates":[-84.152138,40.582252]}},{"properties":{"city":"WAPAKONETA","zip":"45895","geo_score":0.841,"id":"abo41m4fonaf","address":"402 ASHLAND AVE BLDG C APT 7","geo_precision":"range","state":"OH"},"type":"Feature","geometry":{"type":"Point","coordinates":[-84.199885,40.558595]}},{"properties":{"city":"WAPAKONETA","zip":"45895","geo_score":1.0,"id":"abo41mefpmxz","address":"15099 BAY RD","geo_precision":"range","state":"OH"},"type":"Feature","geometry":{"type":"Point","coordinates":[-84.277718,40.56697]}},{"properties":{"city":"WAPAKONETA","zip":"45895","geo_score":0.902,"id":"abo41mchtbe2","address":"16982 ST RT 67","geo_precision":"range","state":"OH"},"type":"Feature","geometry":{"type":"Point","coordinates":[-84.130391,40.599454]}},{"properties":{"city":"WAPAKONETA","zip":"45895","geo_score":0.665,"id":"abo41m38v8tv","address":"16720 TOWNLINE LIMA RD","geo_precision":"street","state":"OH"},"type":"Feature","geometry":{"type":"Point","coordinates":[-84.107852,40.651122]}},{"properties":{"city":"Wapakoneta","zip":"45895","geo_score":1.0,"id":"abo41mclkvvm","address":"18026 Town Line Road","geo_precision":"range","state":"OH"},"type":"Feature","geometry":{"type":"Point","coordinates":[-84.107566,40.61736]}},{"properties":{"city":"WAPAKONETA","zip":"45895","geo_score":0.814,"id":"abo41mdr5wg1","address":"18825 N DIXIE 25A","geo_precision":"range","state":"OH"},"type":"Feature","geometry":{"type":"Point","coordinates":[-84.147287,40.622685]}},{"properties":{"city":"ST MARYS","zip":"45885","geo_score":0.876,"id":"abo41m94lng9","address":"701 OLIVER","geo_precision":"range","state":"OH"},"type":"Feature","geometry":{"type":"Point","coordinates":[-84.393886,40.536581]}},{"properties":{"city":"ST MARYS","zip":"45885","geo_score":0.906,"id":"abo41mco3yre","address":"126 N AUGUSTUS","geo_precision":"range","state":"OH"},"type":"Feature","geometry":{"type":"Point","coordinates":[-84.398402,40.539564]}},{"properties":{"city":"ST MARYS","zip":"45885","geo_score":0.769,"id":"abo41m6omfsw","address":"801 W SOUTH","geo_precision":"range","state":"OH"},"type":"Feature","geometry":{"type":"Point","coordinates":[-84.395733,40.539009]}},{"properties":{"city":"ST MARYS","zip":"45885","geo_score":0.894,"id":"abo41mhe2l2k","address":"327 N SPRUCE","geo_precision":"range","state":"OH"},"type":"Feature","geometry":{"type":"Point","coordinates":[-84.38511,40.54757]}},{"properties":{"city":"WAPAKONETA","zip":"45895","geo_score":0.91,"id":"abo41mccwauj","address":"402 ASHLAND APT G3","geo_precision":"range","state":"OH"},"type":"Feature","geometry":{"type":"Point","coordinates":[-84.199885,40.558595]}},{"properties":{"city":"ST MARYS","zip":"45885","geo_score":0.739,"id":"abo41m9y11ky","address":"109 OAKWOOD","geo_precision":"street","state":"OH"},"type":"Feature","geometry":{"type":"Point","coordinates":[-84.35015,40.546364]}},{"properties":{"city":"Wapakoneta","zip":"45895","geo_score":1.0,"id":"abo41mbx4tki","address":"16946 Blank Pike","geo_precision":"range","state":"OH"},"type":"Feature","geometry":{"type":"Point","coordinates":[-84.129441,40.58492]}},{"properties":{"city":"ST MARYS","zip":"45885","geo_score":0.886,"id":"abo41m55l321","address":"417 N WAYNE","geo_precision":"range","state":"OH"},"type":"Feature","geometry":{"type":"Point","coordinates":[-84.394311,40.545762]}},{"properties":{"city":"LIMA","zip":"45801","geo_score":0.805,"id":"abo41mecj7nt","address":"1424 RICE AVE","geo_precision":"range","state":"OH"},"type":"Feature","geometry":{"type":"Point","coordinates":[-84.132335,40.747254]}},{"properties":{"city":"ST MARYS","zip":"45885","geo_score":0.851,"id":"abo41mfaa3bj","address":"910 HEATHER DR","geo_precision":"range","state":"OH"},"type":"Feature","geometry":{"type":"Point","coordinates":[-84.408956,40.547895]}},{"properties":{"city":"ST MARYS","zip":"45885","geo_score":0.585,"id":"abo41me2rrt7","address":"124 S BUCKEYE","geo_precision":"zip","state":"OH"},"type":"Feature","geometry":{"type":"Point","coordinates":[-84.424675,40.545325]}},{"properties":{"city":"ST MARYS","zip":"45885","geo_score":0.973,"id":"abo41meszfu4","address":"128 WINDSOR DR","geo_precision":"range","state":"OH"},"type":"Feature","geometry":{"type":"Point","coordinates":[-84.406258,40.541806]}},{"properties":{"city":"Wapakoneta","zip":"45895","geo_score":1.0,"id":"abo41m5eb11j","address":"16497 Pusheta Rd","geo_precision":"range","state":"OH"},"type":"Feature","geometry":{"type":"Point","coordinates":[-84.138289,40.526359]}},{"properties":{"city":"Wapakoneta","zip":"45895","geo_score":0.951,"id":"abo41m6qr6k5","address":"12146 Canning Factory","geo_precision":"range","state":"OH"},"type":"Feature","geometry":{"type":"Point","coordinates":[-84.217591,40.554908]}},{"properties":{"city":"WAPAKONETA","zip":"45895","geo_score":0.92,"id":"abo41mbfjxqb","address":"402 ASHLAND C9","geo_precision":"range","state":"OH"},"type":"Feature","geometry":{"type":"Point","coordinates":[-84.199885,40.558595]}},{"properties":{"city":"WAPAKONETA","zip":"45895","geo_score":1.0,"id":"abo41m38afi0","address":"16030 MIDDLE PIKE","geo_precision":"range","state":"OH"},"type":"Feature","geometry":{"type":"Point","coordinates":[-84.14165,40.570142]}},{"properties":{"city":"WAPAKONETA","zip":"45895","geo_score":1.0,"id":"abo41m475e3v","address":"14244 INFIRMARY RD","geo_precision":"range","state":"OH"},"type":"Feature","geometry":{"type":"Point","coordinates":[-84.172256,40.591793]}},{"properties":{"city":"CRIDERSVILLE","zip":"45806","geo_score":0.596,"id":"abo41m5jskky","address":"19143 WAPAK CRIDERSVILLE RD","geo_precision":"street","state":"OH"},"type":"Feature","geometry":{"type":"Point","coordinates":[-84.203539,40.66099]}},{"properties":{"city":"Wapakonet","zip":"45895","geo_score":0.99,"id":"abo41mdj7unh","address":"14002 Pusheta Rd","geo_precision":"range","state":"OH"},"type":"Feature","geometry":{"type":"Point","coordinates":[-84.177685,40.526017]}}],"is_temporal":false,"author":{"url":"","metadata":null,"contact_name":null,"contact_address":null,"source":null,"contact_phone":null},"source":"","pagination":{"sort":null,"start":0,"total":307,"limit":1000000},"state":"complete","tags":"","published":"2014-08-16T18:22:36-04:00","id":313776}