{"type":"FeatureCollection","data_type":"Dataset","url_type":null,"permissions":[{"permissions":{"download":true,"view":true},"group_id":"everyone"}],"classification":null,"title":"Major and Minor Markets in The US.","count":366,"stream_id":313726,"contributor":{"url":"http://geocommons.com/users/45691","name":"CalebChase"},"data_attributes":null,"calculation_params":null,"icon_link":null,"link":"http://geocommons.com/overlays/313726.json","extent":[-157.858,21.3069,-68.7778,64.8378],"geometry_types":["point"],"unique_name":null,"name":"Major and Minor Markets in The US.","feature_count":366,"description":"Major and Minor Markets in The US.","next_feature":null,"is_raster":false,"short_classification":"Y","stats":{"latitude":{"max":64.83778,"mean":38.0438389617487,"variance":29.5964400923677,"stdev":5.4402610316388,"median":38.83388,"min":21.30694},"longitude":{"max":-68.77781,"mean":-92.428673715847,"variance":240.8695930967,"stdev":15.5199740043822,"median":-87.63002,"min":-157.85833}},"features":[{"properties":{"name":"Abilene","latitude":32.44874,"longitude":-99.73314,"id":"abo0okfkmi7y","state":"TX"},"type":"Feature","geometry":{"type":"Point","coordinates":[-99.73314,32.44874]}},{"properties":{"name":"Akron","latitude":41.08144,"longitude":-81.51901,"id":"abo0okmwseng","state":"OH"},"type":"Feature","geometry":{"type":"Point","coordinates":[-81.51901,41.08144]}},{"properties":{"name":"Albany","latitude":31.57851,"longitude":-84.15574,"id":"abo0oko6wdvt","state":"GA"},"type":"Feature","geometry":{"type":"Point","coordinates":[-84.15574,31.57851]}},{"properties":{"name":"Albany-Schenectady-Troy","latitude":42.5989,"longitude":-74.70969,"id":"abo0okir6o0x","state":"NY"},"type":"Feature","geometry":{"type":"Point","coordinates":[-74.70969,42.5989]}},{"properties":{"name":"Albuquerque","latitude":35.1107,"longitude":-106.60999,"id":"abo0okonwnqn","state":"NM"},"type":"Feature","geometry":{"type":"Point","coordinates":[-106.60999,35.1107]}},{"properties":{"name":"Alexandria","latitude":31.31129,"longitude":-92.44514,"id":"abo0okctc2ez","state":"LA"},"type":"Feature","geometry":{"type":"Point","coordinates":[-92.44514,31.31129]}},{"properties":{"name":"Allentown-Bethlehem-Easton","latitude":40.64499,"longitude":-75.36454,"id":"abo0okaqwtfp","state":"PA-NJ"},"type":"Feature","geometry":{"type":"Point","coordinates":[-75.36454,40.64499]}},{"properties":{"name":"Altoona","latitude":40.51868,"longitude":-78.39474,"id":"abo0okiz7dc1","state":"PA"},"type":"Feature","geometry":{"type":"Point","coordinates":[-78.39474,40.51868]}},{"properties":{"name":"Amarillo","latitude":35.222,"longitude":-101.8313,"id":"abo0okb45d04","state":"TX"},"type":"Feature","geometry":{"type":"Point","coordinates":[-101.8313,35.222]}},{"properties":{"name":"Ames","latitude":42.02335,"longitude":-93.62562,"id":"abo0oknsjxjq","state":"IA"},"type":"Feature","geometry":{"type":"Point","coordinates":[-93.62562,42.02335]}},{"properties":{"name":"Anchorage","latitude":61.21806,"longitude":-149.90028,"id":"abo0okn4g7dk","state":"AK"},"type":"Feature","geometry":{"type":"Point","coordinates":[-149.90028,61.21806]}},{"properties":{"name":"Anderson","latitude":40.10532,"longitude":-85.68025,"id":"abo0okh6favm","state":"IN"},"type":"Feature","geometry":{"type":"Point","coordinates":[-85.68025,40.10532]}},{"properties":{"name":"Anderson","latitude":34.50344,"longitude":-82.65013,"id":"abo0oki76rmu","state":"SC"},"type":"Feature","geometry":{"type":"Point","coordinates":[-82.65013,34.50344]}},{"properties":{"name":"Ann Arbor","latitude":42.28083,"longitude":-83.74304,"id":"abo0oko58xmn","state":"MI"},"type":"Feature","geometry":{"type":"Point","coordinates":[-83.74304,42.28083]}},{"properties":{"name":"Anniston-Oxford","latitude":33.61478,"longitude":-85.78575,"id":"abo0ok96o7ba","state":"AL"},"type":"Feature","geometry":{"type":"Point","coordinates":[-85.78575,33.61478]}},{"properties":{"name":"Appleton","latitude":44.26193,"longitude":-88.41538,"id":"abo0okf6qo5t","state":"WI"},"type":"Feature","geometry":{"type":"Point","coordinates":[-88.41538,44.26193]}},{"properties":{"name":"Asheville","latitude":35.60095,"longitude":-82.55402,"id":"abo0oke8032a","state":"NC"},"type":"Feature","geometry":{"type":"Point","coordinates":[-82.55402,35.60095]}},{"properties":{"name":"Athens-Clarke County","latitude":33.95,"longitude":-83.38333,"id":"abo0okkcnxqz","state":"GA"},"type":"Feature","geometry":{"type":"Point","coordinates":[-83.38333,33.95]}},{"properties":{"name":"Atlanta-Sandy Springs-Marietta","latitude":33.88833,"longitude":-84.46416,"id":"abo0okkdl0fr","state":"GA"},"type":"Feature","geometry":{"type":"Point","coordinates":[-84.46416,33.88833]}},{"properties":{"name":"Atlantic City-Hammonton","latitude":39.63651,"longitude":-74.80239,"id":"abo0oklm2ai3","state":"NJ"},"type":"Feature","geometry":{"type":"Point","coordinates":[-74.80239,39.63651]}},{"properties":{"name":"Auburn-Opelika","latitude":32.6091,"longitude":-85.44038,"id":"abo0okcx5lzz","state":"AL"},"type":"Feature","geometry":{"type":"Point","coordinates":[-85.44038,32.6091]}},{"properties":{"name":"Augusta-Richmond County","latitude":33.4735,"longitude":-82.01051,"id":"abo0oko05z3l","state":"GA-SC"},"type":"Feature","geometry":{"type":"Point","coordinates":[-82.01051,33.4735]}},{"properties":{"name":"Austin-Round Rock-San Marcos","latitude":29.88327,"longitude":-97.94139,"id":"abo0okcfy437","state":"TX"},"type":"Feature","geometry":{"type":"Point","coordinates":[-97.94139,29.88327]}},{"properties":{"name":"Bakersfield-Delano","latitude":35.76884,"longitude":-119.24705,"id":"abo0okddzca7","state":"CA"},"type":"Feature","geometry":{"type":"Point","coordinates":[-119.24705,35.76884]}},{"properties":{"name":"Baltimore-Towson","latitude":39.4015,"longitude":-76.60191,"id":"abo0ok8nwdzc","state":"MD"},"type":"Feature","geometry":{"type":"Point","coordinates":[-76.60191,39.4015]}},{"properties":{"name":"Bangor","latitude":44.80118,"longitude":-68.77781,"id":"abo0okagr1p0","state":"ME"},"type":"Feature","geometry":{"type":"Point","coordinates":[-68.77781,44.80118]}},{"properties":{"name":"Barnstable Town","latitude":41.7,"longitude":-70.3,"id":"abo0okbgyd8y","state":"MA"},"type":"Feature","geometry":{"type":"Point","coordinates":[-70.3,41.7]}},{"properties":{"name":"Baton Rouge","latitude":30.45828,"longitude":-91.14032,"id":"abo0okieuok4","state":"LA"},"type":"Feature","geometry":{"type":"Point","coordinates":[-91.14032,30.45828]}},{"properties":{"name":"Battle Creek","latitude":42.32115,"longitude":-85.17971,"id":"abo0okhp8f5f","state":"MI"},"type":"Feature","geometry":{"type":"Point","coordinates":[-85.17971,42.32115]}},{"properties":{"name":"Bay City","latitude":43.59447,"longitude":-83.88886,"id":"abo0okbjs4s6","state":"MI"},"type":"Feature","geometry":{"type":"Point","coordinates":[-83.88886,43.59447]}},{"properties":{"name":"Beaumont-Port Arthur","latitude":29.98518,"longitude":-94.06134,"id":"abo0okcujvqj","state":"TX"},"type":"Feature","geometry":{"type":"Point","coordinates":[-94.06134,29.98518]}},{"properties":{"name":"Bellingham","latitude":48.75955,"longitude":-122.48822,"id":"abo0okfiqh21","state":"WA"},"type":"Feature","geometry":{"type":"Point","coordinates":[-122.48822,48.75955]}},{"properties":{"name":"Bend","latitude":44.05817,"longitude":-121.31531,"id":"abo0okk60g47","state":"OR"},"type":"Feature","geometry":{"type":"Point","coordinates":[-121.31531,44.05817]}},{"properties":{"name":"Billings","latitude":45.78329,"longitude":-108.50069,"id":"abo0ok8n1ybv","state":"MT"},"type":"Feature","geometry":{"type":"Point","coordinates":[-108.50069,45.78329]}},{"properties":{"name":"Binghamton","latitude":42.09869,"longitude":-75.91797,"id":"abo0okckmo4n","state":"NY"},"type":"Feature","geometry":{"type":"Point","coordinates":[-75.91797,42.09869]}},{"properties":{"name":"Birmingham-Hoover","latitude":33.37863,"longitude":-86.80449,"id":"abo0oko343gs","state":"AL"},"type":"Feature","geometry":{"type":"Point","coordinates":[-86.80449,33.37863]}},{"properties":{"name":"Bismarck","latitude":46.80833,"longitude":-100.78374,"id":"abo0okdj39kd","state":"ND"},"type":"Feature","geometry":{"type":"Point","coordinates":[-100.78374,46.80833]}},{"properties":{"name":"Blacksburg-Christiansburg-Radford","latitude":37.13179,"longitude":-80.57645,"id":"abo0okbdrzkq","state":"VA"},"type":"Feature","geometry":{"type":"Point","coordinates":[-80.57645,37.13179]}},{"properties":{"name":"Bloomington","latitude":39.16533,"longitude":-86.52639,"id":"abo0ok8lxiyv","state":"IN"},"type":"Feature","geometry":{"type":"Point","coordinates":[-86.52639,39.16533]}},{"properties":{"name":"Bloomington-Normal","latitude":40.4842,"longitude":-88.99369,"id":"abo0okjvz7op","state":"IL"},"type":"Feature","geometry":{"type":"Point","coordinates":[-88.99369,40.4842]}},{"properties":{"name":"Boise City-Nampa","latitude":43.591,"longitude":-116.27679,"id":"abo0ok8ptxxr","state":"ID"},"type":"Feature","geometry":{"type":"Point","coordinates":[-116.27679,43.591]}},{"properties":{"name":"Boston-Cambridge-Quincy","latitude":43.19385,"longitude":-71.5724,"id":"abo0okl17b58","state":"MA-NH"},"type":"Feature","geometry":{"type":"Point","coordinates":[-71.5724,43.19385]}},{"properties":{"name":"Boulder","latitude":40.01499,"longitude":-105.27055,"id":"abo0ok971157","state":"CO"},"type":"Feature","geometry":{"type":"Point","coordinates":[-105.27055,40.01499]}},{"properties":{"name":"Bowling Green","latitude":36.99032,"longitude":-86.4436,"id":"abo0okb6mw1b","state":"KY"},"type":"Feature","geometry":{"type":"Point","coordinates":[-86.4436,36.99032]}},{"properties":{"name":"Bremerton-Silverdale","latitude":47.57155,"longitude":-122.63882,"id":"abo0ok9wqvdy","state":"WA"},"type":"Feature","geometry":{"type":"Point","coordinates":[-122.63882,47.57155]}},{"properties":{"name":"Bridgeport-Stamford-Norwalk","latitude":41.09939,"longitude":-73.57119,"id":"abo0ok9qppqm","state":"CT"},"type":"Feature","geometry":{"type":"Point","coordinates":[-73.57119,41.09939]}},{"properties":{"name":"Brownsville-Harlingen","latitude":25.97285,"longitude":-97.51231,"id":"abo0okjh4yem","state":"TX"},"type":"Feature","geometry":{"type":"Point","coordinates":[-97.51231,25.97285]}},{"properties":{"name":"Brunswick","latitude":31.14995,"longitude":-81.49149,"id":"abo0oknqgxit","state":"GA"},"type":"Feature","geometry":{"type":"Point","coordinates":[-81.49149,31.14995]}},{"properties":{"name":"Buffalo-Niagara Falls","latitude":43.00263,"longitude":-78.82231,"id":"abo0okkok6mb","state":"NY"},"type":"Feature","geometry":{"type":"Point","coordinates":[-78.82231,43.00263]}},{"properties":{"name":"Burlington","latitude":36.09569,"longitude":-79.4378,"id":"abo0okhnfrp8","state":"NC"},"type":"Feature","geometry":{"type":"Point","coordinates":[-79.4378,36.09569]}},{"properties":{"name":"Burlington-South Burlington","latitude":44.432,"longitude":-73.17128,"id":"abo0okcp1dh3","state":"VT"},"type":"Feature","geometry":{"type":"Point","coordinates":[-73.17128,44.432]}},{"properties":{"name":"Canton-Massillon","latitude":40.8605,"longitude":-81.4823,"id":"abo0okec8glu","state":"OH"},"type":"Feature","geometry":{"type":"Point","coordinates":[-81.4823,40.8605]}},{"properties":{"name":"Cape Coral-Fort Myers","latitude":26.66303,"longitude":-81.95348,"id":"abo0okgzoxlz","state":"FL"},"type":"Feature","geometry":{"type":"Point","coordinates":[-81.95348,26.66303]}},{"properties":{"name":"Cape Girardeau-Jackson","latitude":37.38227,"longitude":-89.66621,"id":"abo0oko3x49t","state":"MO-IL"},"type":"Feature","geometry":{"type":"Point","coordinates":[-89.66621,37.38227]}},{"properties":{"name":"Carson City","latitude":39.1638,"longitude":-119.7674,"id":"abo0okf6wxlb","state":"NV"},"type":"Feature","geometry":{"type":"Point","coordinates":[-119.7674,39.1638]}},{"properties":{"name":"Casper","latitude":42.86663,"longitude":-106.31308,"id":"abo0oke5upd6","state":"WY"},"type":"Feature","geometry":{"type":"Point","coordinates":[-106.31308,42.86663]}},{"properties":{"name":"Cedar Rapids","latitude":41.97788,"longitude":-91.66562,"id":"abo0okkx4z05","state":"IA"},"type":"Feature","geometry":{"type":"Point","coordinates":[-91.66562,41.97788]}},{"properties":{"name":"Champaign-Urbana","latitude":40.11059,"longitude":-88.20727,"id":"abo0okfbvfx5","state":"IL"},"type":"Feature","geometry":{"type":"Point","coordinates":[-88.20727,40.11059]}},{"properties":{"name":"Charleston","latitude":38.34982,"longitude":-81.63262,"id":"abo0oklamoia","state":"WV"},"type":"Feature","geometry":{"type":"Point","coordinates":[-81.63262,38.34982]}},{"properties":{"name":"Charleston-North Charleston-Summerville","latitude":32.9393,"longitude":-80.04232,"id":"abo0okdd3raf","state":"SC"},"type":"Feature","geometry":{"type":"Point","coordinates":[-80.04232,32.9393]}},{"properties":{"name":"Charlotte-Gastonia-Rock Hill","latitude":33.83608,"longitude":-81.16372,"id":"abo0okjp8o1p","state":"NC-SC"},"type":"Feature","geometry":{"type":"Point","coordinates":[-81.16372,33.83608]}},{"properties":{"name":"Charlottesville","latitude":38.02931,"longitude":-78.47668,"id":"abo0oke6hvko","state":"VA"},"type":"Feature","geometry":{"type":"Point","coordinates":[-78.47668,38.02931]}},{"properties":{"name":"Chattanooga","latitude":35.03822,"longitude":-85.35497,"id":"abo0okcrfnir","state":"TN-GA"},"type":"Feature","geometry":{"type":"Point","coordinates":[-85.35497,35.03822]}},{"properties":{"name":"Cheyenne","latitude":41.13998,"longitude":-104.82025,"id":"abo0ok97m4u8","state":"WY"},"type":"Feature","geometry":{"type":"Point","coordinates":[-104.82025,41.13998]}},{"properties":{"name":"Chicago-Joliet-Naperville","latitude":41.74351,"longitude":-88.01185,"id":"abo0okeyh0ad","state":"IL-IN-WI"},"type":"Feature","geometry":{"type":"Point","coordinates":[-88.01185,41.74351]}},{"properties":{"name":"Chico","latitude":39.72849,"longitude":-121.83748,"id":"abo0okn7u9x3","state":"CA"},"type":"Feature","geometry":{"type":"Point","coordinates":[-121.83748,39.72849]}},{"properties":{"name":"Cincinnati-Middletown","latitude":39.42414,"longitude":-84.18571,"id":"abo0okl9edf8","state":"OH-KY-IN"},"type":"Feature","geometry":{"type":"Point","coordinates":[-84.18571,39.42414]}},{"properties":{"name":"Clarksville","latitude":36.75976,"longitude":-87.69755,"id":"abo0oka190u0","state":"TN-KY"},"type":"Feature","geometry":{"type":"Point","coordinates":[-87.69755,36.75976]}},{"properties":{"name":"Cleveland","latitude":35.15952,"longitude":-84.87661,"id":"abo0okneuzwr","state":"TN"},"type":"Feature","geometry":{"type":"Point","coordinates":[-84.87661,35.15952]}},{"properties":{"name":"Cleveland-Elyria-Mentor","latitude":41.66616,"longitude":-81.33955,"id":"abo0okl0o34t","state":"OH"},"type":"Feature","geometry":{"type":"Point","coordinates":[-81.33955,41.66616]}},{"properties":{"name":"Coeur d'Alene","latitude":47.67768,"longitude":-116.78047,"id":"abo0okgw88bv","state":"ID"},"type":"Feature","geometry":{"type":"Point","coordinates":[-116.78047,47.67768]}},{"properties":{"name":"College Station-Bryan","latitude":30.61301,"longitude":-96.34043,"id":"abo0okgf7qna","state":"TX"},"type":"Feature","geometry":{"type":"Point","coordinates":[-96.34043,30.61301]}},{"properties":{"name":"Colorado Springs","latitude":38.83388,"longitude":-104.82136,"id":"abo0ok9y6srx","state":"CO"},"type":"Feature","geometry":{"type":"Point","coordinates":[-104.82136,38.83388]}},{"properties":{"name":"Columbia","latitude":38.95171,"longitude":-92.33407,"id":"abo0okd0zp3s","state":"MO"},"type":"Feature","geometry":{"type":"Point","coordinates":[-92.33407,38.95171]}},{"properties":{"name":"Columbia","latitude":34.00071,"longitude":-81.03481,"id":"abo0okosyslg","state":"SC"},"type":"Feature","geometry":{"type":"Point","coordinates":[-81.03481,34.00071]}},{"properties":{"name":"Columbus","latitude":32.52287,"longitude":-84.85679,"id":"abo0ok8bm3qf","state":"GA-AL"},"type":"Feature","geometry":{"type":"Point","coordinates":[-84.85679,32.52287]}},{"properties":{"name":"Columbus","latitude":39.20144,"longitude":-85.92138,"id":"abo0oka9n7ys","state":"IN"},"type":"Feature","geometry":{"type":"Point","coordinates":[-85.92138,39.20144]}},{"properties":{"name":"Columbus","latitude":39.96118,"longitude":-82.99879,"id":"abo0okl0o5iu","state":"OH"},"type":"Feature","geometry":{"type":"Point","coordinates":[-82.99879,39.96118]}},{"properties":{"name":"Corpus Christi","latitude":27.80058,"longitude":-97.39638,"id":"abo0ok9k71zm","state":"TX"},"type":"Feature","geometry":{"type":"Point","coordinates":[-97.39638,27.80058]}},{"properties":{"name":"Corvallis","latitude":44.56457,"longitude":-123.26204,"id":"abo0okbc0czt","state":"OR"},"type":"Feature","geometry":{"type":"Point","coordinates":[-123.26204,44.56457]}},{"properties":{"name":"Crestview-Fort Walton Beach-Destin","latitude":30.03345,"longitude":-85.54279,"id":"abo0okcq25m9","state":"FL"},"type":"Feature","geometry":{"type":"Point","coordinates":[-85.54279,30.03345]}},{"properties":{"name":"Cumberland","latitude":39.56171,"longitude":-78.79295,"id":"abo0okfhqyx3","state":"MD-WV"},"type":"Feature","geometry":{"type":"Point","coordinates":[-78.79295,39.56171]}},{"properties":{"name":"Dallas-Fort Worth-Arlington","latitude":32.73569,"longitude":-97.10807,"id":"abo0okoddgu8","state":"TX"},"type":"Feature","geometry":{"type":"Point","coordinates":[-97.10807,32.73569]}},{"properties":{"name":"Dalton","latitude":34.7698,"longitude":-84.97022,"id":"abo0ok9legez","state":"GA"},"type":"Feature","geometry":{"type":"Point","coordinates":[-84.97022,34.7698]}},{"properties":{"name":"Danville","latitude":40.12448,"longitude":-87.63002,"id":"abo0okmj27fn","state":"IL"},"type":"Feature","geometry":{"type":"Point","coordinates":[-87.63002,40.12448]}},{"properties":{"name":"Danville","latitude":36.58597,"longitude":-79.39502,"id":"abo0okbb2j8u","state":"VA"},"type":"Feature","geometry":{"type":"Point","coordinates":[-79.39502,36.58597]}},{"properties":{"name":"Davenport-Moline-Rock Island","latitude":41.44037,"longitude":-90.45024,"id":"abo0ok9pae2z","state":"IA-IL"},"type":"Feature","geometry":{"type":"Point","coordinates":[-90.45024,41.44037]}},{"properties":{"name":"Dayton","latitude":39.75895,"longitude":-84.19161,"id":"abo0okevyj1j","state":"OH"},"type":"Feature","geometry":{"type":"Point","coordinates":[-84.19161,39.75895]}},{"properties":{"name":"Decatur","latitude":34.60593,"longitude":-86.98334,"id":"abo0okdpf6kh","state":"AL"},"type":"Feature","geometry":{"type":"Point","coordinates":[-86.98334,34.60593]}},{"properties":{"name":"Decatur","latitude":39.84031,"longitude":-88.9548,"id":"abo0okjq1puj","state":"IL"},"type":"Feature","geometry":{"type":"Point","coordinates":[-88.9548,39.84031]}},{"properties":{"name":"Deltona-Daytona Beach-Ormond Beach","latitude":29.28581,"longitude":-81.05589,"id":"abo0okhh0edg","state":"FL"},"type":"Feature","geometry":{"type":"Point","coordinates":[-81.05589,29.28581]}},{"properties":{"name":"Denver-Aurora-Broomfield","latitude":39.92054,"longitude":-105.08665,"id":"abo0ok8ko05y","state":"CO"},"type":"Feature","geometry":{"type":"Point","coordinates":[-105.08665,39.92054]}},{"properties":{"name":"Des Moines-West Des Moines","latitude":41.57721,"longitude":-93.71133,"id":"abo0okjv78un","state":"IA"},"type":"Feature","geometry":{"type":"Point","coordinates":[-93.71133,41.57721]}},{"properties":{"name":"Detroit-Warren-Livonia","latitude":42.81054,"longitude":-83.07909,"id":"abo0okh5nhk9","state":"MI"},"type":"Feature","geometry":{"type":"Point","coordinates":[-83.07909,42.81054]}},{"properties":{"name":"Dothan","latitude":31.22323,"longitude":-85.39049,"id":"abo0oklr17l2","state":"AL"},"type":"Feature","geometry":{"type":"Point","coordinates":[-85.39049,31.22323]}},{"properties":{"name":"Dover","latitude":39.15817,"longitude":-75.52437,"id":"abo0ok8h98n0","state":"DE"},"type":"Feature","geometry":{"type":"Point","coordinates":[-75.52437,39.15817]}},{"properties":{"name":"Dubuque","latitude":42.50056,"longitude":-90.66457,"id":"abo0oka87d75","state":"IA"},"type":"Feature","geometry":{"type":"Point","coordinates":[-90.66457,42.50056]}},{"properties":{"name":"Duluth","latitude":47.73951,"longitude":-92.36239,"id":"abo0okdktd3a","state":"MN-WI"},"type":"Feature","geometry":{"type":"Point","coordinates":[-92.36239,47.73951]}},{"properties":{"name":"Durham-Chapel Hill","latitude":35.9132,"longitude":-79.05584,"id":"abo0okcn17uy","state":"NC"},"type":"Feature","geometry":{"type":"Point","coordinates":[-79.05584,35.9132]}},{"properties":{"name":"Eau Claire","latitude":44.81135,"longitude":-91.49849,"id":"abo0okj54ger","state":"WI"},"type":"Feature","geometry":{"type":"Point","coordinates":[-91.49849,44.81135]}},{"properties":{"name":"El Centro","latitude":32.792,"longitude":-115.56305,"id":"abo0okfi5l21","state":"CA"},"type":"Feature","geometry":{"type":"Point","coordinates":[-115.56305,32.792]}},{"properties":{"name":"Elizabethtown","latitude":37.70306,"longitude":-85.86494,"id":"abo0okcob7m6","state":"KY"},"type":"Feature","geometry":{"type":"Point","coordinates":[-85.86494,37.70306]}},{"properties":{"name":"Elkhart-Goshen","latitude":41.58227,"longitude":-85.83444,"id":"abo0okgqusfd","state":"IN"},"type":"Feature","geometry":{"type":"Point","coordinates":[-85.83444,41.58227]}},{"properties":{"name":"Elmira","latitude":42.0898,"longitude":-76.80773,"id":"abo0oko0w4pl","state":"NY"},"type":"Feature","geometry":{"type":"Point","coordinates":[-76.80773,42.0898]}},{"properties":{"name":"El Paso","latitude":31.75872,"longitude":-106.48693,"id":"abo0okdpettz","state":"TX"},"type":"Feature","geometry":{"type":"Point","coordinates":[-106.48693,31.75872]}},{"properties":{"name":"Erie","latitude":42.12922,"longitude":-80.08506,"id":"abo0okdxpit5","state":"PA"},"type":"Feature","geometry":{"type":"Point","coordinates":[-80.08506,42.12922]}},{"properties":{"name":"Eugene-Springfield","latitude":43.96101,"longitude":-122.66182,"id":"abo0okhiv7q3","state":"OR"},"type":"Feature","geometry":{"type":"Point","coordinates":[-122.66182,43.96101]}},{"properties":{"name":"Evansville","latitude":38.03912,"longitude":-87.61864,"id":"abo0ok96i4wg","state":"IN-KY"},"type":"Feature","geometry":{"type":"Point","coordinates":[-87.61864,38.03912]}},{"properties":{"name":"Fairbanks","latitude":64.83778,"longitude":-147.71639,"id":"abo0okmnsipt","state":"AK"},"type":"Feature","geometry":{"type":"Point","coordinates":[-147.71639,64.83778]}},{"properties":{"name":"Fargo","latitude":47.07117,"longitude":-97.12156,"id":"abo0okle8sh2","state":"ND-MN"},"type":"Feature","geometry":{"type":"Point","coordinates":[-97.12156,47.07117]}},{"properties":{"name":"Farmington","latitude":36.72806,"longitude":-108.21869,"id":"abo0ok9m2aal","state":"NM"},"type":"Feature","geometry":{"type":"Point","coordinates":[-108.21869,36.72806]}},{"properties":{"name":"Fayetteville","latitude":35.05266,"longitude":-78.87836,"id":"abo0okdkaz7y","state":"NC"},"type":"Feature","geometry":{"type":"Point","coordinates":[-78.87836,35.05266]}},{"properties":{"name":"Fayetteville-Springdale-Rogers","latitude":36.06258,"longitude":-94.15743,"id":"abo0oka97jva","state":"AR-MO"},"type":"Feature","geometry":{"type":"Point","coordinates":[-94.15743,36.06258]}},{"properties":{"name":"Flagstaff","latitude":35.20135,"longitude":-111.63925,"id":"abo0okecmaky","state":"AZ"},"type":"Feature","geometry":{"type":"Point","coordinates":[-111.63925,35.20135]}},{"properties":{"name":"Flint","latitude":43.01253,"longitude":-83.68746,"id":"abo0okfpbyd6","state":"MI"},"type":"Feature","geometry":{"type":"Point","coordinates":[-83.68746,43.01253]}},{"properties":{"name":"Florence","latitude":34.19543,"longitude":-79.76256,"id":"abo0ok9bgfaq","state":"SC"},"type":"Feature","geometry":{"type":"Point","coordinates":[-79.76256,34.19543]}},{"properties":{"name":"Florence-Muscle Shoals","latitude":34.74481,"longitude":-87.66753,"id":"abo0okg8hvwh","state":"AL"},"type":"Feature","geometry":{"type":"Point","coordinates":[-87.66753,34.74481]}},{"properties":{"name":"Fond du Lac","latitude":43.77304,"longitude":-88.44705,"id":"abo0okgod6o9","state":"WI"},"type":"Feature","geometry":{"type":"Point","coordinates":[-88.44705,43.77304]}},{"properties":{"name":"Fort Collins-Loveland","latitude":40.44763,"longitude":-105.01089,"id":"abo0okhngw3s","state":"CO"},"type":"Feature","geometry":{"type":"Point","coordinates":[-105.01089,40.44763]}},{"properties":{"name":"Fort Smith","latitude":35.30469,"longitude":-94.56244,"id":"abo0okkbaj19","state":"AR-OK"},"type":"Feature","geometry":{"type":"Point","coordinates":[-94.56244,35.30469]}},{"properties":{"name":"Fort Wayne","latitude":41.07927,"longitude":-85.13935,"id":"abo0okfx7mhm","state":"IN"},"type":"Feature","geometry":{"type":"Point","coordinates":[-85.13935,41.07927]}},{"properties":{"name":"Fresno","latitude":36.74684,"longitude":-119.77259,"id":"abo0ok9efydm","state":"CA"},"type":"Feature","geometry":{"type":"Point","coordinates":[-119.77259,36.74684]}},{"properties":{"name":"Gadsden","latitude":34.01426,"longitude":-86.00664,"id":"abo0okh4rlay","state":"AL"},"type":"Feature","geometry":{"type":"Point","coordinates":[-86.00664,34.01426]}},{"properties":{"name":"Gainesville","latitude":29.65163,"longitude":-82.32483,"id":"abo0okb3svtr","state":"FL"},"type":"Feature","geometry":{"type":"Point","coordinates":[-82.32483,29.65163]}},{"properties":{"name":"Gainesville","latitude":34.29788,"longitude":-83.82407,"id":"abo0okgyagm9","state":"GA"},"type":"Feature","geometry":{"type":"Point","coordinates":[-83.82407,34.29788]}},{"properties":{"name":"Glens Falls","latitude":43.30952,"longitude":-73.64401,"id":"abo0okn8vhla","state":"NY"},"type":"Feature","geometry":{"type":"Point","coordinates":[-73.64401,43.30952]}},{"properties":{"name":"Goldsboro","latitude":35.38488,"longitude":-77.99277,"id":"abo0oki84r3l","state":"NC"},"type":"Feature","geometry":{"type":"Point","coordinates":[-77.99277,35.38488]}},{"properties":{"name":"Grand Forks","latitude":48.00378,"longitude":-97.35945,"id":"abo0okbr17eq","state":"ND-MN"},"type":"Feature","geometry":{"type":"Point","coordinates":[-97.35945,48.00378]}},{"properties":{"name":"Grand Junction","latitude":39.06387,"longitude":-108.55065,"id":"abo0okc5dsbx","state":"CO"},"type":"Feature","geometry":{"type":"Point","coordinates":[-108.55065,39.06387]}},{"properties":{"name":"Grand Rapids-Wyoming","latitude":42.88457,"longitude":-85.71945,"id":"abo0okmjcumr","state":"MI"},"type":"Feature","geometry":{"type":"Point","coordinates":[-85.71945,42.88457]}},{"properties":{"name":"Great Falls","latitude":47.50024,"longitude":-111.30081,"id":"abo0oknr64ul","state":"MT"},"type":"Feature","geometry":{"type":"Point","coordinates":[-111.30081,47.50024]}},{"properties":{"name":"Greeley","latitude":40.42331,"longitude":-104.70913,"id":"abo0okmpymni","state":"CO"},"type":"Feature","geometry":{"type":"Point","coordinates":[-104.70913,40.42331]}},{"properties":{"name":"Green Bay","latitude":44.51916,"longitude":-88.01983,"id":"abo0okc8njr4","state":"WI"},"type":"Feature","geometry":{"type":"Point","coordinates":[-88.01983,44.51916]}},{"properties":{"name":"Greensboro-High Point","latitude":36.07264,"longitude":-79.79198,"id":"abo0okmp1q40","state":"NC"},"type":"Feature","geometry":{"type":"Point","coordinates":[-79.79198,36.07264]}},{"properties":{"name":"Greenville","latitude":35.61266,"longitude":-77.36635,"id":"abo0ok8fs73q","state":"NC"},"type":"Feature","geometry":{"type":"Point","coordinates":[-77.36635,35.61266]}},{"properties":{"name":"Greenville-Mauldin-Easley","latitude":34.83998,"longitude":-82.626,"id":"abo0okgivqi8","state":"SC"},"type":"Feature","geometry":{"type":"Point","coordinates":[-82.626,34.83998]}},{"properties":{"name":"Gulfport-Biloxi","latitude":30.41338,"longitude":-89.07296,"id":"abo0okizn3nz","state":"MS"},"type":"Feature","geometry":{"type":"Point","coordinates":[-89.07296,30.41338]}},{"properties":{"name":"Hagerstown-Martinsburg","latitude":38.59763,"longitude":-80.4549,"id":"abo0okkpha05","state":"MD-WV"},"type":"Feature","geometry":{"type":"Point","coordinates":[-80.4549,38.59763]}},{"properties":{"name":"Hanford-Corcoran","latitude":36.32745,"longitude":-119.64568,"id":"abo0okkm0bkf","state":"CA"},"type":"Feature","geometry":{"type":"Point","coordinates":[-119.64568,36.32745]}},{"properties":{"name":"Harrisburg-Carlisle","latitude":40.22904,"longitude":-77.14834,"id":"abo0okhjy5i8","state":"PA"},"type":"Feature","geometry":{"type":"Point","coordinates":[-77.14834,40.22904]}},{"properties":{"name":"Harrisonburg","latitude":38.44957,"longitude":-78.86892,"id":"abo0okmo3maa","state":"VA"},"type":"Feature","geometry":{"type":"Point","coordinates":[-78.86892,38.44957]}},{"properties":{"name":"Hartford-West Hartford-East Hartford","latitude":41.76638,"longitude":-72.67303,"id":"abo0okfnv6sx","state":"CT"},"type":"Feature","geometry":{"type":"Point","coordinates":[-72.67303,41.76638]}},{"properties":{"name":"Hattiesburg","latitude":31.32712,"longitude":-89.29034,"id":"abo0okai1gy0","state":"MS"},"type":"Feature","geometry":{"type":"Point","coordinates":[-89.29034,31.32712]}},{"properties":{"name":"Hickory-Lenoir-Morganton","latitude":35.75699,"longitude":-81.68683,"id":"abo0okegr230","state":"NC"},"type":"Feature","geometry":{"type":"Point","coordinates":[-81.68683,35.75699]}},{"properties":{"name":"Hinesville-Fort Stewart","latitude":31.98731,"longitude":-81.60351,"id":"abo0okl7ucec","state":"GA"},"type":"Feature","geometry":{"type":"Point","coordinates":[-81.60351,31.98731]}},{"properties":{"name":"Holland-Grand Haven","latitude":42.99338,"longitude":-86.21875,"id":"abo0okgl5exj","state":"MI"},"type":"Feature","geometry":{"type":"Point","coordinates":[-86.21875,42.99338]}},{"properties":{"name":"Honolulu","latitude":21.30694,"longitude":-157.85833,"id":"abo0okbffmfo","state":"HI"},"type":"Feature","geometry":{"type":"Point","coordinates":[-157.85833,21.30694]}},{"properties":{"name":"Hot Springs","latitude":34.5037,"longitude":-93.05518,"id":"abo0oklvfg2x","state":"AR"},"type":"Feature","geometry":{"type":"Point","coordinates":[-93.05518,34.5037]}},{"properties":{"name":"Houma-Bayou Cane-Thibodaux","latitude":29.6303,"longitude":-90.75646,"id":"abo0okndb130","state":"LA"},"type":"Feature","geometry":{"type":"Point","coordinates":[-90.75646,29.6303]}},{"properties":{"name":"Houston-Sugar Land-Baytown","latitude":29.7355,"longitude":-94.97743,"id":"abo0okm3xx7z","state":"TX"},"type":"Feature","geometry":{"type":"Point","coordinates":[-94.97743,29.7355]}},{"properties":{"name":"Huntington-Ashland","latitude":40.41729,"longitude":-82.90712,"id":"abo0okcqtdga","state":"WV-KY-OH"},"type":"Feature","geometry":{"type":"Point","coordinates":[-82.90712,40.41729]}},{"properties":{"name":"Huntsville","latitude":34.73037,"longitude":-86.5861,"id":"abo0okbkbbyr","state":"AL"},"type":"Feature","geometry":{"type":"Point","coordinates":[-86.5861,34.73037]}},{"properties":{"name":"Idaho Falls","latitude":43.49165,"longitude":-112.03396,"id":"abo0okdld9ur","state":"ID"},"type":"Feature","geometry":{"type":"Point","coordinates":[-112.03396,43.49165]}},{"properties":{"name":"Indianapolis-Carmel","latitude":39.97837,"longitude":-86.11804,"id":"abo0okhiqnka","state":"IN"},"type":"Feature","geometry":{"type":"Point","coordinates":[-86.11804,39.97837]}},{"properties":{"name":"Iowa City","latitude":41.66113,"longitude":-91.53017,"id":"abo0okblvm6w","state":"IA"},"type":"Feature","geometry":{"type":"Point","coordinates":[-91.53017,41.66113]}},{"properties":{"name":"Ithaca","latitude":42.44396,"longitude":-76.50188,"id":"abo0oketjh37","state":"NY"},"type":"Feature","geometry":{"type":"Point","coordinates":[-76.50188,42.44396]}},{"properties":{"name":"Jackson","latitude":42.24587,"longitude":-84.40135,"id":"abo0okmcobr0","state":"MI"},"type":"Feature","geometry":{"type":"Point","coordinates":[-84.40135,42.24587]}},{"properties":{"name":"Jackson","latitude":32.29876,"longitude":-90.18481,"id":"abo0okjxd5zu","state":"MS"},"type":"Feature","geometry":{"type":"Point","coordinates":[-90.18481,32.29876]}},{"properties":{"name":"Jackson","latitude":35.61452,"longitude":-88.81395,"id":"abo0okb1wo70","state":"TN"},"type":"Feature","geometry":{"type":"Point","coordinates":[-88.81395,35.61452]}},{"properties":{"name":"Jacksonville","latitude":30.33218,"longitude":-81.65565,"id":"abo0ok9iumo9","state":"FL"},"type":"Feature","geometry":{"type":"Point","coordinates":[-81.65565,30.33218]}},{"properties":{"name":"Jacksonville","latitude":34.75405,"longitude":-77.43024,"id":"abo0oka1kt6f","state":"NC"},"type":"Feature","geometry":{"type":"Point","coordinates":[-77.43024,34.75405]}},{"properties":{"name":"Janesville","latitude":42.68279,"longitude":-89.01872,"id":"abo0okmclsl7","state":"WI"},"type":"Feature","geometry":{"type":"Point","coordinates":[-89.01872,42.68279]}},{"properties":{"name":"Jefferson City","latitude":38.5767,"longitude":-92.17352,"id":"abo0okir8uxi","state":"MO"},"type":"Feature","geometry":{"type":"Point","coordinates":[-92.17352,38.5767]}},{"properties":{"name":"Johnson City","latitude":36.31344,"longitude":-82.35347,"id":"abo0okb7so8m","state":"TN"},"type":"Feature","geometry":{"type":"Point","coordinates":[-82.35347,36.31344]}},{"properties":{"name":"Johnstown","latitude":40.32674,"longitude":-78.92197,"id":"abo0okh476a2","state":"PA"},"type":"Feature","geometry":{"type":"Point","coordinates":[-78.92197,40.32674]}},{"properties":{"name":"Jonesboro","latitude":35.8423,"longitude":-90.70428,"id":"abo0okfc21br","state":"AR"},"type":"Feature","geometry":{"type":"Point","coordinates":[-90.70428,35.8423]}},{"properties":{"name":"Joplin","latitude":37.08423,"longitude":-94.51328,"id":"abo0okbhbp43","state":"MO"},"type":"Feature","geometry":{"type":"Point","coordinates":[-94.51328,37.08423]}},{"properties":{"name":"Kalamazoo-Portage","latitude":42.20115,"longitude":-85.58,"id":"abo0okhk21cl","state":"MI"},"type":"Feature","geometry":{"type":"Point","coordinates":[-85.58,42.20115]}},{"properties":{"name":"Kankakee-Bradley","latitude":41.14198,"longitude":-87.86115,"id":"abo0okmn3bos","state":"IL"},"type":"Feature","geometry":{"type":"Point","coordinates":[-87.86115,41.14198]}},{"properties":{"name":"Kansas City","latitude":39.06536,"longitude":-94.56244,"id":"abo0oklfhs3t","state":"MO-KS"},"type":"Feature","geometry":{"type":"Point","coordinates":[-94.56244,39.06536]}},{"properties":{"name":"Kennewick-Pasco-Richland","latitude":46.10931,"longitude":-119.19948,"id":"abo0okoe0m6k","state":"WA"},"type":"Feature","geometry":{"type":"Point","coordinates":[-119.19948,46.10931]}},{"properties":{"name":"Killeen-Temple-Fort Hood","latitude":31.13,"longitude":-97.78,"id":"abo0okizfide","state":"TX"},"type":"Feature","geometry":{"type":"Point","coordinates":[-97.78,31.13]}},{"properties":{"name":"Kingsport-Bristol-Bristol","latitude":36.63745,"longitude":-82.42717,"id":"abo0okc99dyg","state":"TN-VA"},"type":"Feature","geometry":{"type":"Point","coordinates":[-82.42717,36.63745]}},{"properties":{"name":"Kingston","latitude":41.92704,"longitude":-73.99736,"id":"abo0okiw7uov","state":"NY"},"type":"Feature","geometry":{"type":"Point","coordinates":[-73.99736,41.92704]}},{"properties":{"name":"Knoxville","latitude":35.96064,"longitude":-83.92074,"id":"abo0oka4hcef","state":"TN"},"type":"Feature","geometry":{"type":"Point","coordinates":[-83.92074,35.96064]}},{"properties":{"name":"Kokomo","latitude":40.48643,"longitude":-86.1336,"id":"abo0ok95c5j9","state":"IN"},"type":"Feature","geometry":{"type":"Point","coordinates":[-86.1336,40.48643]}},{"properties":{"name":"La Crosse","latitude":43.70517,"longitude":-91.44347,"id":"abo0okddevos","state":"WI-MN"},"type":"Feature","geometry":{"type":"Point","coordinates":[-91.44347,43.70517]}},{"properties":{"name":"Lafayette","latitude":40.4167,"longitude":-86.87529,"id":"abo0okeds8i1","state":"IN"},"type":"Feature","geometry":{"type":"Point","coordinates":[-86.87529,40.4167]}},{"properties":{"name":"Lafayette","latitude":30.22409,"longitude":-92.01984,"id":"abo0ok8w0sz4","state":"LA"},"type":"Feature","geometry":{"type":"Point","coordinates":[-92.01984,30.22409]}},{"properties":{"name":"Lake Charles","latitude":30.22659,"longitude":-93.21738,"id":"abo0okcgv15i","state":"LA"},"type":"Feature","geometry":{"type":"Point","coordinates":[-93.21738,30.22659]}},{"properties":{"name":"Lake Havasu City-Kingman","latitude":34.91777,"longitude":-114.15705,"id":"abo0okf1e5j2","state":"AZ"},"type":"Feature","geometry":{"type":"Point","coordinates":[-114.15705,34.91777]}},{"properties":{"name":"Lakeland-Winter Haven","latitude":28.02224,"longitude":-81.73286,"id":"abo0okhtpza2","state":"FL"},"type":"Feature","geometry":{"type":"Point","coordinates":[-81.73286,28.02224]}},{"properties":{"name":"Lancaster","latitude":40.03788,"longitude":-76.30551,"id":"abo0okirtl1s","state":"PA"},"type":"Feature","geometry":{"type":"Point","coordinates":[-76.30551,40.03788]}},{"properties":{"name":"Lansing-East Lansing","latitude":42.76484,"longitude":-84.50734,"id":"abo0ok9iujqy","state":"MI"},"type":"Feature","geometry":{"type":"Point","coordinates":[-84.50734,42.76484]}},{"properties":{"name":"Laredo","latitude":27.50641,"longitude":-99.50754,"id":"abo0okofk6yl","state":"TX"},"type":"Feature","geometry":{"type":"Point","coordinates":[-99.50754,27.50641]}},{"properties":{"name":"Las Cruces","latitude":32.31994,"longitude":-106.76365,"id":"abo0okktu9a0","state":"NM"},"type":"Feature","geometry":{"type":"Point","coordinates":[-106.76365,32.31994]}},{"properties":{"name":"Las Vegas-Paradise","latitude":36.09719,"longitude":-115.14666,"id":"abo0okgtpu3c","state":"NV"},"type":"Feature","geometry":{"type":"Point","coordinates":[-115.14666,36.09719]}},{"properties":{"name":"Lawrence","latitude":38.97167,"longitude":-95.23525,"id":"abo0okekve0q","state":"KS"},"type":"Feature","geometry":{"type":"Point","coordinates":[-95.23525,38.97167]}},{"properties":{"name":"Lawton","latitude":34.60357,"longitude":-98.39593,"id":"abo0okbaqqyn","state":"OK"},"type":"Feature","geometry":{"type":"Point","coordinates":[-98.39593,34.60357]}},{"properties":{"name":"Lebanon","latitude":40.34093,"longitude":-76.41135,"id":"abo0okhwiz7u","state":"PA"},"type":"Feature","geometry":{"type":"Point","coordinates":[-76.41135,40.34093]}},{"properties":{"name":"Lewiston","latitude":46.31137,"longitude":-117.04561,"id":"abo0okhkmmsu","state":"ID-WA"},"type":"Feature","geometry":{"type":"Point","coordinates":[-117.04561,46.31137]}},{"properties":{"name":"Lewiston-Auburn","latitude":44.09395,"longitude":-70.15829,"id":"abo0okc536g1","state":"ME"},"type":"Feature","geometry":{"type":"Point","coordinates":[-70.15829,44.09395]}},{"properties":{"name":"Lexington-Fayette","latitude":38.04058,"longitude":-84.50372,"id":"abo0okomf5o3","state":"KY"},"type":"Feature","geometry":{"type":"Point","coordinates":[-84.50372,38.04058]}},{"properties":{"name":"Lima","latitude":40.74255,"longitude":-84.10523,"id":"abo0okhtzncf","state":"OH"},"type":"Feature","geometry":{"type":"Point","coordinates":[-84.10523,40.74255]}},{"properties":{"name":"Lincoln","latitude":40.80686,"longitude":-96.68168,"id":"abo0okkm70dj","state":"NE"},"type":"Feature","geometry":{"type":"Point","coordinates":[-96.68168,40.80686]}},{"properties":{"name":"Little Rock-North Little Rock-Conway","latitude":34.72694,"longitude":-92.33449,"id":"abo0okmqq822","state":"AR"},"type":"Feature","geometry":{"type":"Point","coordinates":[-92.33449,34.72694]}},{"properties":{"name":"Logan","latitude":41.90777,"longitude":-111.76147,"id":"abo0okcho7pz","state":"UT-ID"},"type":"Feature","geometry":{"type":"Point","coordinates":[-111.76147,41.90777]}},{"properties":{"name":"Longview","latitude":32.5007,"longitude":-94.74049,"id":"abo0okl6udit","state":"TX"},"type":"Feature","geometry":{"type":"Point","coordinates":[-94.74049,32.5007]}},{"properties":{"name":"Longview","latitude":46.13817,"longitude":-122.93817,"id":"abo0okn8l3yt","state":"WA"},"type":"Feature","geometry":{"type":"Point","coordinates":[-122.93817,46.13817]}},{"properties":{"name":"Los Angeles-Long Beach-Santa Ana","latitude":34.05961,"longitude":-118.11227,"id":"abo0okagfqgn","state":"CA"},"type":"Feature","geometry":{"type":"Point","coordinates":[-118.11227,34.05961]}},{"properties":{"name":"Louisville-Jefferson County","latitude":38.39644,"longitude":-85.43756,"id":"abo0oke95lny","state":"KY-IN"},"type":"Feature","geometry":{"type":"Point","coordinates":[-85.43756,38.39644]}},{"properties":{"name":"Lubbock","latitude":33.57786,"longitude":-101.85517,"id":"abo0oklqw04c","state":"TX"},"type":"Feature","geometry":{"type":"Point","coordinates":[-101.85517,33.57786]}},{"properties":{"name":"Lynchburg","latitude":37.41375,"longitude":-79.14225,"id":"abo0okbgodd1","state":"VA"},"type":"Feature","geometry":{"type":"Point","coordinates":[-79.14225,37.41375]}},{"properties":{"name":"Macon","latitude":32.84069,"longitude":-83.6324,"id":"abo0okgymm1o","state":"GA"},"type":"Feature","geometry":{"type":"Point","coordinates":[-83.6324,32.84069]}},{"properties":{"name":"Madera-Chowchilla","latitude":37.123,"longitude":-120.26018,"id":"abo0oknkjcfs","state":"CA"},"type":"Feature","geometry":{"type":"Point","coordinates":[-120.26018,37.123]}},{"properties":{"name":"Madison","latitude":43.07305,"longitude":-89.40123,"id":"abo0okbhbbks","state":"WI"},"type":"Feature","geometry":{"type":"Point","coordinates":[-89.40123,43.07305]}},{"properties":{"name":"Manchester-Nashua","latitude":42.77995,"longitude":-71.47718,"id":"abo0okkatbg6","state":"NH"},"type":"Feature","geometry":{"type":"Point","coordinates":[-71.47718,42.77995]}},{"properties":{"name":"Manhattan","latitude":39.18361,"longitude":-96.57167,"id":"abo0okfbbkje","state":"KS"},"type":"Feature","geometry":{"type":"Point","coordinates":[-96.57167,39.18361]}},{"properties":{"name":"Mankato-North Mankato","latitude":44.1733,"longitude":-94.03385,"id":"abo0oko1y4ou","state":"MN"},"type":"Feature","geometry":{"type":"Point","coordinates":[-94.03385,44.1733]}},{"properties":{"name":"Mansfield","latitude":40.75839,"longitude":-82.51545,"id":"abo0okb4g8r5","state":"OH"},"type":"Feature","geometry":{"type":"Point","coordinates":[-82.51545,40.75839]}},{"properties":{"name":"McAllen-Edinburg-Mission","latitude":26.20649,"longitude":-98.24317,"id":"abo0okd2tot4","state":"TX"},"type":"Feature","geometry":{"type":"Point","coordinates":[-98.24317,26.20649]}},{"properties":{"name":"Medford","latitude":42.32652,"longitude":-122.87559,"id":"abo0okfeb01r","state":"OR"},"type":"Feature","geometry":{"type":"Point","coordinates":[-122.87559,42.32652]}},{"properties":{"name":"Memphis","latitude":35.03872,"longitude":-89.8505,"id":"abo0okkoj8k8","state":"TN-MS-AR"},"type":"Feature","geometry":{"type":"Point","coordinates":[-89.8505,35.03872]}},{"properties":{"name":"Merced","latitude":37.30216,"longitude":-120.48297,"id":"abo0okgpmk7m","state":"CA"},"type":"Feature","geometry":{"type":"Point","coordinates":[-120.48297,37.30216]}},{"properties":{"name":"Miami-Fort Lauderdale-Pompano Beach","latitude":26.23786,"longitude":-80.12477,"id":"abo0okav4vpr","state":"FL"},"type":"Feature","geometry":{"type":"Point","coordinates":[-80.12477,26.23786]}},{"properties":{"name":"Michigan City-La Porte","latitude":41.70754,"longitude":-86.89503,"id":"abo0oke5jp5r","state":"IN"},"type":"Feature","geometry":{"type":"Point","coordinates":[-86.89503,41.70754]}},{"properties":{"name":"Midland","latitude":31.99735,"longitude":-102.07791,"id":"abo0okhrn0r1","state":"TX"},"type":"Feature","geometry":{"type":"Point","coordinates":[-102.07791,31.99735]}},{"properties":{"name":"Milwaukee-Waukesha-West Allis","latitude":43.01668,"longitude":-88.00703,"id":"abo0ok8bj8d3","state":"WI"},"type":"Feature","geometry":{"type":"Point","coordinates":[-88.00703,43.01668]}},{"properties":{"name":"Minneapolis-St. Paul-Bloomington","latitude":44.93891,"longitude":-93.11776,"id":"abo0oknxls64","state":"MN-WI"},"type":"Feature","geometry":{"type":"Point","coordinates":[-93.11776,44.93891]}},{"properties":{"name":"Missoula","latitude":46.86052,"longitude":-114.0195,"id":"abo0okgcb0s9","state":"MT"},"type":"Feature","geometry":{"type":"Point","coordinates":[-114.0195,46.86052]}},{"properties":{"name":"Mobile","latitude":30.69436,"longitude":-88.04305,"id":"abo0okl6j78s","state":"AL"},"type":"Feature","geometry":{"type":"Point","coordinates":[-88.04305,30.69436]}},{"properties":{"name":"Modesto","latitude":37.6391,"longitude":-120.99688,"id":"abo0okb8561j","state":"CA"},"type":"Feature","geometry":{"type":"Point","coordinates":[-120.99688,37.6391]}},{"properties":{"name":"Monroe","latitude":32.50931,"longitude":-92.1193,"id":"abo0okk376d0","state":"LA"},"type":"Feature","geometry":{"type":"Point","coordinates":[-92.1193,32.50931]}},{"properties":{"name":"Monroe","latitude":41.91643,"longitude":-83.39771,"id":"abo0okkwnlbi","state":"MI"},"type":"Feature","geometry":{"type":"Point","coordinates":[-83.39771,41.91643]}},{"properties":{"name":"Montgomery","latitude":32.36681,"longitude":-86.29997,"id":"abo0okna8d5f","state":"AL"},"type":"Feature","geometry":{"type":"Point","coordinates":[-86.29997,32.36681]}},{"properties":{"name":"Morgantown","latitude":39.62953,"longitude":-79.9559,"id":"abo0okmyj4e2","state":"WV"},"type":"Feature","geometry":{"type":"Point","coordinates":[-79.9559,39.62953]}},{"properties":{"name":"Morristown","latitude":36.21398,"longitude":-83.29489,"id":"abo0okfhpryx","state":"TN"},"type":"Feature","geometry":{"type":"Point","coordinates":[-83.29489,36.21398]}},{"properties":{"name":"Mount Vernon-Anacortes","latitude":48.43734,"longitude":-122.36948,"id":"abo0oka7427l","state":"WA"},"type":"Feature","geometry":{"type":"Point","coordinates":[-122.36948,48.43734]}},{"properties":{"name":"Muncie","latitude":40.19338,"longitude":-85.38636,"id":"abo0okcbgxel","state":"IN"},"type":"Feature","geometry":{"type":"Point","coordinates":[-85.38636,40.19338]}},{"properties":{"name":"Muskegon-Norton Shores","latitude":43.1689,"longitude":-86.26395,"id":"abo0okieixab","state":"MI"},"type":"Feature","geometry":{"type":"Point","coordinates":[-86.26395,43.1689]}},{"properties":{"name":"Myrtle Beach-North Myrtle Beach-Conway","latitude":33.74597,"longitude":-78.953,"id":"abo0oko1506z","state":"SC"},"type":"Feature","geometry":{"type":"Point","coordinates":[-78.953,33.74597]}},{"properties":{"name":"Napa","latitude":38.30472,"longitude":-122.29889,"id":"abo0okhoex2u","state":"CA"},"type":"Feature","geometry":{"type":"Point","coordinates":[-122.29889,38.30472]}},{"properties":{"name":"Naples-Marco Island","latitude":25.995,"longitude":-81.6725,"id":"abo0okls5uy9","state":"FL"},"type":"Feature","geometry":{"type":"Point","coordinates":[-81.6725,25.995]}},{"properties":{"name":"Nashville-Davidson-Murfreesboro-Franklin","latitude":35.89054,"longitude":-86.76184,"id":"abo0okivra0k","state":"TN"},"type":"Feature","geometry":{"type":"Point","coordinates":[-86.76184,35.89054]}},{"properties":{"name":"New Haven-Milford","latitude":41.2307,"longitude":-73.06404,"id":"abo0okisncep","state":"CT"},"type":"Feature","geometry":{"type":"Point","coordinates":[-73.06404,41.2307]}},{"properties":{"name":"New Orleans-Metairie-Kenner","latitude":29.98454,"longitude":-90.20425,"id":"abo0okmjc54p","state":"LA"},"type":"Feature","geometry":{"type":"Point","coordinates":[-90.20425,29.98454]}},{"properties":{"name":"New York-Northern New Jersey-Long Island","latitude":40.95903,"longitude":-74.03001,"id":"abo0oki9ek6i","state":"NY-NJ-PA"},"type":"Feature","geometry":{"type":"Point","coordinates":[-74.03001,40.95903]}},{"properties":{"name":"Niles-Benton Harbor","latitude":42.10436,"longitude":-86.44545,"id":"abo0okm0wgzs","state":"MI"},"type":"Feature","geometry":{"type":"Point","coordinates":[-86.44545,42.10436]}},{"properties":{"name":"North Port-Bradenton-Sarasota","latitude":27.20908,"longitude":-81.45344,"id":"abo0ok912nkf","state":"FL"},"type":"Feature","geometry":{"type":"Point","coordinates":[-81.45344,27.20908]}},{"properties":{"name":"Norwich-New London","latitude":41.52426,"longitude":-72.07591,"id":"abo0okextvao","state":"CT"},"type":"Feature","geometry":{"type":"Point","coordinates":[-72.07591,41.52426]}},{"properties":{"name":"Ocala","latitude":29.1872,"longitude":-82.14009,"id":"abo0okhi3a35","state":"FL"},"type":"Feature","geometry":{"type":"Point","coordinates":[-82.14009,29.1872]}},{"properties":{"name":"Ocean City","latitude":39.27762,"longitude":-74.5746,"id":"abo0okcv89zb","state":"NJ"},"type":"Feature","geometry":{"type":"Point","coordinates":[-74.5746,39.27762]}},{"properties":{"name":"Odessa","latitude":31.84568,"longitude":-102.36764,"id":"abo0okhxpkzx","state":"TX"},"type":"Feature","geometry":{"type":"Point","coordinates":[-102.36764,31.84568]}},{"properties":{"name":"Ogden-Clearfield","latitude":41.15245,"longitude":-111.99894,"id":"abo0ok9ooxi4","state":"UT"},"type":"Feature","geometry":{"type":"Point","coordinates":[-111.99894,41.15245]}},{"properties":{"name":"Oklahoma City","latitude":35.46756,"longitude":-97.51643,"id":"abo0ok8jwbtg","state":"OK"},"type":"Feature","geometry":{"type":"Point","coordinates":[-97.51643,35.46756]}},{"properties":{"name":"Olympia","latitude":47.03787,"longitude":-122.9007,"id":"abo0okgp7kdo","state":"WA"},"type":"Feature","geometry":{"type":"Point","coordinates":[-122.9007,47.03787]}},{"properties":{"name":"Omaha-Council Bluffs","latitude":41.26194,"longitude":-95.86083,"id":"abo0okeaer5n","state":"NE-IA"},"type":"Feature","geometry":{"type":"Point","coordinates":[-95.86083,41.26194]}},{"properties":{"name":"Orlando-Kissimmee-Sanford","latitude":28.80286,"longitude":-81.26945,"id":"abo0okasyyxh","state":"FL"},"type":"Feature","geometry":{"type":"Point","coordinates":[-81.26945,28.80286]}},{"properties":{"name":"Oshkosh-Neenah","latitude":44.2004,"longitude":-88.51785,"id":"abo0ok8whszb","state":"WI"},"type":"Feature","geometry":{"type":"Point","coordinates":[-88.51785,44.2004]}},{"properties":{"name":"Owensboro","latitude":37.77191,"longitude":-87.11117,"id":"abo0okopuv1l","state":"KY"},"type":"Feature","geometry":{"type":"Point","coordinates":[-87.11117,37.77191]}},{"properties":{"name":"Oxnard-Thousand Oaks-Ventura","latitude":34.18439,"longitude":-118.89356,"id":"abo0okf21v38","state":"CA"},"type":"Feature","geometry":{"type":"Point","coordinates":[-118.89356,34.18439]}},{"properties":{"name":"Palm Bay-Melbourne-Titusville","latitude":28.37588,"longitude":-80.80505,"id":"abo0okhrywqr","state":"FL"},"type":"Feature","geometry":{"type":"Point","coordinates":[-80.80505,28.37588]}},{"properties":{"name":"Palm Coast","latitude":29.58497,"longitude":-81.20784,"id":"abo0okni0tbc","state":"FL"},"type":"Feature","geometry":{"type":"Point","coordinates":[-81.20784,29.58497]}},{"properties":{"name":"Panama City-Lynn Haven-Panama City Beach","latitude":30.03345,"longitude":-85.54279,"id":"abo0okecxl88","state":"FL"},"type":"Feature","geometry":{"type":"Point","coordinates":[-85.54279,30.03345]}},{"properties":{"name":"Parkersburg-Marietta-Vienna","latitude":39.26372,"longitude":-81.55549,"id":"abo0ok9m0wr3","state":"WV-OH"},"type":"Feature","geometry":{"type":"Point","coordinates":[-81.55549,39.26372]}},{"properties":{"name":"Pascagoula","latitude":30.36576,"longitude":-88.55613,"id":"abo0okgsppxg","state":"MS"},"type":"Feature","geometry":{"type":"Point","coordinates":[-88.55613,30.36576]}},{"properties":{"name":"Pensacola-Ferry Pass-Brent","latitude":30.50342,"longitude":-87.23433,"id":"abo0okc7py8p","state":"FL"},"type":"Feature","geometry":{"type":"Point","coordinates":[-87.23433,30.50342]}},{"properties":{"name":"Peoria","latitude":40.69365,"longitude":-89.58899,"id":"abo0okecuwi3","state":"IL"},"type":"Feature","geometry":{"type":"Point","coordinates":[-89.58899,40.69365]}},{"properties":{"name":"Philadelphia-Camden-Wilmington","latitude":39.83735,"longitude":-75.15454,"id":"abo0okoeavfe","state":"PA-NJ-DE-MD"},"type":"Feature","geometry":{"type":"Point","coordinates":[-75.15454,39.83735]}},{"properties":{"name":"Phoenix-Mesa-Glendale","latitude":33.53825,"longitude":-112.05429,"id":"abo0okflvcbm","state":"AZ"},"type":"Feature","geometry":{"type":"Point","coordinates":[-112.05429,33.53825]}},{"properties":{"name":"Pine Bluff","latitude":34.22843,"longitude":-92.0032,"id":"abo0okh3ofex","state":"AR"},"type":"Feature","geometry":{"type":"Point","coordinates":[-92.0032,34.22843]}},{"properties":{"name":"Pittsburgh","latitude":40.44062,"longitude":-79.99589,"id":"abo0ok977vcs","state":"PA"},"type":"Feature","geometry":{"type":"Point","coordinates":[-79.99589,40.44062]}},{"properties":{"name":"Pittsfield","latitude":42.45008,"longitude":-73.24538,"id":"abo0okbzm420","state":"MA"},"type":"Feature","geometry":{"type":"Point","coordinates":[-73.24538,42.45008]}},{"properties":{"name":"Pocatello","latitude":42.8713,"longitude":-112.44553,"id":"abo0okgp8odv","state":"ID"},"type":"Feature","geometry":{"type":"Point","coordinates":[-112.44553,42.8713]}},{"properties":{"name":"Portland-South Portland-Biddeford","latitude":44.43271,"longitude":-69.53197,"id":"abo0okcf4dsx","state":"ME"},"type":"Feature","geometry":{"type":"Point","coordinates":[-69.53197,44.43271]}},{"properties":{"name":"Portland-Vancouver-Hillsboro","latitude":45.58094,"longitude":-122.70771,"id":"abo0okmp2g9v","state":"OR-WA"},"type":"Feature","geometry":{"type":"Point","coordinates":[-122.70771,45.58094]}},{"properties":{"name":"Port St. Lucie","latitude":27.27583,"longitude":-80.355,"id":"abo0okltqsbf","state":"FL"},"type":"Feature","geometry":{"type":"Point","coordinates":[-80.355,27.27583]}},{"properties":{"name":"Poughkeepsie-Newburgh-Middletown","latitude":41.44593,"longitude":-74.42293,"id":"abo0oknqym0k","state":"NY"},"type":"Feature","geometry":{"type":"Point","coordinates":[-74.42293,41.44593]}},{"properties":{"name":"Prescott","latitude":34.54002,"longitude":-112.4685,"id":"abo0okgb5cya","state":"AZ"},"type":"Feature","geometry":{"type":"Point","coordinates":[-112.4685,34.54002]}},{"properties":{"name":"Providence-New Bedford-Fall River","latitude":41.9634,"longitude":-71.2399,"id":"abo0okfs6ylk","state":"RI-MA"},"type":"Feature","geometry":{"type":"Point","coordinates":[-71.2399,41.9634]}},{"properties":{"name":"Provo-Orem","latitude":40.32282,"longitude":-111.64564,"id":"abo0okl3pbcc","state":"UT"},"type":"Feature","geometry":{"type":"Point","coordinates":[-111.64564,40.32282]}},{"properties":{"name":"Pueblo","latitude":38.25445,"longitude":-104.60914,"id":"abo0okk0zn4l","state":"CO"},"type":"Feature","geometry":{"type":"Point","coordinates":[-104.60914,38.25445]}},{"properties":{"name":"Punta Gorda","latitude":26.92978,"longitude":-82.04537,"id":"abo0oklot0s2","state":"FL"},"type":"Feature","geometry":{"type":"Point","coordinates":[-82.04537,26.92978]}},{"properties":{"name":"Racine","latitude":42.72613,"longitude":-87.78285,"id":"abo0okes3b2o","state":"WI"},"type":"Feature","geometry":{"type":"Point","coordinates":[-87.78285,42.72613]}},{"properties":{"name":"Raleigh-Cary","latitude":35.7721,"longitude":-78.63861,"id":"abo0oke1ac87","state":"NC"},"type":"Feature","geometry":{"type":"Point","coordinates":[-78.63861,35.7721]}},{"properties":{"name":"Rapid City","latitude":44.08054,"longitude":-103.23101,"id":"abo0okoofnhd","state":"SD"},"type":"Feature","geometry":{"type":"Point","coordinates":[-103.23101,44.08054]}},{"properties":{"name":"Reading","latitude":40.33565,"longitude":-75.92687,"id":"abo0oka81974","state":"PA"},"type":"Feature","geometry":{"type":"Point","coordinates":[-75.92687,40.33565]}},{"properties":{"name":"Redding","latitude":40.58654,"longitude":-122.39168,"id":"abo0okhxjcyq","state":"CA"},"type":"Feature","geometry":{"type":"Point","coordinates":[-122.39168,40.58654]}},{"properties":{"name":"Reno-Sparks","latitude":39.50547,"longitude":-119.69269,"id":"abo0okngn612","state":"NV"},"type":"Feature","geometry":{"type":"Point","coordinates":[-119.69269,39.50547]}},{"properties":{"name":"Richmond","latitude":37.54072,"longitude":-77.43605,"id":"abo0okjksigu","state":"VA"},"type":"Feature","geometry":{"type":"Point","coordinates":[-77.43605,37.54072]}},{"properties":{"name":"Riverside-San Bernardino-Ontario","latitude":33.95335,"longitude":-117.39616,"id":"abo0okm1gk9b","state":"CA"},"type":"Feature","geometry":{"type":"Point","coordinates":[-117.39616,33.95335]}},{"properties":{"name":"Roanoke","latitude":37.27097,"longitude":-79.94143,"id":"abo0okij192i","state":"VA"},"type":"Feature","geometry":{"type":"Point","coordinates":[-79.94143,37.27097]}},{"properties":{"name":"Rochester","latitude":44.0234,"longitude":-92.46295,"id":"abo0okoesetg","state":"MN"},"type":"Feature","geometry":{"type":"Point","coordinates":[-92.46295,44.0234]}},{"properties":{"name":"Rochester","latitude":43.16103,"longitude":-77.61092,"id":"abo0okoltzkw","state":"NY"},"type":"Feature","geometry":{"type":"Point","coordinates":[-77.61092,43.16103]}},{"properties":{"name":"Rockford","latitude":42.27113,"longitude":-89.094,"id":"abo0okfwo1o3","state":"IL"},"type":"Feature","geometry":{"type":"Point","coordinates":[-89.094,42.27113]}},{"properties":{"name":"Rocky Mount","latitude":35.93821,"longitude":-77.79053,"id":"abo0okb8e9xn","state":"NC"},"type":"Feature","geometry":{"type":"Point","coordinates":[-77.79053,35.93821]}},{"properties":{"name":"Rome","latitude":34.25704,"longitude":-85.16467,"id":"abo0oknox2sz","state":"GA"},"type":"Feature","geometry":{"type":"Point","coordinates":[-85.16467,34.25704]}},{"properties":{"name":"Sacramento-Arden-Arcade-Roseville","latitude":38.65416,"longitude":-121.38791,"id":"abo0okc8o4zh","state":"CA"},"type":"Feature","geometry":{"type":"Point","coordinates":[-121.38791,38.65416]}},{"properties":{"name":"Saginaw-Saginaw Township North","latitude":43.46009,"longitude":-84.00611,"id":"abo0okhwuko0","state":"MI"},"type":"Feature","geometry":{"type":"Point","coordinates":[-84.00611,43.46009]}},{"properties":{"name":"St. Cloud","latitude":45.55795,"longitude":-94.16324,"id":"abo0oklhzt9s","state":"MN"},"type":"Feature","geometry":{"type":"Point","coordinates":[-94.16324,45.55795]}},{"properties":{"name":"St. George","latitude":37.09528,"longitude":-113.57806,"id":"abo0ok9uaz2v","state":"UT"},"type":"Feature","geometry":{"type":"Point","coordinates":[-113.57806,37.09528]}},{"properties":{"name":"St. Joseph","latitude":39.79958,"longitude":-94.8106,"id":"abo0oklfdr1s","state":"MO-KS"},"type":"Feature","geometry":{"type":"Point","coordinates":[-94.8106,39.79958]}},{"properties":{"name":"St. Louis","latitude":38.61054,"longitude":-90.33719,"id":"abo0okhywxak","state":"MO-IL"},"type":"Feature","geometry":{"type":"Point","coordinates":[-90.33719,38.61054]}},{"properties":{"name":"Salem","latitude":44.9429,"longitude":-123.0351,"id":"abo0okjbclr9","state":"OR"},"type":"Feature","geometry":{"type":"Point","coordinates":[-123.0351,44.9429]}},{"properties":{"name":"Salinas","latitude":36.67774,"longitude":-121.6555,"id":"abo0okdqtsqo","state":"CA"},"type":"Feature","geometry":{"type":"Point","coordinates":[-121.6555,36.67774]}},{"properties":{"name":"Salisbury","latitude":38.36067,"longitude":-75.59937,"id":"abo0okf93y8u","state":"MD"},"type":"Feature","geometry":{"type":"Point","coordinates":[-75.59937,38.36067]}},{"properties":{"name":"Salt Lake City","latitude":40.76078,"longitude":-111.89105,"id":"abo0okofgkob","state":"UT"},"type":"Feature","geometry":{"type":"Point","coordinates":[-111.89105,40.76078]}},{"properties":{"name":"San Angelo","latitude":31.46377,"longitude":-100.43704,"id":"abo0oke9dwu5","state":"TX"},"type":"Feature","geometry":{"type":"Point","coordinates":[-100.43704,31.46377]}},{"properties":{"name":"San Antonio-New Braunfels","latitude":29.703,"longitude":-98.12445,"id":"abo0okdoodbc","state":"TX"},"type":"Feature","geometry":{"type":"Point","coordinates":[-98.12445,29.703]}},{"properties":{"name":"San Diego-Carlsbad-San Marcos","latitude":33.12215,"longitude":-117.29112,"id":"abo0okd06i7d","state":"CA"},"type":"Feature","geometry":{"type":"Point","coordinates":[-117.29112,33.12215]}},{"properties":{"name":"Sandusky","latitude":41.44894,"longitude":-82.70796,"id":"abo0okcjkvfs","state":"OH"},"type":"Feature","geometry":{"type":"Point","coordinates":[-82.70796,41.44894]}},{"properties":{"name":"San Francisco-Oakland-Fremont","latitude":37.54827,"longitude":-121.98857,"id":"abo0okc9ir8n","state":"CA"},"type":"Feature","geometry":{"type":"Point","coordinates":[-121.98857,37.54827]}},{"properties":{"name":"San Jose-Sunnyvale-Santa Clara","latitude":37.25928,"longitude":-121.86765,"id":"abo0okeu9xpr","state":"CA"},"type":"Feature","geometry":{"type":"Point","coordinates":[-121.86765,37.25928]}},{"properties":{"name":"San Luis Obispo-Paso Robles","latitude":35.63228,"longitude":-120.66419,"id":"abo0ok9kgund","state":"CA"},"type":"Feature","geometry":{"type":"Point","coordinates":[-120.66419,35.63228]}},{"properties":{"name":"Santa Barbara-Santa Maria-Goleta","latitude":34.43698,"longitude":-119.80643,"id":"abo0okkx1flw","state":"CA"},"type":"Feature","geometry":{"type":"Point","coordinates":[-119.80643,34.43698]}},{"properties":{"name":"Santa Cruz-Watsonville","latitude":36.91023,"longitude":-121.75689,"id":"abo0oki41kuj","state":"CA"},"type":"Feature","geometry":{"type":"Point","coordinates":[-121.75689,36.91023]}},{"properties":{"name":"Santa Fe","latitude":35.68698,"longitude":-105.9378,"id":"abo0okisyv1c","state":"NM"},"type":"Feature","geometry":{"type":"Point","coordinates":[-105.9378,35.68698]}},{"properties":{"name":"Santa Rosa-Petaluma","latitude":38.26789,"longitude":-122.63513,"id":"abo0okdlapou","state":"CA"},"type":"Feature","geometry":{"type":"Point","coordinates":[-122.63513,38.26789]}},{"properties":{"name":"Savannah","latitude":32.08354,"longitude":-81.09983,"id":"abo0okkrkj6i","state":"GA"},"type":"Feature","geometry":{"type":"Point","coordinates":[-81.09983,32.08354]}},{"properties":{"name":"Scranton-Wilkes-Barre","latitude":41.36155,"longitude":-75.68448,"id":"abo0okj383p5","state":"PA"},"type":"Feature","geometry":{"type":"Point","coordinates":[-75.68448,41.36155]}},{"properties":{"name":"Seattle-Tacoma-Bellevue","latitude":47.43934,"longitude":-122.26132,"id":"abo0oko2tamh","state":"WA"},"type":"Feature","geometry":{"type":"Point","coordinates":[-122.26132,47.43934]}},{"properties":{"name":"Sebastian-Vero Beach","latitude":27.81642,"longitude":-80.47061,"id":"abo0okhb3raf","state":"FL"},"type":"Feature","geometry":{"type":"Point","coordinates":[-80.47061,27.81642]}},{"properties":{"name":"Sheboygan","latitude":43.75083,"longitude":-87.71453,"id":"abo0okdqn3bc","state":"WI"},"type":"Feature","geometry":{"type":"Point","coordinates":[-87.71453,43.75083]}},{"properties":{"name":"Sherman-Denison","latitude":33.77872,"longitude":-96.55699,"id":"abo0ok9ttril","state":"TX"},"type":"Feature","geometry":{"type":"Point","coordinates":[-96.55699,33.77872]}},{"properties":{"name":"Shreveport-Bossier City","latitude":32.52515,"longitude":-93.75018,"id":"abo0okk5bwhc","state":"LA"},"type":"Feature","geometry":{"type":"Point","coordinates":[-93.75018,32.52515]}},{"properties":{"name":"Sioux City","latitude":42.44568,"longitude":-96.49298,"id":"abo0okgr6r2s","state":"IA-NE-SD"},"type":"Feature","geometry":{"type":"Point","coordinates":[-96.49298,42.44568]}},{"properties":{"name":"Sioux Falls","latitude":43.54997,"longitude":-96.70033,"id":"abo0okmnuo33","state":"SD"},"type":"Feature","geometry":{"type":"Point","coordinates":[-96.70033,43.54997]}},{"properties":{"name":"South Bend-Mishawaka","latitude":41.66135,"longitude":-86.2971,"id":"abo0oka8i809","state":"IN-MI"},"type":"Feature","geometry":{"type":"Point","coordinates":[-86.2971,41.66135]}},{"properties":{"name":"Spartanburg","latitude":34.94957,"longitude":-81.93205,"id":"abo0okg3b50k","state":"SC"},"type":"Feature","geometry":{"type":"Point","coordinates":[-81.93205,34.94957]}},{"properties":{"name":"Spokane","latitude":47.65878,"longitude":-117.42605,"id":"abo0okfnmlfd","state":"WA"},"type":"Feature","geometry":{"type":"Point","coordinates":[-117.42605,47.65878]}},{"properties":{"name":"Springfield","latitude":39.78172,"longitude":-89.65015,"id":"abo0okhbsz7s","state":"IL"},"type":"Feature","geometry":{"type":"Point","coordinates":[-89.65015,39.78172]}},{"properties":{"name":"Springfield","latitude":42.10148,"longitude":-72.58981,"id":"abo0okj35llt","state":"MA"},"type":"Feature","geometry":{"type":"Point","coordinates":[-72.58981,42.10148]}},{"properties":{"name":"Springfield","latitude":37.20896,"longitude":-93.2923,"id":"abo0ok8m072b","state":"MO"},"type":"Feature","geometry":{"type":"Point","coordinates":[-93.2923,37.20896]}},{"properties":{"name":"Springfield","latitude":39.92423,"longitude":-83.80882,"id":"abo0ok9t89j2","state":"OH"},"type":"Feature","geometry":{"type":"Point","coordinates":[-83.80882,39.92423]}},{"properties":{"name":"State College","latitude":40.79339,"longitude":-77.86,"id":"abo0okj7sdqz","state":"PA"},"type":"Feature","geometry":{"type":"Point","coordinates":[-77.86,40.79339]}},{"properties":{"name":"Steubenville-Weirton","latitude":40.36979,"longitude":-80.63396,"id":"abo0okaoq51r","state":"OH-WV"},"type":"Feature","geometry":{"type":"Point","coordinates":[-80.63396,40.36979]}},{"properties":{"name":"Stockton","latitude":37.9577,"longitude":-121.29078,"id":"abo0oklnscy9","state":"CA"},"type":"Feature","geometry":{"type":"Point","coordinates":[-121.29078,37.9577]}},{"properties":{"name":"Sumter","latitude":33.92044,"longitude":-80.34147,"id":"abo0okbszkx3","state":"SC"},"type":"Feature","geometry":{"type":"Point","coordinates":[-80.34147,33.92044]}},{"properties":{"name":"Syracuse","latitude":43.04812,"longitude":-76.14742,"id":"abo0okifw23g","state":"NY"},"type":"Feature","geometry":{"type":"Point","coordinates":[-76.14742,43.04812]}},{"properties":{"name":"Tallahassee","latitude":30.43826,"longitude":-84.28073,"id":"abo0ok9ksbcb","state":"FL"},"type":"Feature","geometry":{"type":"Point","coordinates":[-84.28073,30.43826]}},{"properties":{"name":"Tampa-St. Petersburg-Clearwater","latitude":27.92491,"longitude":-82.59431,"id":"abo0okfv6enf","state":"FL"},"type":"Feature","geometry":{"type":"Point","coordinates":[-82.59431,27.92491]}},{"properties":{"name":"Terre Haute","latitude":39.4667,"longitude":-87.41391,"id":"abo0oklef711","state":"IN"},"type":"Feature","geometry":{"type":"Point","coordinates":[-87.41391,39.4667]}},{"properties":{"name":"Texarkana","latitude":33.42176,"longitude":-94.04308,"id":"abo0okas9uwg","state":"TX-ARK"},"type":"Feature","geometry":{"type":"Point","coordinates":[-94.04308,33.42176]}},{"properties":{"name":"Toledo","latitude":41.66394,"longitude":-83.55521,"id":"abo0okcttjeg","state":"OH"},"type":"Feature","geometry":{"type":"Point","coordinates":[-83.55521,41.66394]}},{"properties":{"name":"Topeka","latitude":39.05582,"longitude":-95.68902,"id":"abo0okmblb81","state":"KS"},"type":"Feature","geometry":{"type":"Point","coordinates":[-95.68902,39.05582]}},{"properties":{"name":"Trenton-Ewing","latitude":40.21901,"longitude":-74.75444,"id":"abo0ok9u4xoo","state":"NJ"},"type":"Feature","geometry":{"type":"Point","coordinates":[-74.75444,40.21901]}},{"properties":{"name":"Tucson","latitude":32.22174,"longitude":-110.92648,"id":"abo0okehr49w","state":"AZ"},"type":"Feature","geometry":{"type":"Point","coordinates":[-110.92648,32.22174]}},{"properties":{"name":"Tulsa","latitude":36.15398,"longitude":-95.99278,"id":"abo0okc4310d","state":"OK"},"type":"Feature","geometry":{"type":"Point","coordinates":[-95.99278,36.15398]}},{"properties":{"name":"Tuscaloosa","latitude":33.20984,"longitude":-87.56917,"id":"abo0okgdomz2","state":"AL"},"type":"Feature","geometry":{"type":"Point","coordinates":[-87.56917,33.20984]}},{"properties":{"name":"Tyler","latitude":32.35126,"longitude":-95.30106,"id":"abo0okhqy13p","state":"TX"},"type":"Feature","geometry":{"type":"Point","coordinates":[-95.30106,32.35126]}},{"properties":{"name":"Utica-Rome","latitude":43.07701,"longitude":-75.21822,"id":"abo0okb6vpgo","state":"NY"},"type":"Feature","geometry":{"type":"Point","coordinates":[-75.21822,43.07701]}},{"properties":{"name":"Valdosta","latitude":30.8327,"longitude":-83.27849,"id":"abo0okepsjxr","state":"GA"},"type":"Feature","geometry":{"type":"Point","coordinates":[-83.27849,30.8327]}},{"properties":{"name":"Vallejo-Fairfield","latitude":38.25625,"longitude":-121.9281,"id":"abo0oka2enyg","state":"CA"},"type":"Feature","geometry":{"type":"Point","coordinates":[-121.9281,38.25625]}},{"properties":{"name":"Victoria","latitude":28.80527,"longitude":-97.0036,"id":"abo0ok9wk0jc","state":"TX"},"type":"Feature","geometry":{"type":"Point","coordinates":[-97.0036,28.80527]}},{"properties":{"name":"Vineland-Millville-Bridgeton","latitude":39.40078,"longitude":-75.03607,"id":"abo0okjb9qyw","state":"NJ"},"type":"Feature","geometry":{"type":"Point","coordinates":[-75.03607,39.40078]}},{"properties":{"name":"Virginia Beach-Norfolk-Newport News","latitude":36.75045,"longitude":-76.27079,"id":"abo0oka4t7zm","state":"VA-NC"},"type":"Feature","geometry":{"type":"Point","coordinates":[-76.27079,36.75045]}},{"properties":{"name":"Visalia-Porterville","latitude":36.33023,"longitude":-119.29206,"id":"abo0okidmdh4","state":"CA"},"type":"Feature","geometry":{"type":"Point","coordinates":[-119.29206,36.33023]}},{"properties":{"name":"Waco","latitude":31.54933,"longitude":-97.14667,"id":"abo0okormytf","state":"TX"},"type":"Feature","geometry":{"type":"Point","coordinates":[-97.14667,31.54933]}},{"properties":{"name":"Warner Robins","latitude":32.60861,"longitude":-83.63806,"id":"abo0okdz0jf5","state":"GA"},"type":"Feature","geometry":{"type":"Point","coordinates":[-83.63806,32.60861]}},{"properties":{"name":"Washington-Arlington-Alexandria","latitude":38.98973,"longitude":-77.41001,"id":"abo0oke2quu2","state":"DC-VA-MD-WV"},"type":"Feature","geometry":{"type":"Point","coordinates":[-77.41001,38.98973]}},{"properties":{"name":"Waterloo-Cedar Falls","latitude":42.51026,"longitude":-92.3863,"id":"abo0okcpyuai","state":"IA"},"type":"Feature","geometry":{"type":"Point","coordinates":[-92.3863,42.51026]}},{"properties":{"name":"Wausau","latitude":44.95914,"longitude":-89.63012,"id":"abo0okb1z7c8","state":"WI"},"type":"Feature","geometry":{"type":"Point","coordinates":[-89.63012,44.95914]}},{"properties":{"name":"Wenatchee-East Wenatchee","latitude":47.41568,"longitude":-120.29313,"id":"abo0okhhgvxi","state":"WA"},"type":"Feature","geometry":{"type":"Point","coordinates":[-120.29313,47.41568]}},{"properties":{"name":"Wheeling","latitude":40.03258,"longitude":-80.89865,"id":"abo0okeot038","state":"WV-OH"},"type":"Feature","geometry":{"type":"Point","coordinates":[-80.89865,40.03258]}},{"properties":{"name":"Wichita","latitude":37.68889,"longitude":-97.33611,"id":"abo0okjz453p","state":"KS"},"type":"Feature","geometry":{"type":"Point","coordinates":[-97.33611,37.68889]}},{"properties":{"name":"Wichita Falls","latitude":33.91371,"longitude":-98.49339,"id":"abo0okiqj05a","state":"TX"},"type":"Feature","geometry":{"type":"Point","coordinates":[-98.49339,33.91371]}},{"properties":{"name":"Williamsport","latitude":41.24119,"longitude":-77.00108,"id":"abo0ok8qbp3x","state":"PA"},"type":"Feature","geometry":{"type":"Point","coordinates":[-77.00108,41.24119]}},{"properties":{"name":"Wilmington","latitude":34.22573,"longitude":-77.94471,"id":"abo0ok97smsu","state":"NC"},"type":"Feature","geometry":{"type":"Point","coordinates":[-77.94471,34.22573]}},{"properties":{"name":"Winchester","latitude":39.31672,"longitude":-78.38422,"id":"abo0okjp6hc1","state":"VA-WV"},"type":"Feature","geometry":{"type":"Point","coordinates":[-78.38422,39.31672]}},{"properties":{"name":"Winston-Salem","latitude":36.09986,"longitude":-80.24422,"id":"abo0okg4acxa","state":"NC"},"type":"Feature","geometry":{"type":"Point","coordinates":[-80.24422,36.09986]}},{"properties":{"name":"Worcester","latitude":42.26259,"longitude":-71.80229,"id":"abo0okbug8v7","state":"MA"},"type":"Feature","geometry":{"type":"Point","coordinates":[-71.80229,42.26259]}},{"properties":{"name":"Yakima","latitude":46.60207,"longitude":-120.5059,"id":"abo0ok8de398","state":"WA"},"type":"Feature","geometry":{"type":"Point","coordinates":[-120.5059,46.60207]}},{"properties":{"name":"York-Hanover","latitude":39.80066,"longitude":-76.98304,"id":"abo0okewkbjt","state":"PA"},"type":"Feature","geometry":{"type":"Point","coordinates":[-76.98304,39.80066]}},{"properties":{"name":"Youngstown-Warren-Boardman","latitude":41.07993,"longitude":-80.66321,"id":"abo0okjgbhnf","state":"OH-PA"},"type":"Feature","geometry":{"type":"Point","coordinates":[-80.66321,41.07993]}},{"properties":{"name":"Yuba City","latitude":39.14045,"longitude":-121.61691,"id":"abo0okclxn41","state":"CA"},"type":"Feature","geometry":{"type":"Point","coordinates":[-121.61691,39.14045]}},{"properties":{"name":"Yuma","latitude":32.69265,"longitude":-114.62769,"id":"abo0okbmlzfg","state":"AZ"},"type":"Feature","geometry":{"type":"Point","coordinates":[-114.62769,32.69265]}}],"is_temporal":false,"author":{"url":"","metadata":"","contact_name":"","contact_address":"","source":"","contact_phone":""},"source":"","pagination":{"sort":null,"start":0,"total":366,"limit":1000000},"state":"complete","tags":"markets","published":"2014-08-16T18:19:34-04:00","id":313726}