{"type":"FeatureCollection","data_type":"Dataset","url_type":null,"permissions":[{"permissions":{"download":true,"view":true},"group_id":"everyone"}],"classification":null,"title":"Copy_of_IPTV-McClure-Jan-16-2013_-_CSV","count":253,"stream_id":313767,"contributor":{"url":"http://geocommons.com/users/59404","name":"KatieEtgen"},"data_attributes":null,"calculation_params":null,"icon_link":null,"link":"http://geocommons.com/overlays/313767.json","extent":[-84.1717,41.307,-83.8612,41.4653],"geometry_types":["point"],"unique_name":null,"name":"Copy_of_IPTV-McClure-Jan-16-2013_-_CSV","feature_count":253,"description":"","next_feature":null,"is_raster":false,"short_classification":"Y","stats":{},"features":[{"properties":{"city":"McClure","zip":"43534","geo_score":0.619,"id":"abo40d3omapr","address":"715 S. East","geo_precision":"street","state":"OH"},"type":"Feature","geometry":{"type":"Point","coordinates":[-83.941402,41.371542]}},{"properties":{"city":"McClure","zip":"43534","geo_score":0.625,"id":"abo40d6ng21e","address":"140 W. North","geo_precision":"street","state":"OH"},"type":"Feature","geometry":{"type":"Point","coordinates":[-83.8835,41.357119]}},{"properties":{"city":"McClure","zip":"43534","geo_score":1.0,"id":"abo40d5ku6jt","address":"2145 Co Rd P","geo_precision":"range","state":"OH"},"type":"Feature","geometry":{"type":"Point","coordinates":[-83.904994,41.386086]}},{"properties":{"city":"McClure","zip":"43534","geo_score":0.625,"id":"abo40dh6efoa","address":"440 w. North","geo_precision":"street","state":"OH"},"type":"Feature","geometry":{"type":"Point","coordinates":[-83.8835,41.357119]}},{"properties":{"city":"McClure","zip":"43534","geo_score":0.854,"id":"abo40d1xr9cj","address":"1201 County Road O5","geo_precision":"range","state":"OH"},"type":"Feature","geometry":{"type":"Point","coordinates":[-83.885921,41.400726]}},{"properties":{"city":"Napoleon","zip":"43545","geo_score":0.91,"id":"abo40d349nh0","address":"6818 St Rt 110","geo_precision":"range","state":"OH"},"type":"Feature","geometry":{"type":"Point","coordinates":[-83.993998,41.401735]}},{"properties":{"city":"McClure","zip":"43534","geo_score":0.622,"id":"abo40dgqrzvd","address":"310 west north","geo_precision":"street","state":"OH"},"type":"Feature","geometry":{"type":"Point","coordinates":[-83.902831,41.356986]}},{"properties":{"city":"McClure","zip":"43534","geo_score":0.857,"id":"abo40dek98ac","address":"N376 Co Rd 3A","geo_precision":"zip","state":"OH"},"type":"Feature","geometry":{"type":"Point","coordinates":[-83.941313,41.356582]}},{"properties":{"city":"McClure","zip":"43534","geo_score":0.625,"id":"abo40d7ydwi5","address":"145 W. North Street","geo_precision":"street","state":"OH"},"type":"Feature","geometry":{"type":"Point","coordinates":[-83.8835,41.357119]}},{"properties":{"city":"McClure","zip":"43534","geo_score":0.633,"id":"abo40dc8gbtf","address":"L377 Co Rd 2","geo_precision":"street","state":"OH"},"type":"Feature","geometry":{"type":"Point","coordinates":[-83.884087,41.328016]}},{"properties":{"city":"Napoleon","zip":"43545","geo_score":1.0,"id":"abo40dh3hpdu","address":"7033 Co Rd P","geo_precision":"range","state":"OH"},"type":"Feature","geometry":{"type":"Point","coordinates":[-84.000024,41.385587]}},{"properties":{"city":"McClure","zip":"43534","geo_score":0.89,"id":"abo40d405dgl","address":"4801 US RT 6","geo_precision":"range","state":"OH"},"type":"Feature","geometry":{"type":"Point","coordinates":[-83.956634,41.371239]}},{"properties":{"city":"Grand Rapids","zip":"43522","geo_score":0.749,"id":"abo40davw842","address":"15551 Henry Wood","geo_precision":"street","state":"OH"},"type":"Feature","geometry":{"type":"Point","coordinates":[-83.883338,41.38163]}},{"properties":{"city":"McClure","zip":"43534","geo_score":0.854,"id":"abo40dfdos4i","address":"4540 Co Rd N","geo_precision":"range","state":"OH"},"type":"Feature","geometry":{"type":"Point","coordinates":[-83.951635,41.312872]}},{"properties":{"city":"McClure","zip":"43534","geo_score":0.633,"id":"abo40d8iw9t8","address":"M983 Co Rd 5A","geo_precision":"street","state":"OH"},"type":"Feature","geometry":{"type":"Point","coordinates":[-83.89439,41.342493]}},{"properties":{"city":"McClure","zip":"43534","geo_score":0.854,"id":"abo40d0wdhc0","address":"3368 County Road N","geo_precision":"range","state":"OH"},"type":"Feature","geometry":{"type":"Point","coordinates":[-83.928877,41.313041]}},{"properties":{"city":"McClure","zip":"43534","geo_score":0.875,"id":"abo40dfy5xeg","address":"130 Main","geo_precision":"range","state":"OH"},"type":"Feature","geometry":{"type":"Point","coordinates":[-83.942579,41.370684]}},{"properties":{"city":"McClure","zip":"43534","geo_score":0.625,"id":"abo40dgiltli","address":"400 W. North","geo_precision":"street","state":"OH"},"type":"Feature","geometry":{"type":"Point","coordinates":[-83.8835,41.357119]}},{"properties":{"city":"McClure","zip":"43534","geo_score":0.941,"id":"abo40dbcti1r","address":"165 E Cross St","geo_precision":"range","state":"OH"},"type":"Feature","geometry":{"type":"Point","coordinates":[-83.941213,41.370522]}},{"properties":{"city":"McClure","zip":"43534","geo_score":0.625,"id":"abo40d72gwph","address":"Q388 Co Rd 3A","geo_precision":"street","state":"OH"},"type":"Feature","geometry":{"type":"Point","coordinates":[-83.884244,41.400805]}},{"properties":{"city":"McClure","zip":"43534","geo_score":0.89,"id":"abo40dg4d9fd","address":"220 Mason","geo_precision":"range","state":"OH"},"type":"Feature","geometry":{"type":"Point","coordinates":[-83.9396,41.3755]}},{"properties":{"city":"McClure","zip":"43534","geo_score":1.0,"id":"abo40dd67c8m","address":"4061 Co Rd P","geo_precision":"range","state":"OH"},"type":"Feature","geometry":{"type":"Point","coordinates":[-83.94226,41.38595]}},{"properties":{"city":"McClure","zip":"43534","geo_score":0.902,"id":"abo40d9dt5l5","address":"265 Fifth St","geo_precision":"range","state":"OH"},"type":"Feature","geometry":{"type":"Point","coordinates":[-83.939483,41.376443]}},{"properties":{"city":"McClure","zip":"43534","geo_score":0.89,"id":"abo40dh5f2sb","address":"325 Frank","geo_precision":"range","state":"OH"},"type":"Feature","geometry":{"type":"Point","coordinates":[-83.940042,41.374028]}},{"properties":{"city":"McClure","zip":"43534","geo_score":0.875,"id":"abo40d36pbzf","address":"370 Reed","geo_precision":"range","state":"OH"},"type":"Feature","geometry":{"type":"Point","coordinates":[-83.938287,41.377725]}},{"properties":{"city":"McClure","zip":"43534","geo_score":0.512,"id":"abo40dcqopkv","address":"K729 1C","geo_precision":"street","state":"OH"},"type":"Feature","geometry":{"type":"Point","coordinates":[-83.897309,41.313266]}},{"properties":{"city":"McClure","zip":"43534","geo_score":0.805,"id":"abo40d74wzho","address":"535 S East","geo_precision":"range","state":"OH"},"type":"Feature","geometry":{"type":"Point","coordinates":[-83.941324,41.36787]}},{"properties":{"city":"McClure","zip":"43534","geo_score":0.902,"id":"abo40devs0wc","address":"120 Woodlawn","geo_precision":"range","state":"OH"},"type":"Feature","geometry":{"type":"Point","coordinates":[-83.941169,41.378568]}},{"properties":{"city":"McClure","zip":"43534","geo_score":0.902,"id":"abo40dc90brj","address":"0230 Co Rd 2","geo_precision":"range","state":"OH"},"type":"Feature","geometry":{"type":"Point","coordinates":[-83.902756,41.35684]}},{"properties":{"city":"McClure","zip":"43534","geo_score":1.0,"id":"abo40d5vcaab","address":"250 Carl St","geo_precision":"range","state":"OH"},"type":"Feature","geometry":{"type":"Point","coordinates":[-83.939482,41.374417]}},{"properties":{"city":"McClure","zip":"43534","geo_score":1.0,"id":"abo40dcnk9af","address":"703 Union St","geo_precision":"range","state":"OH"},"type":"Feature","geometry":{"type":"Point","coordinates":[-83.938718,41.377782]}},{"properties":{"city":"McClure","zip":"43534","geo_score":0.679,"id":"abo40d92z1fe","address":"L 018 Co Rd 3","geo_precision":"street","state":"OH"},"type":"Feature","geometry":{"type":"Point","coordinates":[-83.922142,41.342366]}},{"properties":{"city":"McClure","zip":"43534","geo_score":0.625,"id":"abo40d8cmjvn","address":"Q802 County Road 3A","geo_precision":"street","state":"OH"},"type":"Feature","geometry":{"type":"Point","coordinates":[-83.884244,41.400805]}},{"properties":{"city":"McClure","zip":"43534","geo_score":0.89,"id":"abo40d44ub2q","address":"210 Mason","geo_precision":"range","state":"OH"},"type":"Feature","geometry":{"type":"Point","coordinates":[-83.93986,41.375501]}},{"properties":{"city":"McClure","zip":"43534","geo_score":0.598,"id":"abo40dfdrc02","address":"N145 St Rt 65","geo_precision":"street","state":"OH"},"type":"Feature","geometry":{"type":"Point","coordinates":[-83.883214,41.409841]}},{"properties":{"city":"McClure","zip":"43534","geo_score":0.741,"id":"abo40df2k2qm","address":"14412 Henrywood","geo_precision":"range","state":"OH"},"type":"Feature","geometry":{"type":"Point","coordinates":[-83.883389,41.361882]}},{"properties":{"city":"McClure","zip":"43534","geo_score":0.927,"id":"abo40d7jqzcd","address":"435 Coldwater","geo_precision":"range","state":"OH"},"type":"Feature","geometry":{"type":"Point","coordinates":[-83.936292,41.365271]}},{"properties":{"city":"McClure","zip":"43534","geo_score":1.0,"id":"abo40d4j55nk","address":"765 S Haley","geo_precision":"range","state":"OH"},"type":"Feature","geometry":{"type":"Point","coordinates":[-83.940078,41.364411]}},{"properties":{"city":"McClure","zip":"43534","geo_score":0.875,"id":"abo40dcnw6mo","address":"130 Reed","geo_precision":"range","state":"OH"},"type":"Feature","geometry":{"type":"Point","coordinates":[-83.941066,41.377673]}},{"properties":{"city":"McClure","zip":"43534","geo_score":0.854,"id":"abo40d9oezji","address":"2582 US 6","geo_precision":"range","state":"OH"},"type":"Feature","geometry":{"type":"Point","coordinates":[-83.918177,41.371579]}},{"properties":{"city":"McClure","zip":"43534","geo_score":0.844,"id":"abo40dflnys0","address":"7555Co Rd P","geo_precision":"street","state":"OH"},"type":"Feature","geometry":{"type":"Point","coordinates":[-83.883307,41.38621]}},{"properties":{"city":"McClure","zip":"43534","geo_score":0.619,"id":"abo40ddudbyd","address":"140 S. East","geo_precision":"street","state":"OH"},"type":"Feature","geometry":{"type":"Point","coordinates":[-83.941402,41.371542]}},{"properties":{"city":"McClure","zip":"43534","geo_score":0.875,"id":"abo40d9j64vt","address":"145 Reed","geo_precision":"range","state":"OH"},"type":"Feature","geometry":{"type":"Point","coordinates":[-83.940927,41.377523]}},{"properties":{"city":"McClure","zip":"43534","geo_score":0.89,"id":"abo40d5im181","address":"135 Mason","geo_precision":"range","state":"OH"},"type":"Feature","geometry":{"type":"Point","coordinates":[-83.941038,41.375351]}},{"properties":{"city":"McClure","zip":"43534","geo_score":1.0,"id":"abo40d0n6kui","address":"2092 US Hwy 6","geo_precision":"range","state":"OH"},"type":"Feature","geometry":{"type":"Point","coordinates":[-83.91012,41.371605]}},{"properties":{"city":"McClure","zip":"43534","geo_score":0.625,"id":"abo40d2j6zf2","address":"K768 Rd 2","geo_precision":"street","state":"OH"},"type":"Feature","geometry":{"type":"Point","coordinates":[-83.88317,41.313327]}},{"properties":{"city":"mcclure","zip":"43534","geo_score":0.633,"id":"abo40d9d2xmd","address":"L895 Co Rd 5","geo_precision":"street","state":"OH"},"type":"Feature","geometry":{"type":"Point","coordinates":[-83.884087,41.328016]}},{"properties":{"city":"McClure","zip":"43534","geo_score":0.688,"id":"abo40df1ak2n","address":"3701 woodlawn lot 23","geo_precision":"street","state":"OH"},"type":"Feature","geometry":{"type":"Point","coordinates":[-83.937474,41.378719]}},{"properties":{"city":"McClure","zip":"43534","geo_score":0.625,"id":"abo40d0sfzvi","address":"Q544 ST RT 65 Lot 2","geo_precision":"street","state":"OH"},"type":"Feature","geometry":{"type":"Point","coordinates":[-83.884244,41.400805]}},{"properties":{"city":"McClure","zip":"43534","geo_score":0.89,"id":"abo40daka5ye","address":"4843 US Rt 6","geo_precision":"range","state":"OH"},"type":"Feature","geometry":{"type":"Point","coordinates":[-83.957237,41.371237]}},{"properties":{"city":"McClure","zip":"43534","geo_score":0.633,"id":"abo40d83hnfa","address":"M131 Co Rd 5","geo_precision":"street","state":"OH"},"type":"Feature","geometry":{"type":"Point","coordinates":[-83.89439,41.342493]}},{"properties":{"city":"McClure","zip":"43534","geo_score":1.0,"id":"abo40d5ila10","address":"4133 Co Rd P","geo_precision":"range","state":"OH"},"type":"Feature","geometry":{"type":"Point","coordinates":[-83.943262,41.385944]}},{"properties":{"city":"McClure","zip":"43534","geo_score":0.625,"id":"abo40d75m1dn","address":"430 N. East","geo_precision":"street","state":"OH"},"type":"Feature","geometry":{"type":"Point","coordinates":[-83.8835,41.357119]}},{"properties":{"city":"McClure","zip":"43534","geo_score":0.902,"id":"abo40ddca8x2","address":"110 Fifth St.","geo_precision":"range","state":"OH"},"type":"Feature","geometry":{"type":"Point","coordinates":[-83.941315,41.376567]}},{"properties":{"city":"McClure","zip":"43534","geo_score":0.902,"id":"abo40dd0uznl","address":"255 Woodlawn","geo_precision":"range","state":"OH"},"type":"Feature","geometry":{"type":"Point","coordinates":[-83.939531,41.378606]}},{"properties":{"city":"McClure","zip":"43534","geo_score":0.875,"id":"abo40d2binyz","address":"210 West Street","geo_precision":"range","state":"OH"},"type":"Feature","geometry":{"type":"Point","coordinates":[-83.946398,41.370319]}},{"properties":{"city":"McClure","zip":"43534","geo_score":0.598,"id":"abo40d9nd499","address":"N097 St Rt 65","geo_precision":"street","state":"OH"},"type":"Feature","geometry":{"type":"Point","coordinates":[-83.883214,41.409841]}},{"properties":{"city":"McClure","zip":"43534","geo_score":0.625,"id":"abo40d2qg7u9","address":"Q841 Co Rd 5A","geo_precision":"street","state":"OH"},"type":"Feature","geometry":{"type":"Point","coordinates":[-83.884244,41.400805]}},{"properties":{"city":"McClure","zip":"43534","geo_score":1.0,"id":"abo40d1emrfg","address":"535 Main St","geo_precision":"range","state":"OH"},"type":"Feature","geometry":{"type":"Point","coordinates":[-83.942576,41.367768]}},{"properties":{"city":"McClure","zip":"43534","geo_score":0.805,"id":"abo40dawnsxr","address":"620 S East","geo_precision":"range","state":"OH"},"type":"Feature","geometry":{"type":"Point","coordinates":[-83.941469,41.366907]}},{"properties":{"city":"McClure","zip":"43534","geo_score":1.0,"id":"abo40d2znct0","address":"2888 Co Rd P","geo_precision":"range","state":"OH"},"type":"Feature","geometry":{"type":"Point","coordinates":[-83.924051,41.386205]}},{"properties":{"city":"McClure","zip":"43534","geo_score":0.633,"id":"abo40d6lz4m0","address":"5790 Co. Rd. P3","geo_precision":"street","state":"OH"},"type":"Feature","geometry":{"type":"Point","coordinates":[-83.883307,41.38621]}},{"properties":{"city":"McClure","zip":"43534","geo_score":0.875,"id":"abo40d1qtuif","address":"260 reed","geo_precision":"range","state":"OH"},"type":"Feature","geometry":{"type":"Point","coordinates":[-83.939545,41.377678]}},{"properties":{"city":"McClure","zip":"43534","geo_score":0.633,"id":"abo40d0nyy0m","address":"P756 Co Rd 3A","geo_precision":"street","state":"OH"},"type":"Feature","geometry":{"type":"Point","coordinates":[-83.883307,41.38621]}},{"properties":{"city":"McClure","zip":"43534","geo_score":0.625,"id":"abo40d8kyiv6","address":"Q544 St Rt 65","geo_precision":"street","state":"OH"},"type":"Feature","geometry":{"type":"Point","coordinates":[-83.884244,41.400805]}},{"properties":{"city":"Grand Rapids","zip":"43522","geo_score":1.0,"id":"abo40de8cy0s","address":"14264 Henry Wood County Line Road","geo_precision":"range","state":"OH"},"type":"Feature","geometry":{"type":"Point","coordinates":[-83.883372,41.364061]}},{"properties":{"city":"McClure","zip":"43534","geo_score":0.805,"id":"abo40dfs2eow","address":"6401 Co Rd P","geo_precision":"street","state":"OH"},"type":"Feature","geometry":{"type":"Point","coordinates":[-83.96864,41.385915]}},{"properties":{"city":"McClure","zip":"43534","geo_score":0.571,"id":"abo40d7u5i5d","address":"535 W. Cross","geo_precision":"street","state":"OH"},"type":"Feature","geometry":{"type":"Point","coordinates":[-83.941411,41.370447]}},{"properties":{"city":"McClure","zip":"43534","geo_score":0.756,"id":"abo40de1vs2m","address":"6348 County Road 04","geo_precision":"range","state":"OH"},"type":"Feature","geometry":{"type":"Point","coordinates":[-83.986581,41.312579]}},{"properties":{"city":"Napoleon","zip":"43545","geo_score":0.707,"id":"abo40d12dqtb","address":"7332 Co Rd P-3","geo_precision":"street","state":"OH"},"type":"Feature","geometry":{"type":"Point","coordinates":[-84.171734,41.406686]}},{"properties":{"city":"McClure","zip":"43534","geo_score":0.625,"id":"abo40d1gba1b","address":"Q081 Co Rd 3A","geo_precision":"street","state":"OH"},"type":"Feature","geometry":{"type":"Point","coordinates":[-83.884244,41.400805]}},{"properties":{"city":"McClure","zip":"43534","geo_score":0.805,"id":"abo40dcx83e4","address":"0760 St Rt 65","geo_precision":"range","state":"OH"},"type":"Feature","geometry":{"type":"Point","coordinates":[-83.941072,41.307003]}},{"properties":{"city":"Napoleon","zip":"43545","geo_score":0.861,"id":"abo40d3gfjpk","address":"0173 o Rd 8","geo_precision":"range","state":"OH"},"type":"Feature","geometry":{"type":"Point","coordinates":[-84.019044,41.374154]}},{"properties":{"city":"McClure","zip":"43534","geo_score":0.598,"id":"abo40df40l95","address":"N228 ST RT 65","geo_precision":"street","state":"OH"},"type":"Feature","geometry":{"type":"Point","coordinates":[-83.883214,41.409841]}},{"properties":{"city":"Napoleon","zip":"43545","geo_score":1.0,"id":"abo40dh4b6ko","address":"6711 Co Rd P","geo_precision":"range","state":"OH"},"type":"Feature","geometry":{"type":"Point","coordinates":[-83.990845,41.385768]}},{"properties":{"city":"Napoleon","zip":"43545","geo_score":1.0,"id":"abo40d13sq0m","address":"6609 Co Rd P","geo_precision":"range","state":"OH"},"type":"Feature","geometry":{"type":"Point","coordinates":[-83.992742,41.385308]}},{"properties":{"city":"McClure","zip":"43534","geo_score":0.756,"id":"abo40desu57j","address":"6524 Co Rd 04","geo_precision":"range","state":"OH"},"type":"Feature","geometry":{"type":"Point","coordinates":[-83.989988,41.312554]}},{"properties":{"city":"McClure","zip":"43534","geo_score":0.615,"id":"abo40da1odos","address":"M240 County Road 2","geo_precision":"street","state":"OH"},"type":"Feature","geometry":{"type":"Point","coordinates":[-83.89439,41.342493]}},{"properties":{"city":"McClure","zip":"43534","geo_score":0.625,"id":"abo40dcs5ohn","address":"350 N. East","geo_precision":"street","state":"OH"},"type":"Feature","geometry":{"type":"Point","coordinates":[-83.8835,41.357119]}},{"properties":{"city":"McClure","zip":"43534","geo_score":0.875,"id":"abo40d6j2yxt","address":"215 Reed","geo_precision":"range","state":"OH"},"type":"Feature","geometry":{"type":"Point","coordinates":[-83.938978,41.377528]}},{"properties":{"city":"McClure","zip":"43534","geo_score":1.0,"id":"abo40d997kzx","address":"2228 County Road M","geo_precision":"range","state":"OH"},"type":"Feature","geometry":{"type":"Point","coordinates":[-83.907276,41.342539]}},{"properties":{"city":"McClure","zip":"43534","geo_score":0.875,"id":"abo40dbw02nk","address":"530 Main","geo_precision":"range","state":"OH"},"type":"Feature","geometry":{"type":"Point","coordinates":[-83.942726,41.367783]}},{"properties":{"city":"McClure","zip":"43534","geo_score":0.805,"id":"abo40da4oczj","address":"5-609 Co Rd P","geo_precision":"street","state":"OH"},"type":"Feature","geometry":{"type":"Point","coordinates":[-83.884722,41.386204]}},{"properties":{"city":"Napoleon","zip":"43545","geo_score":0.633,"id":"abo40delioki","address":"P112 Co Rd 7","geo_precision":"street","state":"OH"},"type":"Feature","geometry":{"type":"Point","coordinates":[-83.970584,41.385906]}},{"properties":{"city":"McClure","zip":"43534","geo_score":0.89,"id":"abo40dcgbpky","address":"1940 Us  6","geo_precision":"range","state":"OH"},"type":"Feature","geometry":{"type":"Point","coordinates":[-83.89085,41.371685]}},{"properties":{"city":"Grandrapids","zip":"43522","geo_score":0.992,"id":"abo40d5cbmdk","address":"15125 Wapakoneta rd","geo_precision":"range","state":"OH"},"type":"Feature","geometry":{"type":"Point","coordinates":[-83.863758,41.377211]}},{"properties":{"city":"Napoleon","zip":"43545","geo_score":0.91,"id":"abo40d3wnmqv","address":"6756 ST RT 110","geo_precision":"range","state":"OH"},"type":"Feature","geometry":{"type":"Point","coordinates":[-83.991912,41.40172]}},{"properties":{"city":"Napoleon","zip":"43545","geo_score":0.474,"id":"abo40d41wkf1","address":"O772 Co Rd 7","geo_precision":"street","state":"OH"},"type":"Feature","geometry":{"type":"Point","coordinates":[-83.999526,41.393077]}},{"properties":{"city":"McClure","zip":"43534","geo_score":1.0,"id":"abo40de0us9w","address":"230 Reed Street","geo_precision":"range","state":"OH"},"type":"Feature","geometry":{"type":"Point","coordinates":[-83.939166,41.377676]}},{"properties":{"city":"McClure","zip":"43534","geo_score":0.875,"id":"abo40d92zl1p","address":"220 Main","geo_precision":"range","state":"OH"},"type":"Feature","geometry":{"type":"Point","coordinates":[-83.942627,41.370428]}},{"properties":{"city":"McClure","zip":"43534","geo_score":1.0,"id":"abo40d6rbtxr","address":"1267 Co Rd L","geo_precision":"range","state":"OH"},"type":"Feature","geometry":{"type":"Point","coordinates":[-83.887817,41.327806]}},{"properties":{"city":"McClure","zip":"43534","geo_score":0.817,"id":"abo40dfrhlo1","address":"445 W Henry","geo_precision":"range","state":"OH"},"type":"Feature","geometry":{"type":"Point","coordinates":[-83.942662,41.368573]}},{"properties":{"city":"Napoleon","zip":"43545","geo_score":0.857,"id":"abo40d7i1tiz","address":"O934 Co Rd 6A","geo_precision":"zip","state":"OH"},"type":"Feature","geometry":{"type":"Point","coordinates":[-84.123028,41.355586]}},{"properties":{"city":"Napoleon","zip":"43545","geo_score":1.0,"id":"abo40d108f6b","address":"7618 Co Rd P","geo_precision":"range","state":"OH"},"type":"Feature","geometry":{"type":"Point","coordinates":[-84.012638,41.385404]}},{"properties":{"city":"Napoleon","zip":"43545","geo_score":1.0,"id":"abo40d5ja71j","address":"5819 Co Rd P","geo_precision":"range","state":"OH"},"type":"Feature","geometry":{"type":"Point","coordinates":[-83.971876,41.385823]}},{"properties":{"city":"McClure","zip":"43534","geo_score":0.857,"id":"abo40d8nqljo","address":"N489 Co Rd 2","geo_precision":"zip","state":"OH"},"type":"Feature","geometry":{"type":"Point","coordinates":[-83.941313,41.356582]}},{"properties":{"city":"McClure","zip":"43534","geo_score":0.875,"id":"abo40d8cq7j8","address":"110 Carl","geo_precision":"range","state":"OH"},"type":"Feature","geometry":{"type":"Point","coordinates":[-83.941321,41.374402]}},{"properties":{"city":"Napoleon","zip":"43545","geo_score":0.854,"id":"abo40d2ihwhx","address":"4358 Rd Q","geo_precision":"range","state":"OH"},"type":"Feature","geometry":{"type":"Point","coordinates":[-83.946896,41.400666]}},{"properties":{"city":"McClure","zip":"43534","geo_score":1.0,"id":"abo40dc0hjf9","address":"4636 Co Rd P","geo_precision":"range","state":"OH"},"type":"Feature","geometry":{"type":"Point","coordinates":[-83.953735,41.38605]}},{"properties":{"city":"McClure","zip":"43534","geo_score":0.625,"id":"abo40dgbmqzc","address":"Q131 St TR 65","geo_precision":"street","state":"OH"},"type":"Feature","geometry":{"type":"Point","coordinates":[-83.884244,41.400805]}},{"properties":{"city":"mcclure","zip":"43534","geo_score":1.0,"id":"abo40d2l0n9j","address":"5371 Co Rd P","geo_precision":"range","state":"OH"},"type":"Feature","geometry":{"type":"Point","coordinates":[-83.968553,41.385841]}},{"properties":{"city":"McClure","zip":"43534","geo_score":0.688,"id":"abo40ddzlr4h","address":"3701 woodlawn Lot 27","geo_precision":"street","state":"OH"},"type":"Feature","geometry":{"type":"Point","coordinates":[-83.937474,41.378719]}},{"properties":{"city":"McClure","zip":"43534","geo_score":0.72,"id":"abo40d2pa9d6","address":"150 E Henry","geo_precision":"street","state":"OH"},"type":"Feature","geometry":{"type":"Point","coordinates":[-83.941398,41.368572]}},{"properties":{"city":"Napoleon","zip":"43545","geo_score":1.0,"id":"abo40dfmcvc1","address":"7112 County Road P","geo_precision":"range","state":"OH"},"type":"Feature","geometry":{"type":"Point","coordinates":[-84.00139,41.385461]}},{"properties":{"city":"McClure","zip":"43534","geo_score":0.857,"id":"abo40da3d1no","address":"N829 Co Rd 3A","geo_precision":"zip","state":"OH"},"type":"Feature","geometry":{"type":"Point","coordinates":[-83.941313,41.356582]}},{"properties":{"city":"McClure","zip":"43545","geo_score":0.756,"id":"abo40d1xihp1","address":"330 Coldwater St","geo_precision":"range","state":"OH"},"type":"Feature","geometry":{"type":"Point","coordinates":[-83.937662,41.365672]}},{"properties":{"city":"McClure","zip":"43534","geo_score":0.89,"id":"abo40d1wmf9w","address":"5893 US Rt 6","geo_precision":"range","state":"OH"},"type":"Feature","geometry":{"type":"Point","coordinates":[-83.978462,41.371131]}},{"properties":{"city":"McClure","zip":"43534","geo_score":0.756,"id":"abo40d4thzqk","address":"365 Fifth","geo_precision":"range","state":"OH"},"type":"Feature","geometry":{"type":"Point","coordinates":[-83.938445,41.376448]}},{"properties":{"city":"Napoleon","zip":"43545","geo_score":1.0,"id":"abo40ddk90zu","address":"6300 County Road P","geo_precision":"range","state":"OH"},"type":"Feature","geometry":{"type":"Point","coordinates":[-83.987246,41.385924]}},{"properties":{"city":"Napoleon","zip":"43545","geo_score":0.842,"id":"abo40d128zwf","address":"4177 SR 110","geo_precision":"range","state":"OH"},"type":"Feature","geometry":{"type":"Point","coordinates":[-83.946108,41.415074]}},{"properties":{"city":"Napoleon","zip":"43545","geo_score":0.625,"id":"abo40d4tra2v","address":"Q785 St RT 65","geo_precision":"street","state":"OH"},"type":"Feature","geometry":{"type":"Point","coordinates":[-83.94876,41.40059]}},{"properties":{"city":"McClure","zip":"43534","geo_score":0.633,"id":"abo40d5ct8rc","address":"L349 Rd 1C","geo_precision":"street","state":"OH"},"type":"Feature","geometry":{"type":"Point","coordinates":[-83.884087,41.328016]}},{"properties":{"city":"McClure","zip":"43534","geo_score":0.571,"id":"abo40ddqu0l2","address":"N656 Co Rd 5","geo_precision":"street","state":"OH"},"type":"Feature","geometry":{"type":"Point","coordinates":[-83.940974,41.376497]}},{"properties":{"city":"McClure","zip":"43534","geo_score":0.875,"id":"abo40d2e8dyt","address":"13162 Rd 1","geo_precision":"range","state":"OH"},"type":"Feature","geometry":{"type":"Point","coordinates":[-83.883516,41.35288]}},{"properties":{"city":"McClure","zip":"43534","geo_score":0.622,"id":"abo40d1404te","address":"455 W North","geo_precision":"street","state":"OH"},"type":"Feature","geometry":{"type":"Point","coordinates":[-83.902831,41.356986]}},{"properties":{"city":"McClure","zip":"43534","geo_score":0.633,"id":"abo40db00fwm","address":"M663 Co Rd 5","geo_precision":"street","state":"OH"},"type":"Feature","geometry":{"type":"Point","coordinates":[-83.89439,41.342493]}},{"properties":{"city":"McClure","zip":"43534","geo_score":1.0,"id":"abo40dd14xr0","address":"4862 County Road P","geo_precision":"range","state":"OH"},"type":"Feature","geometry":{"type":"Point","coordinates":[-83.957213,41.386051]}},{"properties":{"city":"Napoleon","zip":"43545","geo_score":0.571,"id":"abo40dg2jsdj","address":"N695 Co Rd 6","geo_precision":"street","state":"OH"},"type":"Feature","geometry":{"type":"Point","coordinates":[-84.12531,41.38935]}},{"properties":{"city":"McClure","zip":"43534","geo_score":1.0,"id":"abo40d8q9xtx","address":"525 Main Street","geo_precision":"range","state":"OH"},"type":"Feature","geometry":{"type":"Point","coordinates":[-83.942577,41.367836]}},{"properties":{"city":"McClure","zip":"43534","geo_score":0.633,"id":"abo40dcbg8dv","address":"M457 County Road 5A","geo_precision":"street","state":"OH"},"type":"Feature","geometry":{"type":"Point","coordinates":[-83.89439,41.342493]}},{"properties":{"city":"McClure","zip":"43534","geo_score":1.0,"id":"abo40d6n2oah","address":"4068 Co Rd L","geo_precision":"range","state":"OH"},"type":"Feature","geometry":{"type":"Point","coordinates":[-83.947592,41.327409]}},{"properties":{"city":"Napoleon","zip":"43545","geo_score":0.625,"id":"abo40ddhfggw","address":"Q020 Co Rd 7","geo_precision":"street","state":"OH"},"type":"Feature","geometry":{"type":"Point","coordinates":[-83.94876,41.40059]}},{"properties":{"city":"McClure","zip":"43534","geo_score":0.512,"id":"abo40d44h209","address":"K348 Co. Rd. 1C","geo_precision":"street","state":"OH"},"type":"Feature","geometry":{"type":"Point","coordinates":[-83.897309,41.313266]}},{"properties":{"city":"Napoleon","zip":"43545","geo_score":0.857,"id":"abo40dasscrm","address":"O615 County Road 6A","geo_precision":"zip","state":"OH"},"type":"Feature","geometry":{"type":"Point","coordinates":[-84.123028,41.355586]}},{"properties":{"city":"McClure","zip":"43534","geo_score":0.805,"id":"abo40d1yto43","address":"355 S East","geo_precision":"range","state":"OH"},"type":"Feature","geometry":{"type":"Point","coordinates":[-83.941324,41.369133]}},{"properties":{"city":"Napoleon","zip":"43545","geo_score":0.91,"id":"abo40dehpdkk","address":"5883 St Rt 110","geo_precision":"range","state":"OH"},"type":"Feature","geometry":{"type":"Point","coordinates":[-83.976866,41.41042]}},{"properties":{"city":"McClure","zip":"43534","geo_score":0.643,"id":"abo40dbpo2u8","address":"3701 Woodlawn - lot 25","geo_precision":"street","state":"OH"},"type":"Feature","geometry":{"type":"Point","coordinates":[-83.938808,41.37869]}},{"properties":{"city":"McClure","zip":"43534","geo_score":0.807,"id":"abo40d5ltixk","address":"360 Depot St","geo_precision":"street","state":"OH"},"type":"Feature","geometry":{"type":"Point","coordinates":[-83.938797,41.373286]}},{"properties":{"city":"McClure","zip":"43534","geo_score":0.633,"id":"abo40d10z3yh","address":"3734 Co. Rd. M","geo_precision":"street","state":"OH"},"type":"Feature","geometry":{"type":"Point","coordinates":[-83.89439,41.342493]}},{"properties":{"city":"McClure","zip":"43534","geo_score":0.777,"id":"abo40dcnift7","address":"0370 Rd 5","geo_precision":"range","state":"OH"},"type":"Feature","geometry":{"type":"Point","coordinates":[-83.960712,41.364667]}},{"properties":{"city":"McClure","zip":"43534","geo_score":0.545,"id":"abo40d1xtswv","address":"5861 St Rt 110","geo_precision":"street","state":"OH"},"type":"Feature","geometry":{"type":"Point","coordinates":[-83.9388,41.377628]}},{"properties":{"city":"McClure","zip":"43534","geo_score":0.722,"id":"abo40dduilgp","address":"320 Haley","geo_precision":"street","state":"OH"},"type":"Feature","geometry":{"type":"Point","coordinates":[-83.939994,41.364981]}},{"properties":{"city":"McClure","zip":"43534","geo_score":0.793,"id":"abo40dcp6px0","address":"151 Frank","geo_precision":"street","state":"OH"},"type":"Feature","geometry":{"type":"Point","coordinates":[-83.940083,41.373197]}},{"properties":{"city":"McClure","zip":"43534","geo_score":1.0,"id":"abo40ddo02oq","address":"1627 Co Rd P","geo_precision":"range","state":"OH"},"type":"Feature","geometry":{"type":"Point","coordinates":[-83.896261,41.3861]}},{"properties":{"city":"McClure","zip":"43534","geo_score":0.633,"id":"abo40de6ccps","address":"P957 Co RD 2","geo_precision":"street","state":"OH"},"type":"Feature","geometry":{"type":"Point","coordinates":[-83.883307,41.38621]}},{"properties":{"city":"McClure","zip":"43534","geo_score":0.805,"id":"abo40d8ylyo3","address":"725 S East","geo_precision":"range","state":"OH"},"type":"Feature","geometry":{"type":"Point","coordinates":[-83.941277,41.366089]}},{"properties":{"city":"McClure","zip":"43534","geo_score":0.854,"id":"abo40d34vm5y","address":"4055 Co rd N","geo_precision":"range","state":"OH"},"type":"Feature","geometry":{"type":"Point","coordinates":[-83.941703,41.312848]}},{"properties":{"city":"McClure","zip":"43534","geo_score":0.795,"id":"abo40d4e8f09","address":"165 E North","geo_precision":"range","state":"OH"},"type":"Feature","geometry":{"type":"Point","coordinates":[-83.940458,41.371304]}},{"properties":{"city":"McClure","zip":"43534","geo_score":1.0,"id":"abo40d5zkp4c","address":"320 Reed St.","geo_precision":"range","state":"OH"},"type":"Feature","geometry":{"type":"Point","coordinates":[-83.937824,41.377727]}},{"properties":{"city":"McClure","zip":"43534","geo_score":0.615,"id":"abo40de0t1s6","address":"M925 County Road 3A","geo_precision":"street","state":"OH"},"type":"Feature","geometry":{"type":"Point","coordinates":[-83.89439,41.342493]}},{"properties":{"city":"McClure","zip":"43534","geo_score":0.805,"id":"abo40dadisio","address":"765 S East","geo_precision":"range","state":"OH"},"type":"Feature","geometry":{"type":"Point","coordinates":[-83.941276,41.366031]}},{"properties":{"city":"Napoleon","zip":"43545","geo_score":0.707,"id":"abo40d0pakrg","address":"7437 Co Rd P-3","geo_precision":"street","state":"OH"},"type":"Feature","geometry":{"type":"Point","coordinates":[-84.171734,41.406686]}},{"properties":{"city":"McClure","zip":"43534","geo_score":0.633,"id":"abo40dfrn31q","address":"P459 Co Rd 3A","geo_precision":"street","state":"OH"},"type":"Feature","geometry":{"type":"Point","coordinates":[-83.883307,41.38621]}},{"properties":{"city":"McClure","zip":"43534","geo_score":0.805,"id":"abo40dd8rv29","address":"555 N East","geo_precision":"range","state":"OH"},"type":"Feature","geometry":{"type":"Point","coordinates":[-83.941423,41.375426]}},{"properties":{"city":"Napoleon","zip":"43545","geo_score":0.854,"id":"abo40das8a4q","address":"4613 Rd Q","geo_precision":"range","state":"OH"},"type":"Feature","geometry":{"type":"Point","coordinates":[-83.953139,41.400505]}},{"properties":{"city":"McClure","zip":"43534","geo_score":0.769,"id":"abo40d4i7cky","address":"M 735 Co Rd 7","geo_precision":"street","state":"OH"},"type":"Feature","geometry":{"type":"Point","coordinates":[-83.89439,41.342493]}},{"properties":{"city":"McClure","zip":"43534","geo_score":0.633,"id":"abo40da1p2a6","address":"M791 Co Rd 7","geo_precision":"street","state":"OH"},"type":"Feature","geometry":{"type":"Point","coordinates":[-83.89439,41.342493]}},{"properties":{"city":"McClure","zip":"43534","geo_score":0.857,"id":"abo40d7gu4p2","address":"N231 Co Rd 3A","geo_precision":"zip","state":"OH"},"type":"Feature","geometry":{"type":"Point","coordinates":[-83.941313,41.356582]}},{"properties":{"city":"McClure","zip":"43534","geo_score":0.902,"id":"abo40d3jvqm8","address":"160 Summit","geo_precision":"range","state":"OH"},"type":"Feature","geometry":{"type":"Point","coordinates":[-83.94167,41.369591]}},{"properties":{"city":"McClure","zip":"43534","geo_score":0.854,"id":"abo40d9fofol","address":"2355 Rd Q","geo_precision":"range","state":"OH"},"type":"Feature","geometry":{"type":"Point","coordinates":[-83.915955,41.400672]}},{"properties":{"city":"McClure","zip":"43534","geo_score":0.854,"id":"abo40d412g0m","address":"1197 US 6","geo_precision":"range","state":"OH"},"type":"Feature","geometry":{"type":"Point","coordinates":[-83.889038,41.371548]}},{"properties":{"city":"McClure","zip":"43534","geo_score":0.89,"id":"abo40d7s1bxc","address":"701 Union","geo_precision":"range","state":"OH"},"type":"Feature","geometry":{"type":"Point","coordinates":[-83.938718,41.377788]}},{"properties":{"city":"McClure","zip":"43534","geo_score":0.902,"id":"abo40d60exfz","address":"340 Fifth St","geo_precision":"range","state":"OH"},"type":"Feature","geometry":{"type":"Point","coordinates":[-83.938136,41.376649]}},{"properties":{"city":"Napoleon","zip":"43545","geo_score":0.625,"id":"abo40ddo8fi0","address":"Q931 Co Rd 5A","geo_precision":"street","state":"OH"},"type":"Feature","geometry":{"type":"Point","coordinates":[-83.94876,41.40059]}},{"properties":{"city":"Napoleon","zip":"43545","geo_score":0.633,"id":"abo40d3kmsb9","address":"P289 County Road 7","geo_precision":"street","state":"OH"},"type":"Feature","geometry":{"type":"Point","coordinates":[-83.970584,41.385906]}},{"properties":{"city":"McClure","zip":"43534","geo_score":0.763,"id":"abo40d5qb1lh","address":"7740 Cr Rd P3","geo_precision":"street","state":"OH"},"type":"Feature","geometry":{"type":"Point","coordinates":[-83.96864,41.385915]}},{"properties":{"city":"McClure","zip":"43534","geo_score":0.695,"id":"abo40d3k4p8l","address":"4879 Co Rd Q","geo_precision":"street","state":"OH"},"type":"Feature","geometry":{"type":"Point","coordinates":[-83.923407,41.400692]}},{"properties":{"city":"McClure","zip":"43534","geo_score":0.854,"id":"abo40d5c7os2","address":"3729 US 6","geo_precision":"range","state":"OH"},"type":"Feature","geometry":{"type":"Point","coordinates":[-83.93545,41.371335]}},{"properties":{"city":"Mcclure","zip":"43534","geo_score":0.854,"id":"abo40dayk1hu","address":"2161 Co Rd N","geo_precision":"range","state":"OH"},"type":"Feature","geometry":{"type":"Point","coordinates":[-83.904413,41.313152]}},{"properties":{"city":"Napoleon","zip":"43545","geo_score":0.49,"id":"abo40d67kmaj","address":"O785 Co Rd 7","geo_precision":"street","state":"OH"},"type":"Feature","geometry":{"type":"Point","coordinates":[-83.999526,41.393077]}},{"properties":{"city":"McClure","zip":"43534","geo_score":1.0,"id":"abo40dfrhvkx","address":"755 S Haley","geo_precision":"range","state":"OH"},"type":"Feature","geometry":{"type":"Point","coordinates":[-83.940076,41.364539]}},{"properties":{"city":"Napoleon","zip":"43545","geo_score":0.633,"id":"abo40df84nx8","address":"P386 Co Rd 7","geo_precision":"street","state":"OH"},"type":"Feature","geometry":{"type":"Point","coordinates":[-83.970584,41.385906]}},{"properties":{"city":"McClure","zip":"43534","geo_score":0.854,"id":"abo40dbx5odw","address":"1177 County Road O5","geo_precision":"range","state":"OH"},"type":"Feature","geometry":{"type":"Point","coordinates":[-83.886213,41.400724]}},{"properties":{"city":"Napoleon","zip":"43545","geo_score":0.633,"id":"abo40d421r60","address":"P780 Co Rd 6B","geo_precision":"street","state":"OH"},"type":"Feature","geometry":{"type":"Point","coordinates":[-83.970584,41.385906]}},{"properties":{"city":"McClure","zip":"43534","geo_score":0.89,"id":"abo40dg9s08p","address":"260 depot","geo_precision":"range","state":"OH"},"type":"Feature","geometry":{"type":"Point","coordinates":[-83.938913,41.37336]}},{"properties":{"city":"McClure","zip":"43534","geo_score":1.0,"id":"abo40d9jwwdb","address":"4186 Co Rd P","geo_precision":"range","state":"OH"},"type":"Feature","geometry":{"type":"Point","coordinates":[-83.944818,41.386093]}},{"properties":{"city":"McClure","zip":"43534","geo_score":0.756,"id":"abo40dfgdikq","address":"260 Fifth","geo_precision":"range","state":"OH"},"type":"Feature","geometry":{"type":"Point","coordinates":[-83.939525,41.376592]}},{"properties":{"city":"McClure","zip":"43534","geo_score":0.585,"id":"abo40d8lk87y","address":"4620 Rd 0-4","geo_precision":"zip","state":"OH"},"type":"Feature","geometry":{"type":"Point","coordinates":[-83.941313,41.356582]}},{"properties":{"city":"McClure","zip":"43534","geo_score":1.0,"id":"abo40dh3bgl9","address":"3932 Co Rd P","geo_precision":"range","state":"OH"},"type":"Feature","geometry":{"type":"Point","coordinates":[-83.936383,41.386145]}},{"properties":{"city":"McClure","zip":"43545","geo_score":0.427,"id":"abo40dc0p0tr","address":"325 1/2 S East","geo_precision":"street","state":"OH"},"type":"Feature","geometry":{"type":"Point","coordinates":[-84.037784,41.428415]}},{"properties":{"city":"McClure","zip":"43534","geo_score":0.633,"id":"abo40df5xb2a","address":"P671 Rd 2","geo_precision":"street","state":"OH"},"type":"Feature","geometry":{"type":"Point","coordinates":[-83.883307,41.38621]}},{"properties":{"city":"McClure","zip":"43534","geo_score":0.625,"id":"abo40dgmlogr","address":"Q761 ST RT 65","geo_precision":"street","state":"OH"},"type":"Feature","geometry":{"type":"Point","coordinates":[-83.884244,41.400805]}},{"properties":{"city":"McClure","zip":"43534","geo_score":0.89,"id":"abo40ddlqx7j","address":"2208 County Road Q","geo_precision":"range","state":"OH"},"type":"Feature","geometry":{"type":"Point","coordinates":[-83.90321,41.400846]}},{"properties":{"city":"McClure","zip":"43534","geo_score":0.625,"id":"abo40deqvub4","address":"Q063 Rd 5A","geo_precision":"street","state":"OH"},"type":"Feature","geometry":{"type":"Point","coordinates":[-83.884244,41.400805]}},{"properties":{"city":"McClure","zip":"43534","geo_score":0.854,"id":"abo40d3nmgii","address":"4441 Co Rd N","geo_precision":"range","state":"OH"},"type":"Feature","geometry":{"type":"Point","coordinates":[-83.94767,41.312745]}},{"properties":{"city":"McClure","zip":"43534","geo_score":0.708,"id":"abo40dbtu171","address":"1320 Co Rd 05","geo_precision":"street","state":"OH"},"type":"Feature","geometry":{"type":"Point","coordinates":[-83.96072,41.321799]}},{"properties":{"city":"McClure","zip":"43534","geo_score":0.89,"id":"abo40de80p8k","address":"140 Depot","geo_precision":"range","state":"OH"},"type":"Feature","geometry":{"type":"Point","coordinates":[-83.940924,41.373296]}},{"properties":{"city":"McClure","zip":"43534","geo_score":0.89,"id":"abo40dcvpxho","address":"225 Frank","geo_precision":"range","state":"OH"},"type":"Feature","geometry":{"type":"Point","coordinates":[-83.940156,41.372234]}},{"properties":{"city":"McClure","zip":"43534","geo_score":0.89,"id":"abo40d9bsjtf","address":"110 Depot","geo_precision":"range","state":"OH"},"type":"Feature","geometry":{"type":"Point","coordinates":[-83.941321,41.373293]}},{"properties":{"city":"McClure","zip":"43534","geo_score":0.875,"id":"abo40d39rucb","address":"275 Carl","geo_precision":"range","state":"OH"},"type":"Feature","geometry":{"type":"Point","coordinates":[-83.939131,41.374269]}},{"properties":{"city":"McClure","zip":"43534","geo_score":0.673,"id":"abo40d4r7g9o","address":"M-326 County Road 3A","geo_precision":"street","state":"OH"},"type":"Feature","geometry":{"type":"Point","coordinates":[-83.931742,41.356864]}},{"properties":{"city":"McClure","zip":"43534","geo_score":0.857,"id":"abo40dfj3kua","address":"N144 County Road 3A","geo_precision":"zip","state":"OH"},"type":"Feature","geometry":{"type":"Point","coordinates":[-83.941313,41.356582]}},{"properties":{"city":"McClure","zip":"43534","geo_score":0.756,"id":"abo40dew2oru","address":"6590 Co Rd 04","geo_precision":"range","state":"OH"},"type":"Feature","geometry":{"type":"Point","coordinates":[-83.990935,41.31254]}},{"properties":{"city":"McClure","zip":"43534","geo_score":1.0,"id":"abo40dcnb4nx","address":"5114 Co Rd P","geo_precision":"range","state":"OH"},"type":"Feature","geometry":{"type":"Point","coordinates":[-83.963152,41.386031]}},{"properties":{"city":"McClure","zip":"43534","geo_score":0.89,"id":"abo40d7603xc","address":"2963 County Road Q","geo_precision":"range","state":"OH"},"type":"Feature","geometry":{"type":"Point","coordinates":[-83.918089,41.400662]}},{"properties":{"city":"McClure","zip":"43534","geo_score":1.0,"id":"abo40dfe3fhq","address":"1568 Co Rd P","geo_precision":"range","state":"OH"},"type":"Feature","geometry":{"type":"Point","coordinates":[-83.894077,41.386257]}},{"properties":{"city":"McClure","zip":"43534","geo_score":1.0,"id":"abo40d3oac7z","address":"1390 Co Rd P","geo_precision":"range","state":"OH"},"type":"Feature","geometry":{"type":"Point","coordinates":[-83.889719,41.386269]}},{"properties":{"city":"McClure","zip":"43534","geo_score":0.614,"id":"abo40dfv9nyc","address":"275 E. North","geo_precision":"street","state":"OH"},"type":"Feature","geometry":{"type":"Point","coordinates":[-83.9411,41.371379]}},{"properties":{"city":"Napoleon","zip":"43545","geo_score":0.91,"id":"abo40d8lpqad","address":"6251 St Rt 110","geo_precision":"range","state":"OH"},"type":"Feature","geometry":{"type":"Point","coordinates":[-83.980287,41.407177]}},{"properties":{"city":"McClure","zip":"43534","geo_score":0.902,"id":"abo40d1nskkz","address":"301 Woodlawn","geo_precision":"range","state":"OH"},"type":"Feature","geometry":{"type":"Point","coordinates":[-83.938808,41.37869]}},{"properties":{"city":"McClure","zip":"43534","geo_score":0.633,"id":"abo40d83x17n","address":"M065 CO RD 1-C","geo_precision":"street","state":"OH"},"type":"Feature","geometry":{"type":"Point","coordinates":[-83.89439,41.342493]}},{"properties":{"city":"Napoleon","zip":"43545","geo_score":0.49,"id":"abo40d8f3qzo","address":"O205 County Road 7","geo_precision":"street","state":"OH"},"type":"Feature","geometry":{"type":"Point","coordinates":[-83.999526,41.393077]}},{"properties":{"city":"McClure","zip":"43534","geo_score":0.805,"id":"abo40d9ole2u","address":"445 S East","geo_precision":"range","state":"OH"},"type":"Feature","geometry":{"type":"Point","coordinates":[-83.941324,41.368338]}},{"properties":{"city":"McClure","zip":"43534","geo_score":1.0,"id":"abo40dgyew8n","address":"4101 Co rd P","geo_precision":"range","state":"OH"},"type":"Feature","geometry":{"type":"Point","coordinates":[-83.942816,41.385947]}},{"properties":{"city":"McClure","zip":"43534","geo_score":0.598,"id":"abo40d0os9ty","address":"N282 St Rt 65","geo_precision":"street","state":"OH"},"type":"Feature","geometry":{"type":"Point","coordinates":[-83.883214,41.409841]}},{"properties":{"city":"McClure","zip":"43534","geo_score":0.707,"id":"abo40dbii3qy","address":"340 S east","geo_precision":"street","state":"OH"},"type":"Feature","geometry":{"type":"Point","coordinates":[-83.941474,41.369187]}},{"properties":{"city":"McClure","zip":"43534","geo_score":1.0,"id":"abo40dakjgrx","address":"3400 Co Rd L","geo_precision":"range","state":"OH"},"type":"Feature","geometry":{"type":"Point","coordinates":[-83.929683,41.327608]}},{"properties":{"city":"McClure","zip":"43534","geo_score":1.0,"id":"abo40dgfq226","address":"3259 Co Rd L","geo_precision":"range","state":"OH"},"type":"Feature","geometry":{"type":"Point","coordinates":[-83.926483,41.327489]}},{"properties":{"city":"McClure","zip":"43534","geo_score":0.927,"id":"abo40d1p7xjq","address":"300 Coldwater","geo_precision":"range","state":"OH"},"type":"Feature","geometry":{"type":"Point","coordinates":[-83.938304,41.365753]}},{"properties":{"city":"McClure","zip":"43534","geo_score":0.89,"id":"abo40dgn3vrd","address":"1566 County Road K","geo_precision":"range","state":"OH"},"type":"Feature","geometry":{"type":"Point","coordinates":[-83.886688,41.313378]}},{"properties":{"city":"McClure","zip":"43534","geo_score":0.633,"id":"abo40d6typ2e","address":"M969 ST RT 65","geo_precision":"street","state":"OH"},"type":"Feature","geometry":{"type":"Point","coordinates":[-83.89439,41.342493]}},{"properties":{"city":"McClure","zip":"43534","geo_score":1.0,"id":"abo40dfxwhex","address":"3639 County Road M","geo_precision":"range","state":"OH"},"type":"Feature","geometry":{"type":"Point","coordinates":[-83.934393,41.342221]}},{"properties":{"city":"McClure","zip":"43534","geo_score":1.0,"id":"abo40d38jlts","address":"245 Carl Street","geo_precision":"range","state":"OH"},"type":"Feature","geometry":{"type":"Point","coordinates":[-83.939543,41.374267]}},{"properties":{"city":"McClure","zip":"43534","geo_score":0.633,"id":"abo40dh5lnql","address":"744 S. Haley","geo_precision":"street","state":"OH"},"type":"Feature","geometry":{"type":"Point","coordinates":[-83.94001,41.364201]}},{"properties":{"city":"McClure","zip":"43534","geo_score":0.875,"id":"abo40dd609jt","address":"1874 CR P","geo_precision":"range","state":"OH"},"type":"Feature","geometry":{"type":"Point","coordinates":[-83.902779,41.386154]}},{"properties":{"city":"McClure","zip":"43534","geo_score":1.0,"id":"abo40d7wr7e8","address":"1859 County Road P","geo_precision":"range","state":"OH"},"type":"Feature","geometry":{"type":"Point","coordinates":[-83.900118,41.386086]}},{"properties":{"city":"Grandrapids","zip":"43522","geo_score":0.452,"id":"abo40d30isri","address":"15606 Henry Co line","geo_precision":"street","state":"OH"},"type":"Feature","geometry":{"type":"Point","coordinates":[-83.954859,41.465312]}},{"properties":{"city":"McClure","zip":"43534","geo_score":0.875,"id":"abo40dglm0b9","address":"545 Main","geo_precision":"range","state":"OH"},"type":"Feature","geometry":{"type":"Point","coordinates":[-83.942575,41.3677]}},{"properties":{"city":"McClure","zip":"43534","geo_score":0.89,"id":"abo40ddqrqk2","address":"545 Union","geo_precision":"range","state":"OH"},"type":"Feature","geometry":{"type":"Point","coordinates":[-83.938721,41.378292]}},{"properties":{"city":"McClure","zip":"43534","geo_score":0.633,"id":"abo40dgo3rtn","address":"725 S. Haley","geo_precision":"street","state":"OH"},"type":"Feature","geometry":{"type":"Point","coordinates":[-83.94001,41.364201]}},{"properties":{"city":"McClure","zip":"43534","geo_score":1.0,"id":"abo40dgkuzs3","address":"4148 Co Rd P","geo_precision":"range","state":"OH"},"type":"Feature","geometry":{"type":"Point","coordinates":[-83.944104,41.386097]}},{"properties":{"city":"McClure","zip":"43534","geo_score":0.805,"id":"abo40d0rcyt1","address":"530 S East","geo_precision":"range","state":"OH"},"type":"Feature","geometry":{"type":"Point","coordinates":[-83.941471,41.36749]}},{"properties":{"city":"McClure","zip":"43534","geo_score":0.854,"id":"abo40dgyuwed","address":"1986 US 6","geo_precision":"range","state":"OH"},"type":"Feature","geometry":{"type":"Point","coordinates":[-83.902367,41.371637]}},{"properties":{"city":"McClure","zip":"43534","geo_score":0.571,"id":"abo40d0yixdl","address":"N375 Co Rd 5A","geo_precision":"street","state":"OH"},"type":"Feature","geometry":{"type":"Point","coordinates":[-83.940974,41.376497]}},{"properties":{"city":"McClure","zip":"43534","geo_score":0.756,"id":"abo40d5p8rxq","address":"160 5th","geo_precision":"range","state":"OH"},"type":"Feature","geometry":{"type":"Point","coordinates":[-83.940629,41.376501]}},{"properties":{"city":"McClure","zip":"43534","geo_score":0.673,"id":"abo40dgdk389","address":"K-663 Co Rd 1C","geo_precision":"street","state":"OH"},"type":"Feature","geometry":{"type":"Point","coordinates":[-83.885088,41.342526]}},{"properties":{"city":"McClure","zip":"43534","geo_score":0.633,"id":"abo40d5szsdm","address":"M656 CR 5A","geo_precision":"street","state":"OH"},"type":"Feature","geometry":{"type":"Point","coordinates":[-83.89439,41.342493]}},{"properties":{"city":"McClure","zip":"43534","geo_score":0.89,"id":"abo40daelw8l","address":"750 Union","geo_precision":"range","state":"OH"},"type":"Feature","geometry":{"type":"Point","coordinates":[-83.938872,41.377671]}},{"properties":{"city":"McClure","zip":"43534","geo_score":0.566,"id":"abo40dh5arx2","address":"702 railroad","geo_precision":"street","state":"OH"},"type":"Feature","geometry":{"type":"Point","coordinates":[-83.940156,41.372234]}},{"properties":{"city":"McClure","zip":"43534","geo_score":0.633,"id":"abo40d5mu1f1","address":"M639 St Rt 65","geo_precision":"street","state":"OH"},"type":"Feature","geometry":{"type":"Point","coordinates":[-83.89439,41.342493]}},{"properties":{"city":"McClure","zip":"43534","geo_score":0.883,"id":"abo40daeb2fv","address":"445 W North St","geo_precision":"range","state":"OH"},"type":"Feature","geometry":{"type":"Point","coordinates":[-83.946137,41.371287]}},{"properties":{"city":"McClure","zip":"43534","geo_score":0.625,"id":"abo40d5glznf","address":"K098 Co Rd 1C","geo_precision":"street","state":"OH"},"type":"Feature","geometry":{"type":"Point","coordinates":[-83.88317,41.313327]}},{"properties":{"city":"McClure","zip":"43534","geo_score":0.89,"id":"abo40dbz07hy","address":"230 Depot","geo_precision":"range","state":"OH"},"type":"Feature","geometry":{"type":"Point","coordinates":[-83.939514,41.373349]}},{"properties":{"city":"McClure","zip":"43534","geo_score":1.0,"id":"abo40d3ynnqc","address":"4375 County Road L","geo_precision":"range","state":"OH"},"type":"Feature","geometry":{"type":"Point","coordinates":[-83.950931,41.327221]}},{"properties":{"city":"McClure","zip":"43534","geo_score":1.0,"id":"abo40daysptx","address":"4669 Co Rd M","geo_precision":"range","state":"OH"},"type":"Feature","geometry":{"type":"Point","coordinates":[-83.948096,41.342149]}},{"properties":{"city":"Napoleon","zip":"43545","geo_score":0.89,"id":"abo40dchk49g","address":"7742 US Rt 6","geo_precision":"range","state":"OH"},"type":"Feature","geometry":{"type":"Point","coordinates":[-84.012283,41.37089]}},{"properties":{"city":"McClure","zip":"43534","geo_score":0.902,"id":"abo40dcj03jc","address":"3573 St Rt 65","geo_precision":"range","state":"OH"},"type":"Feature","geometry":{"type":"Point","coordinates":[-83.934464,41.415109]}},{"properties":{"city":"McClure","zip":"43534","geo_score":0.633,"id":"abo40dc8dwkr","address":"M492 County Road 3","geo_precision":"street","state":"OH"},"type":"Feature","geometry":{"type":"Point","coordinates":[-83.89439,41.342493]}},{"properties":{"city":"McClure","zip":"43534","geo_score":0.619,"id":"abo40d5xc0j3","address":"311 S. East St","geo_precision":"street","state":"OH"},"type":"Feature","geometry":{"type":"Point","coordinates":[-83.941402,41.371542]}},{"properties":{"city":"McClure","zip":"43534","geo_score":0.619,"id":"abo40dbfbt09","address":"311 S. East St","geo_precision":"street","state":"OH"},"type":"Feature","geometry":{"type":"Point","coordinates":[-83.941402,41.371542]}},{"properties":{"city":"McClure","zip":"43534","geo_score":0.854,"id":"abo40d9ywcbh","address":"4580 Co Rd N","geo_precision":"range","state":"OH"},"type":"Feature","geometry":{"type":"Point","coordinates":[-83.952221,41.312863]}},{"properties":{"city":"McClure","zip":"43534","geo_score":0.571,"id":"abo40dff4niq","address":"570 W. Summit","geo_precision":"street","state":"OH"},"type":"Feature","geometry":{"type":"Point","coordinates":[-83.942032,41.369516]}},{"properties":{"city":"McClure","zip":"43534","geo_score":0.875,"id":"abo40dh18bfn","address":"540 Main","geo_precision":"range","state":"OH"},"type":"Feature","geometry":{"type":"Point","coordinates":[-83.942726,41.367716]}},{"properties":{"city":"McClure","zip":"43534","geo_score":0.875,"id":"abo40d10s4mi","address":"110 Reed","geo_precision":"range","state":"OH"},"type":"Feature","geometry":{"type":"Point","coordinates":[-83.941327,41.377672]}},{"properties":{"city":"McClure","zip":"43534","geo_score":0.89,"id":"abo40d88chbo","address":"705 Union","geo_precision":"range","state":"OH"},"type":"Feature","geometry":{"type":"Point","coordinates":[-83.938718,41.377775]}},{"properties":{"city":"McClure","zip":"43534","geo_score":1.0,"id":"abo40d98ho0r","address":"1477 Co Rd P","geo_precision":"range","state":"OH"},"type":"Feature","geometry":{"type":"Point","coordinates":[-83.888434,41.386123]}},{"properties":{"city":"McClure","zip":"43534","geo_score":0.643,"id":"abo40d1johhq","address":"3701 Woodlawn, Lot 30","geo_precision":"street","state":"OH"},"type":"Feature","geometry":{"type":"Point","coordinates":[-83.938808,41.37869]}},{"properties":{"city":"mcclure","zip":"43534","geo_score":0.805,"id":"abo40dgvr3n9","address":"415 S East","geo_precision":"range","state":"OH"},"type":"Feature","geometry":{"type":"Point","coordinates":[-83.941323,41.368497]}},{"properties":{"city":"McClure","zip":"43534","geo_score":1.0,"id":"abo40ddg06ct","address":"2849 County Road P","geo_precision":"range","state":"OH"},"type":"Feature","geometry":{"type":"Point","coordinates":[-83.916334,41.386076]}},{"properties":{"city":"McClure","zip":"43534","geo_score":0.857,"id":"abo40d91098w","address":"N025 County Road 1","geo_precision":"zip","state":"OH"},"type":"Feature","geometry":{"type":"Point","coordinates":[-83.941313,41.356582]}},{"properties":{"city":"McClure","zip":"43534","geo_score":0.633,"id":"abo40d7l2wot","address":"M235 Co Rd 2","geo_precision":"street","state":"OH"},"type":"Feature","geometry":{"type":"Point","coordinates":[-83.89439,41.342493]}},{"properties":{"city":"Napoleon","zip":"43545","geo_score":0.707,"id":"abo40d792d38","address":"6733 Co Rd P-3","geo_precision":"street","state":"OH"},"type":"Feature","geometry":{"type":"Point","coordinates":[-84.171734,41.406686]}},{"properties":{"city":"McClure","zip":"43534","geo_score":0.598,"id":"abo40dbja0xy","address":"N422 ST RT 65","geo_precision":"street","state":"OH"},"type":"Feature","geometry":{"type":"Point","coordinates":[-83.883214,41.409841]}},{"properties":{"city":"Napoleon","zip":"43545","geo_score":0.768,"id":"abo40d5nfrje","address":"4634 Co Rd Q","geo_precision":"street","state":"OH"},"type":"Feature","geometry":{"type":"Point","coordinates":[-84.171734,41.406686]}},{"properties":{"city":"Grand Rapids","zip":"43522","geo_score":0.571,"id":"abo40dey2ad1","address":"N311 County Road 1","geo_precision":"street","state":"OH"},"type":"Feature","geometry":{"type":"Point","coordinates":[-83.882997,41.443557]}},{"properties":{"city":"Napoleon","zip":"43545","geo_score":0.91,"id":"abo40d46pr81","address":"5861 St Rt 110","geo_precision":"range","state":"OH"},"type":"Feature","geometry":{"type":"Point","coordinates":[-83.976554,41.410769]}},{"properties":{"city":"McClure","zip":"43534","geo_score":0.633,"id":"abo40d7npi8n","address":"L006 Co Rd 2","geo_precision":"street","state":"OH"},"type":"Feature","geometry":{"type":"Point","coordinates":[-83.884087,41.328016]}},{"properties":{"city":"McClure","zip":"43534","geo_score":0.571,"id":"abo40ddf9pm0","address":"150 W. Henry","geo_precision":"street","state":"OH"},"type":"Feature","geometry":{"type":"Point","coordinates":[-83.943897,41.368562]}},{"properties":{"city":"McClure","zip":"43545","geo_score":0.446,"id":"abo40damqn8m","address":"N913 CO RD 6","geo_precision":"street","state":"OH"},"type":"Feature","geometry":{"type":"Point","coordinates":[-84.12531,41.38935]}},{"properties":{"city":"McClure","zip":"43534","geo_score":0.633,"id":"abo40d5ooq0k","address":"M983 Co Rd 5A","geo_precision":"street","state":"OH"},"type":"Feature","geometry":{"type":"Point","coordinates":[-83.89439,41.342493]}},{"properties":{"city":"McClure","zip":"43534","geo_score":0.633,"id":"abo40d88bfq6","address":"P338 Co Rd 7","geo_precision":"street","state":"OH"},"type":"Feature","geometry":{"type":"Point","coordinates":[-83.883307,41.38621]}},{"properties":{"city":"Grandrapids","zip":"43522","geo_score":0.882,"id":"abo40d96juyr","address":"23890 US RT 6","geo_precision":"range","state":"OH"},"type":"Feature","geometry":{"type":"Point","coordinates":[-83.861171,41.371868]}},{"properties":{"city":"McClure","zip":"43534","geo_score":0.875,"id":"abo40d94iq0o","address":"1578 Rd P","geo_precision":"range","state":"OH"},"type":"Feature","geometry":{"type":"Point","coordinates":[-83.893926,41.386258]}}],"is_temporal":false,"author":{"url":"","metadata":null,"contact_name":null,"contact_address":null,"source":null,"contact_phone":null},"source":"","pagination":{"sort":null,"start":0,"total":253,"limit":1000000},"state":"complete","tags":"","published":"2014-08-16T18:21:29-04:00","id":313767}