{"type":"FeatureCollection","data_type":"Dataset","url_type":null,"permissions":[{"permissions":{"download":true,"view":true},"group_id":"everyone"}],"classification":null,"title":"Copy_of_IPTV-Ottoville-Jan-16-2013_-_CSV","count":195,"stream_id":313771,"contributor":{"url":"http://geocommons.com/users/59404","name":"KatieEtgen"},"data_attributes":null,"calculation_params":null,"icon_link":null,"link":"http://geocommons.com/overlays/313771.json","extent":[-84.5002,40.8742,-83.9003,41.0639],"geometry_types":["point"],"unique_name":null,"name":"Copy_of_IPTV-Ottoville-Jan-16-2013_-_CSV","feature_count":195,"description":"","next_feature":null,"is_raster":false,"short_classification":"Y","stats":{},"features":[{"properties":{"city":"Fort Jennings","zip":"45844","geo_score":1.0,"id":"abo40uida40m","address":"20422 Wetzel Road","geo_precision":"range","state":"OH"},"type":"Feature","geometry":{"type":"Point","coordinates":[-84.427528,40.946543]}},{"properties":{"city":"Ottoville","zip":"45876","geo_score":0.561,"id":"abo40us43g68","address":"390 W 3rd","geo_precision":"street","state":"OH"},"type":"Feature","geometry":{"type":"Point","coordinates":[-84.33717,40.932274]}},{"properties":{"city":"Ottoville","zip":"45876","geo_score":0.568,"id":"abo40ulqo5nz","address":"409 W 3rd","geo_precision":"street","state":"OH"},"type":"Feature","geometry":{"type":"Point","coordinates":[-84.336949,40.9322]}},{"properties":{"city":"Fort Jennings","zip":"45844","geo_score":1.0,"id":"abo40uow9qon","address":"18194 Road 23Q","geo_precision":"range","state":"OH"},"type":"Feature","geometry":{"type":"Point","coordinates":[-84.330289,40.913275]}},{"properties":{"city":"Ottoville","zip":"45876","geo_score":0.634,"id":"abo40uhy1fdk","address":"309 West Third","geo_precision":"range","state":"OH"},"type":"Feature","geometry":{"type":"Point","coordinates":[-84.336493,40.932359]}},{"properties":{"city":"Cloverdale","zip":"45827","geo_score":0.92,"id":"abo40ut4d8vi","address":"186 Mahoning","geo_precision":"range","state":"OH"},"type":"Feature","geometry":{"type":"Point","coordinates":[-84.304556,41.020528]}},{"properties":{"city":"Ottoville","zip":"45876","geo_score":0.585,"id":"abo40utw3ho3","address":"155 Evelyn Drive","geo_precision":"zip","state":"OH"},"type":"Feature","geometry":{"type":"Point","coordinates":[-84.238754,41.027573]}},{"properties":{"city":"Cloverdale","zip":"45827","geo_score":1.0,"id":"abo40utwnc3l","address":"22779 Road M","geo_precision":"range","state":"OH"},"type":"Feature","geometry":{"type":"Point","coordinates":[-84.381207,40.990521]}},{"properties":{"city":"Ottoville","zip":"45876","geo_score":0.883,"id":"abo40urbfx41","address":"380 W Canal","geo_precision":"range","state":"OH"},"type":"Feature","geometry":{"type":"Point","coordinates":[-84.338331,40.928111]}},{"properties":{"city":"Cloverdale","zip":"45827","geo_score":0.902,"id":"abo40uv2ccwg","address":"24638 Road N","geo_precision":"range","state":"OH"},"type":"Feature","geometry":{"type":"Point","coordinates":[-84.329841,40.968518]}},{"properties":{"city":"Cloverdale","zip":"45827","geo_score":1.0,"id":"abo40uvdosit","address":"13796 RD 24M","geo_precision":"range","state":"OH"},"type":"Feature","geometry":{"type":"Point","coordinates":[-84.330123,40.97709]}},{"properties":{"city":"Ottoville","zip":"45876","geo_score":0.805,"id":"abo40ujzmwwn","address":"138 Westwood Drive","geo_precision":"range","state":"OH"},"type":"Feature","geometry":{"type":"Point","coordinates":[-84.342931,40.924675]}},{"properties":{"city":"Ottoville","zip":"45876","geo_score":0.935,"id":"abo40ux1re52","address":"410 S Otto St.","geo_precision":"range","state":"OH"},"type":"Feature","geometry":{"type":"Point","coordinates":[-84.337284,40.928662]}},{"properties":{"city":"Cloverdale","zip":"45827","geo_score":1.0,"id":"abo40umx6tkr","address":"24458 Road J","geo_precision":"range","state":"OH"},"type":"Feature","geometry":{"type":"Point","coordinates":[-84.33619,41.034556]}},{"properties":{"city":"Cloverdale","zip":"45827","geo_score":0.92,"id":"abo40ulz2qxy","address":"198 Mahoning","geo_precision":"range","state":"OH"},"type":"Feature","geometry":{"type":"Point","coordinates":[-84.304492,41.019425]}},{"properties":{"city":"Cloverdale","zip":"45827","geo_score":1.0,"id":"abo40urbsyq7","address":"13228 Road 23M","geo_precision":"range","state":"OH"},"type":"Feature","geometry":{"type":"Point","coordinates":[-84.311206,40.987291]}},{"properties":{"city":"Ottoville","zip":"45876","geo_score":0.643,"id":"abo40ul0v3f7","address":"189 Cherry (4th) St.","geo_precision":"street","state":"OH"},"type":"Feature","geometry":{"type":"Point","coordinates":[-84.340012,40.93125]}},{"properties":{"city":"Dupont","zip":"45837","geo_score":0.614,"id":"abo40upjk8vz","address":"706 S. River St.","geo_precision":"street","state":"OH"},"type":"Feature","geometry":{"type":"Point","coordinates":[-84.30389,41.052744]}},{"properties":{"city":"Cloverdale","zip":"45827","geo_score":0.777,"id":"abo40uje5i4f","address":"161 Main","geo_precision":"street","state":"OH"},"type":"Feature","geometry":{"type":"Point","coordinates":[-84.305587,41.017255]}},{"properties":{"city":"Ottoville","zip":"45876","geo_score":0.659,"id":"abo40usok1u1","address":"387-1 West Third","geo_precision":"range","state":"OH"},"type":"Feature","geometry":{"type":"Point","coordinates":[-84.33717,40.932274]}},{"properties":{"city":"Cloverdale","zip":"45827","geo_score":0.902,"id":"abo40upv328r","address":"24806 Road N24","geo_precision":"range","state":"OH"},"type":"Feature","geometry":{"type":"Point","coordinates":[-84.332649,40.968496]}},{"properties":{"city":"Cloverdale","zip":"45827","geo_score":0.902,"id":"abo40unu0n9h","address":"1864 Road 197","geo_precision":"street","state":"OH"},"type":"Feature","geometry":{"type":"Point","coordinates":[-84.38033,41.00289]}},{"properties":{"city":"Fort Jennings","zip":"45844","geo_score":0.765,"id":"abo40ul68aa8","address":"17390 RD 24Q","geo_precision":"street","state":"OH"},"type":"Feature","geometry":{"type":"Point","coordinates":[-84.337734,40.925011]}},{"properties":{"city":"Delphos","zip":"45833","geo_score":0.805,"id":"abo40up47reb","address":"25785 RD R23","geo_precision":"street","state":"OH"},"type":"Feature","geometry":{"type":"Point","coordinates":[-84.395428,40.917767]}},{"properties":{"city":"Delphos","zip":"45833","geo_score":0.805,"id":"abo40uxklw9p","address":"26181 RD R23","geo_precision":"street","state":"OH"},"type":"Feature","geometry":{"type":"Point","coordinates":[-84.395428,40.917767]}},{"properties":{"city":"Cloverdale","zip":"45827","geo_score":0.902,"id":"abo40uv96thi","address":"12562 Road 21L","geo_precision":"street","state":"OH"},"type":"Feature","geometry":{"type":"Point","coordinates":[-84.273684,40.999215]}},{"properties":{"city":"Fort Jennings","zip":"45844","geo_score":1.0,"id":"abo40up3y3sm","address":"24962 Road P","geo_precision":"range","state":"OH"},"type":"Feature","geometry":{"type":"Point","coordinates":[-84.342718,40.947169]}},{"properties":{"city":"Cloverdale","zip":"45827","geo_score":0.875,"id":"abo40utqg8bj","address":"148 Main","geo_precision":"range","state":"OH"},"type":"Feature","geometry":{"type":"Point","coordinates":[-84.305692,41.020779]}},{"properties":{"city":"Cloverdale","zip":"45827","geo_score":1.0,"id":"abo40uizr8dr","address":"27912 RD O","geo_precision":"range","state":"OH"},"type":"Feature","geometry":{"type":"Point","coordinates":[-84.397042,40.961211]}},{"properties":{"city":"Grover Hill","zip":"45849","geo_score":0.806,"id":"abo40uk38y25","address":"14815 Road 28","geo_precision":"street","state":"OH"},"type":"Feature","geometry":{"type":"Point","coordinates":[-84.399143,40.966587]}},{"properties":{"city":"Ottoville","zip":"45876","geo_score":1.0,"id":"abo40uwsuud2","address":"146 Albert Drive","geo_precision":"range","state":"OH"},"type":"Feature","geometry":{"type":"Point","coordinates":[-84.333235,40.93165]}},{"properties":{"city":"Cloverdale","zip":"45827","geo_score":1.0,"id":"abo40usrquco","address":"27762 RD O","geo_precision":"range","state":"OH"},"type":"Feature","geometry":{"type":"Point","coordinates":[-84.394476,40.961266]}},{"properties":{"city":"Ottoville","zip":"45876","geo_score":0.878,"id":"abo40uqgqedv","address":"192 Church St.","geo_precision":"street","state":"OH"},"type":"Feature","geometry":{"type":"Point","coordinates":[-84.340373,40.933543]}},{"properties":{"city":"Cloverdale","zip":"45827","geo_score":1.0,"id":"abo40uncz8rl","address":"15451 Road 25M","geo_precision":"range","state":"OH"},"type":"Feature","geometry":{"type":"Point","coordinates":[-84.338227,40.958628]}},{"properties":{"city":"Grover Hill","zip":"45849","geo_score":0.842,"id":"abo40usn7fer","address":"19275 SR 114","geo_precision":"range","state":"OH"},"type":"Feature","geometry":{"type":"Point","coordinates":[-84.442918,41.01943]}},{"properties":{"city":"Cloverdale","zip":"45827","geo_score":0.683,"id":"abo40uhspmcv","address":"23859 Road I23","geo_precision":"street","state":"OH"},"type":"Feature","geometry":{"type":"Point","coordinates":[-84.276637,41.048879]}},{"properties":{"city":"Cloverdale","zip":"45827","geo_score":0.805,"id":"abo40utugu30","address":"22551 RD H22","geo_precision":"street","state":"OH"},"type":"Feature","geometry":{"type":"Point","coordinates":[-84.277771,41.06378]}},{"properties":{"city":"Middlepoint","zip":"45863","geo_score":0.585,"id":"abo40uqxxgmk","address":"20346","geo_precision":"zip","state":"OH"},"type":"Feature","geometry":{"type":"Point","coordinates":[-84.454113,40.899321]}},{"properties":{"city":"Grover Hill","zip":"45849","geo_score":0.937,"id":"abo40uhznnip","address":"103 S Jefferson","geo_precision":"range","state":"OH"},"type":"Feature","geometry":{"type":"Point","coordinates":[-84.480224,41.019208]}},{"properties":{"city":"Cloverdale","zip":"45827","geo_score":1.0,"id":"abo40uhrydu9","address":"1315 RD 203","geo_precision":"range","state":"OH"},"type":"Feature","geometry":{"type":"Point","coordinates":[-84.343413,40.993147]}},{"properties":{"city":"Cloverdale","zip":"45827","geo_score":0.805,"id":"abo40ur6hagp","address":"24297 Road 12","geo_precision":"street","state":"OH"},"type":"Feature","geometry":{"type":"Point","coordinates":[-84.342712,40.990684]}},{"properties":{"city":"Ottoville","zip":"45876","geo_score":0.902,"id":"abo40urm9ivq","address":"337 Walnut","geo_precision":"range","state":"OH"},"type":"Feature","geometry":{"type":"Point","coordinates":[-84.340128,40.930155]}},{"properties":{"city":"Cloverdale","zip":"45827","geo_score":0.902,"id":"abo40ujeqmqf","address":"10998 Road 20","geo_precision":"street","state":"OH"},"type":"Feature","geometry":{"type":"Point","coordinates":[-84.245972,41.015708]}},{"properties":{"city":"Delphos","zip":"45833","geo_score":1.0,"id":"abo40uoqfywi","address":"7055 Shenk Rd","geo_precision":"range","state":"OH"},"type":"Feature","geometry":{"type":"Point","coordinates":[-84.369707,40.901781]}},{"properties":{"city":"Cloverdale","zip":"45827","geo_score":1.0,"id":"abo40uqw5h9o","address":"169 Plank Road","geo_precision":"range","state":"OH"},"type":"Feature","geometry":{"type":"Point","coordinates":[-84.305827,41.016095]}},{"properties":{"city":"Cloverdale","zip":"45827","geo_score":0.842,"id":"abo40uwofozl","address":"13670 SR 634","geo_precision":"range","state":"OH"},"type":"Feature","geometry":{"type":"Point","coordinates":[-84.292052,40.981692]}},{"properties":{"city":"Fort Jennings","zip":"45844","geo_score":1.0,"id":"abo40uvrdajk","address":"20054 Wetzel Road","geo_precision":"range","state":"OH"},"type":"Feature","geometry":{"type":"Point","coordinates":[-84.427528,40.946543]}},{"properties":{"city":"Grover Hill","zip":"45849","geo_score":0.625,"id":"abo40up4djn7","address":"203 E. Perry","geo_precision":"street","state":"OH"},"type":"Feature","geometry":{"type":"Point","coordinates":[-84.475265,41.02018]}},{"properties":{"city":"Grover Hill","zip":"45849","geo_score":1.0,"id":"abo40uvojtbu","address":"300 Wayne St.","geo_precision":"range","state":"OH"},"type":"Feature","geometry":{"type":"Point","coordinates":[-84.474041,41.021119]}},{"properties":{"city":"Ottoville","zip":"45876","geo_score":0.973,"id":"abo40uxlebu1","address":"130 NE Canal St.","geo_precision":"range","state":"OH"},"type":"Feature","geometry":{"type":"Point","coordinates":[-84.338021,40.933404]}},{"properties":{"city":"Cloverdale","zip":"45827","geo_score":0.902,"id":"abo40uq4oqk4","address":"24529 Road N24","geo_precision":"range","state":"OH"},"type":"Feature","geometry":{"type":"Point","coordinates":[-84.328105,40.968384]}},{"properties":{"city":"Cloverdale","zip":"45827","geo_score":0.902,"id":"abo40upslupf","address":"25096 Road N25","geo_precision":"range","state":"OH"},"type":"Feature","geometry":{"type":"Point","coordinates":[-84.344523,40.968958]}},{"properties":{"city":"Van Wert","zip":"45891","geo_score":1.0,"id":"abo40uu4omrq","address":"16727 Wetzel Rd.","geo_precision":"range","state":"OH"},"type":"Feature","geometry":{"type":"Point","coordinates":[-84.500206,40.94634]}},{"properties":{"city":"Ottoville","zip":"45876","geo_score":0.711,"id":"abo40uhslcm2","address":"154 Church St.","geo_precision":"street","state":"OH"},"type":"Feature","geometry":{"type":"Point","coordinates":[-84.340356,40.934003]}},{"properties":{"city":"Fort Jennings","zip":"45844","geo_score":0.805,"id":"abo40uhgejlo","address":"24250 Road Q","geo_precision":"street","state":"OH"},"type":"Feature","geometry":{"type":"Point","coordinates":[-84.263775,40.932704]}},{"properties":{"city":"Cloverdale","zip":"45827","geo_score":1.0,"id":"abo40ulz2t89","address":"14286 Road 23N","geo_precision":"range","state":"OH"},"type":"Feature","geometry":{"type":"Point","coordinates":[-84.304472,40.975167]}},{"properties":{"city":"Dupont","zip":"45837","geo_score":0.806,"id":"abo40usulw44","address":"408 Logan St.","geo_precision":"street","state":"OH"},"type":"Feature","geometry":{"type":"Point","coordinates":[-84.301523,41.056323]}},{"properties":{"city":"Cloverdale","zip":"45827","geo_score":1.0,"id":"abo40urwfcdp","address":"24784 Road O","geo_precision":"range","state":"OH"},"type":"Feature","geometry":{"type":"Point","coordinates":[-84.334492,40.961239]}},{"properties":{"city":"Fort Jennings","zip":"45844","geo_score":1.0,"id":"abo40uh8zlum","address":"16355 Road 27","geo_precision":"range","state":"OH"},"type":"Feature","geometry":{"type":"Point","coordinates":[-84.379679,40.941724]}},{"properties":{"city":"Grover Hill","zip":"45849","geo_score":0.817,"id":"abo40uhiarvv","address":"250 N Maple","geo_precision":"range","state":"OH"},"type":"Feature","geometry":{"type":"Point","coordinates":[-84.473959,41.02064]}},{"properties":{"city":"Fort Jennings","zip":"45844","geo_score":0.585,"id":"abo40uj0t38m","address":"21596 US224","geo_precision":"zip","state":"OH"},"type":"Feature","geometry":{"type":"Point","coordinates":[-84.253283,40.874217]}},{"properties":{"city":"Ottoville","zip":"45876","geo_score":0.659,"id":"abo40utijxmq","address":"180 W Third","geo_precision":"range","state":"OH"},"type":"Feature","geometry":{"type":"Point","coordinates":[-84.338713,40.932323]}},{"properties":{"city":"Ottoville","zip":"45876","geo_score":0.809,"id":"abo40ulr4bc0","address":"103 Clay St","geo_precision":"street","state":"OH"},"type":"Feature","geometry":{"type":"Point","coordinates":[-84.340449,40.932219]}},{"properties":{"city":"Grover Hill","zip":"45849","geo_score":1.0,"id":"abo40uqzu235","address":"407 Monroe St.","geo_precision":"range","state":"OH"},"type":"Feature","geometry":{"type":"Point","coordinates":[-84.478981,41.015829]}},{"properties":{"city":"Ottoville","zip":"45876","geo_score":0.902,"id":"abo40ums5vhd","address":"145 Third St.","geo_precision":"range","state":"OH"},"type":"Feature","geometry":{"type":"Point","coordinates":[-84.338899,40.932168]}},{"properties":{"city":"Colverdale","zip":"45827","geo_score":0.99,"id":"abo40uwy2228","address":"22623 RD M","geo_precision":"range","state":"OH"},"type":"Feature","geometry":{"type":"Point","coordinates":[-84.295902,40.990741]}},{"properties":{"city":"Ottoville","zip":"45876","geo_score":0.805,"id":"abo40ukxo7dh","address":"122 Red Maple Ct","geo_precision":"range","state":"OH"},"type":"Feature","geometry":{"type":"Point","coordinates":[-84.34368,40.923845]}},{"properties":{"city":"Grover Hill","zip":"45849","geo_score":0.857,"id":"abo40ulfckw6","address":"303 E. Jackson","geo_precision":"zip","state":"OH"},"type":"Feature","geometry":{"type":"Point","coordinates":[-84.419116,41.019494]}},{"properties":{"city":"Fort Jennings","zip":"45844","geo_score":1.0,"id":"abo40uuokc1u","address":"24450 Road P","geo_precision":"range","state":"OH"},"type":"Feature","geometry":{"type":"Point","coordinates":[-84.330091,40.946791]}},{"properties":{"city":"Delphos","zip":"45833","geo_score":0.805,"id":"abo40uv3vpmc","address":"25995 Road R23","geo_precision":"street","state":"OH"},"type":"Feature","geometry":{"type":"Point","coordinates":[-84.395428,40.917767]}},{"properties":{"city":"Delphos","zip":"45833","geo_score":0.805,"id":"abo40uusnkwz","address":"25061 Road R23","geo_precision":"street","state":"OH"},"type":"Feature","geometry":{"type":"Point","coordinates":[-84.395428,40.917767]}},{"properties":{"city":"Cloverdale","zip":"45827","geo_score":1.0,"id":"abo40uu402fi","address":"11288 Road 21","geo_precision":"range","state":"OH"},"type":"Feature","geometry":{"type":"Point","coordinates":[-84.26523,41.022586]}},{"properties":{"city":"Fort Jennings","zip":"45844","geo_score":1.0,"id":"abo40utsarxl","address":"26618 RD R","geo_precision":"range","state":"OH"},"type":"Feature","geometry":{"type":"Point","coordinates":[-84.372293,40.917996]}},{"properties":{"city":"Fort Jennings","zip":"45844","geo_score":1.0,"id":"abo40uvk4xyk","address":"25664 RD R","geo_precision":"range","state":"OH"},"type":"Feature","geometry":{"type":"Point","coordinates":[-84.354052,40.918065]}},{"properties":{"city":"Fort Jennings","zip":"45844","geo_score":0.878,"id":"abo40updhjo8","address":"17911 Road 27","geo_precision":"range","state":"OH"},"type":"Feature","geometry":{"type":"Point","coordinates":[-84.379813,40.924301]}},{"properties":{"city":"Fort Jennings","zip":"45844","geo_score":0.805,"id":"abo40uvfgdck","address":"27621 Road Q26","geo_precision":"street","state":"OH"},"type":"Feature","geometry":{"type":"Point","coordinates":[-84.263775,40.932704]}},{"properties":{"city":"Cloverdale","zip":"45827","geo_score":0.805,"id":"abo40uut82rl","address":"24786 Road I22","geo_precision":"street","state":"OH"},"type":"Feature","geometry":{"type":"Point","coordinates":[-84.276637,41.048879]}},{"properties":{"city":"Fort Jennings","zip":"45844","geo_score":1.0,"id":"abo40urs1yfg","address":"25876 RD R","geo_precision":"range","state":"OH"},"type":"Feature","geometry":{"type":"Point","coordinates":[-84.357872,40.918028]}},{"properties":{"city":"Fort Jennings","zip":"45844","geo_score":0.902,"id":"abo40upmbvdd","address":"23228 Road O22","geo_precision":"range","state":"OH"},"type":"Feature","geometry":{"type":"Point","coordinates":[-84.308601,40.954274]}},{"properties":{"city":"Cloverdale","zip":"45827","geo_score":1.0,"id":"abo40uiucwh1","address":"14505 RD 27","geo_precision":"range","state":"OH"},"type":"Feature","geometry":{"type":"Point","coordinates":[-84.379986,40.968483]}},{"properties":{"city":"Cloverdale","zip":"45827","geo_score":0.805,"id":"abo40uh871w2","address":"24734 Road L24","geo_precision":"street","state":"OH"},"type":"Feature","geometry":{"type":"Point","coordinates":[-84.330156,41.005264]}},{"properties":{"city":"Cloverdale","zip":"45827","geo_score":1.0,"id":"abo40up7xj9x","address":"1580 RD 197","geo_precision":"range","state":"OH"},"type":"Feature","geometry":{"type":"Point","coordinates":[-84.380292,40.995108]}},{"properties":{"city":"Cloverdale","zip":"45827","geo_score":0.842,"id":"abo40uo5u5os","address":"22528 SR 114","geo_precision":"range","state":"OH"},"type":"Feature","geometry":{"type":"Point","coordinates":[-84.385167,41.019399]}},{"properties":{"city":"Cloverdale","zip":"45827","geo_score":0.806,"id":"abo40usurltg","address":"24645 Road L24","geo_precision":"street","state":"OH"},"type":"Feature","geometry":{"type":"Point","coordinates":[-84.330156,41.005264]}},{"properties":{"city":"Cloverdale","zip":"45827","geo_score":1.0,"id":"abo40unt405s","address":"11722 Road 24","geo_precision":"range","state":"OH"},"type":"Feature","geometry":{"type":"Point","coordinates":[-84.322918,41.01181]}},{"properties":{"city":"Ottoville","zip":"45876","geo_score":0.902,"id":"abo40uifhbf6","address":"361 Walnut","geo_precision":"range","state":"OH"},"type":"Feature","geometry":{"type":"Point","coordinates":[-84.340132,40.929555]}},{"properties":{"city":"Fort Jennings","zip":"45844","geo_score":1.0,"id":"abo40ujnver3","address":"24616 Road R","geo_precision":"range","state":"OH"},"type":"Feature","geometry":{"type":"Point","coordinates":[-84.333047,40.91792]}},{"properties":{"city":"Fort Jennings","zip":"45844","geo_score":0.756,"id":"abo40uidtws1","address":"18161 RD 24R","geo_precision":"street","state":"OH"},"type":"Feature","geometry":{"type":"Point","coordinates":[-84.320756,40.907331]}},{"properties":{"city":"Ottoville","zip":"45876","geo_score":1.0,"id":"abo40uobdlgd","address":"225 Franklin St.","geo_precision":"range","state":"OH"},"type":"Feature","geometry":{"type":"Point","coordinates":[-84.33952,40.931179]}},{"properties":{"city":"Ottoville","zip":"45876","geo_score":0.823,"id":"abo40uo8yybi","address":"320 Auglaize","geo_precision":"range","state":"OH"},"type":"Feature","geometry":{"type":"Point","coordinates":[-84.342669,40.929523]}},{"properties":{"city":"Cloverdale","zip":"45827","geo_score":1.0,"id":"abo40uu3ilff","address":"25840 RD P","geo_precision":"range","state":"OH"},"type":"Feature","geometry":{"type":"Point","coordinates":[-84.356306,40.947039]}},{"properties":{"city":"Continental","zip":"45831","geo_score":0.842,"id":"abo40ujgop43","address":"7965 SR 634","geo_precision":"range","state":"OH"},"type":"Feature","geometry":{"type":"Point","coordinates":[-84.303894,41.063694]}},{"properties":{"city":"Grover Hill","zip":"45849","geo_score":0.633,"id":"abo40ujj91x3","address":"202 S. Main","geo_precision":"street","state":"OH"},"type":"Feature","geometry":{"type":"Point","coordinates":[-84.476576,41.021719]}},{"properties":{"city":"Cloverdale","zip":"45827","geo_score":0.829,"id":"abo40uu8b0ml","address":"13260 SR 66","geo_precision":"range","state":"OH"},"type":"Feature","geometry":{"type":"Point","coordinates":[-84.361455,40.986987]}},{"properties":{"city":"Delphos","zip":"45833","geo_score":0.679,"id":"abo40uibg5fe","address":"25563 Rd. R23","geo_precision":"street","state":"OH"},"type":"Feature","geometry":{"type":"Point","coordinates":[-84.398636,40.917729]}},{"properties":{"city":"Delphos","zip":"45833","geo_score":0.805,"id":"abo40ujnpkk2","address":"25327 Road R23","geo_precision":"street","state":"OH"},"type":"Feature","geometry":{"type":"Point","coordinates":[-84.395428,40.917767]}},{"properties":{"city":"Ottoville","zip":"45876","geo_score":0.878,"id":"abo40us5ckr9","address":"190 Church St.","geo_precision":"range","state":"OH"},"type":"Feature","geometry":{"type":"Point","coordinates":[-84.340437,40.933775]}},{"properties":{"city":"Ottoville","zip":"45876","geo_score":0.805,"id":"abo40uw27v2g","address":"126 Sunset Drive","geo_precision":"range","state":"OH"},"type":"Feature","geometry":{"type":"Point","coordinates":[-83.900952,40.894664]}},{"properties":{"city":"Ottoville","zip":"45876","geo_score":0.634,"id":"abo40uw9ddq0","address":"325 W 3rd","geo_precision":"range","state":"OH"},"type":"Feature","geometry":{"type":"Point","coordinates":[-84.336744,40.932354]}},{"properties":{"city":"Ottoville","zip":"45876","geo_score":0.883,"id":"abo40uwaek2t","address":"172 SE Canal","geo_precision":"range","state":"OH"},"type":"Feature","geometry":{"type":"Point","coordinates":[-84.338112,40.932269]}},{"properties":{"city":"Ottoville","zip":"45876","geo_score":0.761,"id":"abo40up0bbp0","address":"159 West Canal","geo_precision":"range","state":"OH"},"type":"Feature","geometry":{"type":"Point","coordinates":[-84.338031,40.932605]}},{"properties":{"city":"Dupont","zip":"45837","geo_score":0.66,"id":"abo40uqoww55","address":"204 S River","geo_precision":"street","state":"OH"},"type":"Feature","geometry":{"type":"Point","coordinates":[-84.303891,41.053199]}},{"properties":{"city":"Fort Jennings","zip":"45844","geo_score":0.585,"id":"abo40upg1y64","address":"15465","geo_precision":"zip","state":"OH"},"type":"Feature","geometry":{"type":"Point","coordinates":[-84.253283,40.874217]}},{"properties":{"city":"Ottoville","zip":"45876","geo_score":0.71,"id":"abo40uwb0suf","address":"130A Church St.","geo_precision":"street","state":"OH"},"type":"Feature","geometry":{"type":"Point","coordinates":[-84.340356,40.934003]}},{"properties":{"city":"Middlepoint","zip":"45863","geo_score":1.0,"id":"abo40un3ozfv","address":"5021 Dog Creek Road","geo_precision":"range","state":"OH"},"type":"Feature","geometry":{"type":"Point","coordinates":[-84.451526,40.931608]}},{"properties":{"city":"Fort Jennings","zip":"45844","geo_score":0.585,"id":"abo40utqt4d1","address":"27826 US224","geo_precision":"zip","state":"OH"},"type":"Feature","geometry":{"type":"Point","coordinates":[-84.253283,40.874217]}},{"properties":{"city":"Delphos","zip":"45833","geo_score":1.0,"id":"abo40ukrry3p","address":"18887 RD 28","geo_precision":"range","state":"OH"},"type":"Feature","geometry":{"type":"Point","coordinates":[-84.398428,40.904911]}},{"properties":{"city":"Ottoville","zip":"45876","geo_score":0.805,"id":"abo40usnkfbz","address":"134 Sunset Dr.","geo_precision":"range","state":"OH"},"type":"Feature","geometry":{"type":"Point","coordinates":[-83.90152,40.89466]}},{"properties":{"city":"Ottoville","zip":"45876","geo_score":0.805,"id":"abo40urcht0r","address":"233 Auglaize St.","geo_precision":"street","state":"OH"},"type":"Feature","geometry":{"type":"Point","coordinates":[-84.342601,40.931191]}},{"properties":{"city":"Grover Hill","zip":"45849","geo_score":0.878,"id":"abo40uhzmh2k","address":"304 S Cleveland","geo_precision":"range","state":"OH"},"type":"Feature","geometry":{"type":"Point","coordinates":[-84.475259,41.017292]}},{"properties":{"city":"Ottoville","zip":"45876","geo_score":0.585,"id":"abo40ur3q29l","address":"106 Evelyn Dr.","geo_precision":"zip","state":"OH"},"type":"Feature","geometry":{"type":"Point","coordinates":[-84.238754,41.027573]}},{"properties":{"city":"Fort Jennings","zip":"45844","geo_score":0.585,"id":"abo40uu48oy2","address":"22558 US224","geo_precision":"zip","state":"OH"},"type":"Feature","geometry":{"type":"Point","coordinates":[-84.253283,40.874217]}},{"properties":{"city":"Cloverdale","zip":"45827","geo_score":1.0,"id":"abo40ulr4hpa","address":"27507 Road O","geo_precision":"range","state":"OH"},"type":"Feature","geometry":{"type":"Point","coordinates":[-84.389683,40.961195]}},{"properties":{"city":"Ottoville","zip":"45876","geo_score":0.902,"id":"abo40usbf38g","address":"265 Auglaize St.","geo_precision":"range","state":"OH"},"type":"Feature","geometry":{"type":"Point","coordinates":[-84.34268,40.930601]}},{"properties":{"city":"Fort Jennings","zip":"45844","geo_score":1.0,"id":"abo40uvrhbfb","address":"18350 Cottonwood Dr.","geo_precision":"range","state":"OH"},"type":"Feature","geometry":{"type":"Point","coordinates":[-84.337415,40.914776]}},{"properties":{"city":"Fort Jennings","zip":"45844","geo_score":0.916,"id":"abo40us9q8iq","address":"23090-L Road Q","geo_precision":"range","state":"OH"},"type":"Feature","geometry":{"type":"Point","coordinates":[-84.302009,40.932618]}},{"properties":{"city":"Cloverdale","zip":"45827","geo_score":1.0,"id":"abo40uigguxz","address":"9243 Road 24","geo_precision":"range","state":"OH"},"type":"Feature","geometry":{"type":"Point","coordinates":[-84.32291,41.045195]}},{"properties":{"city":"Grover Hill","zip":"45849","geo_score":0.625,"id":"abo40uszac9a","address":"207 E. Wayne St.","geo_precision":"street","state":"OH"},"type":"Feature","geometry":{"type":"Point","coordinates":[-84.47527,41.021127]}},{"properties":{"city":"Cloverdale","zip":"45827","geo_score":1.0,"id":"abo40urfaqhv","address":"25075 RD M","geo_precision":"range","state":"OH"},"type":"Feature","geometry":{"type":"Point","coordinates":[-84.347651,40.990662]}},{"properties":{"city":"Ottoville","zip":"45876","geo_score":0.973,"id":"abo40uoehqli","address":"248 NE Canal St.","geo_precision":"range","state":"OH"},"type":"Feature","geometry":{"type":"Point","coordinates":[-84.338095,40.930802]}},{"properties":{"city":"Ottoville","zip":"45876","geo_score":1.0,"id":"abo40umglgfh","address":"376 Walnut St","geo_precision":"range","state":"OH"},"type":"Feature","geometry":{"type":"Point","coordinates":[-84.339966,40.92899]}},{"properties":{"city":"Cloverdale","zip":"45827","geo_score":1.0,"id":"abo40ur90rin","address":"13205 Road 27","geo_precision":"range","state":"OH"},"type":"Feature","geometry":{"type":"Point","coordinates":[-84.380338,40.983124]}},{"properties":{"city":"Ottoville","zip":"45876","geo_score":0.902,"id":"abo40uup7ll1","address":"301 Auglaize St.","geo_precision":"range","state":"OH"},"type":"Feature","geometry":{"type":"Point","coordinates":[-84.342673,40.929895]}},{"properties":{"city":"Ottoville","zip":"45876","geo_score":1.0,"id":"abo40uofic9z","address":"304 Walnut St.","geo_precision":"range","state":"OH"},"type":"Feature","geometry":{"type":"Point","coordinates":[-84.339977,40.930184]}},{"properties":{"city":"Ottoville","zip":"45876","geo_score":1.0,"id":"abo40uxj8fjx","address":"439 Walnut St.","geo_precision":"range","state":"OH"},"type":"Feature","geometry":{"type":"Point","coordinates":[-84.340102,40.92754]}},{"properties":{"city":"Ottoville","zip":"45876","geo_score":1.0,"id":"abo40unta9n8","address":"464 Walnut St.","geo_precision":"range","state":"OH"},"type":"Feature","geometry":{"type":"Point","coordinates":[-84.339953,40.927374]}},{"properties":{"city":"Ottoville","zip":"45844","geo_score":0.683,"id":"abo40umk1hq4","address":"111 Linden Lane","geo_precision":"range","state":"OH"},"type":"Feature","geometry":{"type":"Point","coordinates":[-84.342772,40.92354]}},{"properties":{"city":"Cloverdale","zip":"45827","geo_score":0.649,"id":"abo40um26ghd","address":"21403 SR 114","geo_precision":"street","state":"OH"},"type":"Feature","geometry":{"type":"Point","coordinates":[-84.28615,41.018294]}},{"properties":{"city":"Fort Jennings","zip":"45844","geo_score":0.958,"id":"abo40usxj2i1","address":"18135 Road 24Q","geo_precision":"range","state":"OH"},"type":"Feature","geometry":{"type":"Point","coordinates":[-84.339321,40.916577]}},{"properties":{"city":"Fort Jennings","zip":"45844","geo_score":0.958,"id":"abo40uh93je5","address":"18135 Road 24Q","geo_precision":"range","state":"OH"},"type":"Feature","geometry":{"type":"Point","coordinates":[-84.339321,40.916577]}},{"properties":{"city":"Fort Jennings","zip":"45844","geo_score":1.0,"id":"abo40urtt385","address":"25561 RD R","geo_precision":"range","state":"OH"},"type":"Feature","geometry":{"type":"Point","coordinates":[-84.35174,40.917929]}},{"properties":{"city":"Ottoville","zip":"45876","geo_score":0.805,"id":"abo40ut1xzi2","address":"106 Red Maple Court","geo_precision":"range","state":"OH"},"type":"Feature","geometry":{"type":"Point","coordinates":[-84.342824,40.923614]}},{"properties":{"city":"Fort Jennings","zip":"45844","geo_score":1.0,"id":"abo40unisxf5","address":"24642 RD R","geo_precision":"range","state":"OH"},"type":"Feature","geometry":{"type":"Point","coordinates":[-84.333641,40.917909]}},{"properties":{"city":"Ottoville","zip":"45876","geo_score":0.571,"id":"abo40ur6zq6x","address":"245 W. 3rd","geo_precision":"street","state":"OH"},"type":"Feature","geometry":{"type":"Point","coordinates":[-84.33717,40.932274]}},{"properties":{"city":"Ottoville","zip":"45876","geo_score":0.659,"id":"abo40ur5cubk","address":"245 w 3rd","geo_precision":"range","state":"OH"},"type":"Feature","geometry":{"type":"Point","coordinates":[-84.337815,40.932196]}},{"properties":{"city":"Ottoville","zip":"45876","geo_score":0.659,"id":"abo40us3nys6","address":"245 W 3rd","geo_precision":"range","state":"OH"},"type":"Feature","geometry":{"type":"Point","coordinates":[-84.337815,40.932196]}},{"properties":{"city":"Cloverdale","zip":"45827","geo_score":0.711,"id":"abo40uvxyxxd","address":"26941 Road N","geo_precision":"street","state":"OH"},"type":"Feature","geometry":{"type":"Point","coordinates":[-84.380192,40.975781]}},{"properties":{"city":"Delphos","zip":"45833","geo_score":0.643,"id":"abo40ulqvkag","address":"26850 Rd. S","geo_precision":"street","state":"OH"},"type":"Feature","geometry":{"type":"Point","coordinates":[-84.393604,40.903303]}},{"properties":{"city":"Fort Jennings","zip":"45844","geo_score":1.0,"id":"abo40uj3p0pj","address":"17733 RD 28","geo_precision":"range","state":"OH"},"type":"Feature","geometry":{"type":"Point","coordinates":[-84.398624,40.923011]}},{"properties":{"city":"Cloverdale","zip":"45827","geo_score":0.902,"id":"abo40uhtaopz","address":"11503 Road 22K","geo_precision":"street","state":"OH"},"type":"Feature","geometry":{"type":"Point","coordinates":[-84.282932,41.010823]}},{"properties":{"city":"Grover Hill","zip":"45849","geo_score":0.971,"id":"abo40um3uf2i","address":"101 E Perry St.","geo_precision":"range","state":"OH"},"type":"Feature","geometry":{"type":"Point","coordinates":[-84.477811,41.020143]}},{"properties":{"city":"Cloverdale","zip":"45827","geo_score":0.842,"id":"abo40ujf81oz","address":"13734 SR 634","geo_precision":"range","state":"OH"},"type":"Feature","geometry":{"type":"Point","coordinates":[-84.292048,40.980569]}},{"properties":{"city":"Ottoville","zip":"45876","geo_score":0.756,"id":"abo40uuuuk2y","address":"386 E 6th St.","geo_precision":"range","state":"OH"},"type":"Feature","geometry":{"type":"Point","coordinates":[-84.335988,40.928858]}},{"properties":{"city":"Ottoville","zip":"45876","geo_score":0.585,"id":"abo40usjvk72","address":"116 Evelyn Dr.","geo_precision":"zip","state":"OH"},"type":"Feature","geometry":{"type":"Point","coordinates":[-84.238754,41.027573]}},{"properties":{"city":"Delphos","zip":"45833","geo_score":0.958,"id":"abo40uqzl5p1","address":"18479 Road 27R","geo_precision":"range","state":"OH"},"type":"Feature","geometry":{"type":"Point","coordinates":[-84.388966,40.910864]}},{"properties":{"city":"Ottoville","zip":"45876","geo_score":0.805,"id":"abo40usmiqp8","address":"109 Sunset Dr.","geo_precision":"range","state":"OH"},"type":"Feature","geometry":{"type":"Point","coordinates":[-83.900342,40.894824]}},{"properties":{"city":"Grover Hill","zip":"45849","geo_score":0.689,"id":"abo40uv1eoal","address":"305 East Perry","geo_precision":"street","state":"OH"},"type":"Feature","geometry":{"type":"Point","coordinates":[-84.476571,41.020165]}},{"properties":{"city":"Ottoville","zip":"45876","geo_score":1.0,"id":"abo40urpx9ea","address":"562 Bendele St.","geo_precision":"range","state":"OH"},"type":"Feature","geometry":{"type":"Point","coordinates":[-84.33626,40.926613]}},{"properties":{"city":"Ottoville","zip":"45876","geo_score":0.883,"id":"abo40umlu1di","address":"130A West Canal","geo_precision":"range","state":"OH"},"type":"Feature","geometry":{"type":"Point","coordinates":[-84.338021,40.933404]}},{"properties":{"city":"Fort Jennings","zip":"45844","geo_score":1.0,"id":"abo40uw7rlcy","address":"18321 Cottonwood Drive","geo_precision":"range","state":"OH"},"type":"Feature","geometry":{"type":"Point","coordinates":[-84.336862,40.914624]}},{"properties":{"city":"Cloverdale","zip":"45827","geo_score":0.902,"id":"abo40ujcio3h","address":"15594 RD 22","geo_precision":"street","state":"OH"},"type":"Feature","geometry":{"type":"Point","coordinates":[-84.282552,40.949381]}},{"properties":{"city":"Ottoville","zip":"45876","geo_score":0.707,"id":"abo40utiqtvs","address":"131 Winkelman","geo_precision":"street","state":"OH"},"type":"Feature","geometry":{"type":"Point","coordinates":[-84.335606,40.933164]}},{"properties":{"city":"Ottoville","zip":"45876","geo_score":0.585,"id":"abo40uu72x4z","address":"180 Max St.","geo_precision":"zip","state":"OH"},"type":"Feature","geometry":{"type":"Point","coordinates":[-84.238754,41.027573]}},{"properties":{"city":"Grover Hill","zip":"45849","geo_score":0.817,"id":"abo40ujsq8br","address":"301 E Wayne","geo_precision":"range","state":"OH"},"type":"Feature","geometry":{"type":"Point","coordinates":[-84.472465,41.021199]}},{"properties":{"city":"Ottoville","zip":"45876","geo_score":0.935,"id":"abo40uuqxlcz","address":"228 S Otto St.","geo_precision":"range","state":"OH"},"type":"Feature","geometry":{"type":"Point","coordinates":[-84.337151,40.930999]}},{"properties":{"city":"Cloverdale","zip":"45827","geo_score":0.902,"id":"abo40ui8e9zn","address":"12824 Road 21L","geo_precision":"street","state":"OH"},"type":"Feature","geometry":{"type":"Point","coordinates":[-84.274717,40.994477]}},{"properties":{"city":"Fort Jennings","zip":"45844","geo_score":1.0,"id":"abo40upxe2q9","address":"26686 RD P","geo_precision":"range","state":"OH"},"type":"Feature","geometry":{"type":"Point","coordinates":[-84.372819,40.946952]}},{"properties":{"city":"Ottoville","zip":"45876","geo_score":0.791,"id":"abo40uicq7gj","address":"228 S OTTO","geo_precision":"range","state":"OH"},"type":"Feature","geometry":{"type":"Point","coordinates":[-84.337151,40.930999]}},{"properties":{"city":"Cloverdale","zip":"45827","geo_score":1.0,"id":"abo40up1obuv","address":"21882 RD M","geo_precision":"range","state":"OH"},"type":"Feature","geometry":{"type":"Point","coordinates":[-84.282188,40.991015]}},{"properties":{"city":"Delphos","zip":"45833","geo_score":0.805,"id":"abo40um3tmay","address":"25017 Road R23","geo_precision":"street","state":"OH"},"type":"Feature","geometry":{"type":"Point","coordinates":[-84.395428,40.917767]}},{"properties":{"city":"Cloverdale","zip":"45827","geo_score":0.805,"id":"abo40ulsj0n1","address":"23848 Road I22","geo_precision":"street","state":"OH"},"type":"Feature","geometry":{"type":"Point","coordinates":[-84.276637,41.048879]}},{"properties":{"city":"Ottoville","zip":"45876","geo_score":0.709,"id":"abo40ujlaa37","address":"302 Walt St","geo_precision":"street","state":"OH"},"type":"Feature","geometry":{"type":"Point","coordinates":[-84.332319,40.932337]}},{"properties":{"city":"Cloverdale","zip":"45827","geo_score":0.805,"id":"abo40upt5qjd","address":"22732 RD H22","geo_precision":"street","state":"OH"},"type":"Feature","geometry":{"type":"Point","coordinates":[-84.256153,41.063925]}},{"properties":{"city":"Ottoville","zip":"45876","geo_score":0.713,"id":"abo40uiicvr4","address":"405 SE Canal St.","geo_precision":"street","state":"OH"},"type":"Feature","geometry":{"type":"Point","coordinates":[-84.338405,40.928207]}},{"properties":{"city":"Ottoville","zip":"45876","geo_score":1.0,"id":"abo40uooi0mg","address":"279 Wayne St.","geo_precision":"range","state":"OH"},"type":"Feature","geometry":{"type":"Point","coordinates":[-84.341496,40.930447]}},{"properties":{"city":"Fort Jennings","zip":"45844","geo_score":0.958,"id":"abo40umugve1","address":"16235 Road 25P","geo_precision":"range","state":"OH"},"type":"Feature","geometry":{"type":"Point","coordinates":[-84.343146,40.945383]}},{"properties":{"city":"Cloverdale","zip":"45827","geo_score":1.0,"id":"abo40ujpifs5","address":"22424 Road J","geo_precision":"range","state":"OH"},"type":"Feature","geometry":{"type":"Point","coordinates":[-84.292942,41.034639]}},{"properties":{"city":"Ottoville","zip":"45876","geo_score":1.0,"id":"abo40umidtbx","address":"319 Wayne St.","geo_precision":"range","state":"OH"},"type":"Feature","geometry":{"type":"Point","coordinates":[-84.341493,40.93009]}},{"properties":{"city":"Ottoville","zip":"45876","geo_score":0.571,"id":"abo40upn7k32","address":"333 E. 3rd","geo_precision":"street","state":"OH"},"type":"Feature","geometry":{"type":"Point","coordinates":[-84.33717,40.932274]}},{"properties":{"city":"Cloverdale","zip":"45827","geo_score":1.0,"id":"abo40uxdrex5","address":"24149 Road J","geo_precision":"range","state":"OH"},"type":"Feature","geometry":{"type":"Point","coordinates":[-84.327651,41.034379]}},{"properties":{"city":"Cloverdale","zip":"45827","geo_score":1.0,"id":"abo40umi86r6","address":"22148 Road J","geo_precision":"range","state":"OH"},"type":"Feature","geometry":{"type":"Point","coordinates":[-84.291648,41.034657]}},{"properties":{"city":"Cloverdale","zip":"45827","geo_score":1.0,"id":"abo40us9cgn6","address":"11844 Road 20J","geo_precision":"range","state":"OH"},"type":"Feature","geometry":{"type":"Point","coordinates":[-84.255431,41.007646]}},{"properties":{"city":"Grover Hill","zip":"45849","geo_score":1.0,"id":"abo40uxkyb4q","address":"407 Monroe St.","geo_precision":"range","state":"OH"},"type":"Feature","geometry":{"type":"Point","coordinates":[-84.478981,41.015829]}},{"properties":{"city":"Cloverdale","zip":"45827","geo_score":1.0,"id":"abo40uk2kba9","address":"23169 RD M","geo_precision":"range","state":"OH"},"type":"Feature","geometry":{"type":"Point","coordinates":[-84.305357,40.990689]}},{"properties":{"city":"Cloverdale","zip":"45827","geo_score":1.0,"id":"abo40uqd67nr","address":"13306 Rd 25M","geo_precision":"range","state":"OH"},"type":"Feature","geometry":{"type":"Point","coordinates":[-84.342101,40.987796]}},{"properties":{"city":"Ottoville","zip":"45876","geo_score":0.902,"id":"abo40uv9x4dy","address":"365 Fourth St.","geo_precision":"range","state":"OH"},"type":"Feature","geometry":{"type":"Point","coordinates":[-84.342272,40.931158]}},{"properties":{"city":"Ottoville","zip":"45876","geo_score":0.805,"id":"abo40uxf3r5k","address":"123 Red Maple Court","geo_precision":"range","state":"OH"},"type":"Feature","geometry":{"type":"Point","coordinates":[-84.343851,40.923926]}},{"properties":{"city":"Cloverdale","zip":"45827","geo_score":1.0,"id":"abo40uog4828","address":"27271 RD O","geo_precision":"range","state":"OH"},"type":"Feature","geometry":{"type":"Point","coordinates":[-84.385144,40.961224]}},{"properties":{"city":"Ottoville","zip":"45876","geo_score":0.805,"id":"abo40uhaotf8","address":"111 Red Maple Court","geo_precision":"range","state":"OH"},"type":"Feature","geometry":{"type":"Point","coordinates":[-84.345301,40.923995]}},{"properties":{"city":"Cloverdale","zip":"45827","geo_score":1.0,"id":"abo40ulamm7o","address":"23622 Road O","geo_precision":"range","state":"OH"},"type":"Feature","geometry":{"type":"Point","coordinates":[-84.317364,40.961393]}},{"properties":{"city":"Fort Jennings","zip":"45844","geo_score":0.958,"id":"abo40urjkkns","address":"18105 Road 24Q","geo_precision":"range","state":"OH"},"type":"Feature","geometry":{"type":"Point","coordinates":[-84.33931,40.91684]}},{"properties":{"city":"Ottoville","zip":"45876","geo_score":1.0,"id":"abo40uprnbmf","address":"304 Walnut St.","geo_precision":"range","state":"OH"},"type":"Feature","geometry":{"type":"Point","coordinates":[-84.339977,40.930184]}},{"properties":{"city":"Ottoville","zip":"45876","geo_score":0.805,"id":"abo40uid2khr","address":"119 Red Maple Ct.","geo_precision":"range","state":"OH"},"type":"Feature","geometry":{"type":"Point","coordinates":[-84.344394,40.923929]}},{"properties":{"city":"Cloverdale","zip":"45827","geo_score":1.0,"id":"abo40uutnqzh","address":"1139 Road 197","geo_precision":"range","state":"OH"},"type":"Feature","geometry":{"type":"Point","coordinates":[-84.380467,40.990887]}},{"properties":{"city":"Ottoville","zip":"45876","geo_score":0.661,"id":"abo40uqhk9uv","address":"488 E 2nd St.","geo_precision":"street","state":"OH"},"type":"Feature","geometry":{"type":"Point","coordinates":[-84.333227,40.933603]}},{"properties":{"city":"Ottoville","zip":"45876","geo_score":0.902,"id":"abo40uhdgfd1","address":"344 Walnut","geo_precision":"range","state":"OH"},"type":"Feature","geometry":{"type":"Point","coordinates":[-84.339982,40.929508]}},{"properties":{"city":"Ottoville","zip":"45876","geo_score":1.0,"id":"abo40ujqizgj","address":"159 Walt St.","geo_precision":"range","state":"OH"},"type":"Feature","geometry":{"type":"Point","coordinates":[-84.33231,40.933534]}},{"properties":{"city":"Ottoville","zip":"45876","geo_score":0.973,"id":"abo40uqtvlez","address":"288 SE Canal St.","geo_precision":"range","state":"OH"},"type":"Feature","geometry":{"type":"Point","coordinates":[-84.338099,40.93041]}},{"properties":{"city":"Ottoville","zip":"45876","geo_score":0.713,"id":"abo40ut3jnlp","address":"201 Auglaize St","geo_precision":"street","state":"OH"},"type":"Feature","geometry":{"type":"Point","coordinates":[-84.342601,40.931191]}},{"properties":{"city":"Cloverdale","zip":"45827","geo_score":0.721,"id":"abo40uvuwvj3","address":"21893 Road I-21","geo_precision":"street","state":"OH"},"type":"Feature","geometry":{"type":"Point","coordinates":[-84.263322,40.975898]}},{"properties":{"city":"Dupont","zip":"45837","geo_score":0.659,"id":"abo40uli0za0","address":"201 South St.","geo_precision":"street","state":"OH"},"type":"Feature","geometry":{"type":"Point","coordinates":[-84.302689,41.053191]}},{"properties":{"city":"Ottoville","zip":"45876","geo_score":0.854,"id":"abo40uidxxsg","address":"574 E 2nd St.","geo_precision":"range","state":"OH"},"type":"Feature","geometry":{"type":"Point","coordinates":[-84.333227,40.933603]}},{"properties":{"city":"Ottoville","zip":"45876","geo_score":0.659,"id":"abo40ulifa0b","address":"245 w 3rd","geo_precision":"range","state":"OH"},"type":"Feature","geometry":{"type":"Point","coordinates":[-84.337815,40.932196]}},{"properties":{"city":"Ottoville","zip":"45876","geo_score":0.585,"id":"abo40uly3lv2","address":"136 Evelyn Dr.","geo_precision":"zip","state":"OH"},"type":"Feature","geometry":{"type":"Point","coordinates":[-84.238754,41.027573]}},{"properties":{"city":"Ottoville","zip":"45876","geo_score":0.659,"id":"abo40uwbbg3v","address":"186 E 3rd","geo_precision":"range","state":"OH"},"type":"Feature","geometry":{"type":"Point","coordinates":[-84.338621,40.932327]}}],"is_temporal":false,"author":{"url":"","metadata":null,"contact_name":null,"contact_address":null,"source":null,"contact_phone":null},"source":"","pagination":{"sort":null,"start":0,"total":195,"limit":1000000},"state":"complete","tags":"","published":"2014-08-16T18:22:13-04:00","id":313771}