{"type":"FeatureCollection","data_type":"Dataset","url_type":null,"permissions":[{"permissions":{"download":true,"view":true},"group_id":"everyone"}],"classification":null,"title":"Copy_of_IPTV-Vaughnsville-Jan-16-2013_-_CSV","count":132,"stream_id":313790,"contributor":{"url":"http://geocommons.com/users/59404","name":"KatieEtgen"},"data_attributes":null,"calculation_params":null,"icon_link":null,"link":"http://geocommons.com/overlays/313790.json","extent":[-84.2982,40.8478,-84.0913,40.9847],"geometry_types":["point"],"unique_name":null,"name":"Copy_of_IPTV-Vaughnsville-Jan-16-2013_-_CSV","feature_count":132,"description":"","next_feature":null,"is_raster":false,"short_classification":"Y","stats":{},"features":[{"properties":{"city":"columbus grove","zip":"45830","geo_score":0.842,"id":"abo4wxuee759","address":"15331 sr 189","geo_precision":"range","state":"OH"},"type":"Feature","geometry":{"type":"Point","coordinates":[-84.156514,40.881475]}},{"properties":{"city":"vaughnsville","zip":"45893","geo_score":0.951,"id":"abo4wxegtz8b","address":"162 w charles st","geo_precision":"range","state":"OH"},"type":"Feature","geometry":{"type":"Point","coordinates":[-84.148572,40.880244]}},{"properties":{"city":"columbus grove","zip":"45830","geo_score":0.927,"id":"abo4wxs61g12","address":"14954 rd s","geo_precision":"range","state":"OH"},"type":"Feature","geometry":{"type":"Point","coordinates":[-84.14187,40.956109]}},{"properties":{"city":"vaughnsville","zip":"45893","geo_score":0.716,"id":"abo4wxslrq8u","address":"114 A e findlay","geo_precision":"range","state":"OH"},"type":"Feature","geometry":{"type":"Point","coordinates":[-84.145129,40.881575]}},{"properties":{"city":"Vaughnsville","zip":"45813","geo_score":0.659,"id":"abo4wxowogb9","address":"15875 Old SR 12","geo_precision":"range","state":"OH"},"type":"Feature","geometry":{"type":"Point","coordinates":[-84.163718,40.870197]}},{"properties":{"city":"columbus grove","zip":"45830","geo_score":0.854,"id":"abo4wxg8hxiy","address":"15951 old sr 12","geo_precision":"range","state":"OH"},"type":"Feature","geometry":{"type":"Point","coordinates":[-84.161495,40.870834]}},{"properties":{"city":"columbus grove","zip":"45830","geo_score":0.91,"id":"abo4wxrsj5h5","address":"18932 st rt 115","geo_precision":"range","state":"OH"},"type":"Feature","geometry":{"type":"Point","coordinates":[-84.158084,40.905535]}},{"properties":{"city":"vaughnsville","zip":"45893","geo_score":0.854,"id":"abo4wxoqcjzt","address":"115 e charles st","geo_precision":"range","state":"OH"},"type":"Feature","geometry":{"type":"Point","coordinates":[-84.147919,40.880269]}},{"properties":{"city":"columbus grove","zip":"45830","geo_score":0.842,"id":"abo4wxei5jkr","address":"19620 sr 115","geo_precision":"range","state":"OH"},"type":"Feature","geometry":{"type":"Point","coordinates":[-84.157356,40.894321]}},{"properties":{"city":"vaughnsville","zip":"45893","geo_score":0.815,"id":"abo4wxqg9ttb","address":"312 findlay","geo_precision":"street","state":"OH"},"type":"Feature","geometry":{"type":"Point","coordinates":[-84.14933,40.881602]}},{"properties":{"city":"columbus grove","zip":"45830","geo_score":0.854,"id":"abo4wxiwnifs","address":"15689 old sr 12","geo_precision":"range","state":"OH"},"type":"Feature","geometry":{"type":"Point","coordinates":[-84.159841,40.871368]}},{"properties":{"city":"Vaughnville","zip":"45893","geo_score":0.748,"id":"abo4wxt85we4","address":"353 W Findlay","geo_precision":"range","state":"OH"},"type":"Feature","geometry":{"type":"Point","coordinates":[-84.150071,40.881514]}},{"properties":{"city":"columbus grove","zip":"45830","geo_score":0.91,"id":"abo4wxfii9xx","address":"17094 st rt 115","geo_precision":"range","state":"OH"},"type":"Feature","geometry":{"type":"Point","coordinates":[-84.158466,40.932622]}},{"properties":{"city":"Columbus Grove","zip":"45830","geo_score":1.0,"id":"abo4wxl0mtfv","address":"21094 Hofferbert Rd.","geo_precision":"range","state":"OH"},"type":"Feature","geometry":{"type":"Point","coordinates":[-84.109765,40.868219]}},{"properties":{"city":"vaughnsville","zip":"45893","geo_score":0.902,"id":"abo4wxiqsa9n","address":"237 center st","geo_precision":"range","state":"OH"},"type":"Feature","geometry":{"type":"Point","coordinates":[-84.149971,40.882788]}},{"properties":{"city":"columbus grove","zip":"45830","geo_score":0.854,"id":"abo4wxfcysf3","address":"15580 old sr 12","geo_precision":"range","state":"OH"},"type":"Feature","geometry":{"type":"Point","coordinates":[-84.154805,40.873315]}},{"properties":{"city":"columbus grove","zip":"45830","geo_score":1.0,"id":"abo4wxps7qm1","address":"19382 rd 13-s","geo_precision":"range","state":"OH"},"type":"Feature","geometry":{"type":"Point","coordinates":[-84.119491,40.899543]}},{"properties":{"city":"columbus grove","zip":"45830","geo_score":0.732,"id":"abo4wxg9s55k","address":"51894 road s","geo_precision":"street","state":"OH"},"type":"Feature","geometry":{"type":"Point","coordinates":[-84.188561,40.972146]}},{"properties":{"city":"vaughnsville","zip":"45893","geo_score":0.854,"id":"abo4wxmcojqm","address":"143 w charles st","geo_precision":"range","state":"OH"},"type":"Feature","geometry":{"type":"Point","coordinates":[-84.148594,40.880082]}},{"properties":{"city":"columbus grove","zip":"45830","geo_score":1.0,"id":"abo4wxq0o96o","address":"19211 rd 13-s","geo_precision":"range","state":"OH"},"type":"Feature","geometry":{"type":"Point","coordinates":[-84.119358,40.902012]}},{"properties":{"city":"columbus grove","zip":"45830","geo_score":0.927,"id":"abo4wxqc23aw","address":"14999 rd s","geo_precision":"range","state":"OH"},"type":"Feature","geometry":{"type":"Point","coordinates":[-84.140966,40.955559]}},{"properties":{"city":"Columbus Grove","zip":"45830","geo_score":1.0,"id":"abo4wxtic7jb","address":"9252 Hofferbert Rd","geo_precision":"range","state":"OH"},"type":"Feature","geometry":{"type":"Point","coordinates":[-84.109635,40.870075]}},{"properties":{"city":"columbus grove","zip":"45830","geo_score":0.842,"id":"abo4wxmxtcc7","address":"16241 sr 189","geo_precision":"range","state":"OH"},"type":"Feature","geometry":{"type":"Point","coordinates":[-84.171527,40.881303]}},{"properties":{"city":"columbus grove","zip":"45830","geo_score":0.842,"id":"abo4wxnd0xeq","address":"16484 sr 189","geo_precision":"range","state":"OH"},"type":"Feature","geometry":{"type":"Point","coordinates":[-84.176541,40.881366]}},{"properties":{"city":"columbus grove","zip":"45830","geo_score":0.91,"id":"abo4wxmtn2qq","address":"15671 st rt 189","geo_precision":"range","state":"OH"},"type":"Feature","geometry":{"type":"Point","coordinates":[-84.162766,40.881422]}},{"properties":{"city":"columbus grove","zip":"45830","geo_score":0.842,"id":"abo4wxfa2t2g","address":"19398 sr 115","geo_precision":"range","state":"OH"},"type":"Feature","geometry":{"type":"Point","coordinates":[-84.157479,40.898004]}},{"properties":{"city":"vaughnsville","zip":"45893","geo_score":0.912,"id":"abo4wxl0v4gp","address":"142 charles","geo_precision":"range","state":"OH"},"type":"Feature","geometry":{"type":"Point","coordinates":[-84.147779,40.880463]}},{"properties":{"city":"columbus grove","zip":"45830","geo_score":0.854,"id":"abo4wxq220ar","address":"15087 old sr 12","geo_precision":"range","state":"OH"},"type":"Feature","geometry":{"type":"Point","coordinates":[-84.147364,40.876361]}},{"properties":{"city":"vaughnsville","zip":"45893","geo_score":0.941,"id":"abo4wxn9e0hq","address":"149 s water st","geo_precision":"range","state":"OH"},"type":"Feature","geometry":{"type":"Point","coordinates":[-84.150401,40.881588]}},{"properties":{"city":"columbus grove","zip":"45830","geo_score":0.842,"id":"abo4wxnidk7a","address":"19497 sr 115","geo_precision":"range","state":"OH"},"type":"Feature","geometry":{"type":"Point","coordinates":[-84.157311,40.896379]}},{"properties":{"city":"elida","zip":"45807","geo_score":0.902,"id":"abo4wxgoaiz6","address":"8225 n west st","geo_precision":"range","state":"OH"},"type":"Feature","geometry":{"type":"Point","coordinates":[-84.137918,40.854226]}},{"properties":{"city":"columbus grove","zip":"45830","geo_score":0.842,"id":"abo4wxn88ix7","address":"16719 sr 189","geo_precision":"range","state":"OH"},"type":"Feature","geometry":{"type":"Point","coordinates":[-84.181455,40.881132]}},{"properties":{"city":"Columbus Grove","zip":"45830","geo_score":0.512,"id":"abo4wxpl8uak","address":"14741 St. Rt. 12","geo_precision":"street","state":"OH"},"type":"Feature","geometry":{"type":"Point","coordinates":[-84.129302,40.904706]}},{"properties":{"city":"columbus grove","zip":"45830","geo_score":0.91,"id":"abo4wxidhbs3","address":"19909 st rt 115","geo_precision":"range","state":"OH"},"type":"Feature","geometry":{"type":"Point","coordinates":[-84.157173,40.889706]}},{"properties":{"city":"columbus grove","zip":"45830","geo_score":0.842,"id":"abo4wxsrdhl6","address":"20651 sr 115","geo_precision":"range","state":"OH"},"type":"Feature","geometry":{"type":"Point","coordinates":[-84.148431,40.87921]}},{"properties":{"city":"columbus grove","zip":"45830","geo_score":0.854,"id":"abo4wxpudm5x","address":"15707 old sr 12","geo_precision":"range","state":"OH"},"type":"Feature","geometry":{"type":"Point","coordinates":[-84.1594,40.871524]}},{"properties":{"city":"columbus grove","zip":"45830","geo_score":0.854,"id":"abo4wxjootds","address":"15753 old sr 12","geo_precision":"range","state":"OH"},"type":"Feature","geometry":{"type":"Point","coordinates":[-84.160215,40.87127]}},{"properties":{"city":"columbus grove","zip":"45830","geo_score":0.842,"id":"abo4wxf8220g","address":"21936 sr 115","geo_precision":"range","state":"OH"},"type":"Feature","geometry":{"type":"Point","coordinates":[-84.138511,40.861211]}},{"properties":{"city":"columbus grove","zip":"45830","geo_score":0.585,"id":"abo4wxqh4ocw","address":"13389 road u-13","geo_precision":"zip","state":"OH"},"type":"Feature","geometry":{"type":"Point","coordinates":[-84.211337,40.884495]}},{"properties":{"city":"elida","zip":"45807","geo_score":0.902,"id":"abo4wxj0oq08","address":"7903 n west st","geo_precision":"range","state":"OH"},"type":"Feature","geometry":{"type":"Point","coordinates":[-84.137921,40.852834]}},{"properties":{"city":"columbus grove","zip":"45830","geo_score":0.585,"id":"abo4wxovx1z7","address":"13446 rd t-13","geo_precision":"zip","state":"OH"},"type":"Feature","geometry":{"type":"Point","coordinates":[-84.211337,40.884495]}},{"properties":{"city":"columbus grove","zip":"45830","geo_score":0.688,"id":"abo4wxof3l3q","address":"13721 sr 12","geo_precision":"street","state":"OH"},"type":"Feature","geometry":{"type":"Point","coordinates":[-84.091268,40.948342]}},{"properties":{"city":"vaughnsville","zip":"45893","geo_score":0.756,"id":"abo4wxonu6qc","address":"253 w findlay","geo_precision":"street","state":"OH"},"type":"Feature","geometry":{"type":"Point","coordinates":[-84.145587,40.881502]}},{"properties":{"city":"columbus grove","zip":"45830","geo_score":0.854,"id":"abo4wxgah01d","address":"15534 old sr 12","geo_precision":"range","state":"OH"},"type":"Feature","geometry":{"type":"Point","coordinates":[-84.156003,40.872844]}},{"properties":{"city":"columbus grove","zip":"45830","geo_score":0.854,"id":"abo4wxsvbx1g","address":"15053 old sr 12","geo_precision":"range","state":"OH"},"type":"Feature","geometry":{"type":"Point","coordinates":[-84.147242,40.876438]}},{"properties":{"city":"vaughnsville","zip":"45893","geo_score":0.585,"id":"abo4wxry1wmy","address":"147 hickory","geo_precision":"zip","state":"OH"},"type":"Feature","geometry":{"type":"Point","coordinates":[-84.148028,40.882077]}},{"properties":{"city":"columbus grove","zip":"45830","geo_score":1.0,"id":"abo4wxon9scc","address":"19567 rd 14","geo_precision":"range","state":"OH"},"type":"Feature","geometry":{"type":"Point","coordinates":[-84.128702,40.896328]}},{"properties":{"city":"columbus grove","zip":"45830","geo_score":0.902,"id":"abo4wxgb2plq","address":"14038 st rt 12","geo_precision":"range","state":"OH"},"type":"Feature","geometry":{"type":"Point","coordinates":[-84.12921,40.886821]}},{"properties":{"city":"vaughnsville","zip":"45893","geo_score":0.89,"id":"abo4wxn6t9dr","address":"167 water","geo_precision":"range","state":"OH"},"type":"Feature","geometry":{"type":"Point","coordinates":[-84.152063,40.883271]}},{"properties":{"city":"columbus grove","zip":"45830","geo_score":0.91,"id":"abo4wxlsy1t5","address":"20896 st rt 115","geo_precision":"range","state":"OH"},"type":"Feature","geometry":{"type":"Point","coordinates":[-84.146526,40.875418]}},{"properties":{"city":"elida","zip":"45807","geo_score":1.0,"id":"abo4wxm8uwcm","address":"2284 tudor rd","geo_precision":"range","state":"OH"},"type":"Feature","geometry":{"type":"Point","coordinates":[-84.147022,40.852968]}},{"properties":{"city":"elida","zip":"45807","geo_score":1.0,"id":"abo4wxrlhrte","address":"2284 tudor rd","geo_precision":"range","state":"OH"},"type":"Feature","geometry":{"type":"Point","coordinates":[-84.147022,40.852968]}},{"properties":{"city":"elida","zip":"45807","geo_score":0.902,"id":"abo4wxjx7263","address":"7601 n west st","geo_precision":"range","state":"OH"},"type":"Feature","geometry":{"type":"Point","coordinates":[-84.137928,40.849847]}},{"properties":{"city":"columbus grove","zip":"45830","geo_score":1.0,"id":"abo4wxqxoflc","address":"9170 hofferbert rd","geo_precision":"range","state":"OH"},"type":"Feature","geometry":{"type":"Point","coordinates":[-84.10964,40.87131]}},{"properties":{"city":"vaughnsville","zip":"45893","geo_score":0.805,"id":"abo4wxtl3v9y","address":"146 center","geo_precision":"range","state":"OH"},"type":"Feature","geometry":{"type":"Point","coordinates":[-84.149971,40.882788]}},{"properties":{"city":"vaughnsville","zip":"45893","geo_score":0.768,"id":"abo4wxedsaan","address":"148 water","geo_precision":"street","state":"OH"},"type":"Feature","geometry":{"type":"Point","coordinates":[-84.150401,40.881588]}},{"properties":{"city":"columbus grove","zip":"45830","geo_score":0.805,"id":"abo4wxgsnehb","address":"14314 rd u13","geo_precision":"street","state":"OH"},"type":"Feature","geometry":{"type":"Point","coordinates":[-84.198289,40.87392]}},{"properties":{"city":"Columbus Grove","zip":"45830","geo_score":0.512,"id":"abo4wxpoi6vy","address":"21380 St.Rt.115","geo_precision":"street","state":"OH"},"type":"Feature","geometry":{"type":"Point","coordinates":[-84.129302,40.904706]}},{"properties":{"city":"vaughnsville","zip":"45893","geo_score":0.854,"id":"abo4wxojaw07","address":"295 e findlay st","geo_precision":"street","state":"OH"},"type":"Feature","geometry":{"type":"Point","coordinates":[-84.147417,40.881507]}},{"properties":{"city":"columbus grove","zip":"45830","geo_score":0.585,"id":"abo4wxpenjkp","address":"13998 rd t-13","geo_precision":"zip","state":"OH"},"type":"Feature","geometry":{"type":"Point","coordinates":[-84.211337,40.884495]}},{"properties":{"city":"vaughnsville","zip":"45893","geo_score":0.754,"id":"abo4wxqyl8nk","address":"199 s water st","geo_precision":"street","state":"OH"},"type":"Feature","geometry":{"type":"Point","coordinates":[-84.152063,40.883271]}},{"properties":{"city":"columbus grove","zip":"45830","geo_score":0.842,"id":"abo4wxr6cjwb","address":"21694 sr 115","geo_precision":"range","state":"OH"},"type":"Feature","geometry":{"type":"Point","coordinates":[-84.140742,40.865495]}},{"properties":{"city":"columbus grove","zip":"45830","geo_score":0.842,"id":"abo4wxjpe8kd","address":"18526 sr 115","geo_precision":"range","state":"OH"},"type":"Feature","geometry":{"type":"Point","coordinates":[-84.15824,40.911321]}},{"properties":{"city":"vaughnsville","zip":"45893","geo_score":0.815,"id":"abo4wxnn7y0q","address":"105 charles","geo_precision":"range","state":"OH"},"type":"Feature","geometry":{"type":"Point","coordinates":[-84.147677,40.880336]}},{"properties":{"city":"columbus grove","zip":"45830","geo_score":0.842,"id":"abo4wxoewdgv","address":"16634 sr 189","geo_precision":"range","state":"OH"},"type":"Feature","geometry":{"type":"Point","coordinates":[-84.178912,40.881311]}},{"properties":{"city":"columbus grove","zip":"45830","geo_score":1.0,"id":"abo4wxu8xo37","address":"19487 rd 14","geo_precision":"range","state":"OH"},"type":"Feature","geometry":{"type":"Point","coordinates":[-84.128728,40.897516]}},{"properties":{"city":"vaughnsville","zip":"45893","geo_score":0.756,"id":"abo4wxgyf23p","address":"242 w findlay","geo_precision":"range","state":"OH"},"type":"Feature","geometry":{"type":"Point","coordinates":[-84.143788,40.881574]}},{"properties":{"city":"columbus grove","zip":"45830","geo_score":0.842,"id":"abo4wxitxljz","address":"21746 sr 115","geo_precision":"range","state":"OH"},"type":"Feature","geometry":{"type":"Point","coordinates":[-84.140022,40.864599]}},{"properties":{"city":"columbus grove","zip":"45830","geo_score":1.0,"id":"abo4wxnjxaxn","address":"20500 rd 14","geo_precision":"range","state":"OH"},"type":"Feature","geometry":{"type":"Point","coordinates":[-84.12872,40.881662]}},{"properties":{"city":"vaughnsville","zip":"45893","geo_score":0.902,"id":"abo4wxpp025s","address":"207 center st","geo_precision":"street","state":"OH"},"type":"Feature","geometry":{"type":"Point","coordinates":[-84.150872,40.883587]}},{"properties":{"city":"vaughnsville","zip":"45893","geo_score":0.902,"id":"abo4wxrg60mt","address":"226  center","geo_precision":"range","state":"OH"},"type":"Feature","geometry":{"type":"Point","coordinates":[-84.150872,40.883587]}},{"properties":{"city":"elida","zip":"45807","geo_score":0.902,"id":"abo4wxh1qh7g","address":"8058 n west st","geo_precision":"range","state":"OH"},"type":"Feature","geometry":{"type":"Point","coordinates":[-84.137776,40.856633]}},{"properties":{"city":"elida","zip":"45807","geo_score":0.902,"id":"abo4wxj0nqbh","address":"8090 n west st","geo_precision":"range","state":"OH"},"type":"Feature","geometry":{"type":"Point","coordinates":[-84.137774,40.856169]}},{"properties":{"city":"elida","zip":"45807","geo_score":1.0,"id":"abo4wxek2ewq","address":"2298 tudor rd","geo_precision":"range","state":"OH"},"type":"Feature","geometry":{"type":"Point","coordinates":[-84.147225,40.852965]}},{"properties":{"city":"vaughnsville","zip":"45893","geo_score":0.625,"id":"abo4wxhlp32j","address":"303 b cross","geo_precision":"street","state":"OH"},"type":"Feature","geometry":{"type":"Point","coordinates":[-84.150576,40.882227]}},{"properties":{"city":"Columbus Grove","zip":"45830","geo_score":0.679,"id":"abo4wxe2uz3x","address":"13303 Rd. U13","geo_precision":"street","state":"OH"},"type":"Feature","geometry":{"type":"Point","coordinates":[-84.198289,40.87392]}},{"properties":{"city":"vaughnsville","zip":"45893","geo_score":0.805,"id":"abo4wxix7ybt","address":"176 center","geo_precision":"range","state":"OH"},"type":"Feature","geometry":{"type":"Point","coordinates":[-84.149971,40.882788]}},{"properties":{"city":"Vaughnsville","zip":"45893","geo_score":0.902,"id":"abo4wxg4lvqj","address":"147 Water Street","geo_precision":"range","state":"OH"},"type":"Feature","geometry":{"type":"Point","coordinates":[-84.150421,40.88168]}},{"properties":{"city":"columbus grove","zip":"45830","geo_score":0.585,"id":"abo4wxqagnhl","address":"14133 rd u-13","geo_precision":"zip","state":"OH"},"type":"Feature","geometry":{"type":"Point","coordinates":[-84.211337,40.884495]}},{"properties":{"city":"elida","zip":"45807","geo_score":0.902,"id":"abo4wxqubwwf","address":"7740 n west st","geo_precision":"range","state":"OH"},"type":"Feature","geometry":{"type":"Point","coordinates":[-84.137779,40.847833]}},{"properties":{"city":"elida","zip":"45807","geo_score":0.902,"id":"abo4wxpm9fl2","address":"8010 n west st","geo_precision":"range","state":"OH"},"type":"Feature","geometry":{"type":"Point","coordinates":[-84.137787,40.857329]}},{"properties":{"city":"elida","zip":"45807","geo_score":1.0,"id":"abo4wxr08o8n","address":"2040 tudor rd","geo_precision":"range","state":"OH"},"type":"Feature","geometry":{"type":"Point","coordinates":[-84.14244,40.852922]}},{"properties":{"city":"columbus grove","zip":"45830","geo_score":0.688,"id":"abo4wxh9dt9z","address":"14651 sr 12","geo_precision":"street","state":"OH"},"type":"Feature","geometry":{"type":"Point","coordinates":[-84.091268,40.948342]}},{"properties":{"city":"columbus grove","zip":"45830","geo_score":0.842,"id":"abo4wxqn6zox","address":"19728 sr 115","geo_precision":"range","state":"OH"},"type":"Feature","geometry":{"type":"Point","coordinates":[-84.157398,40.892563]}},{"properties":{"city":"columbus grove","zip":"45830","geo_score":0.91,"id":"abo4wxqh7rcx","address":"21496 st rt 115","geo_precision":"range","state":"OH"},"type":"Feature","geometry":{"type":"Point","coordinates":[-84.142056,40.868444]}},{"properties":{"city":"Vaugnsville","zip":"45893","geo_score":0.748,"id":"abo4wxpq1brs","address":"405 E Findlay","geo_precision":"range","state":"OH"},"type":"Feature","geometry":{"type":"Point","coordinates":[-84.146327,40.881585]}},{"properties":{"city":"columbus grove","zip":"45830","geo_score":0.842,"id":"abo4wxg1gbia","address":"21244 sr 115","geo_precision":"range","state":"OH"},"type":"Feature","geometry":{"type":"Point","coordinates":[-84.143844,40.871425]}},{"properties":{"city":"columbus grove","zip":"45830","geo_score":0.842,"id":"abo4wxilevxz","address":"19099 sr 115","geo_precision":"range","state":"OH"},"type":"Feature","geometry":{"type":"Point","coordinates":[-84.157421,40.902974]}},{"properties":{"city":"Columbus Grove","zip":"45830","geo_score":1.0,"id":"abo4wxg412ub","address":"9460 Hofferbert Rd","geo_precision":"range","state":"OH"},"type":"Feature","geometry":{"type":"Point","coordinates":[-84.109755,40.87542]}},{"properties":{"city":"columbus grove","zip":"45830","geo_score":0.842,"id":"abo4wxs1b8xe","address":"16933 sr 189","geo_precision":"range","state":"OH"},"type":"Feature","geometry":{"type":"Point","coordinates":[-84.185361,40.881074]}},{"properties":{"city":"columbus grove","zip":"45830","geo_score":1.0,"id":"abo4wxflg8fv","address":"21669 rd 16","geo_precision":"range","state":"OH"},"type":"Feature","geometry":{"type":"Point","coordinates":[-84.166541,40.859922]}},{"properties":{"city":"columbus grove","zip":"45830","geo_score":0.688,"id":"abo4wxndbf58","address":"13419 sr 12","geo_precision":"street","state":"OH"},"type":"Feature","geometry":{"type":"Point","coordinates":[-84.091268,40.948342]}},{"properties":{"city":"vaughnsville","zip":"45893","geo_score":0.854,"id":"abo4wxmdooed","address":"113 w charles st","geo_precision":"range","state":"OH"},"type":"Feature","geometry":{"type":"Point","coordinates":[-84.14787,40.880283]}},{"properties":{"city":"columbus grove","zip":"45830","geo_score":0.902,"id":"abo4wxquflfj","address":"13517 st rt 12","geo_precision":"range","state":"OH"},"type":"Feature","geometry":{"type":"Point","coordinates":[-84.119542,40.890424]}},{"properties":{"city":"columbus grove","zip":"45830","geo_score":0.902,"id":"abo4wxoxkvls","address":"13599 st rt 12","geo_precision":"range","state":"OH"},"type":"Feature","geometry":{"type":"Point","coordinates":[-84.1211,40.88982]}},{"properties":{"city":"columbus grove","zip":"45830","geo_score":1.0,"id":"abo4wxek80gi","address":"19530 rd 13-s","geo_precision":"range","state":"OH"},"type":"Feature","geometry":{"type":"Point","coordinates":[-84.119486,40.897422]}},{"properties":{"city":"vaughnsville","zip":"45893","geo_score":0.815,"id":"abo4wxrdwg6k","address":"133 charles","geo_precision":"range","state":"OH"},"type":"Feature","geometry":{"type":"Point","coordinates":[-84.148353,40.880149]}},{"properties":{"city":"vaughnsville","zip":"45893","geo_score":0.756,"id":"abo4wxr5pwap","address":"114 e findlay","geo_precision":"range","state":"OH"},"type":"Feature","geometry":{"type":"Point","coordinates":[-84.145129,40.881575]}},{"properties":{"city":"columbus grove","zip":"45830","geo_score":0.688,"id":"abo4wxn5kda9","address":"13903 sr 12","geo_precision":"street","state":"OH"},"type":"Feature","geometry":{"type":"Point","coordinates":[-84.091268,40.948342]}},{"properties":{"city":"columbus grove","zip":"45830","geo_score":0.842,"id":"abo4wxl3pxpf","address":"21021 sr 115","geo_precision":"range","state":"OH"},"type":"Feature","geometry":{"type":"Point","coordinates":[-84.145504,40.874062]}},{"properties":{"city":"vaughnsville","zip":"45893","geo_score":0.764,"id":"abo4wxu04j5m","address":"112 w charles st","geo_precision":"street","state":"OH"},"type":"Feature","geometry":{"type":"Point","coordinates":[-84.147601,40.880435]}},{"properties":{"city":"columbus grove","zip":"45830","geo_score":0.854,"id":"abo4wxmw92fp","address":"15011 old sr 12","geo_precision":"range","state":"OH"},"type":"Feature","geometry":{"type":"Point","coordinates":[-84.147054,40.876548]}},{"properties":{"city":"Columbus Grove","zip":"45830","geo_score":0.561,"id":"abo4wxj6maxq","address":"19978 Rd. 16 S","geo_precision":"street","state":"OH"},"type":"Feature","geometry":{"type":"Point","coordinates":[-84.129302,40.904706]}},{"properties":{"city":"columbus grove","zip":"45830","geo_score":0.842,"id":"abo4wxhs6aow","address":"18657 sr 115","geo_precision":"range","state":"OH"},"type":"Feature","geometry":{"type":"Point","coordinates":[-84.158072,40.909494]}},{"properties":{"city":"vaughnsville","zip":"45893","geo_score":0.854,"id":"abo4wxiojo5n","address":"382 w findlay st","geo_precision":"street","state":"OH"},"type":"Feature","geometry":{"type":"Point","coordinates":[-84.149968,40.881666]}},{"properties":{"city":"Vaughnsville","zip":"45893","geo_score":0.619,"id":"abo4wxidqoh1","address":"232 N. Center Street","geo_precision":"street","state":"OH"},"type":"Feature","geometry":{"type":"Point","coordinates":[-84.148879,40.881607]}},{"properties":{"city":"vaughnsville","zip":"45893","geo_score":1.0,"id":"abo4wxs6g3d1","address":"167 center st","geo_precision":"range","state":"OH"},"type":"Feature","geometry":{"type":"Point","coordinates":[-84.149741,40.882639]}},{"properties":{"city":"vaughnsville","zip":"45893","geo_score":0.805,"id":"abo4wxei84vy","address":"166 center","geo_precision":"range","state":"OH"},"type":"Feature","geometry":{"type":"Point","coordinates":[-84.149971,40.882788]}},{"properties":{"city":"Columbus Grove","zip":"45830","geo_score":0.842,"id":"abo4wxhqkjeh","address":"15824 SR 189","geo_precision":"range","state":"OH"},"type":"Feature","geometry":{"type":"Point","coordinates":[-84.165687,40.88155]}},{"properties":{"city":"vaughnsville","zip":"45893","geo_score":0.756,"id":"abo4wxnn74ci","address":"235 e findlay","geo_precision":"street","state":"OH"},"type":"Feature","geometry":{"type":"Point","coordinates":[-84.146163,40.881508]}},{"properties":{"city":"vaughnsville","zip":"45893","geo_score":0.902,"id":"abo4wxnakmsf","address":"176 walnut st","geo_precision":"street","state":"OH"},"type":"Feature","geometry":{"type":"Point","coordinates":[-84.14632,40.882884]}},{"properties":{"city":"elida","zip":"45807","geo_score":0.89,"id":"abo4wxpj9n4k","address":"2555 tudor","geo_precision":"range","state":"OH"},"type":"Feature","geometry":{"type":"Point","coordinates":[-84.15204,40.852782]}},{"properties":{"city":"vaughnsville","zip":"45893","geo_score":1.0,"id":"abo4wxto5h1g","address":"244 center st","geo_precision":"range","state":"OH"},"type":"Feature","geometry":{"type":"Point","coordinates":[-84.150872,40.883587]}},{"properties":{"city":"vaughnsville","zip":"45893","geo_score":0.585,"id":"abo4wxg620ib","address":"146 hickory st","geo_precision":"zip","state":"OH"},"type":"Feature","geometry":{"type":"Point","coordinates":[-84.148028,40.882077]}},{"properties":{"city":"vaughnsville","zip":"45893","geo_score":0.72,"id":"abo4wxouip9n","address":"187 n water","geo_precision":"range","state":"OH"},"type":"Feature","geometry":{"type":"Point","coordinates":[-84.15145,40.882719]}},{"properties":{"city":"Vaughnsville","zip":"45813","geo_score":0.329,"id":"abo4wxmh9hls","address":"187 N. Water St","geo_precision":"street","state":"OH"},"type":"Feature","geometry":{"type":"Point","coordinates":[-84.298201,40.903769]}},{"properties":{"city":"columbus grove","zip":"45830","geo_score":0.854,"id":"abo4wxqffw77","address":"15696 old sr 12","geo_precision":"range","state":"OH"},"type":"Feature","geometry":{"type":"Point","coordinates":[-84.159743,40.871575]}},{"properties":{"city":"columbus grove","zip":"45830","geo_score":0.842,"id":"abo4wxpnd37j","address":"21893 sr 115","geo_precision":"range","state":"OH"},"type":"Feature","geometry":{"type":"Point","coordinates":[-84.138861,40.862049]}},{"properties":{"city":"columbus grove","zip":"45830","geo_score":0.688,"id":"abo4wxf9rwyj","address":"14750 sr 12","geo_precision":"street","state":"OH"},"type":"Feature","geometry":{"type":"Point","coordinates":[-84.091268,40.948342]}},{"properties":{"city":"vaughnsville","zip":"45893","geo_score":0.805,"id":"abo4wxi36xf4","address":"188 jefferson st","geo_precision":"range","state":"OH"},"type":"Feature","geometry":{"type":"Point","coordinates":[-84.147623,40.880931]}},{"properties":{"city":"Columbus Grove","zip":"45830","geo_score":0.513,"id":"abo4wxlftux9","address":"19567 Rd. 16S","geo_precision":"street","state":"OH"},"type":"Feature","geometry":{"type":"Point","coordinates":[-84.183443,40.984732]}},{"properties":{"city":"columbus grove","zip":"45830","geo_score":0.854,"id":"abo4wxmauvn7","address":"15573 old sr 12","geo_precision":"range","state":"OH"},"type":"Feature","geometry":{"type":"Point","coordinates":[-84.154906,40.8731]}},{"properties":{"city":"columbus grove","zip":"45830","geo_score":1.0,"id":"abo4wxi4zrl4","address":"19861 rd 14-s","geo_precision":"range","state":"OH"},"type":"Feature","geometry":{"type":"Point","coordinates":[-84.138119,40.89154]}},{"properties":{"city":"columbus grove","zip":"45830","geo_score":0.842,"id":"abo4wxjsv5i6","address":"21981 sr 115","geo_precision":"range","state":"OH"},"type":"Feature","geometry":{"type":"Point","coordinates":[-84.138014,40.860445]}},{"properties":{"city":"columbus grove","zip":"45830","geo_score":0.842,"id":"abo4wxtfxlcw","address":"21974 sr 115","geo_precision":"range","state":"OH"},"type":"Feature","geometry":{"type":"Point","coordinates":[-84.138156,40.860552]}},{"properties":{"city":"vaughnsville","zip":"45893","geo_score":0.902,"id":"abo4wxjnszko","address":"187 center st","geo_precision":"range","state":"OH"},"type":"Feature","geometry":{"type":"Point","coordinates":[-84.148879,40.881607]}},{"properties":{"city":"columbus grove","zip":"45830","geo_score":0.842,"id":"abo4wxi59yyf","address":"18951 sr 115","geo_precision":"range","state":"OH"},"type":"Feature","geometry":{"type":"Point","coordinates":[-84.157878,40.905306]}},{"properties":{"city":"columbus grove","zip":"45830","geo_score":0.927,"id":"abo4wxi5swdq","address":"15378 rd s","geo_precision":"range","state":"OH"},"type":"Feature","geometry":{"type":"Point","coordinates":[-84.163579,40.965392]}},{"properties":{"city":"columbus grove ohio","zip":"45830","geo_score":0.974,"id":"abo4wxekll6w","address":"19222 rd 14","geo_precision":"range","state":"OH"},"type":"Feature","geometry":{"type":"Point","coordinates":[-84.128891,40.901411]}},{"properties":{"city":"columbus grove","zip":"45830","geo_score":1.0,"id":"abo4wxjcvap3","address":"19280 rd 14","geo_precision":"range","state":"OH"},"type":"Feature","geometry":{"type":"Point","coordinates":[-84.12889,40.900559]}},{"properties":{"city":"Vaughnsville","zip":"45893","geo_score":0.429,"id":"abo4wxr7juji","address":"212 W. Findlay St.","geo_precision":"street","state":"OH"},"type":"Feature","geometry":{"type":"Point","coordinates":[-84.146327,40.881585]}},{"properties":{"city":"columbus grove","zip":"45830","geo_score":0.585,"id":"abo4wxs7i5wp","address":"13250 rd u-13","geo_precision":"zip","state":"OH"},"type":"Feature","geometry":{"type":"Point","coordinates":[-84.211337,40.884495]}}],"is_temporal":false,"author":{"url":"","metadata":null,"contact_name":null,"contact_address":null,"source":null,"contact_phone":null},"source":"","pagination":{"sort":null,"start":0,"total":132,"limit":1000000},"state":"complete","tags":"","published":"2014-08-16T18:24:15-04:00","id":313790}