{"type":"FeatureCollection","data_type":"Dataset","url_type":null,"permissions":[{"permissions":{"download":true,"view":true},"group_id":"everyone"}],"classification":null,"title":"Copy of IPTV-NK Telco-Jan-16-2013 - Csv","count":784,"stream_id":313770,"contributor":{"url":"http://geocommons.com/users/59404","name":"KatieEtgen"},"data_attributes":null,"calculation_params":null,"icon_link":null,"link":"http://geocommons.com/overlays/313770.json","extent":[-84.6341,39.854,-84.1391,40.6225],"geometry_types":["point"],"unique_name":null,"name":"Copy of IPTV-NK Telco-Jan-16-2013 - Csv","feature_count":784,"description":"","next_feature":null,"is_raster":false,"short_classification":"Y","stats":{},"features":[{"properties":{"city":"Sidney","zip":"45365","geo_score":0.811,"id":"abo40t22874s","address":"1329 Tully Dr","geo_precision":"street","state":"OH"},"type":"Feature","geometry":{"type":"Point","coordinates":[-84.176979,40.299312]}},{"properties":{"city":"Sidney","zip":"45365","geo_score":1.0,"id":"abo40ssgkaa4","address":"1389 Riverside Dr","geo_precision":"range","state":"OH"},"type":"Feature","geometry":{"type":"Point","coordinates":[-84.139112,40.302537]}},{"properties":{"city":"St Marys","zip":"45885","geo_score":0.7,"id":"abo40sq7aljw","address":"13595 Glynnwood-NK Rd","geo_precision":"street","state":"OH"},"type":"Feature","geometry":{"type":"Point","coordinates":[-84.318331,40.582933]}},{"properties":{"city":"New Knoxville","zip":"45871","geo_score":1.0,"id":"abo40szc2ik8","address":"5555 Wierwille Rd","geo_precision":"range","state":"OH"},"type":"Feature","geometry":{"type":"Point","coordinates":[-84.326835,40.47381]}},{"properties":{"city":"Fort Loramie","zip":"45845","geo_score":1.0,"id":"abo40ss9cwm3","address":"48 S Main St","geo_precision":"range","state":"OH"},"type":"Feature","geometry":{"type":"Point","coordinates":[-84.375476,40.348593]}},{"properties":{"city":"New Knoxville","zip":"45871","geo_score":0.902,"id":"abo40ssimhn8","address":"403 S East St","geo_precision":"range","state":"OH"},"type":"Feature","geometry":{"type":"Point","coordinates":[-84.314328,40.490923]}},{"properties":{"city":"Botkins","zip":"45885","geo_score":0.512,"id":"abo40t2l1v9z","address":"108 Debra Dr","geo_precision":"street","state":"OH"},"type":"Feature","geometry":{"type":"Point","coordinates":[-84.63408,40.546751]}},{"properties":{"city":"Botkins","zip":"45306","geo_score":0.883,"id":"abo40su589fr","address":"108 N Mill St Apt 1","geo_precision":"range","state":"OH"},"type":"Feature","geometry":{"type":"Point","coordinates":[-84.183236,40.469404]}},{"properties":{"city":"Anna","zip":"45302","geo_score":0.585,"id":"abo40suefpcy","address":"104 Peridot Dr","geo_precision":"zip","state":"OH"},"type":"Feature","geometry":{"type":"Point","coordinates":[-84.255781,40.39477]}},{"properties":{"city":"Ft Loramie","zip":"45845","geo_score":0.984,"id":"abo40sopf5fu","address":"210 Monterey Dr","geo_precision":"range","state":"OH"},"type":"Feature","geometry":{"type":"Point","coordinates":[-84.367855,40.344983]}},{"properties":{"city":"St Marys","zip":"45885","geo_score":0.778,"id":"abo40snm5z4t","address":"1187 E Shelby Rd","geo_precision":"street","state":"OH"},"type":"Feature","geometry":{"type":"Point","coordinates":[-84.339109,40.503279]}},{"properties":{"city":"New Knoxville","zip":"45871","geo_score":0.756,"id":"abo40sukxdjq","address":"12361 Moulton NK Rd","geo_precision":"range","state":"OH"},"type":"Feature","geometry":{"type":"Point","coordinates":[-84.297507,40.528172]}},{"properties":{"city":"Anna","zip":"45302","geo_score":0.585,"id":"abo40sp940i6","address":"205 Peridot Dr","geo_precision":"zip","state":"OH"},"type":"Feature","geometry":{"type":"Point","coordinates":[-84.255781,40.39477]}},{"properties":{"city":"Ft Loramie","zip":"45845","geo_score":0.942,"id":"abo40splcuqu","address":"17 E Greenback Rd","geo_precision":"range","state":"OH"},"type":"Feature","geometry":{"type":"Point","coordinates":[-84.373779,40.343204]}},{"properties":{"city":"New Bremen","zip":"45869","geo_score":1.0,"id":"abo40snh3rbd","address":"303 E Monroe St","geo_precision":"range","state":"OH"},"type":"Feature","geometry":{"type":"Point","coordinates":[-84.376193,40.436821]}},{"properties":{"city":"Botkins","zip":"45306","geo_score":0.585,"id":"abo40svmu7lz","address":"17298 25A","geo_precision":"zip","state":"OH"},"type":"Feature","geometry":{"type":"Point","coordinates":[-84.189245,40.439778]}},{"properties":{"city":"New Knoxville","zip":"45871","geo_score":0.883,"id":"abo40t39q9qk","address":"301 W South St","geo_precision":"range","state":"OH"},"type":"Feature","geometry":{"type":"Point","coordinates":[-84.320055,40.492695]}},{"properties":{"city":"Anna","zip":"45302","geo_score":0.672,"id":"abo40srpvjbv","address":"14350 CR 25A","geo_precision":"street","state":"OH"},"type":"Feature","geometry":{"type":"Point","coordinates":[-84.170409,40.372496]}},{"properties":{"city":"Sidney","zip":"45365","geo_score":1.0,"id":"abo40syiiahh","address":"1602 Willow Pl","geo_precision":"range","state":"OH"},"type":"Feature","geometry":{"type":"Point","coordinates":[-84.179443,40.300903]}},{"properties":{"city":"Sidney","zip":"45365","geo_score":0.878,"id":"abo40sp9ca1n","address":"1538 Westwood Dr","geo_precision":"range","state":"OH"},"type":"Feature","geometry":{"type":"Point","coordinates":[-84.172079,40.271577]}},{"properties":{"city":"New Knoxville","zip":"45871","geo_score":0.945,"id":"abo40st2fpbq","address":"10631 Kettlersville","geo_precision":"range","state":"OH"},"type":"Feature","geometry":{"type":"Point","coordinates":[-84.259597,40.511052]}},{"properties":{"city":"New Knoxville","zip":"45871","geo_score":0.842,"id":"abo40sy9az9f","address":"10551 SR 219","geo_precision":"range","state":"OH"},"type":"Feature","geometry":{"type":"Point","coordinates":[-84.245157,40.496587]}},{"properties":{"city":"New Knoxville","zip":"45871","geo_score":1.0,"id":"abo40ssibydf","address":"8788 Southland Rd","geo_precision":"range","state":"OH"},"type":"Feature","geometry":{"type":"Point","coordinates":[-84.268877,40.481642]}},{"properties":{"city":"New Knoxville","zip":"45871","geo_score":1.0,"id":"abo40sug4w9u","address":"19151 Kettlersville Rd","geo_precision":"range","state":"OH"},"type":"Feature","geometry":{"type":"Point","coordinates":[-84.259601,40.47465]}},{"properties":{"city":"Ft Loramie","zip":"45845","geo_score":0.984,"id":"abo40so0nl0d","address":"59 S Main St","geo_precision":"range","state":"OH"},"type":"Feature","geometry":{"type":"Point","coordinates":[-84.37526,40.345388]}},{"properties":{"city":"Ft Loramie","zip":"45845","geo_score":0.976,"id":"abo40stgwurz","address":"4240 Newport Rd","geo_precision":"range","state":"OH"},"type":"Feature","geometry":{"type":"Point","coordinates":[-84.352335,40.292435]}},{"properties":{"city":"Ft Loramie","zip":"45845","geo_score":0.984,"id":"abo40t2jepl5","address":"56 S Main St","geo_precision":"range","state":"OH"},"type":"Feature","geometry":{"type":"Point","coordinates":[-84.375472,40.34836]}},{"properties":{"city":"Fort Loramie","zip":"45845","geo_score":0.829,"id":"abo40sow3sod","address":"7401 SR 66","geo_precision":"range","state":"OH"},"type":"Feature","geometry":{"type":"Point","coordinates":[-84.368959,40.306309]}},{"properties":{"city":"Anna","zip":"45302","geo_score":0.752,"id":"abo40szl0f8a","address":"14080 Co Rd 25A","geo_precision":"street","state":"OH"},"type":"Feature","geometry":{"type":"Point","coordinates":[-84.170409,40.372496]}},{"properties":{"city":"Ft Loramie","zip":"45845","geo_score":0.984,"id":"abo40swubqz4","address":"101 Grandview Dr","geo_precision":"range","state":"OH"},"type":"Feature","geometry":{"type":"Point","coordinates":[-84.370505,40.348983]}},{"properties":{"city":"New Bremen","zip":"45869","geo_score":1.0,"id":"abo40szouneh","address":"8 Deer Dr","geo_precision":"range","state":"OH"},"type":"Feature","geometry":{"type":"Point","coordinates":[-84.371032,40.436673]}},{"properties":{"city":"Ft Loramie","zip":"45845","geo_score":0.984,"id":"abo40t0gi4cw","address":"113 S Main St","geo_precision":"range","state":"OH"},"type":"Feature","geometry":{"type":"Point","coordinates":[-84.375198,40.343184]}},{"properties":{"city":"Fort Loramie","zip":"45845","geo_score":1.0,"id":"abo40sqqmi7g","address":"17 E Park St","geo_precision":"range","state":"OH"},"type":"Feature","geometry":{"type":"Point","coordinates":[-84.374554,40.349823]}},{"properties":{"city":"New Knoxville","zip":"45871","geo_score":0.886,"id":"abo40szryatv","address":"19100 E Shelby Rd RM 209","geo_precision":"range","state":"OH"},"type":"Feature","geometry":{"type":"Point","coordinates":[-84.339142,40.476436]}},{"properties":{"city":"Sidney","zip":"45365","geo_score":1.0,"id":"abo40t0fng1n","address":"1203 Superior Ct","geo_precision":"range","state":"OH"},"type":"Feature","geometry":{"type":"Point","coordinates":[-84.176591,40.26712]}},{"properties":{"city":"St Marys","zip":"45885","geo_score":0.876,"id":"abo40ssarzgc","address":"04370 Poppe Rd","geo_precision":"range","state":"OH"},"type":"Feature","geometry":{"type":"Point","coordinates":[-84.36857,40.509711]}},{"properties":{"city":"Botkins","zip":"45302","geo_score":0.919,"id":"abo40spglj9b","address":"212 E Walnut St","geo_precision":"range","state":"OH"},"type":"Feature","geometry":{"type":"Point","coordinates":[-84.169119,40.397338]}},{"properties":{"city":"New Knoxville","zip":"45871","geo_score":0.807,"id":"abo40suukfc8","address":"06693 Clover Leaf Rd.","geo_precision":"street","state":"OH"},"type":"Feature","geometry":{"type":"Point","coordinates":[-84.316599,40.525408]}},{"properties":{"city":"Minster","zip":"45865","geo_score":0.585,"id":"abo40srykufg","address":"18 Fieldcrest Rd","geo_precision":"zip","state":"OH"},"type":"Feature","geometry":{"type":"Point","coordinates":[-84.344116,40.369492]}},{"properties":{"city":"Minster","zip":"45865","geo_score":0.902,"id":"abo40snv5a9y","address":"86 WEBSTER PL","geo_precision":"range","state":"OH"},"type":"Feature","geometry":{"type":"Point","coordinates":[-84.36913,40.39103]}},{"properties":{"city":"Botkins","zip":"45306","geo_score":0.806,"id":"abo40st94k0f","address":"408 Debra Dr","geo_precision":"street","state":"OH"},"type":"Feature","geometry":{"type":"Point","coordinates":[-84.184478,40.471495]}},{"properties":{"city":"Ft Loramie","zip":"45845","geo_score":0.505,"id":"abo40svi1r5w","address":"60 Indian Trail","geo_precision":"street","state":"OH"},"type":"Feature","geometry":{"type":"Point","coordinates":[-84.392055,40.545649]}},{"properties":{"city":"Minster","zip":"45865","geo_score":1.0,"id":"abo40sn4eqvb","address":"272 N Paris St","geo_precision":"range","state":"OH"},"type":"Feature","geometry":{"type":"Point","coordinates":[-84.367243,40.400242]}},{"properties":{"city":"Botkins","zip":"45306","geo_score":1.0,"id":"abo40svgk0r5","address":"209 S Main St","geo_precision":"range","state":"OH"},"type":"Feature","geometry":{"type":"Point","coordinates":[-84.181955,40.466233]}},{"properties":{"city":"Anna","zip":"45302","geo_score":0.927,"id":"abo40sujyri8","address":"302 N Linden St","geo_precision":"range","state":"OH"},"type":"Feature","geometry":{"type":"Point","coordinates":[-84.171807,40.398371]}},{"properties":{"city":"Fort Loramie","zip":"45845","geo_score":0.585,"id":"abo40srtp2j5","address":"40 Hickory Dr","geo_precision":"zip","state":"OH"},"type":"Feature","geometry":{"type":"Point","coordinates":[-84.369671,40.295881]}},{"properties":{"city":"Ft Loramie","zip":"45845","geo_score":0.984,"id":"abo40sxhfioi","address":"13 Canal St","geo_precision":"range","state":"OH"},"type":"Feature","geometry":{"type":"Point","coordinates":[-84.376436,40.349428]}},{"properties":{"city":"Minster","zip":"45865","geo_score":1.0,"id":"abo40sxfkhsd","address":"23 Independence Ave","geo_precision":"range","state":"OH"},"type":"Feature","geometry":{"type":"Point","coordinates":[-84.37333,40.402886]}},{"properties":{"city":"Anna","zip":"45302","geo_score":0.585,"id":"abo40sojrj62","address":"206 Peridot Dr","geo_precision":"zip","state":"OH"},"type":"Feature","geometry":{"type":"Point","coordinates":[-84.255781,40.39477]}},{"properties":{"city":"Anna","zip":"45302","geo_score":1.0,"id":"abo40t0petvv","address":"301 W Walnut St","geo_precision":"range","state":"OH"},"type":"Feature","geometry":{"type":"Point","coordinates":[-84.177574,40.397372]}},{"properties":{"city":"Sidney","zip":"45365","geo_score":0.849,"id":"abo40syv7chh","address":"1631 Wildwood Dr","geo_precision":"street","state":"OH"},"type":"Feature","geometry":{"type":"Point","coordinates":[-84.173356,40.266967]}},{"properties":{"city":"Anna","zip":"45302","geo_score":0.927,"id":"abo40st5wg5n","address":"504 N 2nd St","geo_precision":"range","state":"OH"},"type":"Feature","geometry":{"type":"Point","coordinates":[-84.17707,40.400573]}},{"properties":{"city":"Anna","zip":"45302","geo_score":0.927,"id":"abo40ssp5wec","address":"501 N Second St","geo_precision":"range","state":"OH"},"type":"Feature","geometry":{"type":"Point","coordinates":[-84.177146,40.400642]}},{"properties":{"city":"Ft Loramie","zip":"45845","geo_score":0.894,"id":"abo40szym3ba","address":"04195 St Rt 362","geo_precision":"range","state":"OH"},"type":"Feature","geometry":{"type":"Point","coordinates":[-84.358539,40.351681]}},{"properties":{"city":"Anna","zip":"45306","geo_score":0.343,"id":"abo40stud1wl","address":"105 S Third St","geo_precision":"street","state":"OH"},"type":"Feature","geometry":{"type":"Point","coordinates":[-84.230949,40.482028]}},{"properties":{"city":"Anna","zip":"45302","geo_score":0.585,"id":"abo40sr99brx","address":"213 Peridot Dr","geo_precision":"zip","state":"OH"},"type":"Feature","geometry":{"type":"Point","coordinates":[-84.255781,40.39477]}},{"properties":{"city":"Anna","zip":"45302","geo_score":0.947,"id":"abo40svtogot","address":"212 Emerald Ct","geo_precision":"range","state":"OH"},"type":"Feature","geometry":{"type":"Point","coordinates":[-84.175845,40.391788]}},{"properties":{"city":"New Knoxville","zip":"45871","geo_score":0.877,"id":"abo40stok518","address":"19100 E Shelby Rd Unit 27","geo_precision":"range","state":"OH"},"type":"Feature","geometry":{"type":"Point","coordinates":[-84.339142,40.476436]}},{"properties":{"city":"Wapakoneta","zip":"45895","geo_score":1.0,"id":"abo40ssz7qni","address":"12270 Bay Rd","geo_precision":"range","state":"OH"},"type":"Feature","geometry":{"type":"Point","coordinates":[-84.278454,40.527561]}},{"properties":{"city":"Wapakoneta","zip":"45895","geo_score":1.0,"id":"abo40stoibzi","address":"08570 Washington Pike","geo_precision":"range","state":"OH"},"type":"Feature","geometry":{"type":"Point","coordinates":[-84.287657,40.540276]}},{"properties":{"city":"Sidney","zip":"45365","geo_score":0.976,"id":"abo40sqc49k0","address":"1907 Fairoaks Dr","geo_precision":"range","state":"OH"},"type":"Feature","geometry":{"type":"Point","coordinates":[-84.17923,40.297411]}},{"properties":{"city":"St Marys","zip":"45885","geo_score":0.876,"id":"abo40syc1maq","address":"10244 St Rt 66","geo_precision":"range","state":"OH"},"type":"Feature","geometry":{"type":"Point","coordinates":[-84.377228,40.49613]}},{"properties":{"city":"Fort Loramie","zip":"45845","geo_score":1.0,"id":"abo40sxw5nus","address":"250 Grandview Dr","geo_precision":"range","state":"OH"},"type":"Feature","geometry":{"type":"Point","coordinates":[-84.369004,40.344665]}},{"properties":{"city":"Ft Loramie","zip":"45845","geo_score":0.984,"id":"abo40sq0n2cg","address":"21 Wabash St","geo_precision":"range","state":"OH"},"type":"Feature","geometry":{"type":"Point","coordinates":[-84.370543,40.346233]}},{"properties":{"city":"Sidney","zip":"45365","geo_score":1.0,"id":"abo40svjq075","address":"1337 Westwood Dr","geo_precision":"range","state":"OH"},"type":"Feature","geometry":{"type":"Point","coordinates":[-84.173492,40.265777]}},{"properties":{"city":"Botkins","zip":"45306","geo_score":1.0,"id":"abo40t1ntq1h","address":"307 Roth St","geo_precision":"range","state":"OH"},"type":"Feature","geometry":{"type":"Point","coordinates":[-84.184553,40.471035]}},{"properties":{"city":"New Knoxville","zip":"45871","geo_score":0.831,"id":"abo40syb1sz7","address":"19100 E Shelby Rd Chalet 2nd Floor","geo_precision":"range","state":"OH"},"type":"Feature","geometry":{"type":"Point","coordinates":[-84.339142,40.476436]}},{"properties":{"city":"Ft Loramie","zip":"45845","geo_score":0.984,"id":"abo40sz0ez5s","address":"121 Grandview Dr","geo_precision":"range","state":"OH"},"type":"Feature","geometry":{"type":"Point","coordinates":[-84.369505,40.34835]}},{"properties":{"city":"Sidney","zip":"45365","geo_score":0.976,"id":"abo40t1745pp","address":"939 Chestnut Av","geo_precision":"range","state":"OH"},"type":"Feature","geometry":{"type":"Point","coordinates":[-84.161242,40.272839]}},{"properties":{"city":"New Knoxville","zip":"45871","geo_score":1.0,"id":"abo40stw828l","address":"09848 Ott Rd","geo_precision":"range","state":"OH"},"type":"Feature","geometry":{"type":"Point","coordinates":[-84.240516,40.491746]}},{"properties":{"city":"Ft Loramie","zip":"45845","geo_score":0.811,"id":"abo40srbylzl","address":"10 W Park St First- Front apt","geo_precision":"range","state":"OH"},"type":"Feature","geometry":{"type":"Point","coordinates":[-84.375605,40.349931]}},{"properties":{"city":"Sidney","zip":"45365","geo_score":1.0,"id":"abo40sty0ktp","address":"1641 N Kuther Rd","geo_precision":"range","state":"OH"},"type":"Feature","geometry":{"type":"Point","coordinates":[-84.208273,40.31193]}},{"properties":{"city":"New Knoxville","zip":"45871","geo_score":1.0,"id":"abo40sznwv2l","address":"10159 Headapohl Rd","geo_precision":"range","state":"OH"},"type":"Feature","geometry":{"type":"Point","coordinates":[-84.254239,40.503913]}},{"properties":{"city":"St Marys","zip":"45885","geo_score":0.811,"id":"abo40t301tmb","address":"10077 Sr 66","geo_precision":"range","state":"OH"},"type":"Feature","geometry":{"type":"Point","coordinates":[-84.395892,40.499251]}},{"properties":{"city":"Ft Loramie","zip":"45845","geo_score":0.984,"id":"abo40sqruemn","address":"111 S Main St","geo_precision":"range","state":"OH"},"type":"Feature","geometry":{"type":"Point","coordinates":[-84.375198,40.343185]}},{"properties":{"city":"Ft Loramie","zip":"45845","geo_score":0.984,"id":"abo40st58fdn","address":"537 Elizabeth Ct","geo_precision":"range","state":"OH"},"type":"Feature","geometry":{"type":"Point","coordinates":[-84.36263,40.346812]}},{"properties":{"city":"Sidney","zip":"45365","geo_score":1.0,"id":"abo40sun88i4","address":"2217 Apache Dr","geo_precision":"range","state":"OH"},"type":"Feature","geometry":{"type":"Point","coordinates":[-84.188967,40.28295]}},{"properties":{"city":"Anna","zip":"45302","geo_score":0.883,"id":"abo40svafkcc","address":"404 W Main St Apt 4","geo_precision":"range","state":"OH"},"type":"Feature","geometry":{"type":"Point","coordinates":[-84.178444,40.39515]}},{"properties":{"city":"Wapakoneta","zip":"45895","geo_score":1.0,"id":"abo40t2f7sxf","address":"08827 Washington Pike","geo_precision":"range","state":"OH"},"type":"Feature","geometry":{"type":"Point","coordinates":[-84.282783,40.540467]}},{"properties":{"city":"Wapakoneta","zip":"45895","geo_score":1.0,"id":"abo40t2b5hlq","address":"11581 Headapohl Rd","geo_precision":"range","state":"OH"},"type":"Feature","geometry":{"type":"Point","coordinates":[-84.227211,40.504044]}},{"properties":{"city":"St Marys","zip":"45885","geo_score":0.876,"id":"abo40su5bpz2","address":"10532 St Rt 66","geo_precision":"range","state":"OH"},"type":"Feature","geometry":{"type":"Point","coordinates":[-84.377296,40.507849]}},{"properties":{"city":"Sidney","zip":"45365","geo_score":0.976,"id":"abo40swb32uu","address":"1193 W Russel Rd","geo_precision":"range","state":"OH"},"type":"Feature","geometry":{"type":"Point","coordinates":[-84.17238,40.30218]}},{"properties":{"city":"Sidney","zip":"45365","geo_score":1.0,"id":"abo40svdabze","address":"1128 Huron Ct","geo_precision":"range","state":"OH"},"type":"Feature","geometry":{"type":"Point","coordinates":[-84.175627,40.268017]}},{"properties":{"city":"Botkins","zip":"45306","geo_score":1.0,"id":"abo40swfc49g","address":"205 S Main St","geo_precision":"range","state":"OH"},"type":"Feature","geometry":{"type":"Point","coordinates":[-84.181976,40.466448]}},{"properties":{"city":"Sidney","zip":"45365","geo_score":0.512,"id":"abo40swegoru","address":"1754 Cumberland Ave","geo_precision":"street","state":"OH"},"type":"Feature","geometry":{"type":"Point","coordinates":[-84.549758,39.853954]}},{"properties":{"city":"Fort Loramie","zip":"45845","geo_score":1.0,"id":"abo40srkgtii","address":"51 S Main Street","geo_precision":"range","state":"OH"},"type":"Feature","geometry":{"type":"Point","coordinates":[-84.375275,40.346265]}},{"properties":{"city":"Sidney","zip":"45365","geo_score":0.892,"id":"abo40t2iep7h","address":"1241 Maple Leaf Ct Apt B2","geo_precision":"range","state":"OH"},"type":"Feature","geometry":{"type":"Point","coordinates":[-84.163907,40.269471]}},{"properties":{"city":"Minster","zip":"45865","geo_score":1.0,"id":"abo40swz8xfq","address":"6 S Main St","geo_precision":"range","state":"OH"},"type":"Feature","geometry":{"type":"Point","coordinates":[-84.376621,40.392894]}},{"properties":{"city":"Botkins","zip":"45306","geo_score":1.0,"id":"abo40t2f0uhw","address":"201 Warren St","geo_precision":"range","state":"OH"},"type":"Feature","geometry":{"type":"Point","coordinates":[-84.180942,40.464477]}},{"properties":{"city":"Botkins","zip":"45306","geo_score":1.0,"id":"abo40syt2zel","address":"13806 Botkins Rd","geo_precision":"range","state":"OH"},"type":"Feature","geometry":{"type":"Point","coordinates":[-84.166687,40.467832]}},{"properties":{"city":"Botkins","zip":"45306","geo_score":0.902,"id":"abo40syfx3a1","address":"207 First St","geo_precision":"range","state":"OH"},"type":"Feature","geometry":{"type":"Point","coordinates":[-84.176912,40.466592]}},{"properties":{"city":"Ft Loramie","zip":"45845","geo_score":0.886,"id":"abo40sq0im6i","address":"4125 St Rt 47","geo_precision":"range","state":"OH"},"type":"Feature","geometry":{"type":"Point","coordinates":[-84.357536,40.290929]}},{"properties":{"city":"New Knoxville","zip":"45871","geo_score":0.877,"id":"abo40sqr2zjl","address":"19100 E Shelby Rd Unit 22","geo_precision":"range","state":"OH"},"type":"Feature","geometry":{"type":"Point","coordinates":[-84.339142,40.476436]}},{"properties":{"city":"Minster","zip":"45865","geo_score":1.0,"id":"abo40svk1c91","address":"148 S Garfield St","geo_precision":"range","state":"OH"},"type":"Feature","geometry":{"type":"Point","coordinates":[-84.374736,40.389315]}},{"properties":{"city":"Botkins","zip":"45306","geo_score":0.854,"id":"abo40sn0ph6y","address":"419 E South St","geo_precision":"range","state":"OH"},"type":"Feature","geometry":{"type":"Point","coordinates":[-84.186064,40.466607]}},{"properties":{"city":"Botkins","zip":"45306","geo_score":1.0,"id":"abo40snxgrqf","address":"315 s main st","geo_precision":"range","state":"OH"},"type":"Feature","geometry":{"type":"Point","coordinates":[-84.181474,40.462308]}},{"properties":{"city":"Fort Loramie","zip":"45845","geo_score":0.958,"id":"abo40sz3w8tq","address":"32 E Greenback Rd","geo_precision":"range","state":"OH"},"type":"Feature","geometry":{"type":"Point","coordinates":[-84.373106,40.343136]}},{"properties":{"city":"New Bremen","zip":"45869","geo_score":0.585,"id":"abo40sr77ouz","address":"4530","geo_precision":"zip","state":"OH"},"type":"Feature","geometry":{"type":"Point","coordinates":[-84.2145,40.504687]}},{"properties":{"city":"Anna","zip":"45302","geo_score":0.585,"id":"abo40spl5wmw","address":"302 Spike St","geo_precision":"zip","state":"OH"},"type":"Feature","geometry":{"type":"Point","coordinates":[-84.255781,40.39477]}},{"properties":{"city":"Sidney","zip":"45365","geo_score":1.0,"id":"abo40svspylo","address":"808 Taylor Dr","geo_precision":"range","state":"OH"},"type":"Feature","geometry":{"type":"Point","coordinates":[-84.164867,40.271923]}},{"properties":{"city":"Ft Loramie","zip":"45845","geo_score":0.984,"id":"abo40sylqkd9","address":"15 Wabash St","geo_precision":"range","state":"OH"},"type":"Feature","geometry":{"type":"Point","coordinates":[-84.370434,40.346236]}},{"properties":{"city":"Sidney","zip":"45365","geo_score":1.0,"id":"abo40stgvs3f","address":"1203 Colonial Dr","geo_precision":"range","state":"OH"},"type":"Feature","geometry":{"type":"Point","coordinates":[-84.167129,40.270061]}},{"properties":{"city":"Anna","zip":"45302","geo_score":0.947,"id":"abo40sy1vooc","address":"203 Emerald Ct","geo_precision":"range","state":"OH"},"type":"Feature","geometry":{"type":"Point","coordinates":[-84.175095,40.391935]}},{"properties":{"city":"Anna","zip":"45302","geo_score":0.902,"id":"abo40sv09p19","address":"103 E Walnut St","geo_precision":"range","state":"OH"},"type":"Feature","geometry":{"type":"Point","coordinates":[-84.171852,40.397341]}},{"properties":{"city":"New Knoxville","zip":"45871","geo_score":0.877,"id":"abo40t1kc7mm","address":"19100 E Shelby Rd Unit 19","geo_precision":"range","state":"OH"},"type":"Feature","geometry":{"type":"Point","coordinates":[-84.339142,40.476436]}},{"properties":{"city":"St Marys","zip":"45885","geo_score":0.973,"id":"abo40sufta9d","address":"07508 Washington Pike","geo_precision":"range","state":"OH"},"type":"Feature","geometry":{"type":"Point","coordinates":[-84.301789,40.540171]}},{"properties":{"city":"Botkins","zip":"45306","geo_score":0.875,"id":"abo40t3bfjwu","address":"107 West St","geo_precision":"range","state":"OH"},"type":"Feature","geometry":{"type":"Point","coordinates":[-84.188444,40.466251]}},{"properties":{"city":"Anna","zip":"45302","geo_score":0.947,"id":"abo40syb8kh0","address":"210 Emerald Ct","geo_precision":"range","state":"OH"},"type":"Feature","geometry":{"type":"Point","coordinates":[-84.175685,40.391789]}},{"properties":{"city":"Sidney","zip":"45365","geo_score":1.0,"id":"abo40t0vg8r7","address":"1681 N Kuther Rd","geo_precision":"range","state":"OH"},"type":"Feature","geometry":{"type":"Point","coordinates":[-84.208263,40.311382]}},{"properties":{"city":"Sidney","zip":"45365","geo_score":1.0,"id":"abo40smydwa6","address":"1915 Shawnee Dr","geo_precision":"range","state":"OH"},"type":"Feature","geometry":{"type":"Point","coordinates":[-84.192249,40.283771]}},{"properties":{"city":"Sidney","zip":"45365","geo_score":0.935,"id":"abo40sr915g9","address":"1842 Cheryl Dr","geo_precision":"range","state":"OH"},"type":"Feature","geometry":{"type":"Point","coordinates":[-84.185517,40.283071]}},{"properties":{"city":"Sidney","zip":"45365","geo_score":0.976,"id":"abo40ssaxeia","address":"1978 Fairoaks Dr","geo_precision":"range","state":"OH"},"type":"Feature","geometry":{"type":"Point","coordinates":[-84.179113,40.29974]}},{"properties":{"city":"Anna","zip":"45302","geo_score":0.947,"id":"abo40sxbil7x","address":"209 Emerald Ct","geo_precision":"range","state":"OH"},"type":"Feature","geometry":{"type":"Point","coordinates":[-84.175525,40.391939]}},{"properties":{"city":"Sidney","zip":"45365","geo_score":1.0,"id":"abo40sndptj8","address":"1441 Westwood Dr","geo_precision":"range","state":"OH"},"type":"Feature","geometry":{"type":"Point","coordinates":[-84.173492,40.265777]}},{"properties":{"city":"New Bremen","zip":"45869","geo_score":1.0,"id":"abo40szhhtq9","address":"17450 Roettger Rd","geo_precision":"range","state":"OH"},"type":"Feature","geometry":{"type":"Point","coordinates":[-84.298034,40.447787]}},{"properties":{"city":"Ft Loramie","zip":"45845","geo_score":0.984,"id":"abo40t28nfjr","address":"110 E Park St","geo_precision":"range","state":"OH"},"type":"Feature","geometry":{"type":"Point","coordinates":[-84.372602,40.349722]}},{"properties":{"city":"Botkins","zip":"45306","geo_score":0.806,"id":"abo40ssmfmes","address":"109 Roth St","geo_precision":"street","state":"OH"},"type":"Feature","geometry":{"type":"Point","coordinates":[-84.184478,40.471495]}},{"properties":{"city":"Botkins","zip":"45306","geo_score":1.0,"id":"abo40szwntxm","address":"118 N Main St","geo_precision":"range","state":"OH"},"type":"Feature","geometry":{"type":"Point","coordinates":[-84.182222,40.469476]}},{"properties":{"city":"Botkins","zip":"45306","geo_score":1.0,"id":"abo40stkw41w","address":"202 W Lynn St","geo_precision":"range","state":"OH"},"type":"Feature","geometry":{"type":"Point","coordinates":[-84.184906,40.470794]}},{"properties":{"city":"Sidney","zip":"45365","geo_score":1.0,"id":"abo40sz7qg8w","address":"940 Chestnut Ave","geo_precision":"range","state":"OH"},"type":"Feature","geometry":{"type":"Point","coordinates":[-84.161092,40.272837]}},{"properties":{"city":"New Knoxville","zip":"45871","geo_score":0.886,"id":"abo40ss8rfc3","address":"19100 E Shelby Rd Rm 223","geo_precision":"range","state":"OH"},"type":"Feature","geometry":{"type":"Point","coordinates":[-84.339142,40.476436]}},{"properties":{"city":"Anna","zip":"45302","geo_score":0.976,"id":"abo40svs5gt4","address":"209 Fairview Av","geo_precision":"range","state":"OH"},"type":"Feature","geometry":{"type":"Point","coordinates":[-84.170935,40.393216]}},{"properties":{"city":"Botkins","zip":"45306","geo_score":0.743,"id":"abo40snnwfe1","address":"410 W South St, Botkins, OH","geo_precision":"street","state":"OH"},"type":"Feature","geometry":{"type":"Point","coordinates":[-84.181922,40.46667]}},{"properties":{"city":"Sidney","zip":"45365","geo_score":1.0,"id":"abo40stlc8qi","address":"1101 Hawthorne Dr","geo_precision":"range","state":"OH"},"type":"Feature","geometry":{"type":"Point","coordinates":[-84.168433,40.27272]}},{"properties":{"city":"New Knoxville","zip":"45871","geo_score":0.877,"id":"abo40spyzpae","address":"19100 E Shelby Rd Unit 16","geo_precision":"range","state":"OH"},"type":"Feature","geometry":{"type":"Point","coordinates":[-84.339142,40.476436]}},{"properties":{"city":"Anna","zip":"45302","geo_score":1.0,"id":"abo40ste4vuk","address":"203 Meadowview Ln","geo_precision":"range","state":"OH"},"type":"Feature","geometry":{"type":"Point","coordinates":[-84.167005,40.397303]}},{"properties":{"city":"New Knoxville","zip":"45871","geo_score":0.882,"id":"abo40swocvyl","address":"06184 Cloverleaf Rd","geo_precision":"range","state":"OH"},"type":"Feature","geometry":{"type":"Point","coordinates":[-84.322326,40.525261]}},{"properties":{"city":"Anna","zip":"45302","geo_score":1.0,"id":"abo40t0qn6fi","address":"206 Shannon Dr","geo_precision":"range","state":"OH"},"type":"Feature","geometry":{"type":"Point","coordinates":[-84.168931,40.39956]}},{"properties":{"city":"Wapakoneta","zip":"45895","geo_score":1.0,"id":"abo40soodnaz","address":"08787 Washington Pike","geo_precision":"range","state":"OH"},"type":"Feature","geometry":{"type":"Point","coordinates":[-84.282162,40.540475]}},{"properties":{"city":"New Knoxville","zip":"45871","geo_score":1.0,"id":"abo40spaw3e4","address":"216 W Spring St","geo_precision":"range","state":"OH"},"type":"Feature","geometry":{"type":"Point","coordinates":[-84.318855,40.495729]}},{"properties":{"city":"Sidney","zip":"45365","geo_score":1.0,"id":"abo40t1n3ru3","address":"2533 Apache dr","geo_precision":"range","state":"OH"},"type":"Feature","geometry":{"type":"Point","coordinates":[-84.191316,40.283152]}},{"properties":{"city":"New Bremen","zip":"45869","geo_score":0.991,"id":"abo40t05thfc","address":"20 N Walnut St","geo_precision":"range","state":"OH"},"type":"Feature","geometry":{"type":"Point","coordinates":[-84.378804,40.437852]}},{"properties":{"city":"New Knoxville","zip":"45871","geo_score":0.902,"id":"abo40so8fxwg","address":"06874 Clover Leaf Rd.","geo_precision":"range","state":"OH"},"type":"Feature","geometry":{"type":"Point","coordinates":[-84.331962,40.525117]}},{"properties":{"city":"Sidney","zip":"45365","geo_score":0.814,"id":"abo40ss4ps6a","address":"1320 Tully Dr","geo_precision":"street","state":"OH"},"type":"Feature","geometry":{"type":"Point","coordinates":[-84.176979,40.299312]}},{"properties":{"city":"Fort Loramie","zip":"45845","geo_score":1.0,"id":"abo40sobbhl2","address":"20 Miami St","geo_precision":"range","state":"OH"},"type":"Feature","geometry":{"type":"Point","coordinates":[-84.370503,40.345059]}},{"properties":{"city":"New Knoxville","zip":"45871","geo_score":0.877,"id":"abo40sq75vdv","address":"19100 E Shelby Rd Unit 26","geo_precision":"range","state":"OH"},"type":"Feature","geometry":{"type":"Point","coordinates":[-84.339142,40.476436]}},{"properties":{"city":"Sidney","zip":"45365","geo_score":1.0,"id":"abo40svy8cl4","address":"1818 Robert Pl","geo_precision":"range","state":"OH"},"type":"Feature","geometry":{"type":"Point","coordinates":[-84.185472,40.283708]}},{"properties":{"city":"Sidney","zip":"45365","geo_score":1.0,"id":"abo40snw058h","address":"1130 Hawthorne Dr","geo_precision":"range","state":"OH"},"type":"Feature","geometry":{"type":"Point","coordinates":[-84.167954,40.272238]}},{"properties":{"city":"Sidney","zip":"45365","geo_score":0.512,"id":"abo40svdw00s","address":"1670 Cumberland Ave","geo_precision":"street","state":"OH"},"type":"Feature","geometry":{"type":"Point","coordinates":[-84.549758,39.853954]}},{"properties":{"city":"Botkins","zip":"45306","geo_score":0.684,"id":"abo40t1vj1mz","address":"405 Debra Dr","geo_precision":"street","state":"OH"},"type":"Feature","geometry":{"type":"Point","coordinates":[-84.184478,40.471495]}},{"properties":{"city":"Ft Loramie","zip":"45845","geo_score":0.984,"id":"abo40svhjpjq","address":"21 Miami St","geo_precision":"range","state":"OH"},"type":"Feature","geometry":{"type":"Point","coordinates":[-84.370536,40.345208]}},{"properties":{"city":"Botkins","zip":"45306","geo_score":0.553,"id":"abo40srfn2d3","address":"101 Meadow Dr Apt 1","geo_precision":"street","state":"OH"},"type":"Feature","geometry":{"type":"Point","coordinates":[-84.176994,40.466678]}},{"properties":{"city":"Botkins","zip":"45306","geo_score":0.902,"id":"abo40sui7q51","address":"101 E State St","geo_precision":"street","state":"OH"},"type":"Feature","geometry":{"type":"Point","coordinates":[-84.181129,40.467777]}},{"properties":{"city":"New Bremen","zip":"45869","geo_score":1.0,"id":"abo40t0w6x4r","address":"408 E Front St","geo_precision":"range","state":"OH"},"type":"Feature","geometry":{"type":"Point","coordinates":[-84.372191,40.435689]}},{"properties":{"city":"New Knoxville","zip":"45871","geo_score":1.0,"id":"abo40srwf85o","address":"5530 Botkins Rd","geo_precision":"range","state":"OH"},"type":"Feature","geometry":{"type":"Point","coordinates":[-84.327345,40.466278]}},{"properties":{"city":"New Knoxville","zip":"45871","geo_score":0.91,"id":"abo40szxmuso","address":"10539 St Rt 219","geo_precision":"range","state":"OH"},"type":"Feature","geometry":{"type":"Point","coordinates":[-84.245157,40.496587]}},{"properties":{"city":"Botkins","zip":"45306","geo_score":0.902,"id":"abo40t2h7irc","address":"305 Spruce St","geo_precision":"range","state":"OH"},"type":"Feature","geometry":{"type":"Point","coordinates":[-84.177262,40.469042]}},{"properties":{"city":"Anna","zip":"45302","geo_score":1.0,"id":"abo40t034pfp","address":"315 Mill St","geo_precision":"range","state":"OH"},"type":"Feature","geometry":{"type":"Point","coordinates":[-84.170128,40.398329]}},{"properties":{"city":"Anna","zip":"45302","geo_score":1.0,"id":"abo40sn8vby3","address":"203 Meadowview Ln","geo_precision":"range","state":"OH"},"type":"Feature","geometry":{"type":"Point","coordinates":[-84.167005,40.397303]}},{"properties":{"city":"New Knoxville","zip":"45871","geo_score":0.89,"id":"abo40sn1s6te","address":"12011 Moulton New Knoxville Rd","geo_precision":"street","state":"OH"},"type":"Feature","geometry":{"type":"Point","coordinates":[-84.297449,40.525584]}},{"properties":{"city":"New Bremen","zip":"45869","geo_score":1.0,"id":"abo40ss0f6vt","address":"324 Canal St","geo_precision":"range","state":"OH"},"type":"Feature","geometry":{"type":"Point","coordinates":[-84.380667,40.431656]}},{"properties":{"city":"Minster","zip":"45865","geo_score":0.761,"id":"abo40syosn01","address":"240 Hamilton St","geo_precision":"street","state":"OH"},"type":"Feature","geometry":{"type":"Point","coordinates":[-84.371068,40.39064]}},{"properties":{"city":"Botkins","zip":"45306","geo_score":1.0,"id":"abo40suv2jt0","address":"207 S Main St","geo_precision":"range","state":"OH"},"type":"Feature","geometry":{"type":"Point","coordinates":[-84.181966,40.466341]}},{"properties":{"city":"Sidney","zip":"45365","geo_score":1.0,"id":"abo40snmqb7a","address":"313 Cherokee Dr","geo_precision":"range","state":"OH"},"type":"Feature","geometry":{"type":"Point","coordinates":[-84.189243,40.283316]}},{"properties":{"city":"Ft Loramie","zip":"45845","geo_score":0.984,"id":"abo40sp75v99","address":"3556 Newport Rd","geo_precision":"range","state":"OH"},"type":"Feature","geometry":{"type":"Point","coordinates":[-84.368023,40.295075]}},{"properties":{"city":"Sidney","zip":"45365","geo_score":1.0,"id":"abo40svu8j9b","address":"1010 Juniper Way","geo_precision":"range","state":"OH"},"type":"Feature","geometry":{"type":"Point","coordinates":[-84.180063,40.296646]}},{"properties":{"city":"Sidney","zip":"45365","geo_score":1.0,"id":"abo40su1ikup","address":"1644 Westlake Dr","geo_precision":"range","state":"OH"},"type":"Feature","geometry":{"type":"Point","coordinates":[-84.177177,40.264342]}},{"properties":{"city":"Ft Loramie","zip":"45845","geo_score":0.984,"id":"abo40ssxn191","address":"49 S Main St","geo_precision":"range","state":"OH"},"type":"Feature","geometry":{"type":"Point","coordinates":[-84.375279,40.346484]}},{"properties":{"city":"Ft Loramie","zip":"45845","geo_score":0.984,"id":"abo40surco1o","address":"557 Elizabeth Ct","geo_precision":"range","state":"OH"},"type":"Feature","geometry":{"type":"Point","coordinates":[-84.362222,40.346339]}},{"properties":{"city":"Fort Loramie","zip":"45845","geo_score":1.0,"id":"abo40t18t3vg","address":"281 Monterey Drive","geo_precision":"range","state":"OH"},"type":"Feature","geometry":{"type":"Point","coordinates":[-84.367694,40.343657]}},{"properties":{"city":"Sidney","zip":"45365","geo_score":0.976,"id":"abo40sy7t3v3","address":"1843 Fairoaks Dr","geo_precision":"range","state":"OH"},"type":"Feature","geometry":{"type":"Point","coordinates":[-84.18054,40.294782]}},{"properties":{"city":"Ft Loramie","zip":"45845","geo_score":0.886,"id":"abo40szw0a29","address":"7118 St Rt 66","geo_precision":"range","state":"OH"},"type":"Feature","geometry":{"type":"Point","coordinates":[-84.36875,40.301903]}},{"properties":{"city":"Anna","zip":"45302","geo_score":1.0,"id":"abo40snramsy","address":"207 Meadowview Ln","geo_precision":"range","state":"OH"},"type":"Feature","geometry":{"type":"Point","coordinates":[-84.167004,40.397255]}},{"properties":{"city":"New Knoxville","zip":"45871","geo_score":0.886,"id":"abo40t1cqbbz","address":"19100 E Shelby Rd Rm 208","geo_precision":"range","state":"OH"},"type":"Feature","geometry":{"type":"Point","coordinates":[-84.339142,40.476436]}},{"properties":{"city":"Botkins","zip":"45306","geo_score":1.0,"id":"abo40sp6xwgo","address":"304 W Walnut St","geo_precision":"range","state":"OH"},"type":"Feature","geometry":{"type":"Point","coordinates":[-84.184883,40.4696]}},{"properties":{"city":"Anna","zip":"45302","geo_score":1.0,"id":"abo40t1dp09e","address":"412 E Main St","geo_precision":"range","state":"OH"},"type":"Feature","geometry":{"type":"Point","coordinates":[-84.168956,40.3952]}},{"properties":{"city":"Botkins","zip":"45306","geo_score":1.0,"id":"abo40suq64sc","address":"18120 Roettger Rd","geo_precision":"range","state":"OH"},"type":"Feature","geometry":{"type":"Point","coordinates":[-84.298137,40.464165]}},{"properties":{"city":"New Knoxville","zip":"45871","geo_score":1.0,"id":"abo40soh0yn3","address":"10389 Bay Rd","geo_precision":"range","state":"OH"},"type":"Feature","geometry":{"type":"Point","coordinates":[-84.27852,40.506298]}},{"properties":{"city":"Anna","zip":"45302","geo_score":0.585,"id":"abo40sz3r1t6","address":"211 Peridot Dr","geo_precision":"zip","state":"OH"},"type":"Feature","geometry":{"type":"Point","coordinates":[-84.255781,40.39477]}},{"properties":{"city":"Anna","zip":"45302","geo_score":0.585,"id":"abo40snespac","address":"207 Peridot Dr","geo_precision":"zip","state":"OH"},"type":"Feature","geometry":{"type":"Point","coordinates":[-84.255781,40.39477]}},{"properties":{"city":"Anna","zip":"45302","geo_score":1.0,"id":"abo40srcjus1","address":"308 S Pike St","geo_precision":"range","state":"OH"},"type":"Feature","geometry":{"type":"Point","coordinates":[-84.172967,40.392673]}},{"properties":{"city":"Ft Loramie","zip":"45845","geo_score":0.691,"id":"abo40t2f0h4o","address":"19 1/2 Elm St","geo_precision":"range","state":"OH"},"type":"Feature","geometry":{"type":"Point","coordinates":[-84.374259,40.351538]}},{"properties":{"city":"Ft Loramie","zip":"45845","geo_score":0.984,"id":"abo40srx6zs7","address":"51 Elm St","geo_precision":"range","state":"OH"},"type":"Feature","geometry":{"type":"Point","coordinates":[-84.366699,40.350925]}},{"properties":{"city":"Ft Loramie","zip":"45845","geo_score":0.984,"id":"abo40su9ldvg","address":"74 Eastview Dr","geo_precision":"range","state":"OH"},"type":"Feature","geometry":{"type":"Point","coordinates":[-84.373915,40.345175]}},{"properties":{"city":"Fort Loramie","zip":"45845","geo_score":1.0,"id":"abo40t0cf00i","address":"210 Grandview Dr","geo_precision":"range","state":"OH"},"type":"Feature","geometry":{"type":"Point","coordinates":[-84.369035,40.345798]}},{"properties":{"city":"Fort Loramie","zip":"45845","geo_score":1.0,"id":"abo40sop0rvk","address":"75 Eastview Dr","geo_precision":"range","state":"OH"},"type":"Feature","geometry":{"type":"Point","coordinates":[-84.373799,40.346969]}},{"properties":{"city":"Fort Loramie","zip":"45845","geo_score":1.0,"id":"abo40ssrgxhl","address":"230 Monterey Dr","geo_precision":"range","state":"OH"},"type":"Feature","geometry":{"type":"Point","coordinates":[-84.367852,40.344601]}},{"properties":{"city":"Botkins","zip":"45306","geo_score":1.0,"id":"abo40t0vaozd","address":"7333 Botkins Road","geo_precision":"range","state":"OH"},"type":"Feature","geometry":{"type":"Point","coordinates":[-84.297728,40.466727]}},{"properties":{"city":"New Knoxville","zip":"45871","geo_score":0.902,"id":"abo40sy8d388","address":"401 S East St","geo_precision":"range","state":"OH"},"type":"Feature","geometry":{"type":"Point","coordinates":[-84.314253,40.490955]}},{"properties":{"city":"New Bremen","zip":"45869","geo_score":1.0,"id":"abo40sv5hm3h","address":"142 St Clair Pl","geo_precision":"range","state":"OH"},"type":"Feature","geometry":{"type":"Point","coordinates":[-84.370116,40.442795]}},{"properties":{"city":"Botkins","zip":"45306","geo_score":0.988,"id":"abo40swp072v","address":"202 Warren St","geo_precision":"range","state":"OH"},"type":"Feature","geometry":{"type":"Point","coordinates":[-84.180837,40.464628]}},{"properties":{"city":"Sidney","zip":"45365","geo_score":1.0,"id":"abo40stosib4","address":"817 Taylor Dr","geo_precision":"range","state":"OH"},"type":"Feature","geometry":{"type":"Point","coordinates":[-84.166007,40.271881]}},{"properties":{"city":"New Bremen","zip":"45869","geo_score":0.92,"id":"abo40symy711","address":"320 S Walnut","geo_precision":"range","state":"OH"},"type":"Feature","geometry":{"type":"Point","coordinates":[-84.378204,40.431931]}},{"properties":{"city":"Sidney","zip":"45365","geo_score":1.0,"id":"abo40sndagx4","address":"811 Evergreen Dr","geo_precision":"range","state":"OH"},"type":"Feature","geometry":{"type":"Point","coordinates":[-84.165213,40.272918]}},{"properties":{"city":"Sidney","zip":"45365","geo_score":1.0,"id":"abo40suyzmn4","address":"229 Stewart Dr","geo_precision":"range","state":"OH"},"type":"Feature","geometry":{"type":"Point","coordinates":[-84.186762,40.284409]}},{"properties":{"city":"Ft Loramie","zip":"45845","geo_score":0.984,"id":"abo40svyqteh","address":"39 S Main St","geo_precision":"range","state":"OH"},"type":"Feature","geometry":{"type":"Point","coordinates":[-84.375306,40.347282]}},{"properties":{"city":"Fort Loramie","zip":"45845","geo_score":0.505,"id":"abo40sn0ecww","address":"80 Indian Trail","geo_precision":"street","state":"OH"},"type":"Feature","geometry":{"type":"Point","coordinates":[-84.392055,40.545649]}},{"properties":{"city":"Anna","zip":"45302","geo_score":1.0,"id":"abo40t0sjb42","address":"403 Ruby Ct","geo_precision":"range","state":"OH"},"type":"Feature","geometry":{"type":"Point","coordinates":[-84.174731,40.391108]}},{"properties":{"city":"New Knoxville","zip":"45871","geo_score":1.0,"id":"abo40stq9llp","address":"18989 Roettger Rd","geo_precision":"range","state":"OH"},"type":"Feature","geometry":{"type":"Point","coordinates":[-84.297796,40.470395]}},{"properties":{"city":"Botkins","zip":"45306","geo_score":1.0,"id":"abo40t0h3d7v","address":"212 Edgewood St","geo_precision":"range","state":"OH"},"type":"Feature","geometry":{"type":"Point","coordinates":[-84.183252,40.46374]}},{"properties":{"city":"New Knoxville","zip":"45871","geo_score":0.877,"id":"abo40soq6ajc","address":"19100 E Shelby Rd Unit 13","geo_precision":"range","state":"OH"},"type":"Feature","geometry":{"type":"Point","coordinates":[-84.339142,40.476436]}},{"properties":{"city":"Minster","zip":"45865","geo_score":0.92,"id":"abo40svh1et4","address":"212 Lakewood","geo_precision":"range","state":"OH"},"type":"Feature","geometry":{"type":"Point","coordinates":[-84.372345,40.385796]}},{"properties":{"city":"New Bremen","zip":"45869","geo_score":0.763,"id":"abo40ss4bfv6","address":"6811 Lock Two Rd","geo_precision":"range","state":"OH"},"type":"Feature","geometry":{"type":"Point","coordinates":[-84.33908,40.451033]}},{"properties":{"city":"New Knoxville","zip":"45871","geo_score":1.0,"id":"abo40sniizdz","address":"09350 Bay Rd","geo_precision":"range","state":"OH"},"type":"Feature","geometry":{"type":"Point","coordinates":[-84.27851,40.483695]}},{"properties":{"city":"New Knoxville","zip":"45871","geo_score":1.0,"id":"abo40t1ym94a","address":"09443 Bay Rd","geo_precision":"range","state":"OH"},"type":"Feature","geometry":{"type":"Point","coordinates":[-84.278625,40.487865]}},{"properties":{"city":"New Knoxville","zip":"45871","geo_score":0.882,"id":"abo40sop2vlp","address":"06208 Cloverleaf Rd","geo_precision":"range","state":"OH"},"type":"Feature","geometry":{"type":"Point","coordinates":[-84.322891,40.525257]}},{"properties":{"city":"Sidney","zip":"45365","geo_score":0.976,"id":"abo40su2h87v","address":"1837 Fairoaks DR","geo_precision":"range","state":"OH"},"type":"Feature","geometry":{"type":"Point","coordinates":[-84.18054,40.294979]}},{"properties":{"city":"Anna","zip":"45302","geo_score":0.883,"id":"abo40spcftep","address":"202 E North St","geo_precision":"range","state":"OH"},"type":"Feature","geometry":{"type":"Point","coordinates":[-84.171844,40.396179]}},{"properties":{"city":"Ft Loramie","zip":"45845","geo_score":0.942,"id":"abo40su3zud9","address":"350 E Greenback Rd","geo_precision":"range","state":"OH"},"type":"Feature","geometry":{"type":"Point","coordinates":[-84.362822,40.343322]}},{"properties":{"city":"Botkins","zip":"45306","geo_score":0.875,"id":"abo40t1q2350","address":"329 King St","geo_precision":"range","state":"OH"},"type":"Feature","geometry":{"type":"Point","coordinates":[-84.182496,40.461231]}},{"properties":{"city":"Anna","zip":"45302","geo_score":1.0,"id":"abo40t0k41qa","address":"303 Diamond Dr","geo_precision":"range","state":"OH"},"type":"Feature","geometry":{"type":"Point","coordinates":[-84.176142,40.390196]}},{"properties":{"city":"New Bremen","zip":"45869","geo_score":0.708,"id":"abo40sxeg63t","address":"10348 St Rt 66","geo_precision":"street","state":"OH"},"type":"Feature","geometry":{"type":"Point","coordinates":[-84.377284,40.493905]}},{"properties":{"city":"New Knoxville","zip":"45871","geo_score":1.0,"id":"abo40sw7cy2m","address":"09661 E Shelby Road","geo_precision":"range","state":"OH"},"type":"Feature","geometry":{"type":"Point","coordinates":[-84.33924,40.488358]}},{"properties":{"city":"New Knoxville","zip":"45871","geo_score":0.648,"id":"abo40sw6bjqd","address":"04238 SR 219","geo_precision":"street","state":"OH"},"type":"Feature","geometry":{"type":"Point","coordinates":[-84.352171,40.495263]}},{"properties":{"city":"New Knoxville","zip":"45871","geo_score":0.715,"id":"abo40stqu3sj","address":"04520 St Rt 219","geo_precision":"street","state":"OH"},"type":"Feature","geometry":{"type":"Point","coordinates":[-84.352171,40.495263]}},{"properties":{"city":"New Knoxville","zip":"45871","geo_score":1.0,"id":"abo40swa883r","address":"05071 Henschen Road","geo_precision":"range","state":"OH"},"type":"Feature","geometry":{"type":"Point","coordinates":[-84.352895,40.489652]}},{"properties":{"city":"New Knoxville","zip":"45871","geo_score":0.648,"id":"abo40so4dexc","address":"04247  SR 219","geo_precision":"street","state":"OH"},"type":"Feature","geometry":{"type":"Point","coordinates":[-84.352171,40.495263]}},{"properties":{"city":"New Knoxville","zip":"45871","geo_score":0.842,"id":"abo40stnh3n8","address":"05590 SR 219","geo_precision":"range","state":"OH"},"type":"Feature","geometry":{"type":"Point","coordinates":[-84.347231,40.495301]}},{"properties":{"city":"St Marys","zip":"45885","geo_score":0.973,"id":"abo40t29aww6","address":"10394 Plattner Rd","geo_precision":"range","state":"OH"},"type":"Feature","geometry":{"type":"Point","coordinates":[-84.358279,40.495281]}},{"properties":{"city":"St Marys","zip":"45885","geo_score":0.973,"id":"abo40svpa2be","address":"11168 Plattner Pike","geo_precision":"range","state":"OH"},"type":"Feature","geometry":{"type":"Point","coordinates":[-84.358261,40.51209]}},{"properties":{"city":"Minster","zip":"45865","geo_score":0.937,"id":"abo40svcok92","address":"291 S Frankfort","geo_precision":"range","state":"OH"},"type":"Feature","geometry":{"type":"Point","coordinates":[-84.382404,40.38593]}},{"properties":{"city":"Celina","zip":"45822","geo_score":0.941,"id":"abo40t2g1gtc","address":"1640 Industrial Park","geo_precision":"range","state":"OH"},"type":"Feature","geometry":{"type":"Point","coordinates":[-84.550405,40.558168]}},{"properties":{"city":"Sidney","zip":"45365","geo_score":1.0,"id":"abo40sslvxs7","address":"1215 Evergreen Dr","geo_precision":"range","state":"OH"},"type":"Feature","geometry":{"type":"Point","coordinates":[-84.169149,40.26962]}},{"properties":{"city":"Ft Loramie","zip":"45845","geo_score":0.984,"id":"abo40srxaprx","address":"200 E Park St","geo_precision":"range","state":"OH"},"type":"Feature","geometry":{"type":"Point","coordinates":[-84.36759,40.348583]}},{"properties":{"city":"Fort Loramie","zip":"45845","geo_score":0.585,"id":"abo40sxwimtd","address":"90 Hickory Dr","geo_precision":"zip","state":"OH"},"type":"Feature","geometry":{"type":"Point","coordinates":[-84.369671,40.295881]}},{"properties":{"city":"Sidney","zip":"45365","geo_score":0.977,"id":"abo40szyz49p","address":"1301 Maple Leaf Ct","geo_precision":"range","state":"OH"},"type":"Feature","geometry":{"type":"Point","coordinates":[-84.163633,40.269978]}},{"properties":{"city":"New Bremen","zip":"45869","geo_score":0.772,"id":"abo40sy0ov85","address":"6401 Lock Two Rd","geo_precision":"range","state":"OH"},"type":"Feature","geometry":{"type":"Point","coordinates":[-84.33894,40.442342]}},{"properties":{"city":"New Knoxville","zip":"45871","geo_score":0.886,"id":"abo40t0zmjke","address":"19100 E Shelby Rd RM 226","geo_precision":"range","state":"OH"},"type":"Feature","geometry":{"type":"Point","coordinates":[-84.339142,40.476436]}},{"properties":{"city":"Botkins","zip":"45306","geo_score":0.875,"id":"abo40t2xk7ud","address":"321 King St","geo_precision":"range","state":"OH"},"type":"Feature","geometry":{"type":"Point","coordinates":[-84.182555,40.461866]}},{"properties":{"city":"New Knoxville","zip":"45871","geo_score":1.0,"id":"abo40so3z1o2","address":"08652 Center Rd","geo_precision":"range","state":"OH"},"type":"Feature","geometry":{"type":"Point","coordinates":[-84.279271,40.510962]}},{"properties":{"city":"Anna","zip":"45302","geo_score":0.883,"id":"abo40stdv9bn","address":"105 W North St","geo_precision":"range","state":"OH"},"type":"Feature","geometry":{"type":"Point","coordinates":[-84.174545,40.39619]}},{"properties":{"city":"Sidney","zip":"45365","geo_score":1.0,"id":"abo40szediqd","address":"1106 Evergreen Dr","geo_precision":"range","state":"OH"},"type":"Feature","geometry":{"type":"Point","coordinates":[-84.169395,40.272196]}},{"properties":{"city":"Sidney","zip":"45365","geo_score":0.849,"id":"abo40suqu10f","address":"1621 Wildwood Dr","geo_precision":"street","state":"OH"},"type":"Feature","geometry":{"type":"Point","coordinates":[-84.173577,40.266798]}},{"properties":{"city":"Anna","zip":"45302","geo_score":0.672,"id":"abo40stdeco7","address":"12725 CR 25A","geo_precision":"street","state":"OH"},"type":"Feature","geometry":{"type":"Point","coordinates":[-84.170409,40.372496]}},{"properties":{"city":"Anna","zip":"45302","geo_score":0.927,"id":"abo40t03eqdl","address":"201 Lacey Av","geo_precision":"range","state":"OH"},"type":"Feature","geometry":{"type":"Point","coordinates":[-84.169119,40.397338]}},{"properties":{"city":"Ft Loramie","zip":"45845","geo_score":0.984,"id":"abo40socc1dd","address":"67 Eastview Dr","geo_precision":"range","state":"OH"},"type":"Feature","geometry":{"type":"Point","coordinates":[-84.3738,40.347021]}},{"properties":{"city":"Wapakoneta","zip":"45895","geo_score":1.0,"id":"abo40srpqp1i","address":"12014 Bay Rd","geo_precision":"range","state":"OH"},"type":"Feature","geometry":{"type":"Point","coordinates":[-84.278384,40.52729]}},{"properties":{"city":"Botkins","zip":"45306","geo_score":0.661,"id":"abo40spuhlnt","address":"306 E South St","geo_precision":"street","state":"OH"},"type":"Feature","geometry":{"type":"Point","coordinates":[-84.188377,40.466674]}},{"properties":{"city":"Sidney","zip":"45365","geo_score":0.977,"id":"abo40snvn1fl","address":"1390 Maple Leaf Ct","geo_precision":"range","state":"OH"},"type":"Feature","geometry":{"type":"Point","coordinates":[-84.163096,40.27073]}},{"properties":{"city":"Fort Loramie","zip":"45845","geo_score":1.0,"id":"abo40szfeqdx","address":"19 Water St","geo_precision":"range","state":"OH"},"type":"Feature","geometry":{"type":"Point","coordinates":[-84.376176,40.351123]}},{"properties":{"city":"Anna","zip":"45302","geo_score":0.585,"id":"abo40t2cxzp2","address":"206 Peridot Dr","geo_precision":"zip","state":"OH"},"type":"Feature","geometry":{"type":"Point","coordinates":[-84.255781,40.39477]}},{"properties":{"city":"Ft Loramie","zip":"45845","geo_score":0.984,"id":"abo40sy0acaf","address":"66 Elm St","geo_precision":"range","state":"OH"},"type":"Feature","geometry":{"type":"Point","coordinates":[-84.367826,40.350707]}},{"properties":{"city":"Fort Loramie","zip":"45845","geo_score":1.0,"id":"abo40sqnz2ie","address":"270 Monterey Dr","geo_precision":"range","state":"OH"},"type":"Feature","geometry":{"type":"Point","coordinates":[-84.367845,40.343837]}},{"properties":{"city":"Ft Loramie","zip":"45845","geo_score":0.984,"id":"abo40str8zm2","address":"65 Dogwood Dr","geo_precision":"range","state":"OH"},"type":"Feature","geometry":{"type":"Point","coordinates":[-84.366577,40.346179]}},{"properties":{"city":"Fort Loramie","zip":"45845","geo_score":1.0,"id":"abo40snl8eg3","address":"85 Dogwood Dr","geo_precision":"range","state":"OH"},"type":"Feature","geometry":{"type":"Point","coordinates":[-84.367172,40.346032]}},{"properties":{"city":"New Knoxville","zip":"45871","geo_score":0.897,"id":"abo40surr9xl","address":"19100 E Shelby Rd RM 51","geo_precision":"range","state":"OH"},"type":"Feature","geometry":{"type":"Point","coordinates":[-84.339142,40.476436]}},{"properties":{"city":"New Knoxville","zip":"45871","geo_score":0.415,"id":"abo40t0u1730","address":"19100 E Shelby Rd Rm 125/127","geo_precision":"street","state":"OH"},"type":"Feature","geometry":{"type":"Point","coordinates":[-84.339059,40.458624]}},{"properties":{"city":"Ft Loramie","zip":"45845","geo_score":0.886,"id":"abo40sqhfgzb","address":"6803 Luella St","geo_precision":"street","state":"OH"},"type":"Feature","geometry":{"type":"Point","coordinates":[-84.366119,40.297424]}},{"properties":{"city":"Sidney","zip":"45365","geo_score":0.532,"id":"abo40sqmqx2t","address":"1646 Cumberland Av","geo_precision":"street","state":"OH"},"type":"Feature","geometry":{"type":"Point","coordinates":[-84.549758,39.853954]}},{"properties":{"city":"Fort Loramie","zip":"45845","geo_score":0.829,"id":"abo40sphqr11","address":"9218 SR 66","geo_precision":"range","state":"OH"},"type":"Feature","geometry":{"type":"Point","coordinates":[-84.371887,40.32953]}},{"properties":{"city":"Botkins","zip":"45871","geo_score":0.917,"id":"abo40t0nsam3","address":"109 N Mill St","geo_precision":"range","state":"OH"},"type":"Feature","geometry":{"type":"Point","coordinates":[-84.315411,40.494529]}},{"properties":{"city":"Anna","zip":"45302","geo_score":1.0,"id":"abo40spp82w5","address":"208 Linkensmith Dr","geo_precision":"range","state":"OH"},"type":"Feature","geometry":{"type":"Point","coordinates":[-84.167725,40.397246]}},{"properties":{"city":"Ft Loramie","zip":"45845","geo_score":0.764,"id":"abo40sykkd1a","address":"6915 Ohio 66","geo_precision":"range","state":"OH"},"type":"Feature","geometry":{"type":"Point","coordinates":[-84.36879,40.298769]}},{"properties":{"city":"Anna","zip":"45302","geo_score":0.883,"id":"abo40sz50myv","address":"506 E North St","geo_precision":"range","state":"OH"},"type":"Feature","geometry":{"type":"Point","coordinates":[-84.16631,40.396109]}},{"properties":{"city":"Sidney","zip":"45365","geo_score":1.0,"id":"abo40t10dzi2","address":"305 S VanDemark Rd","geo_precision":"range","state":"OH"},"type":"Feature","geometry":{"type":"Point","coordinates":[-84.188035,40.283454]}},{"properties":{"city":"Botkins","zip":"45306","geo_score":0.661,"id":"abo40ssebx6s","address":"304 E South St","geo_precision":"street","state":"OH"},"type":"Feature","geometry":{"type":"Point","coordinates":[-84.188377,40.466674]}},{"properties":{"city":"Ft Loramie","zip":"45845","geo_score":0.984,"id":"abo40sp06e4c","address":"60 S Main St","geo_precision":"range","state":"OH"},"type":"Feature","geometry":{"type":"Point","coordinates":[-84.375471,40.348244]}},{"properties":{"city":"New Knoxville","zip":"45871","geo_score":0.979,"id":"abo40svl3xg6","address":"06851 Cloverleaf Rd","geo_precision":"range","state":"OH"},"type":"Feature","geometry":{"type":"Point","coordinates":[-84.321125,40.525352]}},{"properties":{"city":"Botkins","zip":"45306","geo_score":1.0,"id":"abo40sswjj53","address":"416 E State St","geo_precision":"range","state":"OH"},"type":"Feature","geometry":{"type":"Point","coordinates":[-84.174843,40.467853]}},{"properties":{"city":"Ft Loramie","zip":"45845","geo_score":0.57,"id":"abo40t1osaov","address":"11400 Ohio 66","geo_precision":"street","state":"OH"},"type":"Feature","geometry":{"type":"Point","coordinates":[-84.373053,40.357217]}},{"properties":{"city":"Fort Loramie","zip":"45845","geo_score":1.0,"id":"abo40sqajxnw","address":"67 S Main St","geo_precision":"range","state":"OH"},"type":"Feature","geometry":{"type":"Point","coordinates":[-84.375244,40.34451]}},{"properties":{"city":"Sidney","zip":"45365","geo_score":1.0,"id":"abo40soj48r5","address":"1360 Amherst Dr","geo_precision":"range","state":"OH"},"type":"Feature","geometry":{"type":"Point","coordinates":[-84.171125,40.269932]}},{"properties":{"city":"Botkins","zip":"45306","geo_score":1.0,"id":"abo40sqse2oj","address":"7230 Botkins Rd","geo_precision":"range","state":"OH"},"type":"Feature","geometry":{"type":"Point","coordinates":[-84.297728,40.466727]}},{"properties":{"city":"Sidney","zip":"45365","geo_score":0.976,"id":"abo40sqdk91v","address":"952 Chestnut Av","geo_precision":"range","state":"OH"},"type":"Feature","geometry":{"type":"Point","coordinates":[-84.161089,40.272884]}},{"properties":{"city":"Anna","zip":"45302","geo_score":1.0,"id":"abo40srw3u4j","address":"210 E Walnut St","geo_precision":"range","state":"OH"},"type":"Feature","geometry":{"type":"Point","coordinates":[-84.169576,40.39741]}},{"properties":{"city":"Sidney","zip":"45365","geo_score":0.935,"id":"abo40spdaj8q","address":"1844 Daniel Dr","geo_precision":"range","state":"OH"},"type":"Feature","geometry":{"type":"Point","coordinates":[-84.186602,40.285904]}},{"properties":{"city":"Botkins","zip":"45306","geo_score":1.0,"id":"abo40sruiktp","address":"407 N Main St","geo_precision":"range","state":"OH"},"type":"Feature","geometry":{"type":"Point","coordinates":[-84.18275,40.472635]}},{"properties":{"city":"Anna","zip":"45302","geo_score":1.0,"id":"abo40sptkpbg","address":"107 N Pike st","geo_precision":"range","state":"OH"},"type":"Feature","geometry":{"type":"Point","coordinates":[-84.173505,40.396175]}},{"properties":{"city":"New Knoxville","zip":"45871","geo_score":0.902,"id":"abo40t04wvfp","address":"09139 Botkins Angle Rd","geo_precision":"street","state":"OH"},"type":"Feature","geometry":{"type":"Point","coordinates":[-84.299857,40.483056]}},{"properties":{"city":"Sidney","zip":"45365","geo_score":0.512,"id":"abo40szazsce","address":"1610 Cumberland Ave","geo_precision":"street","state":"OH"},"type":"Feature","geometry":{"type":"Point","coordinates":[-84.549758,39.853954]}},{"properties":{"city":"Botkins","zip":"45306","geo_score":1.0,"id":"abo40t0d2wne","address":"201 S Main St","geo_precision":"range","state":"OH"},"type":"Feature","geometry":{"type":"Point","coordinates":[-84.181922,40.46667]}},{"properties":{"city":"Anna","zip":"45302","geo_score":0.927,"id":"abo40t2ukvr3","address":"208 N Linden St","geo_precision":"range","state":"OH"},"type":"Feature","geometry":{"type":"Point","coordinates":[-84.171777,40.397247]}},{"properties":{"city":"New Knoxville","zip":"45871","geo_score":1.0,"id":"abo40t0rmz8t","address":"07439 Southland Rd","geo_precision":"range","state":"OH"},"type":"Feature","geometry":{"type":"Point","coordinates":[-84.30695,40.48139]}},{"properties":{"city":"Ft Loramie","zip":"45845","geo_score":0.984,"id":"abo40sxwpifd","address":"3125 Kaiser Rd","geo_precision":"range","state":"OH"},"type":"Feature","geometry":{"type":"Point","coordinates":[-84.377057,40.294335]}},{"properties":{"city":"St Marys","zip":"45885","geo_score":0.876,"id":"abo40t33psk3","address":"10363 St Rt 66","geo_precision":"range","state":"OH"},"type":"Feature","geometry":{"type":"Point","coordinates":[-84.377446,40.5008]}},{"properties":{"city":"St Marys","zip":"45885","geo_score":0.894,"id":"abo40t13o0ds","address":"11859 E Shelby","geo_precision":"range","state":"OH"},"type":"Feature","geometry":{"type":"Point","coordinates":[-84.339152,40.520771]}},{"properties":{"city":"New Bremen","zip":"45869","geo_score":0.585,"id":"abo40t1rzeq7","address":"54 Harlamart Dr","geo_precision":"zip","state":"OH"},"type":"Feature","geometry":{"type":"Point","coordinates":[-84.2145,40.504687]}},{"properties":{"city":"Sidney","zip":"45365","geo_score":1.0,"id":"abo40supq1wr","address":"1417 Westwood Dr","geo_precision":"range","state":"OH"},"type":"Feature","geometry":{"type":"Point","coordinates":[-84.173492,40.265777]}},{"properties":{"city":"Ft Loramie","zip":"45845","geo_score":0.886,"id":"abo40srz0c7o","address":"5 E Lane St","geo_precision":"range","state":"OH"},"type":"Feature","geometry":{"type":"Point","coordinates":[-84.376799,40.347221]}},{"properties":{"city":"Botkins","zip":"45306","geo_score":1.0,"id":"abo40snhcyup","address":"14950 Botkins Rd","geo_precision":"range","state":"OH"},"type":"Feature","geometry":{"type":"Point","coordinates":[-84.156768,40.467824]}},{"properties":{"city":"Botkins","zip":"45306","geo_score":1.0,"id":"abo40smztpsi","address":"103 Mary St","geo_precision":"range","state":"OH"},"type":"Feature","geometry":{"type":"Point","coordinates":[-84.18014,40.465382]}},{"properties":{"city":"New Knoxville","zip":"45871","geo_score":0.944,"id":"abo40sqj51ur","address":"08244 Lutterbeck-Airport","geo_precision":"range","state":"OH"},"type":"Feature","geometry":{"type":"Point","coordinates":[-84.295057,40.492575]}},{"properties":{"city":"Botkins","zip":"45306","geo_score":0.842,"id":"abo40swtwq40","address":"18852 SR 219","geo_precision":"range","state":"OH"},"type":"Feature","geometry":{"type":"Point","coordinates":[-84.182685,40.473171]}},{"properties":{"city":"St Marys","zip":"45885","geo_score":0.876,"id":"abo40sqckkx1","address":"10351 St Rt 66","geo_precision":"range","state":"OH"},"type":"Feature","geometry":{"type":"Point","coordinates":[-84.377448,40.500911]}},{"properties":{"city":"Botkins","zip":"45306","geo_score":0.585,"id":"abo40t156bkl","address":"212 Elic Ct","geo_precision":"zip","state":"OH"},"type":"Feature","geometry":{"type":"Point","coordinates":[-84.189245,40.439778]}},{"properties":{"city":"New Knoxville","zip":"45871","geo_score":0.878,"id":"abo40sz06z05","address":"11746 Bay Rd","geo_precision":"range","state":"OH"},"type":"Feature","geometry":{"type":"Point","coordinates":[-84.278589,40.524403]}},{"properties":{"city":"Ft Loramie","zip":"45845","geo_score":0.984,"id":"abo40sv9px6h","address":"10 Louie St","geo_precision":"range","state":"OH"},"type":"Feature","geometry":{"type":"Point","coordinates":[-84.373293,40.347731]}},{"properties":{"city":"Anna","zip":"45302","geo_score":0.829,"id":"abo40sp8lvmj","address":"305 S Second St","geo_precision":"range","state":"OH"},"type":"Feature","geometry":{"type":"Point","coordinates":[-84.176718,40.39186]}},{"properties":{"city":"Ft Loramie","zip":"45845","geo_score":0.849,"id":"abo40t2te1fp","address":"4221 S R 362","geo_precision":"range","state":"OH"},"type":"Feature","geometry":{"type":"Point","coordinates":[-84.358744,40.351654]}},{"properties":{"city":"Sidney","zip":"45365","geo_score":0.986,"id":"abo40sxqjys5","address":"1130 Evergreen Dr","geo_precision":"range","state":"OH"},"type":"Feature","geometry":{"type":"Point","coordinates":[-84.169619,40.271621]}},{"properties":{"city":"Anna","zip":"45302","geo_score":1.0,"id":"abo40sv8s0gr","address":"212 W Main St","geo_precision":"range","state":"OH"},"type":"Feature","geometry":{"type":"Point","coordinates":[-84.175909,40.39517]}},{"properties":{"city":"Sidney","zip":"45365","geo_score":1.0,"id":"abo40suiuxsl","address":"1535 Spruce Ave","geo_precision":"range","state":"OH"},"type":"Feature","geometry":{"type":"Point","coordinates":[-84.169486,40.268601]}},{"properties":{"city":"New Knoxville","zip":"45871","geo_score":0.91,"id":"abo40soriu53","address":"05208 St Rt 219","geo_precision":"range","state":"OH"},"type":"Feature","geometry":{"type":"Point","coordinates":[-84.35648,40.49516]}},{"properties":{"city":"New Bremen","zip":"45869","geo_score":1.0,"id":"abo40t2hb5mr","address":"24 S Herman St","geo_precision":"range","state":"OH"},"type":"Feature","geometry":{"type":"Point","coordinates":[-84.385115,40.436549]}},{"properties":{"city":"New Knoxville","zip":"45871","geo_score":1.0,"id":"abo40ss4jodc","address":"09818 Plattner Rd","geo_precision":"range","state":"OH"},"type":"Feature","geometry":{"type":"Point","coordinates":[-84.358365,40.491614]}},{"properties":{"city":"New Knoxville","zip":"45871","geo_score":1.0,"id":"abo40ssjutsm","address":"207 Botkins Angle Rd","geo_precision":"range","state":"OH"},"type":"Feature","geometry":{"type":"Point","coordinates":[-84.315424,40.489763]}},{"properties":{"city":"New Knoxville","zip":"45871","geo_score":0.684,"id":"abo40t2258yt","address":"04687 Southland Rd","geo_precision":"street","state":"OH"},"type":"Feature","geometry":{"type":"Point","coordinates":[-84.350084,40.480689]}},{"properties":{"city":"New Knoxville","zip":"45871","geo_score":1.0,"id":"abo40swfd0h6","address":"05051 Henschen Rd","geo_precision":"range","state":"OH"},"type":"Feature","geometry":{"type":"Point","coordinates":[-84.352952,40.489726]}},{"properties":{"city":"New Knoxville","zip":"45871","geo_score":1.0,"id":"abo40ssn8ath","address":"18901 Fledderjohn Rd","geo_precision":"range","state":"OH"},"type":"Feature","geometry":{"type":"Point","coordinates":[-84.293526,40.478982]}},{"properties":{"city":"New Bremen","zip":"45869","geo_score":1.0,"id":"abo40szwwvfm","address":"515 N Main St","geo_precision":"range","state":"OH"},"type":"Feature","geometry":{"type":"Point","coordinates":[-84.38287,40.444116]}},{"properties":{"city":"Minster","zip":"45865","geo_score":1.0,"id":"abo40sppyy9f","address":"260 S Main St","geo_precision":"range","state":"OH"},"type":"Feature","geometry":{"type":"Point","coordinates":[-84.376614,40.38669]}},{"properties":{"city":"Anna","zip":"45302","geo_score":1.0,"id":"abo40suh1h2w","address":"204 Linkensmith Dr","geo_precision":"range","state":"OH"},"type":"Feature","geometry":{"type":"Point","coordinates":[-84.167725,40.397294]}},{"properties":{"city":"Sidney","zip":"45365","geo_score":1.0,"id":"abo40swm7lrl","address":"1466 N Kuther Rd","geo_precision":"range","state":"OH"},"type":"Feature","geometry":{"type":"Point","coordinates":[-84.207693,40.295499]}},{"properties":{"city":"Fort Loramie","zip":"45845","geo_score":0.78,"id":"abo40su2gq7y","address":"6682 SR 66 Apt D","geo_precision":"range","state":"OH"},"type":"Feature","geometry":{"type":"Point","coordinates":[-84.369923,40.295285]}},{"properties":{"city":"Anna","zip":"45302","geo_score":0.585,"id":"abo40sn8vzm3","address":"302 Onyx Dr","geo_precision":"zip","state":"OH"},"type":"Feature","geometry":{"type":"Point","coordinates":[-84.255781,40.39477]}},{"properties":{"city":"Ft Loramie","zip":"45845","geo_score":0.942,"id":"abo40sp6rfnf","address":"19 E Greenback Rd","geo_precision":"range","state":"OH"},"type":"Feature","geometry":{"type":"Point","coordinates":[-84.368904,40.343275]}},{"properties":{"city":"Anna","zip":"45302","geo_score":0.585,"id":"abo40snmkr1n","address":"105 Peridot Dr","geo_precision":"zip","state":"OH"},"type":"Feature","geometry":{"type":"Point","coordinates":[-84.255781,40.39477]}},{"properties":{"city":"Anna","zip":"45302","geo_score":1.0,"id":"abo40sy4e89g","address":"104 E Main St","geo_precision":"range","state":"OH"},"type":"Feature","geometry":{"type":"Point","coordinates":[-84.172676,40.395133]}},{"properties":{"city":"Ft Loramie","zip":"45845","geo_score":0.984,"id":"abo40sqg3vqj","address":"549 Elizabeth Ct","geo_precision":"range","state":"OH"},"type":"Feature","geometry":{"type":"Point","coordinates":[-84.362385,40.346529]}},{"properties":{"city":"Ft Loramie","zip":"45845","geo_score":0.984,"id":"abo40sw7m5xg","address":"231 Grandview Dr","geo_precision":"range","state":"OH"},"type":"Feature","geometry":{"type":"Point","coordinates":[-84.368861,40.345236]}},{"properties":{"city":"New Knoxville","zip":"45871","geo_score":0.91,"id":"abo40sz8segm","address":"10506 St Rt 219","geo_precision":"range","state":"OH"},"type":"Feature","geometry":{"type":"Point","coordinates":[-84.245157,40.496587]}},{"properties":{"city":"New Bremen","zip":"45869","geo_score":1.0,"id":"abo40szlye0g","address":"111 W Plum St","geo_precision":"range","state":"OH"},"type":"Feature","geometry":{"type":"Point","coordinates":[-84.38286,40.4336]}},{"properties":{"city":"Fort Loramie","zip":"45845","geo_score":0.902,"id":"abo40strhs7d","address":"14 E Lane St","geo_precision":"range","state":"OH"},"type":"Feature","geometry":{"type":"Point","coordinates":[-84.376701,40.347058]}},{"properties":{"city":"Sidney","zip":"45365","geo_score":1.0,"id":"abo40t2mzqy3","address":"621 Greenacre St","geo_precision":"range","state":"OH"},"type":"Feature","geometry":{"type":"Point","coordinates":[-84.16291,40.273378]}},{"properties":{"city":"St Marys","zip":"45885","geo_score":0.973,"id":"abo40stai92l","address":"11342 E Shelby Rd","geo_precision":"range","state":"OH"},"type":"Feature","geometry":{"type":"Point","coordinates":[-84.339001,40.511797]}},{"properties":{"city":"New Knoxville","zip":"45871","geo_score":0.784,"id":"abo40sq9pc8d","address":"07344 Cloverleaf Rd","geo_precision":"street","state":"OH"},"type":"Feature","geometry":{"type":"Point","coordinates":[-84.297449,40.525584]}},{"properties":{"city":"St Marys","zip":"45885","geo_score":0.973,"id":"abo40so637w2","address":"12107 East Shelby Rd","geo_precision":"range","state":"OH"},"type":"Feature","geometry":{"type":"Point","coordinates":[-84.339147,40.524472]}},{"properties":{"city":"Sidney","zip":"45365","geo_score":1.0,"id":"abo40t2y1y9s","address":"417 Folkerth Ave","geo_precision":"range","state":"OH"},"type":"Feature","geometry":{"type":"Point","coordinates":[-84.185177,40.289745]}},{"properties":{"city":"Sidney","zip":"45365","geo_score":1.0,"id":"abo40t06wxg4","address":"1620 Holly Pl","geo_precision":"range","state":"OH"},"type":"Feature","geometry":{"type":"Point","coordinates":[-84.179851,40.297893]}},{"properties":{"city":"New Knoxville","zip":"45871","geo_score":0.902,"id":"abo40swq9vai","address":"8607 Botkins Rd","geo_precision":"range","state":"OH"},"type":"Feature","geometry":{"type":"Point","coordinates":[-84.278477,40.466989]}},{"properties":{"city":"New Knoxville","zip":"45871","geo_score":0.902,"id":"abo40sp22g9h","address":"8551 Botkins Rd","geo_precision":"range","state":"OH"},"type":"Feature","geometry":{"type":"Point","coordinates":[-84.276519,40.466994]}},{"properties":{"city":"New Knoxville","zip":"45871","geo_score":0.801,"id":"abo40solfqbu","address":"11873 Glynwood","geo_precision":"range","state":"OH"},"type":"Feature","geometry":{"type":"Point","coordinates":[-84.316669,40.523305]}},{"properties":{"city":"New Knoxville","zip":"45871","geo_score":0.886,"id":"abo40snp7lv9","address":"19100 E Shelby Rd Unit 9","geo_precision":"range","state":"OH"},"type":"Feature","geometry":{"type":"Point","coordinates":[-84.339142,40.476436]}},{"properties":{"city":"Sidney","zip":"45365","geo_score":1.0,"id":"abo40suoi9bn","address":"1758 Shawnee Dr","geo_precision":"range","state":"OH"},"type":"Feature","geometry":{"type":"Point","coordinates":[-84.188244,40.285142]}},{"properties":{"city":"Ft Loramie","zip":"45845","geo_score":0.984,"id":"abo40soppytp","address":"260 Monterey Dr","geo_precision":"range","state":"OH"},"type":"Feature","geometry":{"type":"Point","coordinates":[-84.367847,40.344028]}},{"properties":{"city":"St Marys","zip":"45885","geo_score":0.811,"id":"abo40t1afdrh","address":"10057 Sr 66","geo_precision":"range","state":"OH"},"type":"Feature","geometry":{"type":"Point","coordinates":[-84.395461,40.499436]}},{"properties":{"city":"Ft Loramie","zip":"45845","geo_score":0.984,"id":"abo40t2dt6hz","address":"290 Monterey Dr","geo_precision":"range","state":"OH"},"type":"Feature","geometry":{"type":"Point","coordinates":[-84.367842,40.343455]}},{"properties":{"city":"Ft Loramie","zip":"45845","geo_score":0.984,"id":"abo40spog9bw","address":"44 S Main St","geo_precision":"range","state":"OH"},"type":"Feature","geometry":{"type":"Point","coordinates":[-84.375478,40.348709]}},{"properties":{"city":"Ft Loramie","zip":"45845","geo_score":0.886,"id":"abo40stdbr3n","address":"8891 St Rt 66","geo_precision":"range","state":"OH"},"type":"Feature","geometry":{"type":"Point","coordinates":[-84.371388,40.327046]}},{"properties":{"city":"Minster","zip":"45865","geo_score":0.65,"id":"abo40t0sya4n","address":"02570 SR 362","geo_precision":"street","state":"OH"},"type":"Feature","geometry":{"type":"Point","coordinates":[-84.360937,40.384693]}},{"properties":{"city":"Sidney","zip":"45365","geo_score":0.81,"id":"abo40t6m8kdo","address":"1734 Westlake Dr","geo_precision":"street","state":"OH"},"type":"Feature","geometry":{"type":"Point","coordinates":[-84.177168,40.264922]}},{"properties":{"city":"Sidney","zip":"45365","geo_score":0.971,"id":"abo40tc3hppl","address":"1256 Spruce Av","geo_precision":"range","state":"OH"},"type":"Feature","geometry":{"type":"Point","coordinates":[-84.165432,40.269947]}},{"properties":{"city":"Wapakoneta","zip":"45895","geo_score":0.902,"id":"abo40tbwq6oz","address":"09046 CR 25A","geo_precision":"range","state":"OH"},"type":"Feature","geometry":{"type":"Point","coordinates":[-84.183967,40.482326]}},{"properties":{"city":"Minster","zip":"45865","geo_score":0.927,"id":"abo40t76spw7","address":"40 W Fifth St","geo_precision":"range","state":"OH"},"type":"Feature","geometry":{"type":"Point","coordinates":[-84.38068,40.395483]}},{"properties":{"city":"New Knoxville","zip":"45871","geo_score":0.886,"id":"abo40tftzmst","address":"19100 E Shelby Rd Unit 5","geo_precision":"range","state":"OH"},"type":"Feature","geometry":{"type":"Point","coordinates":[-84.339142,40.476436]}},{"properties":{"city":"Sidney","zip":"45365","geo_score":1.0,"id":"abo40t50f6qn","address":"1869 Shawnee Dr","geo_precision":"range","state":"OH"},"type":"Feature","geometry":{"type":"Point","coordinates":[-84.189983,40.28505]}},{"properties":{"city":"Botkins","zip":"45306","geo_score":1.0,"id":"abo40tjdk4u1","address":"12530 Botkins Rd","geo_precision":"range","state":"OH"},"type":"Feature","geometry":{"type":"Point","coordinates":[-84.1924,40.467674]}},{"properties":{"city":"Botkins","zip":"45306","geo_score":1.0,"id":"abo40texwivr","address":"8642 Botkins Rd","geo_precision":"range","state":"OH"},"type":"Feature","geometry":{"type":"Point","coordinates":[-84.266998,40.467025]}},{"properties":{"city":"New Bremen","zip":"45869","geo_score":0.401,"id":"abo40tfrack1","address":"604 Fox St","geo_precision":"street","state":"OH"},"type":"Feature","geometry":{"type":"Point","coordinates":[-84.425423,40.622513]}},{"properties":{"city":"New Knoxville","zip":"45871","geo_score":1.0,"id":"abo40t6rqcyh","address":"09011 Southland Rd","geo_precision":"range","state":"OH"},"type":"Feature","geometry":{"type":"Point","coordinates":[-84.278318,40.481739]}},{"properties":{"city":"New Knoxville","zip":"45871","geo_score":1.0,"id":"abo40tbio3mn","address":"09175 Southland Rd","geo_precision":"range","state":"OH"},"type":"Feature","geometry":{"type":"Point","coordinates":[-84.27386,40.481693]}},{"properties":{"city":"Anna","zip":"45306","geo_score":0.916,"id":"abo40tb0cxoq","address":"203 E Walnut St","geo_precision":"range","state":"OH"},"type":"Feature","geometry":{"type":"Point","coordinates":[-84.178572,40.469708]}},{"properties":{"city":"Botkins","zip":"45306","geo_score":0.871,"id":"abo40t9qiyrw","address":"16488 Co Rd 25 A","geo_precision":"range","state":"OH"},"type":"Feature","geometry":{"type":"Point","coordinates":[-84.178356,40.43827]}},{"properties":{"city":"New Knoxville","zip":"45871","geo_score":0.897,"id":"abo40tik5yco","address":"19100 E Shelby Rd Rm 53","geo_precision":"range","state":"OH"},"type":"Feature","geometry":{"type":"Point","coordinates":[-84.339142,40.476436]}},{"properties":{"city":"Ft Loramie","zip":"45845","geo_score":0.984,"id":"abo40t9j4uex","address":"3533 Vera St","geo_precision":"range","state":"OH"},"type":"Feature","geometry":{"type":"Point","coordinates":[-84.368637,40.29938]}},{"properties":{"city":"Botkins","zip":"45306","geo_score":1.0,"id":"abo40tj3aif5","address":"323 S Main St","geo_precision":"range","state":"OH"},"type":"Feature","geometry":{"type":"Point","coordinates":[-84.181459,40.462161]}},{"properties":{"city":"Anna","zip":"45302","geo_score":0.902,"id":"abo40tfdsvrm","address":"408 Millette Ave","geo_precision":"range","state":"OH"},"type":"Feature","geometry":{"type":"Point","coordinates":[-84.16952,40.399613]}},{"properties":{"city":"Botkins","zip":"45306","geo_score":1.0,"id":"abo40th8qof6","address":"403 S Main St","geo_precision":"range","state":"OH"},"type":"Feature","geometry":{"type":"Point","coordinates":[-84.181254,40.460481]}},{"properties":{"city":"New Knoxville","zip":"45871","geo_score":0.878,"id":"abo40tdrcdg8","address":"05347 Southland Road","geo_precision":"range","state":"OH"},"type":"Feature","geometry":{"type":"Point","coordinates":[-84.357527,40.480568]}},{"properties":{"city":"New Knoxville","zip":"45871","geo_score":0.902,"id":"abo40tdbwk9p","address":"10703 St Rt 29","geo_precision":"range","state":"OH"},"type":"Feature","geometry":{"type":"Point","coordinates":[-84.316861,40.505612]}},{"properties":{"city":"New Knoxville","zip":"45871","geo_score":0.877,"id":"abo40t3vcmq0","address":"19100 E Shelby Rd Unit 17","geo_precision":"range","state":"OH"},"type":"Feature","geometry":{"type":"Point","coordinates":[-84.339142,40.476436]}},{"properties":{"city":"Sidney","zip":"45365","geo_score":0.902,"id":"abo40tjpwy5s","address":"1529 Westwood Dr","geo_precision":"street","state":"OH"},"type":"Feature","geometry":{"type":"Point","coordinates":[-84.17219,40.271793]}},{"properties":{"city":"Sidney","zip":"45365","geo_score":0.902,"id":"abo40tdy7gi6","address":"500 N Vandemark Rd Apt 26","geo_precision":"range","state":"OH"},"type":"Feature","geometry":{"type":"Point","coordinates":[-84.187823,40.290835]}},{"properties":{"city":"Sidney","zip":"45365","geo_score":0.532,"id":"abo40t6b09tb","address":"1682 Cumberland Av","geo_precision":"street","state":"OH"},"type":"Feature","geometry":{"type":"Point","coordinates":[-84.549758,39.853954]}},{"properties":{"city":"Minster","zip":"45865","geo_score":0.92,"id":"abo40tdvac5r","address":"116 Lakewood","geo_precision":"range","state":"OH"},"type":"Feature","geometry":{"type":"Point","coordinates":[-84.372253,40.390336]}},{"properties":{"city":"New Knoxville","zip":"45871","geo_score":0.715,"id":"abo40tj4fs0v","address":"11932 St Rt 219","geo_precision":"street","state":"OH"},"type":"Feature","geometry":{"type":"Point","coordinates":[-84.231585,40.496679]}},{"properties":{"city":"New Knoxville","zip":"45871","geo_score":0.979,"id":"abo40tcejvl0","address":"07764 Cloverleaf Rd","geo_precision":"range","state":"OH"},"type":"Feature","geometry":{"type":"Point","coordinates":[-84.297707,40.525507]}},{"properties":{"city":"Minster","zip":"45865","geo_score":1.0,"id":"abo40texudcg","address":"260 S Garfield St","geo_precision":"range","state":"OH"},"type":"Feature","geometry":{"type":"Point","coordinates":[-84.374746,40.386702]}},{"properties":{"city":"New Knoxville","zip":"45871","geo_score":0.902,"id":"abo40tjak6cd","address":"11924 St Rt 29","geo_precision":"range","state":"OH"},"type":"Feature","geometry":{"type":"Point","coordinates":[-84.334008,40.523035]}},{"properties":{"city":"Sidney","zip":"45365","geo_score":1.0,"id":"abo40t6iee51","address":"1841 Shawnee Dr","geo_precision":"range","state":"OH"},"type":"Feature","geometry":{"type":"Point","coordinates":[-84.190502,40.285047]}},{"properties":{"city":"New Knoxville","zip":"45871","geo_score":0.902,"id":"abo40t94yflx","address":"11874 St Rt 29","geo_precision":"range","state":"OH"},"type":"Feature","geometry":{"type":"Point","coordinates":[-84.334591,40.523749]}},{"properties":{"city":"Botkins","zip":"45306","geo_score":1.0,"id":"abo40tchp6bx","address":"301 W Walnut St","geo_precision":"range","state":"OH"},"type":"Feature","geometry":{"type":"Point","coordinates":[-84.184463,40.469539]}},{"properties":{"city":"Fort Loramie","zip":"45845","geo_score":0.829,"id":"abo40te3r8mb","address":"6621 SR 66","geo_precision":"range","state":"OH"},"type":"Feature","geometry":{"type":"Point","coordinates":[-84.370617,40.294258]}},{"properties":{"city":"Anna","zip":"45302","geo_score":0.752,"id":"abo40tgmrr7v","address":"15600 Co Rd 25A","geo_precision":"street","state":"OH"},"type":"Feature","geometry":{"type":"Point","coordinates":[-84.170409,40.372496]}},{"properties":{"city":"New Bremen","zip":"45869","geo_score":0.902,"id":"abo40t7ifzh2","address":"23 Circle Dr","geo_precision":"range","state":"OH"},"type":"Feature","geometry":{"type":"Point","coordinates":[-84.373865,40.438125]}},{"properties":{"city":"Sidney","zip":"45365","geo_score":1.0,"id":"abo40tgaawhv","address":"1478 N Kuther Rd","geo_precision":"range","state":"OH"},"type":"Feature","geometry":{"type":"Point","coordinates":[-84.207681,40.295067]}},{"properties":{"city":"Botkins","zip":"45306","geo_score":0.902,"id":"abo40tjbho4q","address":"303 Spruce St","geo_precision":"range","state":"OH"},"type":"Feature","geometry":{"type":"Point","coordinates":[-84.177048,40.46904]}},{"properties":{"city":"Botkins","zip":"45306","geo_score":1.0,"id":"abo40t9pccrn","address":"13992 Botkins Rd","geo_precision":"range","state":"OH"},"type":"Feature","geometry":{"type":"Point","coordinates":[-84.162924,40.467777]}},{"properties":{"city":"Botkins","zip":"45306","geo_score":0.777,"id":"abo40t8107wf","address":"328 King St","geo_precision":"street","state":"OH"},"type":"Feature","geometry":{"type":"Point","coordinates":[-84.182341,40.460761]}},{"properties":{"city":"Ft Loramie","zip":"45845","geo_score":0.886,"id":"abo40t51rndo","address":"7741 St Rt 66","geo_precision":"range","state":"OH"},"type":"Feature","geometry":{"type":"Point","coordinates":[-84.370301,40.309981]}},{"properties":{"city":"Botkins","zip":"45306","geo_score":0.806,"id":"abo40tiztmhf","address":"115 Roth St","geo_precision":"street","state":"OH"},"type":"Feature","geometry":{"type":"Point","coordinates":[-84.184478,40.471495]}},{"properties":{"city":"Botkins","zip":"45306","geo_score":0.684,"id":"abo40th2yr00","address":"411 Debra Dr","geo_precision":"street","state":"OH"},"type":"Feature","geometry":{"type":"Point","coordinates":[-84.184478,40.471495]}},{"properties":{"city":"Ft Loramie","zip":"45845","geo_score":0.984,"id":"abo40t3zums9","address":"85 S Main St","geo_precision":"range","state":"OH"},"type":"Feature","geometry":{"type":"Point","coordinates":[-84.375198,40.343193]}},{"properties":{"city":"Ft Loramie","zip":"45845","geo_score":0.984,"id":"abo40t4ikn4v","address":"3190 Kaiser Rd","geo_precision":"range","state":"OH"},"type":"Feature","geometry":{"type":"Point","coordinates":[-84.37714,40.292059]}},{"properties":{"city":"Ft Loramie","zip":"45845","geo_score":0.984,"id":"abo40t9cefxl","address":"565 Elizabeth Ct","geo_precision":"range","state":"OH"},"type":"Feature","geometry":{"type":"Point","coordinates":[-84.362058,40.34615]}},{"properties":{"city":"Sidney","zip":"45365","geo_score":0.626,"id":"abo40t7a7b7e","address":"242 Sherri Ann AC","geo_precision":"street","state":"OH"},"type":"Feature","geometry":{"type":"Point","coordinates":[-84.160041,40.275897]}},{"properties":{"city":"Sidney","zip":"45365","geo_score":1.0,"id":"abo40tfc7n1j","address":"1194 Rees Dr","geo_precision":"range","state":"OH"},"type":"Feature","geometry":{"type":"Point","coordinates":[-84.177547,40.299376]}},{"properties":{"city":"Sidney","zip":"45365","geo_score":1.0,"id":"abo40tawbc6i","address":"1302 Westwood Dr","geo_precision":"range","state":"OH"},"type":"Feature","geometry":{"type":"Point","coordinates":[-84.171667,40.269641]}},{"properties":{"city":"Minster","zip":"45865","geo_score":1.0,"id":"abo40t4znk9c","address":"96 N Frankfort St","geo_precision":"range","state":"OH"},"type":"Feature","geometry":{"type":"Point","coordinates":[-84.382232,40.39342]}},{"properties":{"city":"Wapakoneta","zip":"45895","geo_score":0.91,"id":"abo40t605q4j","address":"9424 St Rt 219","geo_precision":"range","state":"OH"},"type":"Feature","geometry":{"type":"Point","coordinates":[-84.184842,40.489385]}},{"properties":{"city":"Sidney","zip":"45365","geo_score":1.0,"id":"abo40t6krwy9","address":"1680 Westlake Dr","geo_precision":"range","state":"OH"},"type":"Feature","geometry":{"type":"Point","coordinates":[-84.177136,40.264723]}},{"properties":{"city":"Sidney","zip":"45365","geo_score":1.0,"id":"abo40tf4g607","address":"1280 Tully Dr","geo_precision":"range","state":"OH"},"type":"Feature","geometry":{"type":"Point","coordinates":[-84.177045,40.299493]}},{"properties":{"city":"Botkins","zip":"45306","geo_score":1.0,"id":"abo40t51b0b3","address":"102 W Lynn St","geo_precision":"range","state":"OH"},"type":"Feature","geometry":{"type":"Point","coordinates":[-84.182425,40.470745]}},{"properties":{"city":"St Marys","zip":"45885","geo_score":0.973,"id":"abo40t6re84x","address":"10935 E Shelby Rd","geo_precision":"range","state":"OH"},"type":"Feature","geometry":{"type":"Point","coordinates":[-84.339161,40.505997]}},{"properties":{"city":"Botkins","zip":"45306","geo_score":0.878,"id":"abo40td3769n","address":"103 Debra Dr","geo_precision":"range","state":"OH"},"type":"Feature","geometry":{"type":"Point","coordinates":[-84.184715,40.471776]}},{"properties":{"city":"Botkins","zip":"45306","geo_score":1.0,"id":"abo40t8ftldm","address":"405 S Main St","geo_precision":"range","state":"OH"},"type":"Feature","geometry":{"type":"Point","coordinates":[-84.181229,40.460199]}},{"properties":{"city":"Botkins","zip":"45306","geo_score":0.875,"id":"abo40tevpq9v","address":"326 King St","geo_precision":"range","state":"OH"},"type":"Feature","geometry":{"type":"Point","coordinates":[-84.182341,40.460761]}},{"properties":{"city":"Ft Loramie","zip":"45845","geo_score":0.984,"id":"abo40td8m9do","address":"70 S Main St","geo_precision":"range","state":"OH"},"type":"Feature","geometry":{"type":"Point","coordinates":[-84.375466,40.347954]}},{"properties":{"city":"Botkins","zip":"45306","geo_score":0.854,"id":"abo40tihwl6p","address":"402 E South St","geo_precision":"range","state":"OH"},"type":"Feature","geometry":{"type":"Point","coordinates":[-84.188211,40.466749]}},{"properties":{"city":"Botkins","zip":"45306","geo_score":0.883,"id":"abo40tiv1nio","address":"415 W South St","geo_precision":"range","state":"OH"},"type":"Feature","geometry":{"type":"Point","coordinates":[-84.186095,40.466606]}},{"properties":{"city":"New Knoxville","zip":"45871","geo_score":0.979,"id":"abo40t3nf8vi","address":"06797 Cloverleaf Road","geo_precision":"range","state":"OH"},"type":"Feature","geometry":{"type":"Point","coordinates":[-84.316599,40.525408]}},{"properties":{"city":"New Knoxville","zip":"45871","geo_score":0.805,"id":"abo40t4siacz","address":"40685 Knierim Rd","geo_precision":"street","state":"OH"},"type":"Feature","geometry":{"type":"Point","coordinates":[-84.245274,40.518591]}},{"properties":{"city":"New Knoxville","zip":"45871","geo_score":1.0,"id":"abo40tg86qhu","address":"09818 Plattner Rd","geo_precision":"range","state":"OH"},"type":"Feature","geometry":{"type":"Point","coordinates":[-84.358365,40.491614]}},{"properties":{"city":"New Knoxville","zip":"45871","geo_score":1.0,"id":"abo40t64gmaf","address":"10449 Headapohl Rd","geo_precision":"range","state":"OH"},"type":"Feature","geometry":{"type":"Point","coordinates":[-84.249711,40.503986]}},{"properties":{"city":"New Knoxville","zip":"45871","geo_score":0.979,"id":"abo40t6r0cze","address":"06799 Cloverleaf Rd","geo_precision":"range","state":"OH"},"type":"Feature","geometry":{"type":"Point","coordinates":[-84.316599,40.525408]}},{"properties":{"city":"New Knoxville","zip":"45871","geo_score":0.91,"id":"abo40t7tu7jg","address":"08179 St Rt 219","geo_precision":"range","state":"OH"},"type":"Feature","geometry":{"type":"Point","coordinates":[-84.293636,40.496225]}},{"properties":{"city":"New Bremen","zip":"45869","geo_score":0.585,"id":"abo40t4ve3du","address":"27 Harlamert DR","geo_precision":"zip","state":"OH"},"type":"Feature","geometry":{"type":"Point","coordinates":[-84.2145,40.504687]}},{"properties":{"city":"New Knoxville","zip":"45871","geo_score":1.0,"id":"abo40t6caoxn","address":"08011 Wiefenbach Rd","geo_precision":"range","state":"OH"},"type":"Feature","geometry":{"type":"Point","coordinates":[-84.297051,40.527829]}},{"properties":{"city":"New Knoxville","zip":"45871","geo_score":0.709,"id":"abo40t4drtt8","address":"12139 St Rt 29","geo_precision":"street","state":"OH"},"type":"Feature","geometry":{"type":"Point","coordinates":[-84.33292,40.52193]}},{"properties":{"city":"New Bremen","zip":"45869","geo_score":0.902,"id":"abo40te30vh8","address":"6701 CR 66A","geo_precision":"range","state":"OH"},"type":"Feature","geometry":{"type":"Point","coordinates":[-84.387892,40.444637]}},{"properties":{"city":"New Knoxville","zip":"45871","geo_score":1.0,"id":"abo40t4sibrn","address":"10357 Kettlersville Rd","geo_precision":"range","state":"OH"},"type":"Feature","geometry":{"type":"Point","coordinates":[-84.259515,40.502646]}},{"properties":{"city":"New Knoxville","zip":"45871","geo_score":1.0,"id":"abo40t7v8xic","address":"08117 Southland Rd","geo_precision":"range","state":"OH"},"type":"Feature","geometry":{"type":"Point","coordinates":[-84.287672,40.481604]}},{"properties":{"city":"Botkins","zip":"45306","geo_score":0.902,"id":"abo40t52qhav","address":"17185 Roettger Rd","geo_precision":"range","state":"OH"},"type":"Feature","geometry":{"type":"Point","coordinates":[-84.298143,40.452464]}},{"properties":{"city":"New Knoxville","zip":"45871","geo_score":1.0,"id":"abo40t3pm7gu","address":"08117 Southland Rd","geo_precision":"range","state":"OH"},"type":"Feature","geometry":{"type":"Point","coordinates":[-84.287672,40.481604]}},{"properties":{"city":"New Knoxville","zip":"45871","geo_score":1.0,"id":"abo40taa6kj1","address":"08609 Southland Rd","geo_precision":"range","state":"OH"},"type":"Feature","geometry":{"type":"Point","coordinates":[-84.281586,40.481693]}},{"properties":{"city":"Botkins","zip":"45306","geo_score":0.746,"id":"abo40th3dl9c","address":"204 Meadow Dr Apt 1","geo_precision":"range","state":"OH"},"type":"Feature","geometry":{"type":"Point","coordinates":[-84.177064,40.466612]}},{"properties":{"city":"Wapakoneta","zip":"45895","geo_score":0.842,"id":"abo40t67letv","address":"12115 SR 219","geo_precision":"range","state":"OH"},"type":"Feature","geometry":{"type":"Point","coordinates":[-84.212896,40.496848]}},{"properties":{"city":"Ft Loramie","zip":"45845","geo_score":0.942,"id":"abo40tbt7s9t","address":"12 E Greenback Rd","geo_precision":"range","state":"OH"},"type":"Feature","geometry":{"type":"Point","coordinates":[-84.37464,40.343124]}},{"properties":{"city":"Botkins","zip":"45306","geo_score":1.0,"id":"abo40tbmy194","address":"7666 Botkins Rd","geo_precision":"range","state":"OH"},"type":"Feature","geometry":{"type":"Point","coordinates":[-84.283119,40.466861]}},{"properties":{"city":"Sidney","zip":"45365","geo_score":0.927,"id":"abo40tf1i12i","address":"1830 Glenn Dr","geo_precision":"range","state":"OH"},"type":"Feature","geometry":{"type":"Point","coordinates":[-84.185839,40.284556]}},{"properties":{"city":"Ft Loramie","zip":"45845","geo_score":0.984,"id":"abo40t5qzvlv","address":"244 Oakwood Dr","geo_precision":"range","state":"OH"},"type":"Feature","geometry":{"type":"Point","coordinates":[-84.372578,40.343995]}},{"properties":{"city":"Ft Loramie","zip":"45845","geo_score":0.874,"id":"abo40tdlb74i","address":"75 Sawmill Rd Apt C","geo_precision":"range","state":"OH"},"type":"Feature","geometry":{"type":"Point","coordinates":[-84.365209,40.346773]}},{"properties":{"city":"Anna","zip":"45302","geo_score":1.0,"id":"abo40t4r16sz","address":"206 Linkensmith Dr","geo_precision":"range","state":"OH"},"type":"Feature","geometry":{"type":"Point","coordinates":[-84.167725,40.39727]}},{"properties":{"city":"New Knoxville","zip":"45871","geo_score":1.0,"id":"abo40t7jer7c","address":"218 N Main St","geo_precision":"range","state":"OH"},"type":"Feature","geometry":{"type":"Point","coordinates":[-84.316534,40.496783]}},{"properties":{"city":"Botkins","zip":"45306","geo_score":0.585,"id":"abo40t4h8mqs","address":"211 Edgedwood St","geo_precision":"zip","state":"OH"},"type":"Feature","geometry":{"type":"Point","coordinates":[-84.189245,40.439778]}},{"properties":{"city":"Sidney","zip":"45365","geo_score":0.976,"id":"abo40t51pluc","address":"1855 Fairoaks Dr","geo_precision":"range","state":"OH"},"type":"Feature","geometry":{"type":"Point","coordinates":[-84.179238,40.297004]}},{"properties":{"city":"Sidney","zip":"45365","geo_score":1.0,"id":"abo40tb0xlke","address":"1125 Evergreen Dr","geo_precision":"range","state":"OH"},"type":"Feature","geometry":{"type":"Point","coordinates":[-84.16947,40.271765]}},{"properties":{"city":"New Knoxville","zip":"45871","geo_score":0.951,"id":"abo40tauo6ax","address":"11237 Moulton Knoxville Rd","geo_precision":"range","state":"OH"},"type":"Feature","geometry":{"type":"Point","coordinates":[-84.297545,40.511009]}},{"properties":{"city":"New Knoxville","zip":"45871","geo_score":0.91,"id":"abo40tjnv65n","address":"10185 St Rt 219","geo_precision":"range","state":"OH"},"type":"Feature","geometry":{"type":"Point","coordinates":[-84.256795,40.49651]}},{"properties":{"city":"New Knoxville","zip":"45871","geo_score":1.0,"id":"abo40t8ew52t","address":"09228 Bay Road","geo_precision":"range","state":"OH"},"type":"Feature","geometry":{"type":"Point","coordinates":[-84.278506,40.48175]}},{"properties":{"city":"Sidney","zip":"45365","geo_score":1.0,"id":"abo40tfvmmyy","address":"1624 Holly Pl","geo_precision":"range","state":"OH"},"type":"Feature","geometry":{"type":"Point","coordinates":[-84.179826,40.297893]}},{"properties":{"city":"Botkins","zip":"45306","geo_score":1.0,"id":"abo40t5xtj8c","address":"109 Edgewood St","geo_precision":"range","state":"OH"},"type":"Feature","geometry":{"type":"Point","coordinates":[-84.181744,40.463595]}},{"properties":{"city":"Sidney","zip":"45365","geo_score":1.0,"id":"abo40t7kplpk","address":"1014 Spruce Ave","geo_precision":"range","state":"OH"},"type":"Feature","geometry":{"type":"Point","coordinates":[-84.164126,40.273359]}},{"properties":{"city":"Anna","zip":"45302","geo_score":0.883,"id":"abo40tcb1l0c","address":"502 W Main St Apt 1","geo_precision":"range","state":"OH"},"type":"Feature","geometry":{"type":"Point","coordinates":[-84.180865,40.395121]}},{"properties":{"city":"New Knoxville","zip":"45871","geo_score":0.877,"id":"abo40tjr2iic","address":"19100 E Shelby Rd Unit 21","geo_precision":"range","state":"OH"},"type":"Feature","geometry":{"type":"Point","coordinates":[-84.339142,40.476436]}},{"properties":{"city":"Anna","zip":"45302","geo_score":0.585,"id":"abo40tc08hyk","address":"204 Peridot Dr","geo_precision":"zip","state":"OH"},"type":"Feature","geometry":{"type":"Point","coordinates":[-84.255781,40.39477]}},{"properties":{"city":"New Knoxville","zip":"45871","geo_score":0.585,"id":"abo40t5ck38f","address":"19100 E Shelby Rd Rm 163 &amp; 164","geo_precision":"zip","state":"OH"},"type":"Feature","geometry":{"type":"Point","coordinates":[-84.282659,40.496141]}},{"properties":{"city":"New Knoxville","zip":"45871","geo_score":0.886,"id":"abo40thumsro","address":"19100 E Shelby Rd Rm 249","geo_precision":"range","state":"OH"},"type":"Feature","geometry":{"type":"Point","coordinates":[-84.339142,40.476436]}},{"properties":{"city":"Fort Loramie","zip":"45845","geo_score":1.0,"id":"abo40t5fx2gm","address":"124 E Park St","geo_precision":"range","state":"OH"},"type":"Feature","geometry":{"type":"Point","coordinates":[-84.372756,40.349704]}},{"properties":{"city":"Sidney","zip":"45365","geo_score":1.0,"id":"abo40t3mes82","address":"1243 Rees Dr","geo_precision":"range","state":"OH"},"type":"Feature","geometry":{"type":"Point","coordinates":[-84.176049,40.299303]}},{"properties":{"city":"New Knoxville","zip":"45871","geo_score":0.886,"id":"abo40tfug8im","address":"19100 E Shelby Rd Unit 6","geo_precision":"range","state":"OH"},"type":"Feature","geometry":{"type":"Point","coordinates":[-84.339142,40.476436]}},{"properties":{"city":"Sidney","zip":"45365","geo_score":0.894,"id":"abo40tevkzwu","address":"500 N Van Demark Rd Apt 64","geo_precision":"range","state":"OH"},"type":"Feature","geometry":{"type":"Point","coordinates":[-84.187823,40.290835]}},{"properties":{"city":"New Knoxville","zip":"45871","geo_score":0.585,"id":"abo40t4ovhqo","address":"06620 Schultz Rd","geo_precision":"zip","state":"OH"},"type":"Feature","geometry":{"type":"Point","coordinates":[-84.282659,40.496141]}},{"properties":{"city":"Sidney","zip":"45365","geo_score":0.976,"id":"abo40t3xdnnl","address":"1961 Fairoaks Dr","geo_precision":"range","state":"OH"},"type":"Feature","geometry":{"type":"Point","coordinates":[-84.179248,40.298764]}},{"properties":{"city":"Sidney","zip":"45365","geo_score":0.986,"id":"abo40tbzkr5v","address":"1627 Ash Pl","geo_precision":"range","state":"OH"},"type":"Feature","geometry":{"type":"Point","coordinates":[-84.17986,40.298535]}},{"properties":{"city":"New Knoxville","zip":"45871","geo_score":0.805,"id":"abo40tbdbd8x","address":"06292 Washington Pike","geo_precision":"range","state":"OH"},"type":"Feature","geometry":{"type":"Point","coordinates":[-84.330193,40.539938]}},{"properties":{"city":"Ft Loramie","zip":"45845","geo_score":0.789,"id":"abo40t74iwgo","address":"11009 St Rt 66","geo_precision":"range","state":"OH"},"type":"Feature","geometry":{"type":"Point","coordinates":[-84.372995,40.355863]}},{"properties":{"city":"Sidney","zip":"45365","geo_score":1.0,"id":"abo40t7uvckx","address":"1433 Spruce Ave","geo_precision":"range","state":"OH"},"type":"Feature","geometry":{"type":"Point","coordinates":[-84.170577,40.269874]}},{"properties":{"city":"Botkins","zip":"45306","geo_score":1.0,"id":"abo40tedxq2a","address":"7666 Botkins Rd","geo_precision":"range","state":"OH"},"type":"Feature","geometry":{"type":"Point","coordinates":[-84.283119,40.466861]}},{"properties":{"city":"Wapakoneta","zip":"45895","geo_score":0.805,"id":"abo40t9pdayo","address":"09523 CR 25A","geo_precision":"range","state":"OH"},"type":"Feature","geometry":{"type":"Point","coordinates":[-84.185692,40.495932]}},{"properties":{"city":"Botkins","zip":"45306","geo_score":0.66,"id":"abo40t52vfkp","address":"210 E South St","geo_precision":"street","state":"OH"},"type":"Feature","geometry":{"type":"Point","coordinates":[-84.188377,40.466674]}},{"properties":{"city":"Ft Loramie","zip":"45845","geo_score":0.886,"id":"abo40t7d38hd","address":"7100 St Rt 66","geo_precision":"range","state":"OH"},"type":"Feature","geometry":{"type":"Point","coordinates":[-84.368754,40.302353]}},{"properties":{"city":"New Knoxville","zip":"45871","geo_score":0.877,"id":"abo40tbggi7z","address":"19100 E Shelby Rd Unit 15","geo_precision":"range","state":"OH"},"type":"Feature","geometry":{"type":"Point","coordinates":[-84.339142,40.476436]}},{"properties":{"city":"Botkins","zip":"45306","geo_score":1.0,"id":"abo40tb2lpyb","address":"421 E State St","geo_precision":"range","state":"OH"},"type":"Feature","geometry":{"type":"Point","coordinates":[-84.175924,40.467702]}},{"properties":{"city":"Botkins","zip":"45306","geo_score":0.89,"id":"abo40t6016jq","address":"104 Karen Ct","geo_precision":"range","state":"OH"},"type":"Feature","geometry":{"type":"Point","coordinates":[-84.184099,40.472138]}},{"properties":{"city":"Botkins","zip":"45306","geo_score":1.0,"id":"abo40tgwm7d1","address":"105 Gutman St","geo_precision":"range","state":"OH"},"type":"Feature","geometry":{"type":"Point","coordinates":[-84.186101,40.46727]}},{"properties":{"city":"Botkins","zip":"45306","geo_score":0.883,"id":"abo40tgn8rkc","address":"414 W South St","geo_precision":"range","state":"OH"},"type":"Feature","geometry":{"type":"Point","coordinates":[-84.187212,40.466752]}},{"properties":{"city":"Botkins","zip":"45306","geo_score":1.0,"id":"abo40tfy7eod","address":"208 Edgewood St","geo_precision":"range","state":"OH"},"type":"Feature","geometry":{"type":"Point","coordinates":[-84.182876,40.463665]}},{"properties":{"city":"New Knoxville","zip":"45871","geo_score":1.0,"id":"abo40tgvkuwt","address":"6365 Botkins Rd","geo_precision":"range","state":"OH"},"type":"Feature","geometry":{"type":"Point","coordinates":[-84.316477,40.466558]}},{"properties":{"city":"Botkins","zip":"45306","geo_score":1.0,"id":"abo40tbxo34h","address":"202 E State St","geo_precision":"range","state":"OH"},"type":"Feature","geometry":{"type":"Point","coordinates":[-84.179789,40.467863]}},{"properties":{"city":"Anna","zip":"45302","geo_score":1.0,"id":"abo40t9d481o","address":"215 Diamond DR","geo_precision":"range","state":"OH"},"type":"Feature","geometry":{"type":"Point","coordinates":[-84.174902,40.390205]}},{"properties":{"city":"New Knoxville","zip":"45871","geo_score":0.415,"id":"abo40thpx5u2","address":"19100 e shelby rd rm 105/107","geo_precision":"street","state":"OH"},"type":"Feature","geometry":{"type":"Point","coordinates":[-84.339059,40.458624]}},{"properties":{"city":"New Knoxville","zip":"45871","geo_score":0.886,"id":"abo40tcgrcwf","address":"19100 E Shelby Rd RM 259","geo_precision":"range","state":"OH"},"type":"Feature","geometry":{"type":"Point","coordinates":[-84.339142,40.476436]}},{"properties":{"city":"Anna","zip":"45302","geo_score":0.976,"id":"abo40t98lmqk","address":"204 Fairview Av","geo_precision":"range","state":"OH"},"type":"Feature","geometry":{"type":"Point","coordinates":[-84.170785,40.393183]}},{"properties":{"city":"New Knoxville","zip":"45871","geo_score":0.585,"id":"abo40tdpc676","address":"19100 E Shelby Rd Trailer #2","geo_precision":"zip","state":"OH"},"type":"Feature","geometry":{"type":"Point","coordinates":[-84.282659,40.496141]}},{"properties":{"city":"Botkins","zip":"45306","geo_score":0.854,"id":"abo40tk0bazj","address":"106 North St","geo_precision":"range","state":"OH"},"type":"Feature","geometry":{"type":"Point","coordinates":[-84.182594,40.471561]}},{"properties":{"city":"New Knoxville","zip":"45871","geo_score":0.842,"id":"abo40t4474b2","address":"06247 SR 219","geo_precision":"range","state":"OH"},"type":"Feature","geometry":{"type":"Point","coordinates":[-84.329425,40.495835]}},{"properties":{"city":"Ft Loramie","zip":"45845","geo_score":0.942,"id":"abo40t4fl1fs","address":"415 E Greenback Rd","geo_precision":"range","state":"OH"},"type":"Feature","geometry":{"type":"Point","coordinates":[-84.364552,40.343422]}},{"properties":{"city":"Botkins","zip":"45306","geo_score":0.806,"id":"abo40t9wufyh","address":"106 Roth Street","geo_precision":"street","state":"OH"},"type":"Feature","geometry":{"type":"Point","coordinates":[-84.184478,40.471495]}},{"properties":{"city":"Botkins","zip":"45306","geo_score":1.0,"id":"abo40te2utlv","address":"17987 Kettlersville Rd","geo_precision":"range","state":"OH"},"type":"Feature","geometry":{"type":"Point","coordinates":[-84.259842,40.459499]}},{"properties":{"city":"Fort Loramie","zip":"45845","geo_score":0.585,"id":"abo40t7qpr0f","address":"65 Hickory Dr","geo_precision":"zip","state":"OH"},"type":"Feature","geometry":{"type":"Point","coordinates":[-84.369671,40.295881]}},{"properties":{"city":"Sidney","zip":"45365","geo_score":1.0,"id":"abo40tcyp8s0","address":"1741 N Kuther Rd","geo_precision":"range","state":"OH"},"type":"Feature","geometry":{"type":"Point","coordinates":[-84.20825,40.310558]}},{"properties":{"city":"Botkins","zip":"45306","geo_score":0.619,"id":"abo40tcwdf0q","address":"103 N. Main St.","geo_precision":"street","state":"OH"},"type":"Feature","geometry":{"type":"Point","coordinates":[-84.181854,40.466133]}},{"properties":{"city":"Anna","zip":"45302","geo_score":0.672,"id":"abo40tbba3on","address":"15160 Cr 25a","geo_precision":"street","state":"OH"},"type":"Feature","geometry":{"type":"Point","coordinates":[-84.170409,40.372496]}},{"properties":{"city":"New Knoxville","zip":"45871","geo_score":0.886,"id":"abo40tgz256f","address":"19100 E Shelby Rd RM 144","geo_precision":"range","state":"OH"},"type":"Feature","geometry":{"type":"Point","coordinates":[-84.339142,40.476436]}},{"properties":{"city":"Sidney","zip":"45365","geo_score":0.971,"id":"abo40tjvciu2","address":"1319 Spruce Av","geo_precision":"range","state":"OH"},"type":"Feature","geometry":{"type":"Point","coordinates":[-84.168042,40.268785]}},{"properties":{"city":"Sidney","zip":"45365","geo_score":1.0,"id":"abo40thhl1hz","address":"1207 Evergreen Dr","geo_precision":"range","state":"OH"},"type":"Feature","geometry":{"type":"Point","coordinates":[-84.169136,40.269581]}},{"properties":{"city":"Anna","zip":"45302","geo_score":0.585,"id":"abo40tcqyph3","address":"210 Peridot Dr","geo_precision":"zip","state":"OH"},"type":"Feature","geometry":{"type":"Point","coordinates":[-84.255781,40.39477]}},{"properties":{"city":"Sidney","zip":"45365","geo_score":0.98,"id":"abo40t69jcpt","address":"500 N Van Demark Rd","geo_precision":"range","state":"OH"},"type":"Feature","geometry":{"type":"Point","coordinates":[-84.187823,40.290835]}},{"properties":{"city":"New Knoxville","zip":"45871","geo_score":1.0,"id":"abo40tewyn48","address":"08937 Wiefenbach Rd","geo_precision":"range","state":"OH"},"type":"Feature","geometry":{"type":"Point","coordinates":[-84.279731,40.52767]}},{"properties":{"city":"New Bremen","zip":"45869","geo_score":1.0,"id":"abo40t4fh474","address":"129 St Clair Pl","geo_precision":"range","state":"OH"},"type":"Feature","geometry":{"type":"Point","coordinates":[-84.36983,40.442956]}},{"properties":{"city":"New Knoxville","zip":"45871","geo_score":0.648,"id":"abo40t4o0c6g","address":"04625 SR 219","geo_precision":"street","state":"OH"},"type":"Feature","geometry":{"type":"Point","coordinates":[-84.352171,40.495263]}},{"properties":{"city":"Anna","zip":"45302","geo_score":1.0,"id":"abo40ti1o5gk","address":"106 S Linden Ave","geo_precision":"range","state":"OH"},"type":"Feature","geometry":{"type":"Point","coordinates":[-84.171874,40.395066]}},{"properties":{"city":"Ft Loramie","zip":"45845","geo_score":0.984,"id":"abo40ti5oer1","address":"24 Elm St","geo_precision":"range","state":"OH"},"type":"Feature","geometry":{"type":"Point","coordinates":[-84.371864,40.350722]}},{"properties":{"city":"Fort Loramie","zip":"45845","geo_score":0.829,"id":"abo40tan17bh","address":"6470 SR 66","geo_precision":"range","state":"OH"},"type":"Feature","geometry":{"type":"Point","coordinates":[-84.371629,40.290494]}},{"properties":{"city":"Botkins","zip":"45306","geo_score":1.0,"id":"abo40tdqhj3k","address":"305 N Main St","geo_precision":"range","state":"OH"},"type":"Feature","geometry":{"type":"Point","coordinates":[-84.182577,40.471457]}},{"properties":{"city":"Botkins","zip":"45306","geo_score":1.0,"id":"abo40t4ysn5k","address":"202 W Walnut St","geo_precision":"range","state":"OH"},"type":"Feature","geometry":{"type":"Point","coordinates":[-84.18304,40.469625]}},{"properties":{"city":"Botkins","zip":"45306","geo_score":1.0,"id":"abo40tbytdw1","address":"210 E State St","geo_precision":"range","state":"OH"},"type":"Feature","geometry":{"type":"Point","coordinates":[-84.17992,40.467863]}},{"properties":{"city":"Anna","zip":"45302","geo_score":0.927,"id":"abo40tboyezu","address":"505 N Second St","geo_precision":"range","state":"OH"},"type":"Feature","geometry":{"type":"Point","coordinates":[-84.17722,40.40057]}},{"properties":{"city":"New Knoxville","zip":"45871","geo_score":1.0,"id":"abo40t7x9zqx","address":"05790 Botkins Rd","geo_precision":"range","state":"OH"},"type":"Feature","geometry":{"type":"Point","coordinates":[-84.325495,40.46629]}},{"properties":{"city":"Wapakoneta","zip":"45895","geo_score":1.0,"id":"abo40t7scet3","address":"08857 Washington Pike","geo_precision":"range","state":"OH"},"type":"Feature","geometry":{"type":"Point","coordinates":[-84.283248,40.540462]}},{"properties":{"city":"Botkins","zip":"45306","geo_score":1.0,"id":"abo40taz5ido","address":"303 N Main St","geo_precision":"range","state":"OH"},"type":"Feature","geometry":{"type":"Point","coordinates":[-84.182577,40.471471]}},{"properties":{"city":"Sidney","zip":"45365","geo_score":0.512,"id":"abo40tj4r3vr","address":"1742 Cumberland Ave","geo_precision":"street","state":"OH"},"type":"Feature","geometry":{"type":"Point","coordinates":[-84.549758,39.853954]}},{"properties":{"city":"Botkins","zip":"45306","geo_score":1.0,"id":"abo40tava44l","address":"102 N Main St","geo_precision":"range","state":"OH"},"type":"Feature","geometry":{"type":"Point","coordinates":[-84.182104,40.468523]}},{"properties":{"city":"New Knoxville","zip":"45871","geo_score":1.0,"id":"abo40tcfav48","address":"09490 Kettlersville Rd","geo_precision":"range","state":"OH"},"type":"Feature","geometry":{"type":"Point","coordinates":[-84.259477,40.482439]}},{"properties":{"city":"Botkins","zip":"45306","geo_score":0.756,"id":"abo40t6md5bw","address":"423 E South St","geo_precision":"street","state":"OH"},"type":"Feature","geometry":{"type":"Point","coordinates":[-84.186004,40.466682]}},{"properties":{"city":"Ft Loramie","zip":"45845","geo_score":0.984,"id":"abo40t6nr8bh","address":"117 E Park St","geo_precision":"range","state":"OH"},"type":"Feature","geometry":{"type":"Point","coordinates":[-84.370212,40.350034]}},{"properties":{"city":"New Knoxville","zip":"45871","geo_score":0.877,"id":"abo40t5ppzle","address":"19100 E Shelby Rd unit 23","geo_precision":"range","state":"OH"},"type":"Feature","geometry":{"type":"Point","coordinates":[-84.339142,40.476436]}},{"properties":{"city":"Botkins","zip":"45306","geo_score":1.0,"id":"abo40tgr3ffq","address":"401 E State St","geo_precision":"range","state":"OH"},"type":"Feature","geometry":{"type":"Point","coordinates":[-84.17649,40.467773]}},{"properties":{"city":"New Knoxville","zip":"45871","geo_score":1.0,"id":"abo40t8ps7u5","address":"09462 Kettlersville Rd","geo_precision":"range","state":"OH"},"type":"Feature","geometry":{"type":"Point","coordinates":[-84.259478,40.482622]}},{"properties":{"city":"Sidney","zip":"45365","geo_score":1.0,"id":"abo40t7gljjv","address":"1199 W Russell Rd","geo_precision":"range","state":"OH"},"type":"Feature","geometry":{"type":"Point","coordinates":[-84.17308,40.302104]}},{"properties":{"city":"Ft Loramie","zip":"45845","geo_score":0.976,"id":"abo40t4fq8d3","address":"6818 Luella St","geo_precision":"range","state":"OH"},"type":"Feature","geometry":{"type":"Point","coordinates":[-84.366032,40.297182]}},{"properties":{"city":"Wapakoneta","zip":"45895","geo_score":0.842,"id":"abo40teu4px2","address":"12149 Sr 219","geo_precision":"range","state":"OH"},"type":"Feature","geometry":{"type":"Point","coordinates":[-84.213306,40.496848]}},{"properties":{"city":"Sidney","zip":"45365","geo_score":0.894,"id":"abo40ti01m6a","address":"500 N Van Demark Rd Apt 78","geo_precision":"range","state":"OH"},"type":"Feature","geometry":{"type":"Point","coordinates":[-84.187823,40.290835]}},{"properties":{"city":"FORT LORAMIE","zip":"45845","geo_score":1.0,"id":"abo40tg95yho","address":"271 GRANDVIEW DRIVE","geo_precision":"range","state":"OH"},"type":"Feature","geometry":{"type":"Point","coordinates":[-84.368842,40.344149]}},{"properties":{"city":"Botkins","zip":"45306","geo_score":1.0,"id":"abo40t67z4jp","address":"207 Edgewood St","geo_precision":"range","state":"OH"},"type":"Feature","geometry":{"type":"Point","coordinates":[-84.184205,40.463592]}},{"properties":{"city":"Botkins","zip":"45306","geo_score":1.0,"id":"abo40tdshtnf","address":"117 N Mill St","geo_precision":"range","state":"OH"},"type":"Feature","geometry":{"type":"Point","coordinates":[-84.183387,40.469259]}},{"properties":{"city":"St Marys","zip":"45885","geo_score":0.876,"id":"abo40tc1aawf","address":"05519 Carter Creek Rd","geo_precision":"range","state":"OH"},"type":"Feature","geometry":{"type":"Point","coordinates":[-84.346569,40.517175]}},{"properties":{"city":"Ft Loramie","zip":"45845","geo_score":0.984,"id":"abo40tbd7enf","address":"3681 Mary St","geo_precision":"range","state":"OH"},"type":"Feature","geometry":{"type":"Point","coordinates":[-84.366166,40.297609]}},{"properties":{"city":"Ft Loramie","zip":"45845","geo_score":0.984,"id":"abo40t6ssh3w","address":"53 S Main St","geo_precision":"range","state":"OH"},"type":"Feature","geometry":{"type":"Point","coordinates":[-84.375271,40.346046]}},{"properties":{"city":"New Knoxville","zip":"45871","geo_score":1.0,"id":"abo40tjs6fxd","address":"10210 Bay Road","geo_precision":"range","state":"OH"},"type":"Feature","geometry":{"type":"Point","coordinates":[-84.278439,40.5089]}},{"properties":{"city":"Sidney","zip":"45365","geo_score":0.935,"id":"abo40t6yx6ag","address":"1831 Cheryl Dr","geo_precision":"range","state":"OH"},"type":"Feature","geometry":{"type":"Point","coordinates":[-84.185313,40.282924]}},{"properties":{"city":"Anna","zip":"45302","geo_score":1.0,"id":"abo40t70xdj4","address":"402 Ruby Ct","geo_precision":"range","state":"OH"},"type":"Feature","geometry":{"type":"Point","coordinates":[-84.174622,40.391024]}},{"properties":{"city":"Sidney","zip":"45365","geo_score":0.971,"id":"abo40thdo37q","address":"1537 Spruce Av","geo_precision":"range","state":"OH"},"type":"Feature","geometry":{"type":"Point","coordinates":[-84.169454,40.268592]}},{"properties":{"city":"New Knoxville","zip":"45871","geo_score":0.877,"id":"abo40thu4alo","address":"19100 E Shelby Rd Unit 12","geo_precision":"range","state":"OH"},"type":"Feature","geometry":{"type":"Point","coordinates":[-84.339142,40.476436]}},{"properties":{"city":"New Knoxville","zip":"45871","geo_score":0.606,"id":"abo40t7ly1wi","address":"11417 Glynwood - NK","geo_precision":"street","state":"OH"},"type":"Feature","geometry":{"type":"Point","coordinates":[-84.316645,40.512485]}},{"properties":{"city":"New Knoxville","zip":"45871","geo_score":0.988,"id":"abo40tij8s2i","address":"11681 Glynwood New Knoxville Rd","geo_precision":"range","state":"OH"},"type":"Feature","geometry":{"type":"Point","coordinates":[-84.316693,40.516497]}},{"properties":{"city":"New Knoxville","zip":"45871","geo_score":1.0,"id":"abo40t9kudfd","address":"18600 Fledderjohn Rd","geo_precision":"range","state":"OH"},"type":"Feature","geometry":{"type":"Point","coordinates":[-84.28347,40.47203]}},{"properties":{"city":"Sidney","zip":"45365","geo_score":1.0,"id":"abo40t67srm7","address":"1022 Juniper Way","geo_precision":"range","state":"OH"},"type":"Feature","geometry":{"type":"Point","coordinates":[-84.1799,40.296301]}},{"properties":{"city":"Sidney","zip":"45365","geo_score":0.878,"id":"abo40t4f7k0q","address":"1418 Westwood Dr","geo_precision":"range","state":"OH"},"type":"Feature","geometry":{"type":"Point","coordinates":[-84.173492,40.265777]}},{"properties":{"city":"New Knoxville","zip":"45871","geo_score":0.877,"id":"abo40tbl7zq5","address":"19100 E Shelby Rd Unit 14","geo_precision":"range","state":"OH"},"type":"Feature","geometry":{"type":"Point","coordinates":[-84.339142,40.476436]}},{"properties":{"city":"Botkins","zip":"45306","geo_score":1.0,"id":"abo40tg50jqj","address":"206 E State St","geo_precision":"range","state":"OH"},"type":"Feature","geometry":{"type":"Point","coordinates":[-84.179855,40.467863]}},{"properties":{"city":"New Knoxville","zip":"45871","geo_score":0.877,"id":"abo40taj8w0w","address":"19100 E Shelby Rd Unit 20","geo_precision":"range","state":"OH"},"type":"Feature","geometry":{"type":"Point","coordinates":[-84.339142,40.476436]}},{"properties":{"city":"New Knoxville","zip":"45871","geo_score":0.883,"id":"abo40tgb0o6k","address":"506 W South St","geo_precision":"range","state":"OH"},"type":"Feature","geometry":{"type":"Point","coordinates":[-84.322726,40.492736]}},{"properties":{"city":"New Knoxville","zip":"45871","geo_score":0.861,"id":"abo40tdb2ta9","address":"19100 E Shelby Rd Trailer 6","geo_precision":"range","state":"OH"},"type":"Feature","geometry":{"type":"Point","coordinates":[-84.339142,40.476436]}},{"properties":{"city":"Anna","zip":"45302","geo_score":0.883,"id":"abo40tdc9ol8","address":"301 W North St","geo_precision":"range","state":"OH"},"type":"Feature","geometry":{"type":"Point","coordinates":[-84.177473,40.396183]}},{"properties":{"city":"Sidney","zip":"45365","geo_score":0.819,"id":"abo40tha87d4","address":"1313 Tully Dr","geo_precision":"street","state":"OH"},"type":"Feature","geometry":{"type":"Point","coordinates":[-84.176979,40.299312]}},{"properties":{"city":"St Marys","zip":"45885","geo_score":0.973,"id":"abo40tcp6yr6","address":"07361 Washington Pike","geo_precision":"range","state":"OH"},"type":"Feature","geometry":{"type":"Point","coordinates":[-84.313402,40.540238]}},{"properties":{"city":"New Knoxville","zip":"45871","geo_score":1.0,"id":"abo40tg0ko4i","address":"10474 Knierim Rd","geo_precision":"range","state":"OH"},"type":"Feature","geometry":{"type":"Point","coordinates":[-84.24509,40.502403]}},{"properties":{"city":"New Knoxville","zip":"45871","geo_score":0.91,"id":"abo40t85so83","address":"10601 St Rt 219","geo_precision":"range","state":"OH"},"type":"Feature","geometry":{"type":"Point","coordinates":[-84.24929,40.496541]}},{"properties":{"city":"New Knoxville","zip":"45871","geo_score":0.877,"id":"abo40taijwqk","address":"19100 E Shelby Rd Unit 24","geo_precision":"range","state":"OH"},"type":"Feature","geometry":{"type":"Point","coordinates":[-84.339142,40.476436]}},{"properties":{"city":"New Knoxville","zip":"45871","geo_score":0.842,"id":"abo40t3i9ofc","address":"05633 SR 219","geo_precision":"range","state":"OH"},"type":"Feature","geometry":{"type":"Point","coordinates":[-84.343226,40.4954]}},{"properties":{"city":"St Marys","zip":"45885","geo_score":0.973,"id":"abo40t85i3kd","address":"10856 Plattner Pike","geo_precision":"range","state":"OH"},"type":"Feature","geometry":{"type":"Point","coordinates":[-84.358181,40.503079]}},{"properties":{"city":"New Knoxville","zip":"45871","geo_score":0.91,"id":"abo40tbnc83t","address":"11185 St Rt 219","geo_precision":"range","state":"OH"},"type":"Feature","geometry":{"type":"Point","coordinates":[-84.237053,40.496722]}},{"properties":{"city":"Botkins","zip":"45306","geo_score":1.0,"id":"abo40t9uungd","address":"301 W State St","geo_precision":"range","state":"OH"},"type":"Feature","geometry":{"type":"Point","coordinates":[-84.185394,40.467765]}},{"properties":{"city":"Anna","zip":"45302","geo_score":0.927,"id":"abo40t670zsm","address":"503 N Second St","geo_precision":"range","state":"OH"},"type":"Feature","geometry":{"type":"Point","coordinates":[-84.17722,40.400606]}},{"properties":{"city":"New Knoxville","zip":"45871","geo_score":0.805,"id":"abo40tce3vl4","address":"06914 Washington Pike","geo_precision":"range","state":"OH"},"type":"Feature","geometry":{"type":"Point","coordinates":[-84.322355,40.540012]}},{"properties":{"city":"Minster","zip":"45865","geo_score":1.0,"id":"abo40td3iys0","address":"154 S Frankfort St","geo_precision":"range","state":"OH"},"type":"Feature","geometry":{"type":"Point","coordinates":[-84.382248,40.38919]}},{"properties":{"city":"New Bremen","zip":"45869","geo_score":1.0,"id":"abo40t7zfl17","address":"9 N Eastmoor Dr","geo_precision":"range","state":"OH"},"type":"Feature","geometry":{"type":"Point","coordinates":[-84.374569,40.438804]}},{"properties":{"city":"Botkins","zip":"45306","geo_score":0.66,"id":"abo40tjjg7rw","address":"205 E South St","geo_precision":"street","state":"OH"},"type":"Feature","geometry":{"type":"Point","coordinates":[-84.186202,40.466678]}},{"properties":{"city":"Botkins","zip":"45306","geo_score":1.0,"id":"abo40tjb498m","address":"407 W State St","geo_precision":"range","state":"OH"},"type":"Feature","geometry":{"type":"Point","coordinates":[-84.18605,40.467749]}},{"properties":{"city":"Botkins","zip":"45306","geo_score":1.0,"id":"abo40tc6u1vv","address":"213 W State St","geo_precision":"range","state":"OH"},"type":"Feature","geometry":{"type":"Point","coordinates":[-84.184392,40.467686]}},{"properties":{"city":"Botkins","zip":"45306","geo_score":1.0,"id":"abo40tafbljt","address":"303 W State St","geo_precision":"range","state":"OH"},"type":"Feature","geometry":{"type":"Point","coordinates":[-84.185373,40.46769]}},{"properties":{"city":"Sidney","zip":"45365","geo_score":0.867,"id":"abo40t7g0dmr","address":"9678 Cr 25A","geo_precision":"range","state":"OH"},"type":"Feature","geometry":{"type":"Point","coordinates":[-84.164494,40.331385]}},{"properties":{"city":"Ft Loramie","zip":"45845","geo_score":0.894,"id":"abo40ta9u0l5","address":"04291 St Rt 362","geo_precision":"range","state":"OH"},"type":"Feature","geometry":{"type":"Point","coordinates":[-84.360732,40.351583]}},{"properties":{"city":"New Knoxville","zip":"45871","geo_score":0.882,"id":"abo40tgnvtpx","address":"06232 Cloverleaf Rd","geo_precision":"range","state":"OH"},"type":"Feature","geometry":{"type":"Point","coordinates":[-84.323145,40.525253]}},{"properties":{"city":"New Knoxville","zip":"45871","geo_score":0.877,"id":"abo40t7fxx45","address":"19100 E Shelby Rd Unit 10","geo_precision":"range","state":"OH"},"type":"Feature","geometry":{"type":"Point","coordinates":[-84.339142,40.476436]}},{"properties":{"city":"New Knoxville","zip":"45871","geo_score":1.0,"id":"abo40tizveak","address":"19100 E Shelby Rd","geo_precision":"range","state":"OH"},"type":"Feature","geometry":{"type":"Point","coordinates":[-84.339142,40.476436]}},{"properties":{"city":"New Knoxville","zip":"45871","geo_score":0.805,"id":"abo40tf46hma","address":"09859 Kohler Rd","geo_precision":"range","state":"OH"},"type":"Feature","geometry":{"type":"Point","coordinates":[-84.230972,40.49668]}},{"properties":{"city":"New Knoxville","zip":"45871","geo_score":1.0,"id":"abo40t5dkcax","address":"10506 Headapohl Rd","geo_precision":"range","state":"OH"},"type":"Feature","geometry":{"type":"Point","coordinates":[-84.245277,40.503887]}},{"properties":{"city":"Ft Loramie","zip":"45845","geo_score":0.984,"id":"abo40tjr3l9x","address":"495 E Park St","geo_precision":"range","state":"OH"},"type":"Feature","geometry":{"type":"Point","coordinates":[-84.367209,40.348407]}},{"properties":{"city":"Ft Loramie","zip":"45845","geo_score":0.886,"id":"abo40t4w1kof","address":"3896 St Rt 47","geo_precision":"range","state":"OH"},"type":"Feature","geometry":{"type":"Point","coordinates":[-84.357945,40.290695]}},{"properties":{"city":"Ft Loramie","zip":"45845","geo_score":0.886,"id":"abo40t6b39c1","address":"20 E Lane St","geo_precision":"range","state":"OH"},"type":"Feature","geometry":{"type":"Point","coordinates":[-84.37663,40.347059]}},{"properties":{"city":"Fort Loramie","zip":"45865","geo_score":0.922,"id":"abo40tg4knel","address":"216 N Frankfort St","geo_precision":"range","state":"OH"},"type":"Feature","geometry":{"type":"Point","coordinates":[-84.382211,40.399843]}},{"properties":{"city":"Ft Loramie","zip":"45845","geo_score":0.984,"id":"abo40t95rh4o","address":"44 E Park St","geo_precision":"range","state":"OH"},"type":"Feature","geometry":{"type":"Point","coordinates":[-84.371876,40.349809]}},{"properties":{"city":"Ft Loramie","zip":"45845","geo_score":0.886,"id":"abo40t8s4zek","address":"8654 St Rt 66","geo_precision":"range","state":"OH"},"type":"Feature","geometry":{"type":"Point","coordinates":[-84.370666,40.323359]}},{"properties":{"city":"New Knoxville","zip":"45871","geo_score":0.897,"id":"abo40thgsl5h","address":"19100 E Shelby Rd Rm 46","geo_precision":"range","state":"OH"},"type":"Feature","geometry":{"type":"Point","coordinates":[-84.339142,40.476436]}},{"properties":{"city":"Ft Loramie","zip":"45845","geo_score":0.791,"id":"abo40t7b0g61","address":"175 Oakwood Dr","geo_precision":"street","state":"OH"},"type":"Feature","geometry":{"type":"Point","coordinates":[-84.372504,40.344139]}},{"properties":{"city":"Sidney","zip":"45365","geo_score":0.816,"id":"abo40t9r94rb","address":"1717 Westlake Dr","geo_precision":"street","state":"OH"},"type":"Feature","geometry":{"type":"Point","coordinates":[-84.177168,40.264922]}},{"properties":{"city":"Sidney","zip":"45365","geo_score":0.916,"id":"abo40thj876z","address":"1326 Sixth Ave","geo_precision":"range","state":"OH"},"type":"Feature","geometry":{"type":"Point","coordinates":[-84.178013,40.300772]}},{"properties":{"city":"New Knoxville","zip":"45871","geo_score":0.861,"id":"abo40t5h956e","address":"19100 E Shelby Rd Way Woods","geo_precision":"range","state":"OH"},"type":"Feature","geometry":{"type":"Point","coordinates":[-84.339142,40.476436]}},{"properties":{"city":"St Marys","zip":"45885","geo_score":0.973,"id":"abo40tcjen4x","address":"11538 E Shelby Rd","geo_precision":"range","state":"OH"},"type":"Feature","geometry":{"type":"Point","coordinates":[-84.338998,40.519168]}},{"properties":{"city":"Botkins","zip":"45306","geo_score":0.585,"id":"abo40tadukll","address":"18185 Kettersville Rd","geo_precision":"zip","state":"OH"},"type":"Feature","geometry":{"type":"Point","coordinates":[-84.189245,40.439778]}},{"properties":{"city":"Botkins","zip":"45306","geo_score":1.0,"id":"abo40t3l8n45","address":"18055 Kettlersville Rd","geo_precision":"range","state":"OH"},"type":"Feature","geometry":{"type":"Point","coordinates":[-84.259841,40.458066]}},{"properties":{"city":"Ft Loramie","zip":"45845","geo_score":0.886,"id":"abo40t5y8s73","address":"28 W Main St","geo_precision":"range","state":"OH"},"type":"Feature","geometry":{"type":"Point","coordinates":[-84.375512,40.350565]}},{"properties":{"city":"Anna","zip":"45302","geo_score":0.585,"id":"abo40t6zmgk5","address":"201 Onyx Dr","geo_precision":"zip","state":"OH"},"type":"Feature","geometry":{"type":"Point","coordinates":[-84.255781,40.39477]}},{"properties":{"city":"Anna","zip":"45306","geo_score":0.884,"id":"abo40t7gmq93","address":"308 W Main St","geo_precision":"range","state":"OH"},"type":"Feature","geometry":{"type":"Point","coordinates":[-84.182427,40.471429]}},{"properties":{"city":"Minster","zip":"45865","geo_score":1.0,"id":"abo40t8iwjlc","address":"184 S Garfield St","geo_precision":"range","state":"OH"},"type":"Feature","geometry":{"type":"Point","coordinates":[-84.374736,40.388485]}},{"properties":{"city":"New Knoxville","zip":"45871","geo_score":0.585,"id":"abo40tii5l1i","address":"06319 OH-219","geo_precision":"zip","state":"OH"},"type":"Feature","geometry":{"type":"Point","coordinates":[-84.282659,40.496141]}},{"properties":{"city":"New Bremen","zip":"45869","geo_score":0.941,"id":"abo40t3osg85","address":"55 Rummel Creek","geo_precision":"range","state":"OH"},"type":"Feature","geometry":{"type":"Point","coordinates":[-84.371123,40.439156]}},{"properties":{"city":"New Knoxville","zip":"45871","geo_score":0.886,"id":"abo40tfpvtv3","address":"19100 E Shelby Rd Unit 7","geo_precision":"range","state":"OH"},"type":"Feature","geometry":{"type":"Point","coordinates":[-84.339142,40.476436]}},{"properties":{"city":"Botkins","zip":"45306","geo_score":0.807,"id":"abo40tazk4ag","address":"105 S Main St","geo_precision":"street","state":"OH"},"type":"Feature","geometry":{"type":"Point","coordinates":[-84.181922,40.46667]}},{"properties":{"city":"Minster","zip":"45865","geo_score":0.807,"id":"abo40t6046sr","address":"2118 Eiting Rd","geo_precision":"street","state":"OH"},"type":"Feature","geometry":{"type":"Point","coordinates":[-84.395752,40.383704]}},{"properties":{"city":"Botkins","zip":"45306","geo_score":1.0,"id":"abo40taj464s","address":"211 W State St","geo_precision":"range","state":"OH"},"type":"Feature","geometry":{"type":"Point","coordinates":[-84.184411,40.467686]}},{"properties":{"city":"St Marys","zip":"45885","geo_score":0.973,"id":"abo40tfed8wr","address":"10694 Plattner Pike","geo_precision":"range","state":"OH"},"type":"Feature","geometry":{"type":"Point","coordinates":[-84.35818,40.505467]}},{"properties":{"city":"Anna","zip":"45302","geo_score":0.971,"id":"abo40t43oe06","address":"407 Tamala Av","geo_precision":"range","state":"OH"},"type":"Feature","geometry":{"type":"Point","coordinates":[-84.172217,40.399516]}},{"properties":{"city":"New Knoxville","zip":"45871","geo_score":0.886,"id":"abo40tb139o6","address":"19100 E Shelby Rd Rm 213","geo_precision":"range","state":"OH"},"type":"Feature","geometry":{"type":"Point","coordinates":[-84.339142,40.476436]}},{"properties":{"city":"Minster","zip":"45865","geo_score":1.0,"id":"abo40tie0bn8","address":"53 S Paris St","geo_precision":"range","state":"OH"},"type":"Feature","geometry":{"type":"Point","coordinates":[-84.367394,40.391713]}},{"properties":{"city":"Minster","zip":"45865","geo_score":1.0,"id":"abo40tct8y3j","address":"262 S Main St","geo_precision":"range","state":"OH"},"type":"Feature","geometry":{"type":"Point","coordinates":[-84.376614,40.38664]}},{"properties":{"city":"Botkins","zip":"45306","geo_score":1.0,"id":"abo40thwptx0","address":"403 N Main St","geo_precision":"range","state":"OH"},"type":"Feature","geometry":{"type":"Point","coordinates":[-84.182758,40.472711]}},{"properties":{"city":"Botkins","zip":"45306","geo_score":1.0,"id":"abo40t547lqv","address":"106 Warren St","geo_precision":"range","state":"OH"},"type":"Feature","geometry":{"type":"Point","coordinates":[-84.179066,40.464635]}},{"properties":{"city":"New Knoxville","zip":"45871","geo_score":1.0,"id":"abo40t9uchss","address":"09842 Plattner Rd.","geo_precision":"range","state":"OH"},"type":"Feature","geometry":{"type":"Point","coordinates":[-84.358365,40.491614]}},{"properties":{"city":"New Knoxville","zip":"45871","geo_score":1.0,"id":"abo40t635fol","address":"08652 Center Rd","geo_precision":"range","state":"OH"},"type":"Feature","geometry":{"type":"Point","coordinates":[-84.279271,40.510962]}},{"properties":{"city":"Ft Loramie","zip":"45845","geo_score":0.984,"id":"abo40tgd0mrg","address":"170 Grandview Drive","geo_precision":"range","state":"OH"},"type":"Feature","geometry":{"type":"Point","coordinates":[-84.369245,40.347897]}},{"properties":{"city":"Anna","zip":"45302","geo_score":1.0,"id":"abo40teyfssp","address":"303 Mill St","geo_precision":"range","state":"OH"},"type":"Feature","geometry":{"type":"Point","coordinates":[-84.169969,40.398329]}},{"properties":{"city":"New Knoxville","zip":"45871","geo_score":1.0,"id":"abo40th0p3g6","address":"10629 Southland Rd","geo_precision":"range","state":"OH"},"type":"Feature","geometry":{"type":"Point","coordinates":[-84.249332,40.481906]}},{"properties":{"city":"Ft Loramie","zip":"45845","geo_score":0.984,"id":"abo40taik767","address":"56 Eastview Dr","geo_precision":"range","state":"OH"},"type":"Feature","geometry":{"type":"Point","coordinates":[-84.373943,40.346654]}},{"properties":{"city":"Anna","zip":"45302","geo_score":0.585,"id":"abo40t3i6ffz","address":"203 Onyx Dr","geo_precision":"zip","state":"OH"},"type":"Feature","geometry":{"type":"Point","coordinates":[-84.255781,40.39477]}},{"properties":{"city":"Anna","zip":"45302","geo_score":0.927,"id":"abo40ti8um21","address":"306 N Third St","geo_precision":"range","state":"OH"},"type":"Feature","geometry":{"type":"Point","coordinates":[-84.175193,40.39832]}},{"properties":{"city":"Anna","zip":"45302","geo_score":0.686,"id":"abo40t6lwa1y","address":"12320 Cr 25A","geo_precision":"street","state":"OH"},"type":"Feature","geometry":{"type":"Point","coordinates":[-84.170409,40.372496]}},{"properties":{"city":"Minster","zip":"45865","geo_score":0.887,"id":"abo40t85apu8","address":"03785 ST RT 119W","geo_precision":"range","state":"OH"},"type":"Feature","geometry":{"type":"Point","coordinates":[-84.381431,40.407667]}},{"properties":{"city":"New Bremen","zip":"45869","geo_score":0.935,"id":"abo40tg19lcf","address":"25 E Vine St","geo_precision":"range","state":"OH"},"type":"Feature","geometry":{"type":"Point","coordinates":[-84.377147,40.436177]}},{"properties":{"city":"Anna","zip":"45302","geo_score":1.0,"id":"abo40t5kgtrg","address":"405 Ruby Ct","geo_precision":"range","state":"OH"},"type":"Feature","geometry":{"type":"Point","coordinates":[-84.174773,40.390877]}},{"properties":{"city":"Fort Loramie","zip":"45845","geo_score":1.0,"id":"abo40tbgd7il","address":"271 Monterey Dr","geo_precision":"range","state":"OH"},"type":"Feature","geometry":{"type":"Point","coordinates":[-84.367695,40.343854]}},{"properties":{"city":"New Bremen","zip":"45869","geo_score":1.0,"id":"abo40tegybs0","address":"322 S Franklin St","geo_precision":"range","state":"OH"},"type":"Feature","geometry":{"type":"Point","coordinates":[-84.383815,40.432056]}},{"properties":{"city":"Sidney","zip":"45365","geo_score":1.0,"id":"abo40tjx4r1g","address":"1776 N Kuther Rd","geo_precision":"range","state":"OH"},"type":"Feature","geometry":{"type":"Point","coordinates":[-84.208092,40.310067]}},{"properties":{"city":"New Knoxville","zip":"45871","geo_score":1.0,"id":"abo40ta6td4r","address":"09982 Bay Rd","geo_precision":"range","state":"OH"},"type":"Feature","geometry":{"type":"Point","coordinates":[-84.278451,40.494968]}},{"properties":{"city":"New Knoxville","zip":"45871","geo_score":1.0,"id":"abo40tejnv54","address":"10945 Bay Rd","geo_precision":"range","state":"OH"},"type":"Feature","geometry":{"type":"Point","coordinates":[-84.278527,40.50992]}},{"properties":{"city":"New Knoxville","zip":"45871","geo_score":1.0,"id":"abo40tgjbrtc","address":"11075 Bay Rd","geo_precision":"range","state":"OH"},"type":"Feature","geometry":{"type":"Point","coordinates":[-84.27861,40.515855]}},{"properties":{"city":"Sidney","zip":"45365","geo_score":1.0,"id":"abo40t7n20zw","address":"665 Ridgeway Dr","geo_precision":"range","state":"OH"},"type":"Feature","geometry":{"type":"Point","coordinates":[-84.16388,40.270893]}},{"properties":{"city":"Anna","zip":"45302","geo_score":1.0,"id":"abo40tcs4cc4","address":"501 Mill St","geo_precision":"range","state":"OH"},"type":"Feature","geometry":{"type":"Point","coordinates":[-84.165802,40.398406]}},{"properties":{"city":"Botkins","zip":"45306","geo_score":0.777,"id":"abo40t9uyo3s","address":"317 King St","geo_precision":"street","state":"OH"},"type":"Feature","geometry":{"type":"Point","coordinates":[-84.182495,40.462032]}},{"properties":{"city":"Botkins","zip":"45306","geo_score":1.0,"id":"abo40t63iuzb","address":"106 Mary St","geo_precision":"range","state":"OH"},"type":"Feature","geometry":{"type":"Point","coordinates":[-84.18019,40.465532]}},{"properties":{"city":"Botkins","zip":"45306","geo_score":1.0,"id":"abo40t9exdy1","address":"104 N Mill St","geo_precision":"range","state":"OH"},"type":"Feature","geometry":{"type":"Point","coordinates":[-84.183236,40.469476]}},{"properties":{"city":"Ft Loramie","zip":"45871","geo_score":0.805,"id":"abo40t5p50d8","address":"49 Monterey Dr","geo_precision":"range","state":"OH"},"type":"Feature","geometry":{"type":"Point","coordinates":[-84.367741,40.347847]}},{"properties":{"city":"Sidney","zip":"45365","geo_score":0.894,"id":"abo40t5bfrk6","address":"500 N Van Demark Rd Apt 11","geo_precision":"range","state":"OH"},"type":"Feature","geometry":{"type":"Point","coordinates":[-84.187823,40.290835]}},{"properties":{"city":"Ft Loramie","zip":"45845","geo_score":0.959,"id":"abo40tcan28t","address":"251 Grandview Rd","geo_precision":"range","state":"OH"},"type":"Feature","geometry":{"type":"Point","coordinates":[-84.368854,40.344667]}},{"properties":{"city":"Ft Loramie","zip":"45845","geo_score":0.691,"id":"abo40tj9csa1","address":"17 1/2 S Main St","geo_precision":"range","state":"OH"},"type":"Feature","geometry":{"type":"Point","coordinates":[-84.374259,40.351538]}},{"properties":{"city":"New Knoxville","zip":"45871","geo_score":1.0,"id":"abo40t4n8zgf","address":"09504 Kettlersville Road","geo_precision":"range","state":"OH"},"type":"Feature","geometry":{"type":"Point","coordinates":[-84.259477,40.482348]}},{"properties":{"city":"New Knoxville","zip":"45871","geo_score":0.877,"id":"abo40td2uojx","address":"19100 E Shelby Rd Unit 18","geo_precision":"range","state":"OH"},"type":"Feature","geometry":{"type":"Point","coordinates":[-84.339142,40.476436]}},{"properties":{"city":"New Knoxville","zip":"45871","geo_score":0.886,"id":"abo40te33xm2","address":"19100 E Shelby Rd RM 215","geo_precision":"range","state":"OH"},"type":"Feature","geometry":{"type":"Point","coordinates":[-84.339142,40.476436]}},{"properties":{"city":"New Knoxville","zip":"45871","geo_score":0.78,"id":"abo40td28pyx","address":"11559 Bay Rd","geo_precision":"range","state":"OH"},"type":"Feature","geometry":{"type":"Point","coordinates":[-84.278534,40.518359]}},{"properties":{"city":"Anna","zip":"45302","geo_score":0.89,"id":"abo40t4xm8ux","address":"408 Risha Av","geo_precision":"range","state":"OH"},"type":"Feature","geometry":{"type":"Point","coordinates":[-84.170823,40.399516]}},{"properties":{"city":"Ft Loramie","zip":"45845","geo_score":0.984,"id":"abo40ti0pm5a","address":"95 Sawmill Rd","geo_precision":"range","state":"OH"},"type":"Feature","geometry":{"type":"Point","coordinates":[-84.365156,40.347164]}},{"properties":{"city":"Botkins","zip":"45306","geo_score":0.585,"id":"abo40t91w62l","address":"210 Elic Ct","geo_precision":"zip","state":"OH"},"type":"Feature","geometry":{"type":"Point","coordinates":[-84.189245,40.439778]}},{"properties":{"city":"Botkins","zip":"45306","geo_score":1.0,"id":"abo40thi2j05","address":"329 S Main St","geo_precision":"range","state":"OH"},"type":"Feature","geometry":{"type":"Point","coordinates":[-84.181447,40.462051]}},{"properties":{"city":"Botkins","zip":"45306","geo_score":1.0,"id":"abo40tgae9cz","address":"213 Edgewood St","geo_precision":"range","state":"OH"},"type":"Feature","geometry":{"type":"Point","coordinates":[-84.184297,40.463608]}},{"properties":{"city":"Botkins","zip":"45306","geo_score":1.0,"id":"abo40t96yvgj","address":"407 E State St","geo_precision":"range","state":"OH"},"type":"Feature","geometry":{"type":"Point","coordinates":[-84.173889,40.467705]}},{"properties":{"city":"Botkins","zip":"45306","geo_score":0.689,"id":"abo40tcv9whd","address":"201 W South St","geo_precision":"street","state":"OH"},"type":"Feature","geometry":{"type":"Point","coordinates":[-84.186202,40.466678]}},{"properties":{"city":"Sidney","zip":"45365","geo_score":1.0,"id":"abo40t8lmcm5","address":"1131 Fairmont Dr","geo_precision":"range","state":"OH"},"type":"Feature","geometry":{"type":"Point","coordinates":[-84.1707,40.271694]}},{"properties":{"city":"Botkins","zip":"45306","geo_score":0.883,"id":"abo40t90mylq","address":"305 S Main St Apt 2","geo_precision":"range","state":"OH"},"type":"Feature","geometry":{"type":"Point","coordinates":[-84.181494,40.462492]}},{"properties":{"city":"Ft Loramie","zip":"45845","geo_score":0.984,"id":"abo40td6vil7","address":"78 S Main St","geo_precision":"range","state":"OH"},"type":"Feature","geometry":{"type":"Point","coordinates":[-84.375463,40.347721]}},{"properties":{"city":"Sidney","zip":"45365","geo_score":1.0,"id":"abo40tfbb6y0","address":"1305 Shroyer Pl","geo_precision":"range","state":"OH"},"type":"Feature","geometry":{"type":"Point","coordinates":[-84.16723,40.270156]}},{"properties":{"city":"Botkins","zip":"45306","geo_score":1.0,"id":"abo40tb2fwle","address":"107 N Mill St","geo_precision":"range","state":"OH"},"type":"Feature","geometry":{"type":"Point","coordinates":[-84.183386,40.469441]}},{"properties":{"city":"Botkins","zip":"45306","geo_score":1.0,"id":"abo40tjz4uey","address":"116 Debra Dr","geo_precision":"range","state":"OH"},"type":"Feature","geometry":{"type":"Point","coordinates":[-84.184546,40.471586]}},{"properties":{"city":"Botkins","zip":"45306","geo_score":0.619,"id":"abo40tblsan8","address":"211 N. Main St.","geo_precision":"street","state":"OH"},"type":"Feature","geometry":{"type":"Point","coordinates":[-84.181854,40.466133]}},{"properties":{"city":"Botkins","zip":"45306","geo_score":0.66,"id":"abo40tioq9wp","address":"206 E South St","geo_precision":"street","state":"OH"},"type":"Feature","geometry":{"type":"Point","coordinates":[-84.188377,40.466674]}},{"properties":{"city":"Botkins","zip":"45306","geo_score":1.0,"id":"abo40t5ubpxh","address":"208 Mary St","geo_precision":"range","state":"OH"},"type":"Feature","geometry":{"type":"Point","coordinates":[-84.179214,40.465446]}},{"properties":{"city":"New Knoxville","zip":"45871","geo_score":0.585,"id":"abo40t8qzua4","address":"06420 Schultz Road","geo_precision":"zip","state":"OH"},"type":"Feature","geometry":{"type":"Point","coordinates":[-84.282659,40.496141]}},{"properties":{"city":"New Knoxville","zip":"45871","geo_score":0.953,"id":"abo40tdh48ky","address":"11160 Glynwood Knoxville Rd","geo_precision":"range","state":"OH"},"type":"Feature","geometry":{"type":"Point","coordinates":[-84.316572,40.507056]}},{"properties":{"city":"New Knoxville","zip":"45871","geo_score":0.585,"id":"abo40tenlkg8","address":"6044","geo_precision":"zip","state":"OH"},"type":"Feature","geometry":{"type":"Point","coordinates":[-84.282659,40.496141]}},{"properties":{"city":"New Knoxville","zip":"45871","geo_score":0.902,"id":"abo40thfoiiq","address":"11860 St Rt 29","geo_precision":"range","state":"OH"},"type":"Feature","geometry":{"type":"Point","coordinates":[-84.33491,40.523947]}},{"properties":{"city":"New Knoxville","zip":"45871","geo_score":1.0,"id":"abo40t9oydeo","address":"113 Laura St","geo_precision":"range","state":"OH"},"type":"Feature","geometry":{"type":"Point","coordinates":[-84.325747,40.495712]}},{"properties":{"city":"Ft Loramie","zip":"45845","geo_score":0.984,"id":"abo40t9wef4b","address":"231 Monterey Dr","geo_precision":"range","state":"OH"},"type":"Feature","geometry":{"type":"Point","coordinates":[-84.367702,40.344639]}},{"properties":{"city":"Ft Loramie","zip":"45845","geo_score":0.984,"id":"abo40t69ktwf","address":"150 Grandview Dr","geo_precision":"range","state":"OH"},"type":"Feature","geometry":{"type":"Point","coordinates":[-84.36958,40.348208]}},{"properties":{"city":"Sidney","zip":"45365","geo_score":1.0,"id":"abo40t7255a9","address":"836 Evergreen Dr","geo_precision":"range","state":"OH"},"type":"Feature","geometry":{"type":"Point","coordinates":[-84.166425,40.272985]}},{"properties":{"city":"Anna","zip":"45302","geo_score":1.0,"id":"abo40t4drbk9","address":"202 Meadowview Ln","geo_precision":"range","state":"OH"},"type":"Feature","geometry":{"type":"Point","coordinates":[-84.166855,40.397304]}},{"properties":{"city":"Ft Loramie","zip":"45845","geo_score":0.984,"id":"abo40te9wz8h","address":"161 Grandview Dr","geo_precision":"range","state":"OH"},"type":"Feature","geometry":{"type":"Point","coordinates":[-84.368998,40.34701]}},{"properties":{"city":"Ft Loramie","zip":"45845","geo_score":0.984,"id":"abo40tjgldcq","address":"68 Eastview Dr","geo_precision":"range","state":"OH"},"type":"Feature","geometry":{"type":"Point","coordinates":[-84.373924,40.345668]}},{"properties":{"city":"New Bremen","zip":"45869","geo_score":0.585,"id":"abo40t5k2z39","address":"10 Adam Pl","geo_precision":"zip","state":"OH"},"type":"Feature","geometry":{"type":"Point","coordinates":[-84.2145,40.504687]}},{"properties":{"city":"Wapakoneta","zip":"45895","geo_score":0.971,"id":"abo40tf15m8s","address":"10037 Kohler Rrd","geo_precision":"range","state":"OH"},"type":"Feature","geometry":{"type":"Point","coordinates":[-84.230965,40.498402]}},{"properties":{"city":"Anna","zip":"45302","geo_score":0.585,"id":"abo40t5dg27k","address":"305 Onyx Dr","geo_precision":"zip","state":"OH"},"type":"Feature","geometry":{"type":"Point","coordinates":[-84.255781,40.39477]}},{"properties":{"city":"Minster","zip":"45865","geo_score":0.92,"id":"abo40th1fkc7","address":"296 Lakewood","geo_precision":"range","state":"OH"},"type":"Feature","geometry":{"type":"Point","coordinates":[-84.372338,40.388169]}},{"properties":{"city":"Ft Loramie","zip":"45845","geo_score":0.984,"id":"abo40tajn9qu","address":"242 Oakwood Dr","geo_precision":"range","state":"OH"},"type":"Feature","geometry":{"type":"Point","coordinates":[-84.372578,40.344024]}},{"properties":{"city":"Ft Loramie","zip":"45845","geo_score":0.984,"id":"abo40tbd8msy","address":"110 Grandview Dr","geo_precision":"range","state":"OH"},"type":"Feature","geometry":{"type":"Point","coordinates":[-84.37039,40.348786]}},{"properties":{"city":"Botkins","zip":"45306","geo_score":0.806,"id":"abo40tgav6s2","address":"102 Roth St","geo_precision":"street","state":"OH"},"type":"Feature","geometry":{"type":"Point","coordinates":[-84.184478,40.471495]}},{"properties":{"city":"New Knoxville","zip":"45871","geo_score":0.979,"id":"abo40t761n7k","address":"06495 Cloverleaf Rd","geo_precision":"range","state":"OH"},"type":"Feature","geometry":{"type":"Point","coordinates":[-84.335934,40.525157]}},{"properties":{"city":"New Knoxville","zip":"45871","geo_score":0.902,"id":"abo40t6bv1pa","address":"11780 St Rt 29","geo_precision":"range","state":"OH"},"type":"Feature","geometry":{"type":"Point","coordinates":[-84.335877,40.525091]}},{"properties":{"city":"New Knoxville","zip":"45871","geo_score":0.886,"id":"abo40tb63uwd","address":"19100 E Shelby Rd Unit 8","geo_precision":"range","state":"OH"},"type":"Feature","geometry":{"type":"Point","coordinates":[-84.339142,40.476436]}},{"properties":{"city":"Anna","zip":"45302","geo_score":1.0,"id":"abo40t933hkj","address":"403 Mill St","geo_precision":"range","state":"OH"},"type":"Feature","geometry":{"type":"Point","coordinates":[-84.168851,40.398328]}},{"properties":{"city":"Sidney","zip":"45365","geo_score":0.849,"id":"abo40t3j2bj6","address":"1680 Wildwood Dr","geo_precision":"street","state":"OH"},"type":"Feature","geometry":{"type":"Point","coordinates":[-84.172894,40.268355]}},{"properties":{"city":"New Knoxville","zip":"45871","geo_score":1.0,"id":"abo40thhj23s","address":"09686 E Shelby Road","geo_precision":"range","state":"OH"},"type":"Feature","geometry":{"type":"Point","coordinates":[-84.339091,40.487996]}},{"properties":{"city":"Sidney","zip":"45365","geo_score":0.955,"id":"abo40t5ezkaz","address":"1381 Maple Leaf Cr","geo_precision":"range","state":"OH"},"type":"Feature","geometry":{"type":"Point","coordinates":[-84.163268,40.270689]}},{"properties":{"city":"St Marys","zip":"45885","geo_score":0.883,"id":"abo40te6ing6","address":"04692 St Rt 219","geo_precision":"range","state":"OH"},"type":"Feature","geometry":{"type":"Point","coordinates":[-84.365653,40.495129]}},{"properties":{"city":"Ft Loramie","zip":"45845","geo_score":0.984,"id":"abo40te49bak","address":"16 Miami St","geo_precision":"range","state":"OH"},"type":"Feature","geometry":{"type":"Point","coordinates":[-84.370429,40.345061]}},{"properties":{"city":"Wapakoneta","zip":"45895","geo_score":1.0,"id":"abo40tar2fjs","address":"11755 Bay Rd","geo_precision":"range","state":"OH"},"type":"Feature","geometry":{"type":"Point","coordinates":[-84.278529,40.521598]}},{"properties":{"city":"New Knoxville","zip":"45871","geo_score":0.902,"id":"abo40t50c3vv","address":"11524 St Rt 29","geo_precision":"range","state":"OH"},"type":"Feature","geometry":{"type":"Point","coordinates":[-84.328958,40.517871]}},{"properties":{"city":"Sidney","zip":"45365","geo_score":0.986,"id":"abo40tbqk3dx","address":"1021 Juniper Way","geo_precision":"range","state":"OH"},"type":"Feature","geometry":{"type":"Point","coordinates":[-84.180063,40.296294]}},{"properties":{"city":"Botkins","zip":"45306","geo_score":1.0,"id":"abo40t8rxmnz","address":"205 E Lynn St","geo_precision":"range","state":"OH"},"type":"Feature","geometry":{"type":"Point","coordinates":[-84.17974,40.470722]}},{"properties":{"city":"Ft Loramie","zip":"45845","geo_score":0.984,"id":"abo40t3t94do","address":"17 Water St","geo_precision":"range","state":"OH"},"type":"Feature","geometry":{"type":"Point","coordinates":[-84.376283,40.351175]}},{"properties":{"city":"Ft Loramie","zip":"45845","geo_score":0.886,"id":"abo40taksgc6","address":"13 Elm St","geo_precision":"range","state":"OH"},"type":"Feature","geometry":{"type":"Point","coordinates":[-84.372749,40.351025]}},{"properties":{"city":"Ft Loramie","zip":"45845","geo_score":0.789,"id":"abo40tfkfix5","address":"16 Walnut St","geo_precision":"street","state":"OH"},"type":"Feature","geometry":{"type":"Point","coordinates":[-84.368431,40.295372]}},{"properties":{"city":"Ft Loramie","zip":"45845","geo_score":0.984,"id":"abo40t6oy5rf","address":"3224 Kaiser Rd","geo_precision":"range","state":"OH"},"type":"Feature","geometry":{"type":"Point","coordinates":[-84.377119,40.291594]}},{"properties":{"city":"Ft Loramie","zip":"45845","geo_score":0.789,"id":"abo40tgpj8wq","address":"18 Walnut St","geo_precision":"street","state":"OH"},"type":"Feature","geometry":{"type":"Point","coordinates":[-84.368431,40.295372]}},{"properties":{"city":"New Knoxville","zip":"45871","geo_score":0.878,"id":"abo40t9bg2uo","address":"06603 Southland Rd","geo_precision":"street","state":"OH"},"type":"Feature","geometry":{"type":"Point","coordinates":[-84.304527,40.481342]}},{"properties":{"city":"Anna","zip":"45302","geo_score":0.829,"id":"abo40tjyh7bt","address":"303 S Second St","geo_precision":"street","state":"OH"},"type":"Feature","geometry":{"type":"Point","coordinates":[-84.176727,40.392837]}},{"properties":{"city":"Botkins","zip":"45306","geo_score":1.0,"id":"abo40tg82pn0","address":"104 Dinsmore St","geo_precision":"range","state":"OH"},"type":"Feature","geometry":{"type":"Point","coordinates":[-84.1908,40.468064]}},{"properties":{"city":"Sidney","zip":"45365","geo_score":0.935,"id":"abo40t6bv6j5","address":"1818 Cheryl Dr","geo_precision":"range","state":"OH"},"type":"Feature","geometry":{"type":"Point","coordinates":[-84.18515,40.283077]}},{"properties":{"city":"Ft Loramie","zip":"45845","geo_score":0.816,"id":"abo40tep82ce","address":"10 W Park St First Floor Apt","geo_precision":"range","state":"OH"},"type":"Feature","geometry":{"type":"Point","coordinates":[-84.375605,40.349931]}},{"properties":{"city":"Sidney","zip":"45365","geo_score":1.0,"id":"abo40tcz38sf","address":"2553 Apache Drive","geo_precision":"range","state":"OH"},"type":"Feature","geometry":{"type":"Point","coordinates":[-84.191165,40.283122]}},{"properties":{"city":"New Knoxville","zip":"45871","geo_score":0.886,"id":"abo40taqk69h","address":"19100 E Shelby Rd RM 255","geo_precision":"range","state":"OH"},"type":"Feature","geometry":{"type":"Point","coordinates":[-84.339142,40.476436]}},{"properties":{"city":"Wapakoneta","zip":"45895","geo_score":1.0,"id":"abo40tf7m0og","address":"09190 Burr Oak Rd","geo_precision":"range","state":"OH"},"type":"Feature","geometry":{"type":"Point","coordinates":[-84.26783,40.518385]}},{"properties":{"city":"Sidney","zip":"45365","geo_score":1.0,"id":"abo40te6yzpk","address":"1278 Tully Dr","geo_precision":"range","state":"OH"},"type":"Feature","geometry":{"type":"Point","coordinates":[-84.177044,40.299513]}},{"properties":{"city":"Anna","zip":"45302","geo_score":1.0,"id":"abo40tjo2pz5","address":"305 S Pike St","geo_precision":"range","state":"OH"},"type":"Feature","geometry":{"type":"Point","coordinates":[-84.173124,40.392757]}},{"properties":{"city":"New Bremen","zip":"45869","geo_score":0.707,"id":"abo40tdtrca3","address":"209 1/2 E Monroe St","geo_precision":"range","state":"OH"},"type":"Feature","geometry":{"type":"Point","coordinates":[-84.380642,40.436823]}},{"properties":{"city":"Sidney","zip":"45365","geo_score":0.902,"id":"abo40t7zauin","address":"1700 Wildwood Ct","geo_precision":"street","state":"OH"},"type":"Feature","geometry":{"type":"Point","coordinates":[-84.172843,40.268989]}},{"properties":{"city":"Sidney","zip":"45365","geo_score":1.0,"id":"abo40tjn5nob","address":"657 Ridgeway Dr","geo_precision":"range","state":"OH"},"type":"Feature","geometry":{"type":"Point","coordinates":[-84.163799,40.27087]}},{"properties":{"city":"Sidney","zip":"45365","geo_score":1.0,"id":"abo40tdmq4gt","address":"1310 Pinetree Pl","geo_precision":"range","state":"OH"},"type":"Feature","geometry":{"type":"Point","coordinates":[-84.166656,40.268766]}},{"properties":{"city":"Wapakoneta","zip":"45895","geo_score":1.0,"id":"abo40thyyg6b","address":"10708 Kohler Rd","geo_precision":"range","state":"OH"},"type":"Feature","geometry":{"type":"Point","coordinates":[-84.230854,40.50735]}},{"properties":{"city":"Botkins","zip":"45306","geo_score":1.0,"id":"abo40tc5jlg4","address":"17900 Kettlersville Rd","geo_precision":"range","state":"OH"},"type":"Feature","geometry":{"type":"Point","coordinates":[-84.264565,40.452937]}},{"properties":{"city":"New Knoxville","zip":"45871","geo_score":0.89,"id":"abo40tfk32ql","address":"12071 Moulton New Knoxville Rd","geo_precision":"street","state":"OH"},"type":"Feature","geometry":{"type":"Point","coordinates":[-84.297441,40.521526]}},{"properties":{"city":"Sidney","zip":"45365","geo_score":0.916,"id":"abo40teioani","address":"1324 Sixth Ave","geo_precision":"range","state":"OH"},"type":"Feature","geometry":{"type":"Point","coordinates":[-84.178013,40.300752]}},{"properties":{"city":"Anna","zip":"45302","geo_score":0.672,"id":"abo40taff10u","address":"15550 CR 25A","geo_precision":"street","state":"OH"},"type":"Feature","geometry":{"type":"Point","coordinates":[-84.170409,40.372496]}},{"properties":{"city":"Sidney","zip":"45365","geo_score":1.0,"id":"abo40t4ot6hl","address":"1526 Rosewood Pl","geo_precision":"range","state":"OH"},"type":"Feature","geometry":{"type":"Point","coordinates":[-84.178472,40.297012]}},{"properties":{"city":"New Knoxville","zip":"45871","geo_score":0.979,"id":"abo40td1ip1b","address":"06301 Cloverleaf Rd.","geo_precision":"range","state":"OH"},"type":"Feature","geometry":{"type":"Point","coordinates":[-84.332745,40.525258]}},{"properties":{"city":"New Knoxville","zip":"45871","geo_score":0.695,"id":"abo40tg3su9y","address":"12987 Moulton New Knoxville Rd","geo_precision":"street","state":"OH"},"type":"Feature","geometry":{"type":"Point","coordinates":[-84.297426,40.531064]}},{"properties":{"city":"New Bremen","zip":"45869","geo_score":1.0,"id":"abo40td858hn","address":"29 S Main St","geo_precision":"range","state":"OH"},"type":"Feature","geometry":{"type":"Point","coordinates":[-84.382723,40.436309]}},{"properties":{"city":"New Knoxville","zip":"45871","geo_score":0.947,"id":"abo40ti5430y","address":"206 Walnut St","geo_precision":"range","state":"OH"},"type":"Feature","geometry":{"type":"Point","coordinates":[-84.320902,40.493541]}},{"properties":{"city":"Sidney","zip":"45365","geo_score":0.971,"id":"abo40t8jza9l","address":"1523 Spruce Av","geo_precision":"range","state":"OH"},"type":"Feature","geometry":{"type":"Point","coordinates":[-84.169712,40.268669]}},{"properties":{"city":"New Knoxville","zip":"45871","geo_score":1.0,"id":"abo40tj6kexu","address":"10590 Cook Rd","geo_precision":"range","state":"OH"},"type":"Feature","geometry":{"type":"Point","coordinates":[-84.297516,40.499887]}},{"properties":{"city":"Anna","zip":"45302","geo_score":1.0,"id":"abo40t9hsgw1","address":"214 Diamond Dr","geo_precision":"range","state":"OH"},"type":"Feature","geometry":{"type":"Point","coordinates":[-84.175582,40.39035]}},{"properties":{"city":"New Knoxville","zip":"45871","geo_score":1.0,"id":"abo40tcinw45","address":"08009 Wiefenbach Rd","geo_precision":"range","state":"OH"},"type":"Feature","geometry":{"type":"Point","coordinates":[-84.297066,40.527754]}},{"properties":{"city":"New Knoxville","zip":"45871","geo_score":0.91,"id":"abo40tfz9hmk","address":"09624 St Rt 219","geo_precision":"range","state":"OH"},"type":"Feature","geometry":{"type":"Point","coordinates":[-84.26611,40.496324]}},{"properties":{"city":"St Marys","zip":"45885","geo_score":0.876,"id":"abo40tjwhtrw","address":"10242 St Rt 66","geo_precision":"range","state":"OH"},"type":"Feature","geometry":{"type":"Point","coordinates":[-84.377228,40.496165]}},{"properties":{"city":"Botkins","zip":"45306","geo_score":0.806,"id":"abo40te8rhps","address":"112 Roth St","geo_precision":"street","state":"OH"},"type":"Feature","geometry":{"type":"Point","coordinates":[-84.184478,40.471495]}},{"properties":{"city":"Minster","zip":"45865","geo_score":0.963,"id":"abo40t4avda3","address":"3386 Minster-Ft Recovery Rd","geo_precision":"range","state":"OH"},"type":"Feature","geometry":{"type":"Point","coordinates":[-84.388944,40.392862]}},{"properties":{"city":"Anna","zip":"45302","geo_score":0.927,"id":"abo40t6uofe9","address":"210 N Linden St","geo_precision":"range","state":"OH"},"type":"Feature","geometry":{"type":"Point","coordinates":[-84.171776,40.397223]}},{"properties":{"city":"Anna","zip":"45302","geo_score":0.947,"id":"abo40tft3ds8","address":"206 Emerald Ct","geo_precision":"range","state":"OH"},"type":"Feature","geometry":{"type":"Point","coordinates":[-84.175364,40.39179]}},{"properties":{"city":"Botkins","zip":"45306","geo_score":1.0,"id":"abo40t3pshf0","address":"411 W State St","geo_precision":"range","state":"OH"},"type":"Feature","geometry":{"type":"Point","coordinates":[-84.187518,40.467683]}},{"properties":{"city":"Ft Loramie","zip":"45845","geo_score":0.942,"id":"abo40tc93y4v","address":"430 E Greenback Rd","geo_precision":"range","state":"OH"},"type":"Feature","geometry":{"type":"Point","coordinates":[-84.364979,40.34326]}},{"properties":{"city":"Ft Loramie","zip":"45845","geo_score":0.984,"id":"abo40tcsdbsx","address":"40 Monterey Dr","geo_precision":"range","state":"OH"},"type":"Feature","geometry":{"type":"Point","coordinates":[-84.367892,40.347986]}},{"properties":{"city":"Anna","zip":"45302","geo_score":0.672,"id":"abo40taaauuy","address":"14420 CR 25A","geo_precision":"street","state":"OH"},"type":"Feature","geometry":{"type":"Point","coordinates":[-84.170409,40.372496]}},{"properties":{"city":"New Knoxville","zip":"45871","geo_score":0.886,"id":"abo40tdijx71","address":"19100 E Shelby Rd Rm 131","geo_precision":"range","state":"OH"},"type":"Feature","geometry":{"type":"Point","coordinates":[-84.339142,40.476436]}},{"properties":{"city":"New Knoxville","zip":"45871","geo_score":0.877,"id":"abo40t8b6dd9","address":"19100 E Shelby Rd unit 23","geo_precision":"range","state":"OH"},"type":"Feature","geometry":{"type":"Point","coordinates":[-84.339142,40.476436]}},{"properties":{"city":"Sidney","zip":"45365","geo_score":1.0,"id":"abo40t5r3qhn","address":"116 Stewart Dr","geo_precision":"range","state":"OH"},"type":"Feature","geometry":{"type":"Point","coordinates":[-84.186745,40.283767]}},{"properties":{"city":"Wapakoneta","zip":"45895","geo_score":1.0,"id":"abo40t3k3mkx","address":"11780 HEADAPOHL RD","geo_precision":"range","state":"OH"},"type":"Feature","geometry":{"type":"Point","coordinates":[-84.245175,40.50396]}},{"properties":{"city":"Ft Loramie","zip":"45845","geo_score":0.984,"id":"abo40t8abze6","address":"83 S Main St","geo_precision":"range","state":"OH"},"type":"Feature","geometry":{"type":"Point","coordinates":[-84.375198,40.343193]}},{"properties":{"city":"Ft Loramie","zip":"45845","geo_score":0.984,"id":"abo40t54so37","address":"3534 Newport Rd","geo_precision":"range","state":"OH"},"type":"Feature","geometry":{"type":"Point","coordinates":[-84.368279,40.295208]}},{"properties":{"city":"Sidney","zip":"45365","geo_score":1.0,"id":"abo40tjqmqdo","address":"1539 Spruce Ave","geo_precision":"range","state":"OH"},"type":"Feature","geometry":{"type":"Point","coordinates":[-84.169422,40.268582]}},{"properties":{"city":"Sidney","zip":"45365","geo_score":0.777,"id":"abo40taxit7j","address":"1309 Sixth Av","geo_precision":"street","state":"OH"},"type":"Feature","geometry":{"type":"Point","coordinates":[-84.178105,40.301005]}},{"properties":{"city":"Anna","zip":"45302","geo_score":1.0,"id":"abo40t50zmgz","address":"208 E Walnut St","geo_precision":"range","state":"OH"},"type":"Feature","geometry":{"type":"Point","coordinates":[-84.170151,40.39741]}},{"properties":{"city":"Sidney","zip":"45365","geo_score":1.0,"id":"abo40tf6350f","address":"1550 Spruce Ave","geo_precision":"range","state":"OH"},"type":"Feature","geometry":{"type":"Point","coordinates":[-84.169456,40.268436]}},{"properties":{"city":"New Knoxville","zip":"45871","geo_score":1.0,"id":"abo40t5yubkz","address":"11000 Headapohl Rd","geo_precision":"range","state":"OH"},"type":"Feature","geometry":{"type":"Point","coordinates":[-84.230903,40.504038]}},{"properties":{"city":"Anna","zip":"45302","geo_score":0.89,"id":"abo40tb3lpvk","address":"403 Risha Av","geo_precision":"range","state":"OH"},"type":"Feature","geometry":{"type":"Point","coordinates":[-84.170973,40.39959]}},{"properties":{"city":"Sidney","zip":"45365","geo_score":1.0,"id":"abo40t8c1o8y","address":"1631 Ash Place","geo_precision":"range","state":"OH"},"type":"Feature","geometry":{"type":"Point","coordinates":[-84.179833,40.298536]}},{"properties":{"city":"Sidney","zip":"45365","geo_score":0.976,"id":"abo40tjrosmj","address":"1215 W Russel Rd","geo_precision":"range","state":"OH"},"type":"Feature","geometry":{"type":"Point","coordinates":[-84.177874,40.301979]}},{"properties":{"city":"Sidney","zip":"45365","geo_score":1.0,"id":"abo40tiqogpg","address":"1144 Hawthorne Dr","geo_precision":"range","state":"OH"},"type":"Feature","geometry":{"type":"Point","coordinates":[-84.167758,40.271992]}},{"properties":{"city":"Anna","zip":"45302","geo_score":0.585,"id":"abo40tdp8ayf","address":"102 Peridot Dr","geo_precision":"zip","state":"OH"},"type":"Feature","geometry":{"type":"Point","coordinates":[-84.255781,40.39477]}},{"properties":{"city":"Sidney","zip":"45365","geo_score":0.913,"id":"abo40t86xxbu","address":"1835 Glenn Dr","geo_precision":"range","state":"OH"},"type":"Feature","geometry":{"type":"Point","coordinates":[-84.186019,40.284707]}},{"properties":{"city":"Botkins","zip":"45306","geo_score":1.0,"id":"abo40thrhpk8","address":"412 E State ST","geo_precision":"range","state":"OH"},"type":"Feature","geometry":{"type":"Point","coordinates":[-84.174454,40.467854]}},{"properties":{"city":"Anna","zip":"45302","geo_score":0.585,"id":"abo40tinx4wr","address":"209 Peridot Dr","geo_precision":"zip","state":"OH"},"type":"Feature","geometry":{"type":"Point","coordinates":[-84.255781,40.39477]}},{"properties":{"city":"New Knoxville","zip":"45871","geo_score":0.805,"id":"abo40t5ytvux","address":"10472 Plattner Pike","geo_precision":"street","state":"OH"},"type":"Feature","geometry":{"type":"Point","coordinates":[-84.358365,40.491614]}},{"properties":{"city":"New Knoxville","zip":"45871","geo_score":0.91,"id":"abo40tbnfyeq","address":"07985 St Rt 219","geo_precision":"range","state":"OH"},"type":"Feature","geometry":{"type":"Point","coordinates":[-84.299418,40.496166]}},{"properties":{"city":"New Knoxville","zip":"45885","geo_score":0.8,"id":"abo40t7urn9j","address":"301 W South St","geo_precision":"range","state":"OH"},"type":"Feature","geometry":{"type":"Point","coordinates":[-84.389651,40.541229]}},{"properties":{"city":"New Knoxville","zip":"45871","geo_score":0.883,"id":"abo40tbpnfsw","address":"301 W South St","geo_precision":"range","state":"OH"},"type":"Feature","geometry":{"type":"Point","coordinates":[-84.320055,40.492695]}},{"properties":{"city":"New Knoxville","zip":"45871","geo_score":0.883,"id":"abo40t62fo8j","address":"301 W South St","geo_precision":"range","state":"OH"},"type":"Feature","geometry":{"type":"Point","coordinates":[-84.320055,40.492695]}},{"properties":{"city":"New Knoxville","zip":"45871","geo_score":0.883,"id":"abo40t52315a","address":"301 W South St","geo_precision":"range","state":"OH"},"type":"Feature","geometry":{"type":"Point","coordinates":[-84.320055,40.492695]}},{"properties":{"city":"Sidney","zip":"45365","geo_score":0.81,"id":"abo40t4v85om","address":"835 N Vandemark Rd","geo_precision":"street","state":"OH"},"type":"Feature","geometry":{"type":"Point","coordinates":[-84.187904,40.291713]}},{"properties":{"city":"Sidney","zip":"45365","geo_score":0.935,"id":"abo40terxt2c","address":"1838 Daniel Dr","geo_precision":"range","state":"OH"},"type":"Feature","geometry":{"type":"Point","coordinates":[-84.186393,40.285551]}},{"properties":{"city":"Fort Loramie","zip":"45845","geo_score":1.0,"id":"abo40tgjw79c","address":"36 S Main St","geo_precision":"range","state":"OH"},"type":"Feature","geometry":{"type":"Point","coordinates":[-84.375481,40.348942]}},{"properties":{"city":"New Knoxville","zip":"45871","geo_score":0.585,"id":"abo40t8i20cf","address":"18731","geo_precision":"zip","state":"OH"},"type":"Feature","geometry":{"type":"Point","coordinates":[-84.282659,40.496141]}},{"properties":{"city":"St Marys","zip":"45885","geo_score":0.973,"id":"abo40t8tvopu","address":"05710 Carter Creek Rd","geo_precision":"range","state":"OH"},"type":"Feature","geometry":{"type":"Point","coordinates":[-84.344368,40.517114]}},{"properties":{"city":"New Bremen","zip":"45869","geo_score":1.0,"id":"abo40t69a1uf","address":"17020 Roettger Rd","geo_precision":"range","state":"OH"},"type":"Feature","geometry":{"type":"Point","coordinates":[-84.297957,40.447538]}},{"properties":{"city":"New Knoxville","zip":"45871","geo_score":0.976,"id":"abo40ti61tpp","address":"5500 Wierwill Rd","geo_precision":"range","state":"OH"},"type":"Feature","geometry":{"type":"Point","coordinates":[-84.32868,40.473646]}},{"properties":{"city":"New Knoxville","zip":"45871","geo_score":0.877,"id":"abo40te5za5p","address":"19100 E Shelby Rd Unit 18","geo_precision":"range","state":"OH"},"type":"Feature","geometry":{"type":"Point","coordinates":[-84.339142,40.476436]}},{"properties":{"city":"Wapakoneta","zip":"45895","geo_score":0.91,"id":"abo40t4hcs3b","address":"12170 St Rt 219","geo_precision":"range","state":"OH"},"type":"Feature","geometry":{"type":"Point","coordinates":[-84.214014,40.496696]}},{"properties":{"city":"Wapakoneta","zip":"45895","geo_score":0.878,"id":"abo40tjuat7u","address":"11873 Headapohl Rd","geo_precision":"range","state":"OH"},"type":"Feature","geometry":{"type":"Point","coordinates":[-84.245175,40.50396]}},{"properties":{"city":"Botkins","zip":"45306","geo_score":1.0,"id":"abo40tg3aeup","address":"9111 Botkins Rd","geo_precision":"range","state":"OH"},"type":"Feature","geometry":{"type":"Point","coordinates":[-84.255724,40.467241]}},{"properties":{"city":"Ft Loramie","zip":"45845","geo_score":0.874,"id":"abo40t708dx2","address":"55 Sawmill Rd Apt 2","geo_precision":"range","state":"OH"},"type":"Feature","geometry":{"type":"Point","coordinates":[-84.365204,40.346336]}},{"properties":{"city":"Ft Loramie","zip":"45845","geo_score":0.874,"id":"abo40t3rrdpn","address":"30 Sawmill Rd Apt 2","geo_precision":"range","state":"OH"},"type":"Feature","geometry":{"type":"Point","coordinates":[-84.365349,40.345944]}},{"properties":{"city":"Wapakoneta","zip":"45895","geo_score":0.91,"id":"abo40t85mi3p","address":"12778 St Rt 219","geo_precision":"range","state":"OH"},"type":"Feature","geometry":{"type":"Point","coordinates":[-84.207117,40.496721]}},{"properties":{"city":"New Knoxville","zip":"45871","geo_score":0.897,"id":"abo40te02ljq","address":"19100 E Shelby Rd Rm 20","geo_precision":"range","state":"OH"},"type":"Feature","geometry":{"type":"Point","coordinates":[-84.339142,40.476436]}},{"properties":{"city":"Sidney","zip":"45365","geo_score":1.0,"id":"abo40td2dtps","address":"1290 N Kuther Rd","geo_precision":"range","state":"OH"},"type":"Feature","geometry":{"type":"Point","coordinates":[-84.20758,40.293488]}},{"properties":{"city":"Sidney","zip":"45365","geo_score":0.947,"id":"abo40tjyi68u","address":"1641 Wildwood Dr","geo_precision":"range","state":"OH"},"type":"Feature","geometry":{"type":"Point","coordinates":[-84.172751,40.267499]}},{"properties":{"city":"Botkins","zip":"45306","geo_score":0.553,"id":"abo40tgtzsw1","address":"101 Meadow Dr Apt 1","geo_precision":"street","state":"OH"},"type":"Feature","geometry":{"type":"Point","coordinates":[-84.176994,40.466678]}},{"properties":{"city":"Botkins","zip":"45306","geo_score":1.0,"id":"abo40t5tsudt","address":"14868 Botkins Rd","geo_precision":"range","state":"OH"},"type":"Feature","geometry":{"type":"Point","coordinates":[-84.155653,40.467837]}},{"properties":{"city":"Botkins","zip":"45306","geo_score":1.0,"id":"abo40td2vluk","address":"114 Debra Dr","geo_precision":"range","state":"OH"},"type":"Feature","geometry":{"type":"Point","coordinates":[-84.184566,40.471601]}},{"properties":{"city":"Botkins","zip":"45306","geo_score":1.0,"id":"abo40ta4ruit","address":"107 N Main St","geo_precision":"range","state":"OH"},"type":"Feature","geometry":{"type":"Point","coordinates":[-84.182261,40.468581]}},{"properties":{"city":"St Marys","zip":"45885","geo_score":0.973,"id":"abo40tb4ilqa","address":"6656 Washington Pike","geo_precision":"range","state":"OH"},"type":"Feature","geometry":{"type":"Point","coordinates":[-84.325825,40.539979]}},{"properties":{"city":"Minster","zip":"45865","geo_score":0.842,"id":"abo40t4z59uc","address":"10715 SR 362","geo_precision":"range","state":"OH"},"type":"Feature","geometry":{"type":"Point","coordinates":[-84.354149,40.352591]}},{"properties":{"city":"St Marys","zip":"45885","geo_score":0.965,"id":"abo40t42fkny","address":"06974 Washington Pike","geo_precision":"range","state":"OH"},"type":"Feature","geometry":{"type":"Point","coordinates":[-84.32345,40.539998]}},{"properties":{"city":"Ft Loramie","zip":"45845","geo_score":0.984,"id":"abo40t3towah","address":"27 S Main St","geo_precision":"range","state":"OH"},"type":"Feature","geometry":{"type":"Point","coordinates":[-84.375319,40.348119]}},{"properties":{"city":"New Knoxville","zip":"45871","geo_score":0.877,"id":"abo40tcb3q71","address":"19100 E Shelby Rd Unit 11","geo_precision":"range","state":"OH"},"type":"Feature","geometry":{"type":"Point","coordinates":[-84.339142,40.476436]}},{"properties":{"city":"Sidney","zip":"45365","geo_score":1.0,"id":"abo40tjzid94","address":"1627 Cypress Pl","geo_precision":"range","state":"OH"},"type":"Feature","geometry":{"type":"Point","coordinates":[-84.179879,40.300071]}},{"properties":{"city":"New Knoxville","zip":"45871","geo_score":0.886,"id":"abo40tjqizsn","address":"19100 E Shelby Rd Rm 147","geo_precision":"range","state":"OH"},"type":"Feature","geometry":{"type":"Point","coordinates":[-84.339142,40.476436]}},{"properties":{"city":"Botkins","zip":"45306","geo_score":0.684,"id":"abo40t960v9k","address":"403 Debra Dr","geo_precision":"street","state":"OH"},"type":"Feature","geometry":{"type":"Point","coordinates":[-84.184478,40.471495]}},{"properties":{"city":"Anna","zip":"45302","geo_score":1.0,"id":"abo40tiq20g0","address":"208 W Walnut St","geo_precision":"range","state":"OH"},"type":"Feature","geometry":{"type":"Point","coordinates":[-84.176017,40.397357]}},{"properties":{"city":"Ft Loramie","zip":"45845","geo_score":0.984,"id":"abo40t9j8r6c","address":"3725 Newport Rd","geo_precision":"range","state":"OH"},"type":"Feature","geometry":{"type":"Point","coordinates":[-84.365301,40.294155]}},{"properties":{"city":"New Knoxville","zip":"45871","geo_score":1.0,"id":"abo40t64zwzz","address":"19100 E Shelby Rd","geo_precision":"range","state":"OH"},"type":"Feature","geometry":{"type":"Point","coordinates":[-84.339142,40.476436]}},{"properties":{"city":"Ft Loramie","zip":"45845","geo_score":0.9,"id":"abo40t5h8d9z","address":"18 Lane St","geo_precision":"range","state":"OH"},"type":"Feature","geometry":{"type":"Point","coordinates":[-84.369804,40.34707]}},{"properties":{"city":"St Marys","zip":"45885","geo_score":0.876,"id":"abo40thrlfzw","address":"10263 St Rt 66","geo_precision":"range","state":"OH"},"type":"Feature","geometry":{"type":"Point","coordinates":[-84.377374,40.495808]}},{"properties":{"city":"Anna","zip":"45302","geo_score":0.89,"id":"abo40theu52y","address":"404 Risha Av","geo_precision":"range","state":"OH"},"type":"Feature","geometry":{"type":"Point","coordinates":[-84.170823,40.399566]}},{"properties":{"city":"New Knoxville","zip":"45871","geo_score":0.877,"id":"abo40tdvk1lg","address":"19100 E Shelby Rd Unit 25","geo_precision":"range","state":"OH"},"type":"Feature","geometry":{"type":"Point","coordinates":[-84.339142,40.476436]}},{"properties":{"city":"New Knoxville","zip":"45871","geo_score":1.0,"id":"abo40teck33b","address":"511 W Bremen Street","geo_precision":"range","state":"OH"},"type":"Feature","geometry":{"type":"Point","coordinates":[-84.323311,40.493825]}},{"properties":{"city":"Anna","zip":"45302","geo_score":0.927,"id":"abo40tg9a3uc","address":"103 N Linden St","geo_precision":"range","state":"OH"},"type":"Feature","geometry":{"type":"Point","coordinates":[-84.171919,40.396158]}},{"properties":{"city":"Wapakoneta","zip":"45895","geo_score":0.842,"id":"abo40th3ga9e","address":"13619 SR 219","geo_precision":"range","state":"OH"},"type":"Feature","geometry":{"type":"Point","coordinates":[-84.188799,40.496922]}},{"properties":{"city":"Botkins","zip":"45306","geo_score":0.842,"id":"abo40t6nhtbt","address":"19280 SR 219","geo_precision":"range","state":"OH"},"type":"Feature","geometry":{"type":"Point","coordinates":[-84.183757,40.48093]}},{"properties":{"city":"Sidney","zip":"45365","geo_score":1.0,"id":"abo40tifdqw5","address":"1129 Hawthorne Dr","geo_precision":"range","state":"OH"},"type":"Feature","geometry":{"type":"Point","coordinates":[-84.168056,40.272126]}},{"properties":{"city":"Botkins","zip":"45306","geo_score":1.0,"id":"abo40ti45ypa","address":"308 N Sycamore St","geo_precision":"range","state":"OH"},"type":"Feature","geometry":{"type":"Point","coordinates":[-84.179928,40.470117]}},{"properties":{"city":"Botkins","zip":"45306","geo_score":0.746,"id":"abo40tjaiov3","address":"202 Meadow Dr Apt 1","geo_precision":"range","state":"OH"},"type":"Feature","geometry":{"type":"Point","coordinates":[-84.177067,40.466642]}},{"properties":{"city":"New Knoxville","zip":"45871","geo_score":1.0,"id":"abo40t9ipzl4","address":"19100 E Shelby Rd","geo_precision":"range","state":"OH"},"type":"Feature","geometry":{"type":"Point","coordinates":[-84.339142,40.476436]}},{"properties":{"city":"Sidney","zip":"45365","geo_score":0.793,"id":"abo40tbs0agk","address":"1128 Amherst Dr Apt B3","geo_precision":"street","state":"OH"},"type":"Feature","geometry":{"type":"Point","coordinates":[-84.169541,40.270065]}},{"properties":{"city":"Sidney","zip":"45365","geo_score":1.0,"id":"abo40t5uzm7o","address":"1870 Shawnee Dr","geo_precision":"range","state":"OH"},"type":"Feature","geometry":{"type":"Point","coordinates":[-84.189947,40.2852]}},{"properties":{"city":"Anna","zip":"45302","geo_score":0.619,"id":"abo40tg9hvmk","address":"312 S Pike St, Apt 112","geo_precision":"street","state":"OH"},"type":"Feature","geometry":{"type":"Point","coordinates":[-84.173309,40.395111]}},{"properties":{"city":"Sidney","zip":"45365","geo_score":1.0,"id":"abo40t8flrgj","address":"1608 Holly Pl","geo_precision":"range","state":"OH"},"type":"Feature","geometry":{"type":"Point","coordinates":[-84.179927,40.297892]}},{"properties":{"city":"Minster","zip":"45865","geo_score":0.842,"id":"abo40tgfryqv","address":"10975 SR 362","geo_precision":"range","state":"OH"},"type":"Feature","geometry":{"type":"Point","coordinates":[-84.357436,40.356635]}},{"properties":{"city":"New Bremen","zip":"45869","geo_score":0.819,"id":"abo40tfcxee0","address":"113 Cardinal St","geo_precision":"street","state":"OH"},"type":"Feature","geometry":{"type":"Point","coordinates":[-84.366686,40.435449]}},{"properties":{"city":"New Knoxville","zip":"45871","geo_score":0.886,"id":"abo40t52svgb","address":"19100 E Shelby Rd Rm 213","geo_precision":"range","state":"OH"},"type":"Feature","geometry":{"type":"Point","coordinates":[-84.339142,40.476436]}},{"properties":{"city":"Sidney","zip":"45365","geo_score":1.0,"id":"abo40t54zn79","address":"1505 Spruce Ave","geo_precision":"range","state":"OH"},"type":"Feature","geometry":{"type":"Point","coordinates":[-84.170027,40.268852]}},{"properties":{"city":"Sidney","zip":"45365","geo_score":0.976,"id":"abo40t54vmid","address":"1195 W Russel Rd","geo_precision":"range","state":"OH"},"type":"Feature","geometry":{"type":"Point","coordinates":[-84.172403,40.30218]}},{"properties":{"city":"Anna","zip":"45302","geo_score":0.947,"id":"abo40tfgyair","address":"504 E Main St B","geo_precision":"range","state":"OH"},"type":"Feature","geometry":{"type":"Point","coordinates":[-84.16749,40.395115]}},{"properties":{"city":"Sidney","zip":"45365","geo_score":1.0,"id":"abo40t6onit6","address":"1328 Willow Pl","geo_precision":"range","state":"OH"},"type":"Feature","geometry":{"type":"Point","coordinates":[-84.179931,40.300968]}},{"properties":{"city":"Sidney","zip":"45365","geo_score":0.807,"id":"abo40taveb2g","address":"2881 W Michigan St","geo_precision":"street","state":"OH"},"type":"Feature","geometry":{"type":"Point","coordinates":[-84.197835,40.287556]}},{"properties":{"city":"New Knoxville","zip":"45871","geo_score":0.878,"id":"abo40thsj9xf","address":"05269 Southland Rd","geo_precision":"range","state":"OH"},"type":"Feature","geometry":{"type":"Point","coordinates":[-84.354496,40.480582]}},{"properties":{"city":"Ft Loramie","zip":"45845","geo_score":0.886,"id":"abo40tjigmgg","address":"22 W Main St","geo_precision":"range","state":"OH"},"type":"Feature","geometry":{"type":"Point","coordinates":[-84.375418,40.350739]}},{"properties":{"city":"Ft Loramie","zip":"45845","geo_score":0.874,"id":"abo40t4s8bd7","address":"75 Sawmill Rd Apt A","geo_precision":"range","state":"OH"},"type":"Feature","geometry":{"type":"Point","coordinates":[-84.365209,40.346773]}},{"properties":{"city":"Minster","zip":"45865","geo_score":0.927,"id":"abo40telfhwy","address":"295 Lakewood Ave","geo_precision":"range","state":"OH"},"type":"Feature","geometry":{"type":"Point","coordinates":[-84.372338,40.388169]}},{"properties":{"city":"New Bremen","zip":"45869","geo_score":0.935,"id":"abo40t3qlu3d","address":"26 E Vine St","geo_precision":"range","state":"OH"},"type":"Feature","geometry":{"type":"Point","coordinates":[-84.377168,40.436325]}},{"properties":{"city":"New Bremen","zip":"45869","geo_score":1.0,"id":"abo40tequgcy","address":"233 E Monroe St","geo_precision":"range","state":"OH"},"type":"Feature","geometry":{"type":"Point","coordinates":[-84.375945,40.436904]}},{"properties":{"city":"Botkins","zip":"45306","geo_score":1.0,"id":"abo40thqycrd","address":"420 E State St","geo_precision":"range","state":"OH"},"type":"Feature","geometry":{"type":"Point","coordinates":[-84.175233,40.467852]}},{"properties":{"city":"Sidney","zip":"45365","geo_score":1.0,"id":"abo40t6f4tqo","address":"2523 Apache Dr","geo_precision":"range","state":"OH"},"type":"Feature","geometry":{"type":"Point","coordinates":[-84.191392,40.283168]}},{"properties":{"city":"New Knoxville","zip":"45871","geo_score":0.708,"id":"abo40tc4csqo","address":"10759 Plattner Pike","geo_precision":"street","state":"OH"},"type":"Feature","geometry":{"type":"Point","coordinates":[-84.358365,40.491614]}},{"properties":{"city":"Celina","zip":"45822","geo_score":0.659,"id":"abo40tbvp21u","address":"7600 Lake Campus Drive","geo_precision":"street","state":"OH"},"type":"Feature","geometry":{"type":"Point","coordinates":[-84.493502,40.505921]}},{"properties":{"city":"Celina","zip":"45822","geo_score":0.659,"id":"abo40t7eeqds","address":"7600 Lake Campus Drive","geo_precision":"street","state":"OH"},"type":"Feature","geometry":{"type":"Point","coordinates":[-84.493502,40.505921]}},{"properties":{"city":"Minster","zip":"45865","geo_score":0.865,"id":"abo40td1yd0q","address":"04623 St Rt 119 E","geo_precision":"range","state":"OH"},"type":"Feature","geometry":{"type":"Point","coordinates":[-84.364011,40.393202]}},{"properties":{"city":"Minster","zip":"45865","geo_score":1.0,"id":"abo40thy4nx1","address":"38 S Paris St","geo_precision":"range","state":"OH"},"type":"Feature","geometry":{"type":"Point","coordinates":[-84.367241,40.392228]}},{"properties":{"city":"New Knoxville","zip":"45871","geo_score":0.91,"id":"abo40t8krn12","address":"05480 St Rt 219","geo_precision":"range","state":"OH"},"type":"Feature","geometry":{"type":"Point","coordinates":[-84.347231,40.495301]}},{"properties":{"city":"Sidney","zip":"45365","geo_score":1.0,"id":"abo40tdmon0w","address":"660 Ridgeway Dr","geo_precision":"range","state":"OH"},"type":"Feature","geometry":{"type":"Point","coordinates":[-84.163798,40.271025]}},{"properties":{"city":"Botkins","zip":"45306","geo_score":0.854,"id":"abo40t7xc3mx","address":"107 North St","geo_precision":"range","state":"OH"},"type":"Feature","geometry":{"type":"Point","coordinates":[-84.182595,40.471411]}},{"properties":{"city":"Anna","zip":"45302","geo_score":0.883,"id":"abo40tg4xkvg","address":"111 W South St","geo_precision":"range","state":"OH"},"type":"Feature","geometry":{"type":"Point","coordinates":[-84.173637,40.393978]}},{"properties":{"city":"Sidney","zip":"45365","geo_score":0.986,"id":"abo40t8rl13r","address":"208 Stewart Dr","geo_precision":"range","state":"OH"},"type":"Feature","geometry":{"type":"Point","coordinates":[-84.186578,40.284548]}},{"properties":{"city":"Botkins","zip":"45306","geo_score":1.0,"id":"abo40t43gfwl","address":"101 N Main St","geo_precision":"range","state":"OH"},"type":"Feature","geometry":{"type":"Point","coordinates":[-84.182205,40.468765]}},{"properties":{"city":"St Marys","zip":"45885","geo_score":0.688,"id":"abo40td4g2r2","address":"13673 Glynwood - NK Road","geo_precision":"street","state":"OH"},"type":"Feature","geometry":{"type":"Point","coordinates":[-84.442343,40.582459]}},{"properties":{"city":"Wapakoneta","zip":"45895","geo_score":0.988,"id":"abo40t83gjv4","address":"12660 Moulton New Knoxville Rd","geo_precision":"range","state":"OH"},"type":"Feature","geometry":{"type":"Point","coordinates":[-84.297316,40.536747]}}],"is_temporal":false,"author":{"url":null,"metadata":null,"contact_name":null,"contact_address":null,"source":null,"contact_phone":null},"source":null,"pagination":{"sort":null,"start":0,"total":784,"limit":1000000},"state":"complete","tags":"","published":"2014-08-16T18:21:39-04:00","id":313770}