{"type":"FeatureCollection","data_type":"Dataset","url_type":null,"permissions":[{"permissions":{"download":true,"view":true},"group_id":"everyone"}],"classification":null,"title":"Copy_of_IPTV-Waldron-Jan-16-2013_-_CSV","count":40,"stream_id":313792,"contributor":{"url":"http://geocommons.com/users/59404","name":"KatieEtgen"},"data_attributes":null,"calculation_params":null,"icon_link":null,"link":"http://geocommons.com/overlays/313792.json","extent":[-84.4969,41.7051,-84.3171,41.7675],"geometry_types":["point"],"unique_name":null,"name":"Copy_of_IPTV-Waldron-Jan-16-2013_-_CSV","feature_count":40,"description":"","next_feature":null,"is_raster":false,"short_classification":"Y","stats":{},"features":[{"properties":{"city":"Waldron","zip":"49288","geo_score":1.0,"id":"abo4x3qtttpw","address":"12411 Hartley Rd","geo_precision":"range","state":"MI"},"type":"Feature","geometry":{"type":"Point","coordinates":[-84.401012,41.738636]}},{"properties":{"city":"waldron","zip":"49288","geo_score":0.707,"id":"abo4x3e3n0s4","address":"10211 E Territorial Rd","geo_precision":"street","state":"MI"},"type":"Feature","geometry":{"type":"Point","coordinates":[-84.496929,41.709485]}},{"properties":{"city":"Hudson","zip":"49247","geo_score":1.0,"id":"abo4x3nd0kcj","address":"17001 Lime Creek Rd","geo_precision":"range","state":"MI"},"type":"Feature","geometry":{"type":"Point","coordinates":[-84.348703,41.765311]}},{"properties":{"city":"Waldron","zip":"49288","geo_score":1.0,"id":"abo4x3pu0d78","address":"142 S Main St","geo_precision":"range","state":"MI"},"type":"Feature","geometry":{"type":"Point","coordinates":[-84.418932,41.726723]}},{"properties":{"city":"Hudson","zip":"49288","geo_score":0.805,"id":"abo4x3guwa9j","address":"16193 Lime Creek Rd","geo_precision":"range","state":"MI"},"type":"Feature","geometry":{"type":"Point","coordinates":[-84.332067,41.765485]}},{"properties":{"city":"Waldron","zip":"49288","geo_score":0.935,"id":"abo4x3fx3t85","address":"406 Mill St","geo_precision":"range","state":"MI"},"type":"Feature","geometry":{"type":"Point","coordinates":[-84.423104,41.725287]}},{"properties":{"city":"Waldron","zip":"49288","geo_score":1.0,"id":"abo4x3olsbbn","address":"14051 Hartley Rd","geo_precision":"range","state":"MI"},"type":"Feature","geometry":{"type":"Point","coordinates":[-84.380162,41.738789]}},{"properties":{"city":"Waldron","zip":"49288","geo_score":1.0,"id":"abo4x3tgxk2w","address":"110 Emerson St","geo_precision":"range","state":"MI"},"type":"Feature","geometry":{"type":"Point","coordinates":[-84.421347,41.727589]}},{"properties":{"city":"Waldron","zip":"49288","geo_score":0.947,"id":"abo4x3eu7u6s","address":"13251 E Camden Rd","geo_precision":"range","state":"MI"},"type":"Feature","geometry":{"type":"Point","coordinates":[-84.393413,41.753057]}},{"properties":{"city":"Waldron","zip":"49288","geo_score":0.854,"id":"abo4x3stmhwf","address":"10700 South Rd","geo_precision":"range","state":"MI"},"type":"Feature","geometry":{"type":"Point","coordinates":[-84.450312,41.716779]}},{"properties":{"city":"Waldron","zip":"49288","geo_score":0.87,"id":"abo4x3jyynpl","address":"141 S East St","geo_precision":"range","state":"MI"},"type":"Feature","geometry":{"type":"Point","coordinates":[-84.417578,41.728492]}},{"properties":{"city":"Waldron","zip":"49288","geo_score":1.0,"id":"abo4x3tkfse9","address":"125 Emerson St","geo_precision":"range","state":"MI"},"type":"Feature","geometry":{"type":"Point","coordinates":[-84.421194,41.727191]}},{"properties":{"city":"Waldron","zip":"49288","geo_score":0.902,"id":"abo4x3g3drjv","address":"221 N East St","geo_precision":"range","state":"MI"},"type":"Feature","geometry":{"type":"Point","coordinates":[-84.417587,41.72952]}},{"properties":{"city":"Waldron","zip":"49288","geo_score":1.0,"id":"abo4x3es2wkw","address":"108 Marcus St","geo_precision":"range","state":"MI"},"type":"Feature","geometry":{"type":"Point","coordinates":[-84.422637,41.727339]}},{"properties":{"city":"Waldron","zip":"49288","geo_score":0.947,"id":"abo4x3e9szpv","address":"112 W Center St","geo_precision":"range","state":"MI"},"type":"Feature","geometry":{"type":"Point","coordinates":[-84.419961,41.727908]}},{"properties":{"city":"Waldron","zip":"49288","geo_score":1.0,"id":"abo4x3fwmla1","address":"421 Bruce Ct","geo_precision":"range","state":"MI"},"type":"Feature","geometry":{"type":"Point","coordinates":[-84.424361,41.726766]}},{"properties":{"city":"Morenci","zip":"49256","geo_score":1.0,"id":"abo4x3qplg97","address":"13856 Munson HWY","geo_precision":"range","state":"MI"},"type":"Feature","geometry":{"type":"Point","coordinates":[-84.328611,41.711251]}},{"properties":{"city":"Waldron","zip":"49288","geo_score":0.805,"id":"abo4x3d4bz8p","address":"9500 E Territorial Rd","geo_precision":"street","state":"MI"},"type":"Feature","geometry":{"type":"Point","coordinates":[-84.496929,41.709485]}},{"properties":{"city":"Waldron","zip":"49288","geo_score":1.0,"id":"abo4x3n1yb7n","address":"302 N Main Street","geo_precision":"range","state":"MI"},"type":"Feature","geometry":{"type":"Point","coordinates":[-84.418861,41.729652]}},{"properties":{"city":"Pittsford","zip":"49271","geo_score":1.0,"id":"abo4x3kbujee","address":"10631 Burt Rd","geo_precision":"range","state":"MI"},"type":"Feature","geometry":{"type":"Point","coordinates":[-84.446213,41.767501]}},{"properties":{"city":"Waldron","zip":"49288","geo_score":0.875,"id":"abo4x3oppgyz","address":"106 West Street","geo_precision":"range","state":"MI"},"type":"Feature","geometry":{"type":"Point","coordinates":[-84.420144,41.727419]}},{"properties":{"city":"Waldron","zip":"49288","geo_score":1.0,"id":"abo4x3r9tagx","address":"14751 Coman Rd","geo_precision":"range","state":"MI"},"type":"Feature","geometry":{"type":"Point","coordinates":[-84.399471,41.710389]}},{"properties":{"city":"Waldron","zip":"49288","geo_score":1.0,"id":"abo4x461kcn5","address":"12920 S Waldron Rd","geo_precision":"range","state":"MI"},"type":"Feature","geometry":{"type":"Point","coordinates":[-84.419066,41.739797]}},{"properties":{"city":"Waldron","zip":"49288","geo_score":1.0,"id":"abo4x3v4z5vz","address":"421 S Main St","geo_precision":"range","state":"MI"},"type":"Feature","geometry":{"type":"Point","coordinates":[-84.418911,41.720427]}},{"properties":{"city":"Waldron","zip":"49288","geo_score":0.947,"id":"abo4x40q8vvx","address":"435 W Center St","geo_precision":"range","state":"MI"},"type":"Feature","geometry":{"type":"Point","coordinates":[-84.426499,41.727742]}},{"properties":{"city":"Waldron","zip":"49288","geo_score":1.0,"id":"abo4x44dbf1p","address":"12080 Hartley Rd","geo_precision":"range","state":"MI"},"type":"Feature","geometry":{"type":"Point","coordinates":[-84.414003,41.738787]}},{"properties":{"city":"Hudson","zip":"49247","geo_score":1.0,"id":"abo4x3xmfzyx","address":"15180 Lime Creek Rd","geo_precision":"range","state":"MI"},"type":"Feature","geometry":{"type":"Point","coordinates":[-84.317137,41.766166]}},{"properties":{"city":"Waldron","zip":"49288","geo_score":0.902,"id":"abo4x4162nht","address":"200 N Main","geo_precision":"range","state":"MI"},"type":"Feature","geometry":{"type":"Point","coordinates":[-84.418861,41.729652]}},{"properties":{"city":"Waldron","zip":"49288","geo_score":0.902,"id":"abo4x46zofdh","address":"115 South Main","geo_precision":"range","state":"MI"},"type":"Feature","geometry":{"type":"Point","coordinates":[-84.41879,41.727479]}},{"properties":{"city":"Waldron","zip":"49288","geo_score":1.0,"id":"abo4x43lgygs","address":"13060 Broom Rd","geo_precision":"range","state":"MI"},"type":"Feature","geometry":{"type":"Point","coordinates":[-84.384993,41.724384]}},{"properties":{"city":"Waldron","zip":"49288","geo_score":1.0,"id":"abo4x455xqjc","address":"11800 Camden Road","geo_precision":"range","state":"MI"},"type":"Feature","geometry":{"type":"Point","coordinates":[-84.434448,41.753167]}},{"properties":{"city":"Morenci","zip":"49256","geo_score":0.959,"id":"abo4x3vxuer2","address":"16275 Morence Rd","geo_precision":"range","state":"MI"},"type":"Feature","geometry":{"type":"Point","coordinates":[-84.33152,41.709758]}},{"properties":{"city":"Waldron","zip":"49288","geo_score":0.585,"id":"abo4x42t3n6d","address":"14080 lickley rd","geo_precision":"zip","state":"MI"},"type":"Feature","geometry":{"type":"Point","coordinates":[-84.447488,41.743114]}},{"properties":{"city":"Waldron","zip":"49288","geo_score":1.0,"id":"abo4x4790i25","address":"10320 Hartley Rd","geo_precision":"range","state":"MI"},"type":"Feature","geometry":{"type":"Point","coordinates":[-84.455405,41.738817]}},{"properties":{"city":"Waldron","zip":"49288","geo_score":1.0,"id":"abo4x3xvm0fb","address":"11685 Tuttle Rd","geo_precision":"range","state":"MI"},"type":"Feature","geometry":{"type":"Point","coordinates":[-84.438433,41.757616]}},{"properties":{"city":"Waldron","zip":"49288","geo_score":1.0,"id":"abo4x49njljj","address":"118 Emerson Street","geo_precision":"range","state":"MI"},"type":"Feature","geometry":{"type":"Point","coordinates":[-84.421346,41.727395]}},{"properties":{"city":"Waldron","zip":"49288","geo_score":0.902,"id":"abo4x3zoa57c","address":"201 N Main St","geo_precision":"street","state":"MI"},"type":"Feature","geometry":{"type":"Point","coordinates":[-84.418869,41.727855]}},{"properties":{"city":"Waldron","zip":"49288","geo_score":1.0,"id":"abo4x41r4g5x","address":"308 W Mill St","geo_precision":"range","state":"MI"},"type":"Feature","geometry":{"type":"Point","coordinates":[-84.422444,41.725289]}},{"properties":{"city":"waldron","zip":"49288","geo_score":1.0,"id":"abo4x499v3t1","address":"11400 Territorial Rd","geo_precision":"range","state":"MI"},"type":"Feature","geometry":{"type":"Point","coordinates":[-84.428313,41.705148]}},{"properties":{"city":"Waldron","zip":"49288","geo_score":0.676,"id":"abo4x496ice6","address":"308 S Main St, Apt A104","geo_precision":"street","state":"MI"},"type":"Feature","geometry":{"type":"Point","coordinates":[-84.418861,41.728933]}}],"is_temporal":false,"author":{"url":"","metadata":null,"contact_name":null,"contact_address":null,"source":null,"contact_phone":null},"source":"","pagination":{"sort":null,"start":0,"total":40,"limit":1000000},"state":"complete","tags":"","published":"2014-08-16T18:24:49-04:00","id":313792}