{"type":"FeatureCollection","data_type":"Dataset","url_type":null,"permissions":[{"permissions":{"download":true,"view":true},"group_id":"everyone"}],"classification":null,"title":"PPC","count":18,"stream_id":313857,"contributor":{"url":"http://geocommons.com/users/58913","name":"xfeng33"},"data_attributes":null,"calculation_params":null,"icon_link":null,"link":"http://geocommons.com/overlays/313857.json","extent":[-96.0703,35.5884,-81.5273,45.1689],"geometry_types":["point"],"unique_name":null,"name":"PPC","feature_count":18,"description":"","next_feature":null,"is_raster":false,"short_classification":"Y","stats":{},"features":[{"properties":{"zipcode":"60176","geo_score":0.714,"id":"abodb0hjn6ss","geo_precision":"zip"},"type":"Feature","geometry":{"type":"Point","coordinates":[-87.873412,41.95918]}},{"properties":{"zipcode":"60666","geo_score":0.714,"id":"abodb0k77xst","geo_precision":"zip"},"type":"Feature","geometry":{"type":"Point","coordinates":[-87.650052,41.850033]}},{"properties":{"zipcode":"53154","geo_score":0.714,"id":"abodb0d4tafb","geo_precision":"zip"},"type":"Feature","geometry":{"type":"Point","coordinates":[-87.89198,42.886266]}},{"properties":{"zipcode":"60525","geo_score":0.714,"id":"abodb0lgmy0w","geo_precision":"zip"},"type":"Feature","geometry":{"type":"Point","coordinates":[-87.68732,41.811929]}},{"properties":{"zipcode":"60163","geo_score":0.714,"id":"abodb0brnaqj","geo_precision":"zip"},"type":"Feature","geometry":{"type":"Point","coordinates":[-87.68732,41.811929]}},{"properties":{"zipcode":"48091","geo_score":0.714,"id":"abodb07zzpid","geo_precision":"zip"},"type":"Feature","geometry":{"type":"Point","coordinates":[-83.054623,42.470938]}},{"properties":{"zipcode":"44146","geo_score":0.714,"id":"abodb0gs1qlj","geo_precision":"zip"},"type":"Feature","geometry":{"type":"Point","coordinates":[-81.527343,41.416998]}},{"properties":{"zipcode":"61834","geo_score":0.714,"id":"abodb0gsmh0n","geo_precision":"zip"},"type":"Feature","geometry":{"type":"Point","coordinates":[-87.67293,40.160162]}},{"properties":{"zipcode":"52641","geo_score":0.714,"id":"abodb0lpapiy","geo_precision":"zip"},"type":"Feature","geometry":{"type":"Point","coordinates":[-91.619608,41.166411]}},{"properties":{"zipcode":"52641","geo_score":0.714,"id":"abodb0hn3li3","geo_precision":"zip"},"type":"Feature","geometry":{"type":"Point","coordinates":[-91.619608,41.166411]}},{"properties":{"zipcode":"55374","geo_score":0.714,"id":"abodb0c0338n","geo_precision":"zip"},"type":"Feature","geometry":{"type":"Point","coordinates":[-93.574586,45.168896]}},{"properties":{"zipcode":"63376","geo_score":0.714,"id":"abodb08sna9c","geo_precision":"zip"},"type":"Feature","geometry":{"type":"Point","coordinates":[-90.661514,38.760608]}},{"properties":{"zipcode":"42001","geo_score":0.714,"id":"abodb07fqxse","geo_precision":"zip"},"type":"Feature","geometry":{"type":"Point","coordinates":[-88.507823,36.976447]}},{"properties":{"zipcode":"68122","geo_score":0.714,"id":"abodb0if9uog","geo_precision":"zip"},"type":"Feature","geometry":{"type":"Point","coordinates":[-96.07026,41.353003]}},{"properties":{"zipcode":"38019","geo_score":0.714,"id":"abodb0dct4oo","geo_precision":"zip"},"type":"Feature","geometry":{"type":"Point","coordinates":[-89.752581,35.588414]}},{"properties":{"zipcode":"64012","geo_score":0.714,"id":"abodb0hpvrev","geo_precision":"zip"},"type":"Feature","geometry":{"type":"Point","coordinates":[-94.589399,38.759453]}},{"properties":{"zipcode":"64701","geo_score":0.714,"id":"abodb0kz12uy","geo_precision":"zip"},"type":"Feature","geometry":{"type":"Point","coordinates":[-94.36106,38.572235]}},{"properties":{"zipcode":"64701","geo_score":0.714,"id":"abodb0m591tb","geo_precision":"zip"},"type":"Feature","geometry":{"type":"Point","coordinates":[-94.36106,38.572235]}}],"is_temporal":false,"author":{"url":"","metadata":null,"contact_name":null,"contact_address":null,"source":null,"contact_phone":null},"source":"","pagination":{"sort":null,"start":0,"total":18,"limit":1000000},"state":"complete","tags":"","published":"2014-08-16T18:30:21-04:00","id":313857}