{"type":"FeatureCollection","data_type":"Dataset","url_type":null,"permissions":[{"permissions":{"download":true,"view":true},"group_id":"everyone"}],"classification":null,"title":"hospital list 3","count":123,"stream_id":315996,"contributor":{"url":"http://geocommons.com/users/52708","name":"jjames"},"data_attributes":null,"calculation_params":null,"icon_link":null,"link":"http://geocommons.com/overlays/315996.json","extent":[-83.9663,33.9298,-75.6179,36.5094],"geometry_types":["point"],"unique_name":null,"name":"hospital list 3","feature_count":123,"description":"General/surgical hospitals in North Carolina\r\n","next_feature":null,"is_raster":false,"short_classification":"Y","stats":{"x":{"max":-75.6178753,"variance":3.29959991641884,"mean":-79.8511276869918,"stdev":1.81648008973918,"min":-83.9662786,"median":-79.8908586},"numbeds":{"max":957,"variance":50621.6262828202,"mean":210.886178861789,"stdev":224.992502725802,"min":6,"median":130},"y":{"max":36.5094379,"variance":0.29419815127321,"mean":35.5972821284553,"stdev":0.542400360686837,"min":33.9297928,"median":35.6818599},"id":{"max":10484041,"variance":2634442808.26989,"mean":10235094.9756098,"stdev":51326.8234772998,"min":10224492,"median":10224577},"fips":{"max":37197,"variance":3108.46754631481,"mean":37097.6178861789,"stdev":55.7536325840282,"min":37001,"median":37097}},"features":[{"properties":{"name":"ALAMANCE REGIONAL MEDICAL CENTER","city":"BURLINGTON","zip":"27215","numbeds":238,"x":-79.5021955,"county":"ALAMANCE","y":36.0612678,"id":"abuxp1btc17c","address":"1240 HUFFMAN MILL ROAD","fips":37001},"type":"Feature","geometry":{"type":"Point","coordinates":[-79.5021955,36.0612678]}},{"properties":{"name":"ALBEMARLE HOSPITAL","city":"ELIZABETH CITY","zip":"27909","numbeds":182,"x":-76.2183862,"county":"PASQUOTANK","y":36.3234624,"id":"abuxp16lj3ja","address":"1144 NORTH ROAD STREET","fips":37139},"type":"Feature","geometry":{"type":"Point","coordinates":[-76.2183862,36.3234624]}},{"properties":{"name":"ALLEGHANY MEMORIAL HOSPITAL","city":"SPARTA","zip":"28675","numbeds":25,"x":-81.1147782,"county":"ALLEGHANY","y":36.5094379,"id":"abuxp169qoce","address":"233 DOCTORS STREET","fips":37005},"type":"Feature","geometry":{"type":"Point","coordinates":[-81.1147782,36.5094379]}},{"properties":{"name":"ANGEL MEDICAL CENTER","city":"FRANKLIN","zip":"28734","numbeds":59,"x":-83.3783298,"county":"MACON","y":35.1846293,"id":"abuxp1gqadc4","address":"120 RIVERVIEW STREET","fips":37113},"type":"Feature","geometry":{"type":"Point","coordinates":[-83.3783298,35.1846293]}},{"properties":{"name":"ANNIE PENN HOSPITAL","city":"REIDSVILLE","zip":"27320","numbeds":110,"x":-79.6672047,"county":"ROCKINGHAM","y":36.3531993,"id":"abuxp1git7wp","address":"618 SOUTH MAIN STREET","fips":37157},"type":"Feature","geometry":{"type":"Point","coordinates":[-79.6672047,36.3531993]}},{"properties":{"name":"ANSON COMMUNITY HOSPITAL","city":"WADESBORO","zip":"28170","numbeds":147,"x":-80.075882,"county":"ANSON","y":34.961493,"id":"abuxp1i53mn8","address":"500 MORVEN ROAD","fips":37007},"type":"Feature","geometry":{"type":"Point","coordinates":[-80.075882,34.961493]}},{"properties":{"name":"ASHE MEMORIAL HOSPITAL","city":"JEFFERSON","zip":"28640","numbeds":85,"x":-81.4576429,"county":"ASHE","y":36.4233578,"id":"abuxp1bas026","address":"200 HOSPITAL AVENUE","fips":37009},"type":"Feature","geometry":{"type":"Point","coordinates":[-81.4576429,36.4233578]}},{"properties":{"name":"VIDANT BEAUFORT HOSPITAL","city":"WASHINGTON","zip":"27889","numbeds":142,"x":-77.0377118,"county":"BEAUFORT","y":35.5493388,"id":"abuxp15wa6uc","address":"628 EAST 12TH STREET","fips":37013},"type":"Feature","geometry":{"type":"Point","coordinates":[-77.0377118,35.5493388]}},{"properties":{"name":"VIDANT BERTIE HOSPITAL","city":"WINDSOR","zip":"27983","numbeds":6,"x":-76.9302797,"county":"BERTIE","y":35.9903227,"id":"abuxp1847hd8","address":"1403 SOUTH KING STREET","fips":37015},"type":"Feature","geometry":{"type":"Point","coordinates":[-76.9302797,35.9903227]}},{"properties":{"name":"BETSY JOHNSON REGIONAL HOSPITAL","city":"DUNN","zip":"28334","numbeds":101,"x":-78.6348968,"county":"HARNETT","y":35.3072852,"id":"abuxp18mhjbf","address":"800 TILGHMAN DRIVE","fips":37085},"type":"Feature","geometry":{"type":"Point","coordinates":[-78.6348968,35.3072852]}},{"properties":{"name":"CAPE FEAR VALLEY - BLADEN COUNTY HOSPITAL","city":"ELIZABETHTOWN","zip":"28337","numbeds":58,"x":-78.6081924,"county":"BLADEN","y":34.6226548,"id":"abuxp14fqrqk","address":"501 SOUTH POPLAR STREET","fips":37017},"type":"Feature","geometry":{"type":"Point","coordinates":[-78.6081924,34.6226548]}},{"properties":{"name":"BLOWING ROCK HOSPITAL","city":"BLOWING ROCK","zip":"28605","numbeds":100,"x":-81.6778312,"county":"WATAUGA","y":36.128912,"id":"abuxp13qycjt","address":"418 CHESTNUT CIRCLE","fips":37189},"type":"Feature","geometry":{"type":"Point","coordinates":[-81.6778312,36.128912]}},{"properties":{"name":"BLUE RIDGE REGIONAL HOSPITAL","city":"SPRUCE PINE","zip":"28777","numbeds":46,"x":-82.062897,"county":"MITCHELL","y":35.9109826,"id":"abuxp12aickn","address":"125 HOSPITAL DRIVE","fips":37121},"type":"Feature","geometry":{"type":"Point","coordinates":[-82.062897,35.9109826]}},{"properties":{"name":"BRUNSWICK NOVANT MEDICAL CENTER","city":"SUPPLY","zip":"28462","numbeds":74,"x":-78.2906171,"county":"BRUNSWICK","y":34.0091003,"id":"abuxp1dxa5on","address":"1 MEDICAL CENTER DRIVE","fips":37019},"type":"Feature","geometry":{"type":"Point","coordinates":[-78.2906171,34.0091003]}},{"properties":{"name":"CALDWELL MEMORIAL HOSPITAL","city":"LENOIR","zip":"28645","numbeds":110,"x":-81.5351023,"county":"CALDWELL","y":35.9104834,"id":"abuxp1caqz8s","address":"321 MULBERRY STREET SOUTHWEST","fips":37027},"type":"Feature","geometry":{"type":"Point","coordinates":[-81.5351023,35.9104834]}},{"properties":{"name":"CAPE FEAR VALLEY MEDICAL CENTER","city":"FAYETTEVILLE","zip":"28304","numbeds":666,"x":-78.9338196,"county":"CUMBERLAND","y":35.0320081,"id":"abuxp1e92oqe","address":"1638 OWEN DRIVE","fips":37051},"type":"Feature","geometry":{"type":"Point","coordinates":[-78.9338196,35.0320081]}},{"properties":{"name":"CARE PARTNERS REHABILITATION HOSPITAL","city":"ASHEVILLE","zip":"28803","numbeds":107,"x":-82.5318042,"county":"BUNCOMBE","y":35.5617853,"id":"abuxp14yfokw","address":"16 ROTARY DRIVE","fips":37021},"type":"Feature","geometry":{"type":"Point","coordinates":[-82.5318042,35.5617853]}},{"properties":{"name":"CAROLINAS MEDICAL CENTER","city":"CHARLOTTE","zip":"28203","numbeds":888,"x":-80.8386434,"county":"MECKLENBURG","y":35.2036571,"id":"abuxp1hqotk1","address":"1000 BLYTHE BOULEVARD","fips":37119},"type":"Feature","geometry":{"type":"Point","coordinates":[-80.8386434,35.2036571]}},{"properties":{"name":"CAROLINAS MEDICAL CENTER - LINCOLN","city":"LINCOLNTON","zip":"28092","numbeds":101,"x":-81.2355913,"county":"LINCOLN","y":35.4709355,"id":"abuxp1ho7vmr","address":"200 GAMBLE DRIVE","fips":37109},"type":"Feature","geometry":{"type":"Point","coordinates":[-81.2355913,35.4709355]}},{"properties":{"name":"CAROLINAS MEDICAL CENTER - MERCY","city":"CHARLOTTE","zip":"28207","numbeds":173,"x":-80.8205398,"county":"MECKLENBURG","y":35.2102726,"id":"abuxp1dtv2tj","address":"2001 VAIL AVENUE","fips":37119},"type":"Feature","geometry":{"type":"Point","coordinates":[-80.8205398,35.2102726]}},{"properties":{"name":"CAROLINAS MEDICAL CENTER - NORTHEAST","city":"CONCORD","zip":"28025","numbeds":457,"x":-80.6015544,"county":"CABARRUS","y":35.4362682,"id":"abuxp1hw2731","address":"920 CHURCH STREET NORTH","fips":37025},"type":"Feature","geometry":{"type":"Point","coordinates":[-80.6015544,35.4362682]}},{"properties":{"name":"CAROLINAS MEDICAL CENTER - PINEVILLE","city":"CHARLOTTE","zip":"28210","numbeds":206,"x":-80.8715644,"county":"MECKLENBURG","y":35.091869,"id":"abuxp1a37evt","address":"10628 PARK ROAD","fips":37119},"type":"Feature","geometry":{"type":"Point","coordinates":[-80.8715644,35.091869]}},{"properties":{"name":"CAROLINAS MEDICAL CENTER - UNIVERSITY","city":"CHARLOTTE","zip":"28262","numbeds":130,"x":-80.7468445,"county":"MECKLENBURG","y":35.3059982,"id":"abuxp1e2t7pz","address":"8800 NORTH TRYON STREET","fips":37119},"type":"Feature","geometry":{"type":"Point","coordinates":[-80.7468445,35.3059982]}},{"properties":{"name":"CAROLINAS REHABILITATION - MOUNT HOLLY","city":"BELMONT","zip":"28012","numbeds":40,"x":-81.0281839,"county":"GASTON","y":35.2643391,"id":"abuxp14eii4g","address":"275 BEATTY DRIVE","fips":37071},"type":"Feature","geometry":{"type":"Point","coordinates":[-81.0281839,35.2643391]}},{"properties":{"name":"CARTERET GENERAL HOSPITAL","city":"MOREHEAD CITY","zip":"28557","numbeds":135,"x":-76.7549064,"county":"CARTERET","y":34.7260378,"id":"abuxp13gv9f3","address":"3500 ARENDELL STREET","fips":37031},"type":"Feature","geometry":{"type":"Point","coordinates":[-76.7549064,34.7260378]}},{"properties":{"name":"CATAWBA VALLEY MEDICAL CENTER","city":"HICKORY","zip":"28602","numbeds":258,"x":-81.2671689,"county":"CATAWBA","y":35.7138296,"id":"abuxp15ou4bt","address":"810 FAIRGROVE CHURCH ROAD","fips":37035},"type":"Feature","geometry":{"type":"Point","coordinates":[-81.2671689,35.7138296]}},{"properties":{"name":"CENTRAL CAROLINA HOSPITAL","city":"SANFORD","zip":"27330","numbeds":137,"x":-79.1873898,"county":"LEE","y":35.4689038,"id":"abuxp1hoys75","address":"1135 CARTHAGE STREET","fips":37105},"type":"Feature","geometry":{"type":"Point","coordinates":[-79.1873898,35.4689038]}},{"properties":{"name":"CHARLES A CANNON JUNIOR MEMORIAL HOSPITAL","city":"LINVILLE","zip":"28646","numbeds":45,"x":-81.8885558,"county":"AVERY","y":36.0610273,"id":"abuxp124wpv9","address":"434 HOSPITAL DRIVE","fips":37011},"type":"Feature","geometry":{"type":"Point","coordinates":[-81.8885558,36.0610273]}},{"properties":{"name":"CHATHAM HOSPITAL","city":"SILER CITY","zip":"27344","numbeds":25,"x":-79.4737654,"county":"CHATHAM","y":35.7218652,"id":"abuxp17dyap5","address":"300 NORTH IVEY AVENUE","fips":37037},"type":"Feature","geometry":{"type":"Point","coordinates":[-79.4737654,35.7218652]}},{"properties":{"name":"VIDANT CHOWAN HOSPITAL","city":"EDENTON","zip":"27932","numbeds":89,"x":-76.6113376,"county":"CHOWAN","y":36.0700738,"id":"abuxp17mek2e","address":"211 VIRGINIA ROAD","fips":37041},"type":"Feature","geometry":{"type":"Point","coordinates":[-76.6113376,36.0700738]}},{"properties":{"name":"CLEVELAND REGIONAL MEDICAL CENTER","city":"SHELBY","zip":"28150","numbeds":241,"x":-81.5364438,"county":"CLEVELAND","y":35.3029767,"id":"abuxp1fqu5ro","address":"201 EAST GROVER STREET","fips":37045},"type":"Feature","geometry":{"type":"Point","coordinates":[-81.5364438,35.3029767]}},{"properties":{"name":"COLUMBUS REGIONAL HEALTHCARE SYSTEM","city":"WHITEVILLE","zip":"28472","numbeds":154,"x":-78.6944744,"county":"COLUMBUS","y":34.3374863,"id":"abuxp1badrx2","address":"500 JEFFERSON STREET","fips":37047},"type":"Feature","geometry":{"type":"Point","coordinates":[-78.6944744,34.3374863]}},{"properties":{"name":"CRAVEN REGIONAL MEDICAL CENTER","city":"NEW BERN","zip":"28560","numbeds":350,"x":-77.0663435,"county":"CRAVEN","y":35.1136953,"id":"abuxp14rurhb","address":"2000 NEUSE BOULEVARD","fips":37049},"type":"Feature","geometry":{"type":"Point","coordinates":[-77.0663435,35.1136953]}},{"properties":{"name":"CRAWLEY MEMORIAL HOSPITAL","city":"BOILING SPRINGS","zip":"28017","numbeds":60,"x":-81.6765291,"county":"CLEVELAND","y":35.2498329,"id":"abuxp1987zof","address":"315 WEST COLLEGE AVENUE","fips":37045},"type":"Feature","geometry":{"type":"Point","coordinates":[-81.6765291,35.2498329]}},{"properties":{"name":"DAVIE COUNTY HOSPITAL","city":"MOCKSVILLE","zip":"27028","numbeds":81,"x":-80.5717637,"county":"DAVIE","y":35.899266,"id":"abuxp14psqma","address":"223 HOSPITAL STREET","fips":37059},"type":"Feature","geometry":{"type":"Point","coordinates":[-80.5717637,35.899266]}},{"properties":{"name":"DAVIS REGIONAL MEDICAL CENTER","city":"STATESVILLE","zip":"28625","numbeds":143,"x":-80.8289717,"county":"IREDELL","y":35.8186146,"id":"abuxp14f7ze8","address":"218 OLD MOCKSVILLE ROAD","fips":37097},"type":"Feature","geometry":{"type":"Point","coordinates":[-80.8289717,35.8186146]}},{"properties":{"name":"DUKE RALEIGH HOSPITAL","city":"RALEIGH","zip":"27609","numbeds":186,"x":-78.6183559,"county":"WAKE","y":35.8283905,"id":"abuxp1et31bh","address":"3400 WAKE FOREST ROAD","fips":37183},"type":"Feature","geometry":{"type":"Point","coordinates":[-78.6183559,35.8283905]}},{"properties":{"name":"DUKE UNIVERSITY HOSPITAL","city":"DURHAM","zip":"27710","numbeds":957,"x":-78.9375824,"county":"DURHAM","y":36.0071015,"id":"abuxp1i8e5eq","address":"2301 ERWIN ROAD","fips":37063},"type":"Feature","geometry":{"type":"Point","coordinates":[-78.9375824,36.0071015]}},{"properties":{"name":"VIDANT DUPLIN HOSPITAL","city":"KENANSVILLE","zip":"28349","numbeds":101,"x":-77.9620771,"county":"DUPLIN","y":34.9652697,"id":"abuxp16olo7l","address":"401 NORTH MAIN STREET","fips":37061},"type":"Feature","geometry":{"type":"Point","coordinates":[-77.9620771,34.9652697]}},{"properties":{"name":"DURHAM REGIONAL HOSPITAL","city":"DURHAM","zip":"27704","numbeds":369,"x":-78.9002089,"county":"DURHAM","y":36.0366732,"id":"abuxp1f4kizs","address":"3643 NORTH ROXBORO ROAD","fips":37063},"type":"Feature","geometry":{"type":"Point","coordinates":[-78.9002089,36.0366732]}},{"properties":{"name":"FIRSTHEALTH MONTGOMERY MEMORIAL HOSPITAL","city":"TROY","zip":"27371","numbeds":37,"x":-79.8908586,"county":"MONTGOMERY","y":35.3650477,"id":"abuxp1ee994k","address":"520 ALLEN STREET","fips":37123},"type":"Feature","geometry":{"type":"Point","coordinates":[-79.8908586,35.3650477]}},{"properties":{"name":"FIRSTHEALTH MOORE REGIONAL HOSPITAL","city":"PINEHURST","zip":"28374","numbeds":395,"x":-79.4564019,"county":"MOORE","y":35.2056262,"id":"abuxp1hkaaza","address":"155 MEMORIAL DRIVE","fips":37125},"type":"Feature","geometry":{"type":"Point","coordinates":[-79.4564019,35.2056262]}},{"properties":{"name":"FIRSTHEALTH RICHMOND MEMORIAL HOSPITAL","city":"ROCKINGHAM","zip":"28379","numbeds":150,"x":-79.7497763,"county":"RICHMOND","y":34.9286915,"id":"abuxp19smpkt","address":"925 SOUTH LONG DRIVE","fips":37153},"type":"Feature","geometry":{"type":"Point","coordinates":[-79.7497763,34.9286915]}},{"properties":{"name":"FORSYTH MEMORIAL HOSPITAL","city":"WINSTON-SALEM","zip":"27103","numbeds":921,"x":-80.2974813,"county":"FORSYTH","y":36.0756743,"id":"abuxp133zb6s","address":"3333 SILAS CREEK PARKWAY","fips":37067},"type":"Feature","geometry":{"type":"Point","coordinates":[-80.2974813,36.0756743]}},{"properties":{"name":"FRANKLIN REGIONAL MEDICAL CENTER","city":"LOUISBURG","zip":"27549","numbeds":70,"x":-78.2935774,"county":"FRANKLIN","y":36.1122918,"id":"abuxp1bdo649","address":"100 HOSPITAL DRIVE","fips":37069},"type":"Feature","geometry":{"type":"Point","coordinates":[-78.2935774,36.1122918]}},{"properties":{"name":"FRYE REGIONAL MEDICAL CENTER","city":"HICKORY","zip":"28601","numbeds":355,"x":-81.3371163,"county":"CATAWBA","y":35.7372344,"id":"abuxp1bwv241","address":"420 NORTH CENTER STREET","fips":37035},"type":"Feature","geometry":{"type":"Point","coordinates":[-81.3371163,35.7372344]}},{"properties":{"name":"GASTON MEMORIAL HOSPITAL","city":"GASTONIA","zip":"28054","numbeds":435,"x":-81.1395436,"county":"GASTON","y":35.2715949,"id":"abuxp14v7ckh","address":"2525 COURT DRIVE","fips":37071},"type":"Feature","geometry":{"type":"Point","coordinates":[-81.1395436,35.2715949]}},{"properties":{"name":"CMC BLUE RIDGE - GRACE HOSPITAL","city":"MORGANTON","zip":"28655","numbeds":184,"x":-81.6545637,"county":"BURKE","y":35.7264587,"id":"abuxp1fmgsow","address":"2201 SOUTH STERLING STREET","fips":37023},"type":"Feature","geometry":{"type":"Point","coordinates":[-81.6545637,35.7264587]}},{"properties":{"name":"GRANVILLE MEDICAL CENTER","city":"OXFORD","zip":"27565","numbeds":142,"x":-78.59333,"county":"GRANVILLE","y":36.3261169,"id":"abuxp18v4j62","address":"1010 COLLEGE STREET","fips":37077},"type":"Feature","geometry":{"type":"Point","coordinates":[-78.59333,36.3261169]}},{"properties":{"name":"HALIFAX REGIONAL MEDICAL CENTER","city":"ROANOKE RAPIDS","zip":"27870","numbeds":204,"x":-77.646287,"county":"HALIFAX","y":36.4319984,"id":"abuxp186eadn","address":"250 SMITH CHURCH ROAD","fips":37083},"type":"Feature","geometry":{"type":"Point","coordinates":[-77.646287,36.4319984]}},{"properties":{"name":"MEDWEST HAYWOOD","city":"CLYDE","zip":"28721","numbeds":189,"x":-82.9438441,"county":"HAYWOOD","y":35.5255103,"id":"abuxp1673rsy","address":"262 LEROY GEORGE DRIVE","fips":37087},"type":"Feature","geometry":{"type":"Point","coordinates":[-82.9438441,35.5255103]}},{"properties":{"name":"VIDANT EDGECOMBE HOSPITAL","city":"TARBORO","zip":"27886","numbeds":117,"x":-77.5559817,"county":"EDGECOMBE","y":35.9210956,"id":"abuxp1cdjn52","address":"111 HOSPITAL DRIVE","fips":37065},"type":"Feature","geometry":{"type":"Point","coordinates":[-77.5559817,35.9210956]}},{"properties":{"name":"HIGH POINT REGIONAL HOSPITAL","city":"HIGH POINT","zip":"27262","numbeds":381,"x":-80.0134349,"county":"GUILFORD","y":35.9627829,"id":"abuxp1701hpu","address":"601 NORTH ELM STREET","fips":37081},"type":"Feature","geometry":{"type":"Point","coordinates":[-80.0134349,35.9627829]}},{"properties":{"name":"HIGHLANDS-CASHIERS HOSPITAL","city":"HIGHLANDS","zip":"28741","numbeds":108,"x":-83.1859335,"county":"MACON","y":35.0865261,"id":"abuxp14joapp","address":"190 HOSPITAL DRIVE","fips":37113},"type":"Feature","geometry":{"type":"Point","coordinates":[-83.1859335,35.0865261]}},{"properties":{"name":"HIGHSMITH-RAINEY HOSPITAL","city":"FAYETTEVILLE","zip":"28301","numbeds":66,"x":-78.8880939,"county":"CUMBERLAND","y":35.0542779,"id":"abuxp1gfjjwr","address":"150 ROBESON STREET","fips":37051},"type":"Feature","geometry":{"type":"Point","coordinates":[-78.8880939,35.0542779]}},{"properties":{"name":"YADKIN VALLEY COMMUNITY HOSPITAL","city":"YADKINVILLE","zip":"27055","numbeds":22,"x":-80.6713792,"county":"YADKIN","y":36.1352991,"id":"abuxp194a73z","address":"624 WEST MAIN STREET","fips":37197},"type":"Feature","geometry":{"type":"Point","coordinates":[-80.6713792,36.1352991]}},{"properties":{"name":"HUGH CHATHAM MEMORIAL HOSPITAL","city":"ELKIN","zip":"28621","numbeds":220,"x":-80.8383484,"county":"SURRY","y":36.2617982,"id":"abuxp1g4a2io","address":"180 PARKWOOD DRIVE","fips":37171},"type":"Feature","geometry":{"type":"Point","coordinates":[-80.8383484,36.2617982]}},{"properties":{"name":"IREDELL MEMORIAL HOSPITAL","city":"STATESVILLE","zip":"28677","numbeds":247,"x":-80.8781013,"county":"IREDELL","y":35.7997401,"id":"abuxp18oxjq5","address":"557 BROOKDALE DRIVE","fips":37097},"type":"Feature","geometry":{"type":"Point","coordinates":[-80.8781013,35.7997401]}},{"properties":{"name":"J ARTHUR DOSHER MEMORIAL HOSPITAL","city":"SOUTHPORT","zip":"28461","numbeds":100,"x":-78.0219308,"county":"BRUNSWICK","y":33.9297928,"id":"abuxp1i4593y","address":"924 NORTH HOWE STREET","fips":37019},"type":"Feature","geometry":{"type":"Point","coordinates":[-78.0219308,33.9297928]}},{"properties":{"name":"JOHNSTON MEMORIAL HOSPITAL","city":"SMITHFIELD","zip":"27577","numbeds":199,"x":-78.3347144,"county":"JOHNSTON","y":35.514007,"id":"abuxp1c2mnaz","address":"509 NORTH BRIGHTLEAF BOULEVARD","fips":37101},"type":"Feature","geometry":{"type":"Point","coordinates":[-78.3347144,35.514007]}},{"properties":{"name":"KINDRED HOSPITAL - GREENSBORO","city":"GREENSBORO","zip":"27406","numbeds":124,"x":-79.770289,"county":"GUILFORD","y":36.0492046,"id":"abuxp1ifvoec","address":"2401 SOUTH SIDE BOULEVARD","fips":37081},"type":"Feature","geometry":{"type":"Point","coordinates":[-79.770289,36.0492046]}},{"properties":{"name":"KINGS MOUNTAIN HOSPITAL","city":"KINGS MOUNTAIN","zip":"28086","numbeds":92,"x":-81.3570835,"county":"CLEVELAND","y":35.2414867,"id":"abuxp1gje5ob","address":"706 WEST KING STREET","fips":37045},"type":"Feature","geometry":{"type":"Point","coordinates":[-81.3570835,35.2414867]}},{"properties":{"name":"LAKE NORMAN REGIONAL MEDICAL CENTER","city":"MOORESVILLE","zip":"28117","numbeds":123,"x":-80.8517101,"county":"IREDELL","y":35.54802,"id":"abuxp19ncyfl","address":"171 FAIRVIEW ROAD","fips":37097},"type":"Feature","geometry":{"type":"Point","coordinates":[-80.8517101,35.54802]}},{"properties":{"name":"LENOIR MEMORIAL HOSPITAL","city":"KINSTON","zip":"28501","numbeds":261,"x":-77.5830564,"county":"LENOIR","y":35.2903168,"id":"abuxp1b6m5u3","address":"100 AIRPORT ROAD","fips":37107},"type":"Feature","geometry":{"type":"Point","coordinates":[-77.5830564,35.2903168]}},{"properties":{"name":"LEXINGTON MEMORIAL HOSPITAL","city":"LEXINGTON","zip":"27292","numbeds":94,"x":-80.2868056,"county":"DAVIDSON","y":35.8062244,"id":"abuxp157c0gp","address":"250 HOSPITAL DRIVE","fips":37057},"type":"Feature","geometry":{"type":"Point","coordinates":[-80.2868056,35.8062244]}},{"properties":{"name":"LIFECARE HOSPITALS OF NORTH CAROLINA","city":"ROCKY MOUNT","zip":"27804","numbeds":50,"x":-77.8222656,"county":"NASH","y":35.9717947,"id":"abuxp1fjwzon","address":"1051 NOELL LANE","fips":37127},"type":"Feature","geometry":{"type":"Point","coordinates":[-77.8222656,35.9717947]}},{"properties":{"name":"MARGARET R PARDEE MEMORIAL HOSPITAL","city":"HENDERSONVILLE","zip":"28791","numbeds":222,"x":-82.4671679,"county":"HENDERSON","y":35.3202486,"id":"abuxp1gobq95","address":"800 NORTH JUSTICE STREET","fips":37089},"type":"Feature","geometry":{"type":"Point","coordinates":[-82.4671679,35.3202486]}},{"properties":{"name":"MARIA PARHAM MEDICAL CENTER","city":"HENDERSON","zip":"27536","numbeds":102,"x":-78.4493894,"county":"VANCE","y":36.3310617,"id":"abuxp1e2rm3a","address":"566 RUIN CREEK ROAD","fips":37181},"type":"Feature","geometry":{"type":"Point","coordinates":[-78.4493894,36.3310617]}},{"properties":{"name":"MARTIN GENERAL HOSPITAL","city":"WILLIAMSTON","zip":"27892","numbeds":49,"x":-77.072213,"county":"MARTIN","y":35.8396815,"id":"abuxp13qvt7v","address":"310 SOUTH MCCASKEY ROAD","fips":37117},"type":"Feature","geometry":{"type":"Point","coordinates":[-77.072213,35.8396815]}},{"properties":{"name":"MEDICAL PARK HOSPITAL","city":"WINSTON-SALEM","zip":"27103","numbeds":22,"x":-80.2962701,"county":"FORSYTH","y":36.0789269,"id":"abuxp1exsjjp","address":"1950 SOUTH HAWTHORNE ROAD","fips":37067},"type":"Feature","geometry":{"type":"Point","coordinates":[-80.2962701,36.0789269]}},{"properties":{"name":"MISSION HOSPITAL - MEMORIAL CAMPUS","city":"ASHEVILLE","zip":"28801","numbeds":730,"x":-82.5498865,"county":"BUNCOMBE","y":35.5774933,"id":"abuxp14fg3tj","address":"509 BILTMORE AVENUE","fips":37021},"type":"Feature","geometry":{"type":"Point","coordinates":[-82.5498865,35.5774933]}},{"properties":{"name":"MISSION HOSPITAL - SAINT JOSEPHS CAMPUS","city":"ASHEVILLE","zip":"28801","numbeds":34,"x":-82.5502642,"county":"BUNCOMBE","y":35.5804035,"id":"abuxp1fysb1t","address":"428 BILTMORE AVENUE","fips":37021},"type":"Feature","geometry":{"type":"Point","coordinates":[-82.5502642,35.5804035]}},{"properties":{"name":"MOREHEAD MEMORIAL HOSPITAL","city":"EDEN","zip":"27288","numbeds":242,"x":-79.73914,"county":"ROCKINGHAM","y":36.494504,"id":"abuxp13fsh4t","address":"117 EAST KINGS HIGHWAY","fips":37157},"type":"Feature","geometry":{"type":"Point","coordinates":[-79.73914,36.494504]}},{"properties":{"name":"CONE HEALTH","city":"GREENSBORO","zip":"27401","numbeds":900,"x":-79.786618,"county":"GUILFORD","y":36.0909426,"id":"abuxp194b0vk","address":"1200 NORTH ELM STREET","fips":37081},"type":"Feature","geometry":{"type":"Point","coordinates":[-79.786618,36.0909426]}},{"properties":{"name":"MURPHY MEDICAL CENTER","city":"MURPHY","zip":"28906","numbeds":191,"x":-83.9662786,"county":"CHEROKEE","y":35.0731325,"id":"abuxp129wz30","address":"4130 UNITED STATES HIGHWAY 64 EAST","fips":37039},"type":"Feature","geometry":{"type":"Point","coordinates":[-83.9662786,35.0731325]}},{"properties":{"name":"NASH GENERAL HOSPITAL","city":"ROCKY MOUNT","zip":"27804","numbeds":345,"x":-77.8523784,"county":"NASH","y":35.976164,"id":"abuxp15z8b47","address":"2460 CURTIS ELLIS DRIVE","fips":37127},"type":"Feature","geometry":{"type":"Point","coordinates":[-77.8523784,35.976164]}},{"properties":{"name":"NEW HANOVER REGIONAL MEDICAL CENTER","city":"WILMINGTON","zip":"28401","numbeds":769,"x":-77.9210079,"county":"NEW HANOVER","y":34.2054694,"id":"abuxp147xprf","address":"2131 SOUTH 17TH STREET","fips":37129},"type":"Feature","geometry":{"type":"Point","coordinates":[-77.9210079,34.2054694]}},{"properties":{"name":"NORTH CAROLINA SPECIALTY HOSPITAL","city":"DURHAM","zip":"27704","numbeds":18,"x":-78.897005,"county":"DURHAM","y":36.0431633,"id":"abuxp18t6kai","address":"3916 BEN FRANKLIN BOULEVARD","fips":37063},"type":"Feature","geometry":{"type":"Point","coordinates":[-78.897005,36.0431633]}},{"properties":{"name":"NORTHERN HOSPITAL OF SURRY COUNTY","city":"MOUNT AIRY","zip":"27030","numbeds":133,"x":-80.6114567,"county":"SURRY","y":36.4888102,"id":"abuxp13lew3g","address":"830 ROCKFORD STREET","fips":37171},"type":"Feature","geometry":{"type":"Point","coordinates":[-80.6114567,36.4888102]}},{"properties":{"name":"ONSLOW MEMORIAL HOSPITAL","city":"JACKSONVILLE","zip":"28546","numbeds":162,"x":-77.3848565,"county":"ONSLOW","y":34.7626355,"id":"abuxp1hoc6mi","address":"317 WESTERN BOULEVARD","fips":37133},"type":"Feature","geometry":{"type":"Point","coordinates":[-77.3848565,34.7626355]}},{"properties":{"name":"OUR COMMUNITY HOSPITAL","city":"SCOTLAND NECK","zip":"27874","numbeds":100,"x":-77.4297066,"county":"HALIFAX","y":36.1291768,"id":"abuxp15cb24x","address":"921 JUNIOR HIGH SCHOOL ROAD","fips":37083},"type":"Feature","geometry":{"type":"Point","coordinates":[-77.4297066,36.1291768]}},{"properties":{"name":"PARK RIDGE HOSPITAL","city":"HENDERSONVILLE","zip":"28792","numbeds":103,"x":-82.4881679,"county":"HENDERSON","y":35.3898782,"id":"abuxp12xjros","address":"100 HOSPITAL DRIVE","fips":37089},"type":"Feature","geometry":{"type":"Point","coordinates":[-82.4881679,35.3898782]}},{"properties":{"name":"PENDER MEMORIAL HOSPITAL","city":"BURGAW","zip":"28425","numbeds":86,"x":-77.9198781,"county":"PENDER","y":34.5507542,"id":"abuxp1dc03nc","address":"507 EAST FREEMONT STREET","fips":37141},"type":"Feature","geometry":{"type":"Point","coordinates":[-77.9198781,34.5507542]}},{"properties":{"name":"PERSON MEMORIAL HOSPITAL","city":"ROXBORO","zip":"27573","numbeds":110,"x":-78.9850931,"county":"PERSON","y":36.4084799,"id":"abuxp15eicg6","address":"615 RIDGE ROAD","fips":37145},"type":"Feature","geometry":{"type":"Point","coordinates":[-78.9850931,36.4084799]}},{"properties":{"name":"VIDANT MEDICAL CENTER","city":"GREENVILLE","zip":"27834","numbeds":861,"x":-77.4036449,"county":"PITT","y":35.6076387,"id":"abuxp1d9szrq","address":"2100 STANTONSBURG ROAD","fips":37147},"type":"Feature","geometry":{"type":"Point","coordinates":[-77.4036449,35.6076387]}},{"properties":{"name":"PRESBYTERIAN HOSPITAL - HUNTERSVILLE","city":"HUNTERSVILLE","zip":"28078","numbeds":60,"x":-80.8601413,"county":"MECKLENBURG","y":35.4064674,"id":"abuxp14k0b0q","address":"10030 GILEAD ROAD","fips":37119},"type":"Feature","geometry":{"type":"Point","coordinates":[-80.8601413,35.4064674]}},{"properties":{"name":"PRESBYTERIAN HOSPITAL - MATTHEWS","city":"MATTHEWS","zip":"28105","numbeds":117,"x":-80.7139622,"county":"MECKLENBURG","y":35.1199777,"id":"abuxp1frvns5","address":"1500 MATTHEWS TOWNSHIP PARKWAY","fips":37119},"type":"Feature","geometry":{"type":"Point","coordinates":[-80.7139622,35.1199777]}},{"properties":{"name":"PRESBYTERIAN HOSPITAL / PRESBYTERIAN HEMBY CHILDRENS HOSPITAL","city":"CHARLOTTE","zip":"28204","numbeds":622,"x":-80.8241135,"county":"MECKLENBURG","y":35.2119339,"id":"abuxp14lt61f","address":"200 HAWTHORNE LANE","fips":37119},"type":"Feature","geometry":{"type":"Point","coordinates":[-80.8241135,35.2119339]}},{"properties":{"name":"PRESBYTERIAN ORTHOPAEDIC HOSPITAL","city":"CHARLOTTE","zip":"28207","numbeds":80,"x":-80.8233884,"county":"MECKLENBURG","y":35.2107801,"id":"abuxp1fw80zx","address":"1901 RANDOLPH ROAD","fips":37119},"type":"Feature","geometry":{"type":"Point","coordinates":[-80.8233884,35.2107801]}},{"properties":{"name":"VIDANT PUNGO HOSPITAL","city":"BELHAVEN","zip":"27810","numbeds":49,"x":-76.6232809,"county":"BEAUFORT","y":35.5379033,"id":"abuxp1ecjgat","address":"202 EAST WATER STREET","fips":37013},"type":"Feature","geometry":{"type":"Point","coordinates":[-76.6232809,35.5379033]}},{"properties":{"name":"RANDOLPH HOSPITAL","city":"ASHEBORO","zip":"27203","numbeds":145,"x":-79.8141798,"county":"RANDOLPH","y":35.7113337,"id":"abuxp1djeo2l","address":"364 WHITE OAK STREET","fips":37151},"type":"Feature","geometry":{"type":"Point","coordinates":[-79.8141798,35.7113337]}},{"properties":{"name":"REX HOSPITAL","city":"RALEIGH","zip":"27607","numbeds":659,"x":-78.7035132,"county":"WAKE","y":35.8178906,"id":"abuxp19vy9dy","address":"4420 LAKE BOONE TRAIL","fips":37183},"type":"Feature","geometry":{"type":"Point","coordinates":[-78.7035132,35.8178906]}},{"properties":{"name":"VIDANT ROANOKE-CHOWAN HOSPITAL","city":"AHOSKIE","zip":"27910","numbeds":114,"x":-76.9952375,"county":"HERTFORD","y":36.2854379,"id":"abuxp17u58mw","address":"500 ACADEMY STREET SOUTH","fips":37091},"type":"Feature","geometry":{"type":"Point","coordinates":[-76.9952375,36.2854379]}},{"properties":{"name":"ROWAN REGIONAL MEDICAL CENTER","city":"SALISBURY","zip":"28144","numbeds":268,"x":-80.471051,"county":"ROWAN","y":35.6818599,"id":"abuxp1985y3j","address":"612 MOCKSVILLE AVENUE","fips":37159},"type":"Feature","geometry":{"type":"Point","coordinates":[-80.471051,35.6818599]}},{"properties":{"name":"RUTHERFORD HOSPITAL","city":"RUTHERFORDTON","zip":"28139","numbeds":143,"x":-81.965532,"county":"RUTHERFORD","y":35.3625316,"id":"abuxp146fkar","address":"288 SOUTH RIDGECREST AVENUE","fips":37161},"type":"Feature","geometry":{"type":"Point","coordinates":[-81.965532,35.3625316]}},{"properties":{"name":"SAINT LUKES HOSPITAL","city":"COLUMBUS","zip":"28722","numbeds":55,"x":-82.2125984,"county":"POLK","y":35.2398335,"id":"abuxp1816q4q","address":"220 HOSPITAL DRIVE","fips":37149},"type":"Feature","geometry":{"type":"Point","coordinates":[-82.2125984,35.2398335]}},{"properties":{"name":"SAMPSON REGIONAL MEDICAL CENTER","city":"CLINTON","zip":"28328","numbeds":146,"x":-78.3243544,"county":"SAMPSON","y":35.0072464,"id":"abuxp1i91rax","address":"607 BEAMAN STREET","fips":37163},"type":"Feature","geometry":{"type":"Point","coordinates":[-78.3243544,35.0072464]}},{"properties":{"name":"SANDHILLS REGIONAL MEDICAL CENTER","city":"HAMLET","zip":"28345","numbeds":64,"x":-79.7094203,"county":"RICHMOND","y":34.9009788,"id":"abuxp1b5v9jh","address":"1000 WEST HAMLET AVENUE","fips":37153},"type":"Feature","geometry":{"type":"Point","coordinates":[-79.7094203,34.9009788]}},{"properties":{"name":"SCOTLAND MEMORIAL HOSPITAL","city":"LAURINBURG","zip":"28352","numbeds":104,"x":-79.4697639,"county":"SCOTLAND","y":34.753166,"id":"abuxp1heouri","address":"500 EAST LAUCHWOOD DRIVE","fips":37165},"type":"Feature","geometry":{"type":"Point","coordinates":[-79.4697639,34.753166]}},{"properties":{"name":"SELECT SPECIALTY HOSPITAL - DURHAM","city":"DURHAM","zip":"27704","numbeds":30,"x":-78.9002228,"county":"DURHAM","y":36.0366806,"id":"abuxp1hhs63v","address":"3643 NORTH ROXBORO RD, 6th Fl","fips":37063},"type":"Feature","geometry":{"type":"Point","coordinates":[-78.9002228,36.0366806]}},{"properties":{"name":"SELECT SPECIALTY HOSPITAL - WINSTON SALEM","city":"WINSTON-SALEM","zip":"27103","numbeds":42,"x":-80.2974833,"county":"FORSYTH","y":36.0756825,"id":"abuxp12s6ojq","address":"3333 SILAS CREEK PARKWAY, 6th Fl","fips":37067},"type":"Feature","geometry":{"type":"Point","coordinates":[-80.2974833,36.0756825]}},{"properties":{"name":"SOUTHEASTERN REGIONAL MEDICAL CENTER","city":"LUMBERTON","zip":"28358","numbeds":337,"x":-79.010877,"county":"ROBESON","y":34.6367325,"id":"abuxp12922zx","address":"300 WEST 27TH STREET","fips":37155},"type":"Feature","geometry":{"type":"Point","coordinates":[-79.010877,34.6367325]}},{"properties":{"name":"STANLY REGIONAL MEDICAL CENTER","city":"ALBEMARLE","zip":"28001","numbeds":119,"x":-80.1945298,"county":"STANLY","y":35.3642217,"id":"abuxp16czvw2","address":"301 YADKIN STREET","fips":37167},"type":"Feature","geometry":{"type":"Point","coordinates":[-80.1945298,35.3642217]}},{"properties":{"name":"PIONEER COMMUNITY HOSPITAL OF STOKES","city":"DANBURY","zip":"27016","numbeds":93,"x":-80.2310623,"county":"STOKES","y":36.4179737,"id":"abuxp1ajq4zn","address":"1570 STATE HIGHWAY 89","fips":37169},"type":"Feature","geometry":{"type":"Point","coordinates":[-80.2310623,36.4179737]}},{"properties":{"name":"MEDWEST SWAIN","city":"BRYSON CITY","zip":"28713","numbeds":48,"x":-83.4446433,"county":"SWAIN","y":35.4343997,"id":"abuxp1ekvcpc","address":"45 PLATEAU STREET","fips":37173},"type":"Feature","geometry":{"type":"Point","coordinates":[-83.4446433,35.4343997]}},{"properties":{"name":"THE MCDOWELL HOSPITAL","city":"MARION","zip":"28752","numbeds":65,"x":-82.0281773,"county":"MCDOWELL","y":35.663605,"id":"abuxp1bkrd6w","address":"430 RANKIN DRIVE","fips":37111},"type":"Feature","geometry":{"type":"Point","coordinates":[-82.0281773,35.663605]}},{"properties":{"name":"THE OUTER BANKS HOSPITAL","city":"NAGS HEAD","zip":"27959","numbeds":21,"x":-75.6178753,"county":"DARE","y":35.9400427,"id":"abuxp1hy0puq","address":"4800 SOUTH CROATAN HIGHWAY","fips":37055},"type":"Feature","geometry":{"type":"Point","coordinates":[-75.6178753,35.9400427]}},{"properties":{"name":"CONE HEALTH - WOMENS HOSPITAL OF GREENSBORO","city":"GREENSBORO","zip":"27408","numbeds":134,"x":-79.8176852,"county":"GUILFORD","y":36.0929557,"id":"abuxp1gadvyk","address":"801 GREEN VALLEY ROAD","fips":37081},"type":"Feature","geometry":{"type":"Point","coordinates":[-79.8176852,36.0929557]}},{"properties":{"name":"THOMASVILLE MEDICAL CENTER","city":"THOMASVILLE","zip":"27360","numbeds":146,"x":-80.1115893,"county":"DAVIDSON","y":35.8798237,"id":"abuxp1ej83gw","address":"207 OLD LEXINGTON ROAD","fips":37057},"type":"Feature","geometry":{"type":"Point","coordinates":[-80.1115893,35.8798237]}},{"properties":{"name":"TRANSYLVANIA REGIONAL HOSPITAL","city":"BREVARD","zip":"28712","numbeds":94,"x":-82.7123708,"county":"TRANSYLVANIA","y":35.255965,"id":"abuxp169i6wn","address":"90 HOSPITAL DRIVE","fips":37175},"type":"Feature","geometry":{"type":"Point","coordinates":[-82.7123708,35.255965]}},{"properties":{"name":"CAROLINAS MEDICAL CENTER - UNION","city":"MONROE","zip":"28112","numbeds":254,"x":-80.5228258,"county":"UNION","y":34.9753862,"id":"abuxp150wz5a","address":"600 HOSPITAL DRIVE","fips":37179},"type":"Feature","geometry":{"type":"Point","coordinates":[-80.5228258,34.9753862]}},{"properties":{"name":"UNIVERSITY OF NORTH CAROLINA HOSPITALS","city":"CHAPEL HILL","zip":"27514","numbeds":801,"x":-79.0520141,"county":"ORANGE","y":35.9038406,"id":"abuxp1hybwln","address":"101 MANNING DRIVE","fips":37135},"type":"Feature","geometry":{"type":"Point","coordinates":[-79.0520141,35.9038406]}},{"properties":{"name":"CMC BLUE RIDGE - VALDESE GENERAL HOSPITAL","city":"VALDESE","zip":"28690","numbeds":131,"x":-81.5238251,"county":"BURKE","y":35.7477492,"id":"abuxp1av7310","address":"720 MALCOLM BOULEVARD","fips":37023},"type":"Feature","geometry":{"type":"Point","coordinates":[-81.5238251,35.7477492]}},{"properties":{"name":"NORTH CAROLINA BAPTIST HOSPITAL","city":"WINSTON-SALEM","zip":"27103","numbeds":885,"x":-80.2709639,"county":"FORSYTH","y":36.0893944,"id":"abuxp17pp331","address":"MEDICAL CENTER BOULEVARD","fips":37067},"type":"Feature","geometry":{"type":"Point","coordinates":[-80.2709639,36.0893944]}},{"properties":{"name":"WAKEMED CARY HOSPITAL - CARY","city":"CARY","zip":"27511","numbeds":192,"x":-78.7813882,"county":"WAKE","y":35.7401996,"id":"abuxp15fbqig","address":"1900 KILDAIRE FARM ROAD","fips":37183},"type":"Feature","geometry":{"type":"Point","coordinates":[-78.7813882,35.7401996]}},{"properties":{"name":"WAKEMED RALEIGH CAMPUS","city":"RALEIGH","zip":"27610","numbeds":678,"x":-78.5885582,"county":"WAKE","y":35.7850416,"id":"abuxp1i9vow6","address":"3000 NEW BERN AVENUE","fips":37183},"type":"Feature","geometry":{"type":"Point","coordinates":[-78.5885582,35.7850416]}},{"properties":{"name":"WASHINGTON COUNTY HOSPITAL","city":"PLYMOUTH","zip":"27962","numbeds":49,"x":-76.7293481,"county":"WASHINGTON","y":35.8628062,"id":"abuxp1fi7xgw","address":"958 UNITED STATES HIGHWAY 64 EAST","fips":37187},"type":"Feature","geometry":{"type":"Point","coordinates":[-76.7293481,35.8628062]}},{"properties":{"name":"WATAUGA MEDICAL CENTER","city":"BOONE","zip":"28607","numbeds":117,"x":-81.6515764,"county":"WATAUGA","y":36.1984481,"id":"abuxp1g10ouk","address":"336 DEERFIELD ROAD","fips":37189},"type":"Feature","geometry":{"type":"Point","coordinates":[-81.6515764,36.1984481]}},{"properties":{"name":"WAYNE MEMORIAL HOSPITAL","city":"GOLDSBORO","zip":"27534","numbeds":316,"x":-77.9522356,"county":"WAYNE","y":35.3984546,"id":"abuxp1eo9b98","address":"2700 WAYNE MEMORIAL DRIVE","fips":37191},"type":"Feature","geometry":{"type":"Point","coordinates":[-77.9522356,35.3984546]}},{"properties":{"name":"CONE HEALTH - WESLEY LONG COMMUNITY HOSPITAL","city":"GREENSBORO","zip":"27403","numbeds":204,"x":-79.8254387,"county":"GUILFORD","y":36.0836792,"id":"abuxp15hh14p","address":"501 NORTH ELAM AVENUE","fips":37081},"type":"Feature","geometry":{"type":"Point","coordinates":[-79.8254387,36.0836792]}},{"properties":{"name":"MEDWEST HARRIS","city":"SYLVA","zip":"28779","numbeds":86,"x":-83.2030304,"county":"JACKSON","y":35.3860812,"id":"abuxp185pkg5","address":"68 HOSPITAL ROAD","fips":37099},"type":"Feature","geometry":{"type":"Point","coordinates":[-83.2030304,35.3860812]}},{"properties":{"name":"WILKES REGIONAL MEDICAL CENTER","city":"NORTH WILKESBORO","zip":"28659","numbeds":130,"x":-81.1578027,"county":"WILKES","y":36.1591886,"id":"abuxp16uh13t","address":"1370 WEST D STREET","fips":37193},"type":"Feature","geometry":{"type":"Point","coordinates":[-81.1578027,36.1591886]}},{"properties":{"name":"WILSON MEDICAL CENTER","city":"WILSON","zip":"27893","numbeds":294,"x":-77.9439463,"county":"WILSON","y":35.7187273,"id":"abuxp1gjwhox","address":"1705 TARBORO STREET SOUTHWEST","fips":37195},"type":"Feature","geometry":{"type":"Point","coordinates":[-77.9439463,35.7187273]}}],"is_temporal":false,"author":{"url":"","metadata":"","contact_name":"John James","contact_address":"jjames@div.duke.edu","source":"","contact_phone":"919-613-5352"},"source":"","pagination":{"sort":null,"start":0,"total":123,"limit":1000000},"state":"complete","tags":"care,carolina,health,north","published":"2013-01-30T17:00:00Z","id":315996}