{"type":"FeatureCollection","data_type":"Dataset","url_type":null,"permissions":[{"permissions":{"download":true,"view":true},"group_id":"everyone"}],"classification":null,"title":"macrocellsINMIOHconverted13013","count":489,"stream_id":315926,"contributor":{"url":"http://geocommons.com/users/12008","name":"pantheon"},"data_attributes":null,"calculation_params":null,"icon_link":null,"link":"http://geocommons.com/overlays/315926.json","extent":[-101.0,31.3175,-80.1822,41.7756],"geometry_types":["point"],"unique_name":null,"name":"macrocellsINMIOHconverted13013","feature_count":489,"description":"","next_feature":null,"is_raster":false,"short_classification":"Y","stats":{"newlong":{"max":-80.18222222,"variance":1.72479403022652,"mean":-84.1883679682659,"stdev":1.31331413996291,"min":-101.0,"median":-84.19333333},"newlat":{"max":41.77558333,"variance":0.649144967034875,"mean":40.653545236937,"stdev":0.805695331396971,"min":31.3175,"median":40.77515556}},"features":[{"properties":{"city":"BERNE","category":"Macro Cell","post code":"46711","county":"ADAMS","site name":"IN BERNE","country":"USA","oldlat":"40 39 48","newlong":-84.94777778,"street":"802 WELTY ST","oldlon":"-84 56 52","id":"abus72xdyil8","newlat":40.66333333,"state":"IN"},"type":"Feature","geometry":{"type":"Point","coordinates":[-84.94777778,40.66333333]}},{"properties":{"city":"AMERICUS","category":"Macro Cell","post code":"68753","county":"ADAMS","site name":"IN CANDIDATE 2","country":"USA","oldlat":"31.3175","newlong":-84.3365,"street":"614 PINE ST","oldlon":"-84.3365","id":"abus72wzx1ze","newlat":31.3175,"state":"IN"},"type":"Feature","geometry":{"type":"Point","coordinates":[-84.3365,31.3175]}},{"properties":{"city":"DECATUR","category":"Macro Cell","post code":"46733","county":"ADAMS","site name":"IN DECATUR","country":"USA","oldlat":"40 50 17","newlong":-84.93277778,"street":"852 N 10TH ST","oldlon":"-84 55 58","id":"abus72si8l0e","newlat":40.83805556,"state":"IN"},"type":"Feature","geometry":{"type":"Point","coordinates":[-84.93277778,40.83805556]}},{"properties":{"city":"MONROE","category":"Macro Cell","post code":"46772","county":"ADAMS","site name":"IN GN2 MONROE - LA FONTAINE SOUTH","country":"USA","oldlat":"40.74342222","newlong":-84.90602222,"street":"1550 E SR 124","oldlon":"-84.90602222","id":"abus72kvgmwt","newlat":40.74342222,"state":"IN"},"type":"Feature","geometry":{"type":"Point","coordinates":[-84.90602222,40.74342222]}},{"properties":{"city":"GENEVA","category":"Macro Cell","post code":"46740","county":"ADAMS","site name":"IN PERRYVILLE","country":"USA","oldlat":"40 35 19","newlong":-85.03388889,"street":"5435 W SR 116","oldlon":"-85 02 02","id":"abus72tc9fr4","newlat":40.58861111,"state":"IN"},"type":"Feature","geometry":{"type":"Point","coordinates":[-85.03388889,40.58861111]}},{"properties":{"city":"ROANOKE","category":"Macro Cell","post code":"46783","county":"ALLEN","site name":"IN ABOITE","country":"USA","oldlat":"40 58 45","newlong":-85.31583333,"street":"14017+A KRESS RD","oldlon":"-85 18 57","id":"abus72hh801u","newlat":40.97916667,"state":"IN"},"type":"Feature","geometry":{"type":"Point","coordinates":[-85.31583333,40.97916667]}},{"properties":{"city":"FORT WAYNE","category":"Macro Cell","post code":"46803","county":"ALLEN","site name":"IN ANTHONY WALLACE","country":"USA","oldlat":"41 04 4.1","newlong":-85.11261111,"street":"2000 WAYNE TRACE","oldlon":"-85 06 45.4","id":"abus72ku5hz3","newlat":41.06780556,"state":"IN"},"type":"Feature","geometry":{"type":"Point","coordinates":[-85.11261111,41.06780556]}},{"properties":{"city":"FORT WAYNE","category":"Macro Cell","post code":"46802","county":"ALLEN","site name":"IN ANTHONY WAYNE","country":"USA","oldlat":"41 04 50","newlong":-85.1375,"street":"203 E BERRY ST","oldlon":"-85 08 15","id":"abus72q42fpc","newlat":41.08055556,"state":"IN"},"type":"Feature","geometry":{"type":"Point","coordinates":[-85.1375,41.08055556]}},{"properties":{"city":"FORT WAYNE","category":"Macro Cell","post code":"46804","county":"ALLEN","site name":"IN ARCOLA","country":"USA","oldlat":"41 05 07","newlong":-85.22583333,"street":"902 SUMPTER DR","oldlon":"-85 13 33","id":"abus72lrnf19","newlat":41.08527778,"state":"IN"},"type":"Feature","geometry":{"type":"Point","coordinates":[-85.22583333,41.08527778]}},{"properties":{"city":"FORT WAYNE","category":"Macro Cell","post code":"46825","county":"ALLEN","site name":"IN CEDARVILLE","country":"USA","oldlat":"41 10 11.17","newlong":-85.093025,"street":"9355 LEO RD","oldlon":"-85 05 34.89","id":"abus72q3plxv","newlat":41.16976944,"state":"IN"},"type":"Feature","geometry":{"type":"Point","coordinates":[-85.093025,41.16976944]}},{"properties":{"city":"FORT WAYNE","category":"Macro Cell","post code":"46825","county":"ALLEN","site name":"IN COLDWATER","country":"USA","oldlat":"41 08 59","newlong":-85.1375,"street":"7609 COLDWATER RD","oldlon":"-85 08 15","id":"abus72xkxaam","newlat":41.14972222,"state":"IN"},"type":"Feature","geometry":{"type":"Point","coordinates":[-85.1375,41.14972222]}},{"properties":{"city":"FORT WAYNE","category":"Macro Cell","post code":"46835","county":"ALLEN","site name":"IN CONCORDIA GARDENS","country":"USA","oldlat":"41 7 56.88","newlong":-85.09736944,"street":"3428 ST JOE CENTER ROAD","oldlon":"-85 5 50.53","id":"abus72owz05o","newlat":41.13246667,"state":"IN"},"type":"Feature","geometry":{"type":"Point","coordinates":[-85.09736944,41.13246667]}},{"properties":{"city":"FORT WAYNE","category":"Macro Cell","post code":"46805","county":"ALLEN","site name":"IN CRESCENT","country":"USA","oldlat":"41 05 11.76","newlong":-85.10995278,"street":"2100 LAKE AVE","oldlon":"-85 06 35.83","id":"abus72k920q1","newlat":41.0866,"state":"IN"},"type":"Feature","geometry":{"type":"Point","coordinates":[-85.10995278,41.0866]}},{"properties":{"city":"AUBURN","category":"Macro Cell","post code":"46706","county":"ALLEN","site name":"IN DUNTON LAKE","country":"USA","oldlat":"41 15 58","newlong":-85.08444444,"street":"2265 CO. RD 72","oldlon":"-85 05 04","id":"abus72ssvycx","newlat":41.26611111,"state":"IN"},"type":"Feature","geometry":{"type":"Point","coordinates":[-85.08444444,41.26611111]}},{"properties":{"city":"FORT WAYNE","category":"Macro Cell","post code":"46802","county":"ALLEN","site name":"IN ENGLE ROAD","country":"USA","oldlat":"41 03 14","newlong":-85.17805556,"street":"3010 NUTTMAN AVE","oldlon":"-85 10 41","id":"abus72i744y1","newlat":41.05388889,"state":"IN"},"type":"Feature","geometry":{"type":"Point","coordinates":[-85.17805556,41.05388889]}},{"properties":{"city":"FORT WAYNE","category":"Macro Cell","post code":"46805","county":"ALLEN","site name":"IN FORT WAYNE CENTRAL","country":"USA","oldlat":"41 07 23","newlong":-85.12888889,"street":"900 E COLISEUM BLVD","oldlon":"-85 07 44","id":"abus72u621xw","newlat":41.12305556,"state":"IN"},"type":"Feature","geometry":{"type":"Point","coordinates":[-85.12888889,41.12305556]}},{"properties":{"city":"FORT WAYNE","category":"Macro Cell","post code":"46815","county":"ALLEN","site name":"IN FORT WAYNE EAST","country":"USA","oldlat":"41.1185","newlong":-85.09872,"street":"3346 STELLHORN RD","oldlon":"-85.09872","id":"abus72wqth7s","newlat":41.1185,"state":"IN"},"type":"Feature","geometry":{"type":"Point","coordinates":[-85.09872,41.1185]}},{"properties":{"city":"FORT WAYNE","category":"Macro Cell","post code":"46845","county":"ALLEN","site name":"IN FORT WAYNE MATEA","country":"USA","oldlat":"41.20038889","newlong":-85.04130833,"street":"8220 UNION CHAPEL ROAD","oldlon":"-85.04130833","id":"abus72wojyv0","newlat":41.20038889,"state":"IN"},"type":"Feature","geometry":{"type":"Point","coordinates":[-85.04130833,41.20038889]}},{"properties":{"city":"FORT WAYNE","category":"Macro Cell","post code":"46818","county":"ALLEN","site name":"IN FORT WAYNE NW","country":"USA","oldlat":"41 11 35","newlong":-85.1725,"street":"2232 CARROLL RD","oldlon":"-85 10 21","id":"abus72xdh2mu","newlat":41.19305556,"state":"IN"},"type":"Feature","geometry":{"type":"Point","coordinates":[-85.1725,41.19305556]}},{"properties":{"city":"FORT WAYNE","category":"Macro Cell","post code":"46816","county":"ALLEN","site name":"IN FORT WAYNE SE","country":"USA","oldlat":"41 00 35","newlong":-85.05472222,"street":"8311 ADAMS CENTER RD","oldlon":"-85 03 17","id":"abus72phwlzx","newlat":41.00972222,"state":"IN"},"type":"Feature","geometry":{"type":"Point","coordinates":[-85.05472222,41.00972222]}},{"properties":{"city":"FORT WAYNE","category":"Macro Cell","post code":"46808","county":"ALLEN","site name":"IN GLENBROOK","country":"USA","oldlat":"41-6-55","newlong":-101.0,"street":"718 LOUISEDALE DR","oldlon":"-101","id":"abus72k5j0gw","newlat":41.11527778,"state":"IN"},"type":"Feature","geometry":{"type":"Point","coordinates":[-101.0,41.11527778]}},{"properties":{"city":"GRABILL","category":"Macro Cell","post code":"46741","county":"ALLEN","site name":"IN GRABILL","country":"USA","oldlat":"41 12 57.17","newlong":-84.95663056,"street":"14002 ROTH RD","oldlon":"-84 57 23.87","id":"abus72npcog1","newlat":41.21588056,"state":"IN"},"type":"Feature","geometry":{"type":"Point","coordinates":[-84.95663056,41.21588056]}},{"properties":{"city":"MONROEVILLE","category":"Macro Cell","post code":"46773","county":"ALLEN","site name":"IN HOAGLAND","country":"USA","oldlat":"40 57 17","newlong":-84.93277778,"street":"15825 HOAGLAND RD","oldlon":"-84 55 58","id":"abus72sk4423","newlat":40.95472222,"state":"IN"},"type":"Feature","geometry":{"type":"Point","coordinates":[-84.93277778,40.95472222]}},{"properties":{"city":"FORT WAYNE","category":"Macro Cell","post code":"46816","county":"ALLEN","site name":"IN I69/24","country":"USA","oldlat":"41 1 45","newlong":-85.25444444,"street":"6017 ELLISON RD","oldlon":"-85 15 16","id":"abus72stehwi","newlat":41.02916667,"state":"IN"},"type":"Feature","geometry":{"type":"Point","coordinates":[-85.25444444,41.02916667]}},{"properties":{"city":"FORT WAYNE","category":"Macro Cell","post code":"46808","county":"ALLEN","site name":"IN LEESBURG ROAD","country":"USA","oldlat":"41-06-13.20","newlong":-85.19608333,"street":"4032 BUTLER ROAD","oldlon":"-85-11-45.9","id":"abus72isuz55","newlat":41.10366667,"state":"IN"},"type":"Feature","geometry":{"type":"Point","coordinates":[-85.19608333,41.10366667]}},{"properties":{"city":"FORT WAYNE","category":"Macro Cell","post code":"46815","county":"ALLEN","site name":"IN MAPLECREST","country":"USA","oldlat":"41 05 51","newlong":-85.06444444,"street":"5946 E STATE BLVD","oldlon":"-85 03 52","id":"abus72hm3253","newlat":41.0975,"state":"IN"},"type":"Feature","geometry":{"type":"Point","coordinates":[-85.06444444,41.0975]}},{"properties":{"city":"FORT WAYNE","category":"Macro Cell","post code":"46835","county":"ALLEN","site name":"IN MAYSVILLE","country":"USA","oldlat":"41.13002778","newlong":-85.01574722,"street":"10145 MAYSVILLE ROAD","oldlon":"-85.01574722","id":"abus72rt20zz","newlat":41.13002778,"state":"IN"},"type":"Feature","geometry":{"type":"Point","coordinates":[-85.01574722,41.13002778]}},{"properties":{"city":"FORT WAYNE","category":"Macro Cell","post code":"46801","county":"ALLEN","site name":"IN MCKINNIE AVE","country":"USA","oldlat":"41.05522222","newlong":-85.08630556,"street":"4111 OXFORD RD","oldlon":"-85.08630556","id":"abus72py0yye","newlat":41.05522222,"state":"IN"},"type":"Feature","geometry":{"type":"Point","coordinates":[-85.08630556,41.05522222]}},{"properties":{"city":"HOAGLAND","category":"Macro Cell","post code":"46745","county":"ALLEN","site name":"IN MIDDLETON","country":"USA","oldlat":"40 56 36","newlong":-85.06305556,"street":"5926 HOAGLAND RD","oldlon":"-85 03 47","id":"abus72sw5urz","newlat":40.94333333,"state":"IN"},"type":"Feature","geometry":{"type":"Point","coordinates":[-85.06305556,40.94333333]}},{"properties":{"city":"FORT WAYNE","category":"Macro Cell","post code":"46816","county":"ALLEN","site name":"IN MINNICH","country":"USA","oldlat":"40.58.45","newlong":"-85.01.20","street":"11532 WAYNE TRACE","oldlon":"-85.01.20","id":"abus72rnsiai","newlat":"40.58.45","state":"IN"},"type":"Feature","geometry":{"type":"Point","coordinates":[-85.01,40.58]}},{"properties":{"city":"NEW HAVEN","category":"Macro Cell","post code":"46774","county":"ALLEN","site name":"IN NEW HAVEN","country":"USA","oldlat":"41 04 05","newlong":-85.03138889,"street":"910 HARTZELL RD","oldlon":"-85 01 53","id":"abus72hxii2t","newlat":41.06805556,"state":"IN"},"type":"Feature","geometry":{"type":"Point","coordinates":[-85.03138889,41.06805556]}},{"properties":{"city":"FORT WAYNE","category":"Macro Cell","post code":"46808","county":"ALLEN","site name":"IN NORTH HIGHLAND","country":"USA","oldlat":"41.09326","newlong":-85.17274,"street":"2020 LAKEVIEW DR","oldlon":"-85.17274","id":"abus72xrrtcc","newlat":41.09326,"state":"IN"},"type":"Feature","geometry":{"type":"Point","coordinates":[-85.17274,41.09326]}},{"properties":{"city":"FORT WAYNE","category":"Macro Cell","post code":"46806","county":"ALLEN","site name":"IN PAULDING RD","country":"USA","oldlat":"41 02 00","newlong":-85.13138889,"street":"415 E HAWTHORNE ST","oldlon":"-85 07 53","id":"abus72icz646","newlat":41.03333333,"state":"IN"},"type":"Feature","geometry":{"type":"Point","coordinates":[-85.13138889,41.03333333]}},{"properties":{"city":"FORT WAYNE","category":"Macro Cell","post code":"46802","county":"ALLEN","site name":"IN ROCKHILL PARK","country":"USA","oldlat":"41 04 14","newlong":-85.17694444,"street":"1628-B CATALPA ST","oldlon":"-85 10 37","id":"abus72jd61q9","newlat":41.07055556,"state":"IN"},"type":"Feature","geometry":{"type":"Point","coordinates":[-85.17694444,41.07055556]}},{"properties":{"city":"FORT WAYNE","category":"Macro Cell","post code":"46845","county":"ALLEN","site name":"IN ROYVILLE","country":"USA","oldlat":"41.18004","newlong":-85.13452,"street":"10707 COLDWATER RD","oldlon":"-85.13452","id":"abus72ich91d","newlat":41.18004,"state":"IN"},"type":"Feature","geometry":{"type":"Point","coordinates":[-85.13452,41.18004]}},{"properties":{"city":"FORT WAYNE","category":"Macro Cell","post code":"46816","county":"ALLEN","site name":"IN SMITHFIELD","country":"USA","oldlat":"41 08 04","newlong":-85.20083333,"street":"4220 GOSHEN RD, US HWY 33","oldlon":"-85 12 03","id":"abus72qa3ydh","newlat":41.13444444,"state":"IN"},"type":"Feature","geometry":{"type":"Point","coordinates":[-85.20083333,41.13444444]}},{"properties":{"city":"FORT WAYNE","category":"Macro Cell","post code":"46807","county":"ALLEN","site name":"IN SOUTH SIDE HS TAYLOR U F - TAYLOR UNIV#3","country":"USA","oldlat":"41.04906","newlong":-85.15235,"street":"1101 W RUDISILL BLVD","oldlon":"-85.15235","id":"abus72ie92zo","newlat":41.04906,"state":"IN"},"type":"Feature","geometry":{"type":"Point","coordinates":[-85.15235,41.04906]}},{"properties":{"city":"FORT WAYNE","category":"Macro Cell","post code":"46835","county":"ALLEN","site name":"IN ST JOSEPH","country":"USA","oldlat":"41 08 01","newlong":-85.06777778,"street":"5910+A SAINT JOE CTR RD","oldlon":"-85 04 04","id":"abus72ike4qy","newlat":41.13361111,"state":"IN"},"type":"Feature","geometry":{"type":"Point","coordinates":[-85.06777778,41.13361111]}},{"properties":{"city":"FORT WAYNE","category":"Macro Cell","post code":"46835","county":"ALLEN","site name":"IN SUNNYBROOK","country":"USA","oldlat":"41.16672778","newlong":-85.05431944,"street":"6907 FLUTTER RD","oldlon":"-85.05431944","id":"abus72rpe7qv","newlat":41.16672778,"state":"IN"},"type":"Feature","geometry":{"type":"Point","coordinates":[-85.05431944,41.16672778]}},{"properties":{"city":"FORT WAYNE","category":"Macro Cell","post code":"46835","county":"ALLEN","site name":"IN SUNNYBROOK - SUNNYBROOK 4-TMOB","country":"USA","oldlat":"41.15749","newlong":-85.06221,"street":"6421 I-469","oldlon":"-85.06221","id":"abus72mbj08b","newlat":41.15749,"state":"IN"},"type":"Feature","geometry":{"type":"Point","coordinates":[-85.06221,41.15749]}},{"properties":{"city":"FORT WAYNE","category":"Macro Cell","post code":"46804","county":"ALLEN","site name":"IN SYCAMORE HILLS","country":"USA","oldlat":"41 02 40","newlong":-85.29083333,"street":"11321 ABOITE CENTER RD","oldlon":"-85 17 27","id":"abus72jac390","newlat":41.04444444,"state":"IN"},"type":"Feature","geometry":{"type":"Point","coordinates":[-85.29083333,41.04444444]}},{"properties":{"city":"FORT WAYNE","category":"Macro Cell","post code":"46804","county":"ALLEN","site name":"IN TIMES CORNER","country":"USA","oldlat":"41.06388833","newlong":-85.22638611,"street":"6530 COVINGTON RD","oldlon":"-85.22638611","id":"abus72oetcli","newlat":41.06388833,"state":"IN"},"type":"Feature","geometry":{"type":"Point","coordinates":[-85.22638611,41.06388833]}},{"properties":{"city":"FORT WAYNE","category":"Macro Cell","post code":"46809","county":"ALLEN","site name":"IN WAYNEDALE","country":"USA","oldlat":"41 01 26","newlong":-85.18666667,"street":"6339 ARDMORE AVE","oldlon":"-85 11 12","id":"abus72iv96ld","newlat":41.02388889,"state":"IN"},"type":"Feature","geometry":{"type":"Point","coordinates":[-85.18666667,41.02388889]}},{"properties":{"city":"WOODBURN","category":"Macro Cell","post code":"46797","county":"ALLEN","site name":"IN WOODBURN","country":"USA","oldlat":"41 09 54.6","newlong":-84.82261111,"street":"8211 COLE ROAD","oldlon":"-84 49 21.4","id":"abus72hjlqip","newlat":41.16516667,"state":"IN"},"type":"Feature","geometry":{"type":"Point","coordinates":[-84.82261111,41.16516667]}},{"properties":{"city":"YODER","category":"Macro Cell","post code":"46798","county":"ALLEN","site name":"IN YODER","country":"USA","oldlat":"40 57 10","newlong":-85.1875,"street":"14136 HARBER RD","oldlon":"-85 11 15","id":"abus72q7xfzg","newlat":40.95277778,"state":"IN"},"type":"Feature","geometry":{"type":"Point","coordinates":[-85.1875,40.95277778]}},{"properties":{"city":"MONROEVILLE","category":"Macro Cell","post code":"46773","county":"ALLEN","site name":"IN ZULU","country":"USA","oldlat":"41 01 08","newlong":-84.86222222,"street":"7803 STATE ROAD 101","oldlon":"-84 51 44","id":"abus72sv1o92","newlat":41.01888889,"state":"IN"},"type":"Feature","geometry":{"type":"Point","coordinates":[-84.86222222,41.01888889]}},{"properties":{"city":"HARTFORD CITY","category":"Macro Cell","post code":"47348","county":"BLACKFORD","site name":"IN HARTFORD CITY","country":"USA","oldlat":"40 27 47","newlong":-85.41166667,"street":"1884 W 100 N","oldlon":"-85 24 42","id":"abus72mofjg5","newlat":40.46305556,"state":"IN"},"type":"Feature","geometry":{"type":"Point","coordinates":[-85.41166667,40.46305556]}},{"properties":{"city":"MONTPELIER","category":"Macro Cell","post code":"47359","county":"BLACKFORD","site name":"IN MONTPELIER","country":"USA","oldlat":"40 33 20.7","newlong":-85.29322222,"street":"868 W HUNTINGTON ST","oldlon":"-85 17 35.6","id":"abus72t7sjtv","newlat":40.55575,"state":"IN"},"type":"Feature","geometry":{"type":"Point","coordinates":[-85.29322222,40.55575]}},{"properties":{"city":"GARRETT","category":"Macro Cell","post code":"46738","county":"DE KALB","site name":"IN AUBURN","country":"USA","oldlat":"41 21 03","newlong":-85.09694444,"street":"4959 CO RD 19","oldlon":"-85 05 49","id":"abus72ls0ade","newlat":41.35083333,"state":"IN"},"type":"Feature","geometry":{"type":"Point","coordinates":[-85.09694444,41.35083333]}},{"properties":{"city":"BUTLER","category":"Macro Cell","post code":"46721","county":"DE KALB","site name":"IN NEWVILLE","country":"USA","oldlat":"41-21-24.1","newlong":-84.89516667,"street":"6256 STATE ROAD 8","oldlon":"-84-53-42.6","id":"abus72j4h7bu","newlat":41.35669444,"state":"IN"},"type":"Feature","geometry":{"type":"Point","coordinates":[-84.89516667,41.35669444]}},{"properties":{"city":"WATERLOO","category":"Macro Cell","post code":"46793","county":"DE KALB","site name":"IN WATERLOO","country":"USA","oldlat":"41 26 44","newlong":-85.00027778,"street":"2455 COUNTY ROAD 39","oldlon":"-85 00 01","id":"abus72whyt7w","newlat":41.44555556,"state":"IN"},"type":"Feature","geometry":{"type":"Point","coordinates":[-85.00027778,41.44555556]}},{"properties":{"city":"BUTLER","category":"Macro Cell","post code":"46721","county":"DE KALB","site name":"IN WILMINGTON","country":"USA","oldlat":"41.42778","newlong":-84.88611083,"street":"6469 US HIGHWAY 6","oldlon":"-84.88611083","id":"abus72kviz6e","newlat":41.42778,"state":"IN"},"type":"Feature","geometry":{"type":"Point","coordinates":[-84.88611083,41.42778]}},{"properties":{"city":"ALBANY","category":"Macro Cell","post code":"47320","county":"DELAWARE","site name":"IN ALBANY","country":"USA","oldlat":"40 18 27","newlong":-85.24511111,"street":"12200 GREGORY ROAD","oldlon":"-85 14 42.4","id":"abus72o0nk3q","newlat":40.3075,"state":"IN"},"type":"Feature","geometry":{"type":"Point","coordinates":[-85.24511111,40.3075]}},{"properties":{"city":"MUNCIE","category":"Macro Cell","post code":"47304","county":"DELAWARE","site name":"IN BALL MEMORIAL HOSPITAL","country":"USA","oldlat":"40 13 .8","newlong":-85.43423333,"street":"4055 W CLARA LANE","oldlon":"-85 26 3.24","id":"abus72uabsmm","newlat":40.21688889,"state":"IN"},"type":"Feature","geometry":{"type":"Point","coordinates":[-85.43423333,40.21688889]}},{"properties":{"city":"MUNCIE","category":"Macro Cell","post code":"47302","county":"DELAWARE","site name":"IN CARDINALS","country":"USA","oldlat":"40 10 39","newlong":-85.43472222,"street":"1911 S PERDIEU RD","oldlon":"-85 26 05","id":"abus72ldfr0q","newlat":40.1775,"state":"IN"},"type":"Feature","geometry":{"type":"Point","coordinates":[-85.43472222,40.1775]}},{"properties":{"city":"MUNCIE","category":"Macro Cell","post code":"47303","county":"DELAWARE","site name":"IN CRESTON","country":"USA","oldlat":"40 12 54.55","newlong":-85.344525,"street":"3611 MCGALLIARD ROAD","oldlon":"-85 20 40.29","id":"abus72pn3is9","newlat":40.21515278,"state":"IN"},"type":"Feature","geometry":{"type":"Point","coordinates":[-85.344525,40.21515278]}},{"properties":{"city":"DALEVILLE","category":"Macro Cell","post code":"47334","county":"DELAWARE","site name":"IN DALEVILLE","country":"USA","oldlat":"40 07 26","newlong":-85.56333333,"street":"7700 S TENNESSEE ST","oldlon":"-85 33 48","id":"abus72k6b6mo","newlat":40.12388889,"state":"IN"},"type":"Feature","geometry":{"type":"Point","coordinates":[-85.56333333,40.12388889]}},{"properties":{"city":"EATON","category":"Macro Cell","post code":"46072","county":"DELAWARE","site name":"IN EATON","country":"USA","oldlat":"40.33722222","newlong":-85.35138889,"street":"S MERIDIAN ST","oldlon":"-85.35138889","id":"abus72n3mgjd","newlat":40.33722222,"state":"IN"},"type":"Feature","geometry":{"type":"Point","coordinates":[-85.35138889,40.33722222]}},{"properties":{"city":"GASTON","category":"Macro Cell","post code":"47342","county":"DELAWARE","site name":"IN GASTON","country":"USA","oldlat":"40 18 24.8","newlong":-85.53997222,"street":"12700 W COUNTY ROAD 800 N","oldlon":"-85 32 23.9","id":"abus72l3idq2","newlat":40.30688889,"state":"IN"},"type":"Feature","geometry":{"type":"Point","coordinates":[-85.53997222,40.30688889]}},{"properties":{"city":"YORKTOWN","category":"Macro Cell","post code":"47396","county":"DELAWARE","site name":"IN GILMAN","country":"USA","oldlat":"40 13 07","newlong":-85.56444444,"street":"15201 WEST COUNTY ROAD 200N.","oldlon":"-85 33 52","id":"abus72p6r8up","newlat":40.21861111,"state":"IN"},"type":"Feature","geometry":{"type":"Point","coordinates":[-85.56444444,40.21861111]}},{"properties":{"city":"MUNCIE","category":"Macro Cell","post code":"47304","county":"DELAWARE","site name":"IN GN ANTHONY - SITE 1-CROWN CASTLE","country":"USA","oldlat":"40.28162","newlong":-85.43954,"street":"10201 WHEELING AVE","oldlon":"-85.43954","id":"abus72rfda9v","newlat":40.28162,"state":"IN"},"type":"Feature","geometry":{"type":"Point","coordinates":[-85.43954,40.28162]}},{"properties":{"city":"MUNCIE","category":"Macro Cell","post code":"47302","county":"DELAWARE","site name":"IN HYDE PARK","country":"USA","oldlat":"40.19375","newlong":-85.29777778,"street":"7700 JACKSON ST","oldlon":"-85.29777778","id":"abus72xqe9m0","newlat":40.19375,"state":"IN"},"type":"Feature","geometry":{"type":"Point","coordinates":[-85.29777778,40.19375]}},{"properties":{"city":"MUNCIE","category":"Macro Cell","post code":"47304","county":"DELAWARE","site name":"IN MUNCIE","country":"USA","oldlat":"40 13 32","newlong":-85.46055556,"street":"400 N NEBO RD","oldlon":"-85 27 38","id":"abus72nm2utp","newlat":40.22555556,"state":"IN"},"type":"Feature","geometry":{"type":"Point","coordinates":[-85.46055556,40.22555556]}},{"properties":{"city":"MUNCIE","category":"Macro Cell","post code":"47303","county":"DELAWARE","site name":"IN MUNCIE DOWNTOWN","country":"USA","oldlat":"40 12 36","newlong":-85.39944444,"street":"1717 N WHEELING AVE","oldlon":"-85 23 58","id":"abus72rke9ye","newlat":40.21,"state":"IN"},"type":"Feature","geometry":{"type":"Point","coordinates":[-85.39944444,40.21]}},{"properties":{"city":"MUNCIE","category":"Macro Cell","post code":"47303","county":"DELAWARE","site name":"IN MUNCIE EAST","country":"USA","oldlat":"40 14 08","newlong":-85.32888889,"street":"501 E RIGGIN RD","oldlon":"-85 19 44","id":"abus72tz38ak","newlat":40.23555556,"state":"IN"},"type":"Feature","geometry":{"type":"Point","coordinates":[-85.32888889,40.23555556]}},{"properties":{"city":"MUNCIE","category":"Macro Cell","post code":"47302","county":"DELAWARE","site name":"IN MUNCIE SOUTH","country":"USA","oldlat":"40 09 51","newlong":-85.38694444,"street":"3221 S WALNUT","oldlon":"-85 23 13","id":"abus72k3j1xq","newlat":40.16416667,"state":"IN"},"type":"Feature","geometry":{"type":"Point","coordinates":[-85.38694444,40.16416667]}},{"properties":{"city":"MUNCIE","category":"Macro Cell","post code":"47303","county":"DELAWARE","site name":"IN OAKVILLE","country":"USA","oldlat":"40 4 54","newlong":-85.35947222,"street":"2160 E CR 800S","oldlon":"-85 21 34.1","id":"abus72tqrfjl","newlat":40.08166667,"state":"IN"},"type":"Feature","geometry":{"type":"Point","coordinates":[-85.35947222,40.08166667]}},{"properties":{"city":"MUNCIE","category":"Macro Cell","post code":"47305","county":"DELAWARE","site name":"IN PERSHING","country":"USA","oldlat":"40 11 24","newlong":-85.37833333,"street":"434 S PERSHING ST","oldlon":"-85 22 42","id":"abus72odwm34","newlat":40.19,"state":"IN"},"type":"Feature","geometry":{"type":"Point","coordinates":[-85.37833333,40.19]}},{"properties":{"city":"MUNCIE","category":"Macro Cell","post code":"47303","county":"DELAWARE","site name":"IN ROYERTON_#1","country":"USA","oldlat":"40.26975833","newlong":-85.35171944,"street":"8901 CR 200 E","oldlon":"-85.35171944","id":"abus72q7ftfr","newlat":40.26975833,"state":"IN"},"type":"Feature","geometry":{"type":"Point","coordinates":[-85.35171944,40.26975833]}},{"properties":{"city":"MUNCIE","category":"Macro Cell","post code":"47303","county":"DELAWARE","site name":"IN TEACHERS COLLEGE","country":"USA","oldlat":"40 11 40","newlong":-85.40861111,"street":"1968 W MAIN ST","oldlon":"-85 24 31","id":"abus72utds9q","newlat":40.19444444,"state":"IN"},"type":"Feature","geometry":{"type":"Point","coordinates":[-85.40861111,40.19444444]}},{"properties":{"city":"YORKTOWN","category":"Macro Cell","post code":"47396","county":"DELAWARE","site name":"IN YORKTOWN","country":"USA","oldlat":"40 10 6","newlong":-85.49388889,"street":"9108 SUTHERLAND","oldlon":"-85 29 38","id":"abus72pwne5l","newlat":40.16833333,"state":"IN"},"type":"Feature","geometry":{"type":"Point","coordinates":[-85.49388889,40.16833333]}},{"properties":{"city":"MARION","category":"Macro Cell","post code":"46953","county":"GRANT","site name":"IN FARMINGTON ROAD","country":"USA","oldlat":"40.50844444","newlong":-85.55025,"street":"6460 E. 300 S","oldlon":"-85.55025","id":"abus72hjlkjc","newlat":40.50844444,"state":"IN"},"type":"Feature","geometry":{"type":"Point","coordinates":[-85.55025,40.50844444]}},{"properties":{"city":"JONESBORO","category":"Macro Cell","post code":"46938","county":"GRANT","site name":"IN GAS CITY","country":"USA","oldlat":"40 27 29","newlong":-85.60916667,"street":"6625 WHEELING PIKE","oldlon":"-85 36 33","id":"abus72sr6cmg","newlat":40.45805556,"state":"IN"},"type":"Feature","geometry":{"type":"Point","coordinates":[-85.60916667,40.45805556]}},{"properties":{"city":"MARION","category":"Macro Cell","post code":"46953","county":"GRANT","site name":"IN INDIANA WESLEYAN","country":"USA","oldlat":"40 29 34","newlong":-85.63111111,"street":"1955 E OLD KOKOMO RD","oldlon":"-85 37 52","id":"abus72t7r27x","newlat":40.49277778,"state":"IN"},"type":"Feature","geometry":{"type":"Point","coordinates":[-85.63111111,40.49277778]}},{"properties":{"city":"MARION","category":"Macro Cell","post code":"46953","county":"GRANT","site name":"IN MARION","country":"USA","oldlat":"40 32 46","newlong":-85.67944444,"street":"1604 W 16TH ST","oldlon":"-85 40 46","id":"abus72txkv3h","newlat":40.54611111,"state":"IN"},"type":"Feature","geometry":{"type":"Point","coordinates":[-85.67944444,40.54611111]}},{"properties":{"city":"MARION","category":"Macro Cell","post code":"46953","county":"GRANT","site name":"IN MARION EAST","country":"USA","oldlat":"40 32 51","newlong":-85.58055556,"street":"390 S 500 E","oldlon":"-85 34 50","id":"abus72i9ytqb","newlat":40.5475,"state":"IN"},"type":"Feature","geometry":{"type":"Point","coordinates":[-85.58055556,40.5475]}},{"properties":{"city":"MARION","category":"Macro Cell","post code":"46953","county":"GRANT","site name":"IN MARION NE","country":"USA","oldlat":"40 33 25.41","newlong":-85.6531,"street":"825 S PENNSYLVANIA AVE","oldlon":"-85 39 11.16","id":"abus72np0m63","newlat":40.55705833,"state":"IN"},"type":"Feature","geometry":{"type":"Point","coordinates":[-85.6531,40.55705833]}},{"properties":{"city":"MARION","category":"Macro Cell","post code":"46952","county":"GRANT","site name":"IN MARION NORTH","country":"USA","oldlat":"40 37 20","newlong":-85.65444444,"street":"4864 N 100 E","oldlon":"-85 39 16","id":"abus72nmeqsv","newlat":40.62222222,"state":"IN"},"type":"Feature","geometry":{"type":"Point","coordinates":[-85.65444444,40.62222222]}},{"properties":{"city":"MARION","category":"Macro Cell","post code":"46952","county":"GRANT","site name":"IN MARION NORTH CENTRAL - CAND#2- BARTON","country":"USA","oldlat":"40.56916667","newlong":-85.6575,"street":"S BRANSON ST","oldlon":"-85.6575","id":"abus72i2dnmt","newlat":40.56916667,"state":"IN"},"type":"Feature","geometry":{"type":"Point","coordinates":[-85.6575,40.56916667]}},{"properties":{"city":"MARION","category":"Macro Cell","post code":"46953","county":"GRANT","site name":"IN MARION SOUTH - CAND#1 GTP","country":"USA","oldlat":"40.52861111","newlong":-85.65472222,"street":"3300 S MERIDIAN ST","oldlon":"-85.65472222","id":"abus72s0pb1v","newlat":40.52861111,"state":"IN"},"type":"Feature","geometry":{"type":"Point","coordinates":[-85.65472222,40.52861111]}},{"properties":{"city":"MARION","category":"Macro Cell","post code":"46952","county":"GRANT","site name":"IN MARION_NE","country":"USA","oldlat":"40.55269167","newlong":-85.64379722,"street":"825 S PENNSYLVANIA AVE","oldlon":"-85.64379722","id":"abus72mdfql8","newlat":40.55269167,"state":"IN"},"type":"Feature","geometry":{"type":"Point","coordinates":[-85.64379722,40.55269167]}},{"properties":{"city":"FAIRMOUNT","category":"Macro Cell","post code":"46928","county":"GRANT","site name":"IN POINT ISABEL","country":"USA","oldlat":"40-24-31.9","newlong":-85.83466667,"street":"9280 S STATE ROAD 13","oldlon":"-85-50-4.8","id":"abus72xn81od","newlat":40.40886111,"state":"IN"},"type":"Feature","geometry":{"type":"Point","coordinates":[-85.83466667,40.40886111]}},{"properties":{"city":"UPLAND","category":"Macro Cell","post code":"46989","county":"GRANT","site name":"IN SHAMROCK LAKES - HUTSON","country":"USA","oldlat":"40.40127222","newlong":-85.44573889,"street":"11861 E 1050 S","oldlon":"-85.44573889","id":"abus72m1a01v","newlat":40.40127222,"state":"IN"},"type":"Feature","geometry":{"type":"Point","coordinates":[-85.44573889,40.40127222]}},{"properties":{"city":"MARION","category":"Macro Cell","post code":"46953","county":"GRANT","site name":"IN SWEETSER","country":"USA","oldlat":"40-31-04","newlong":-85.78611111,"street":"2323 S 600 W RD","oldlon":"-85-47-10","id":"abus72t5tj2i","newlat":40.51777778,"state":"IN"},"type":"Feature","geometry":{"type":"Point","coordinates":[-85.78611111,40.51777778]}},{"properties":{"city":"UPLAND","category":"Macro Cell","post code":"46989","county":"GRANT","site name":"IN TAYLOR","country":"USA","oldlat":"40-28-56.18","newlong":-85.49609167,"street":"COUNTY ROAD 700 SOUTH AND STAT","oldlon":"-85-29-45.93","id":"abus72mq90xm","newlat":40.48227222,"state":"IN"},"type":"Feature","geometry":{"type":"Point","coordinates":[-85.49609167,40.48227222]}},{"properties":{"city":"VAN BUREN","category":"Macro Cell","post code":"46991","county":"GRANT","site name":"IN VAN BUREN","country":"USA","oldlat":"40.61625","newlong":-85.53002778,"street":"7682 E 450 NORTH","oldlon":"-85.53002778","id":"abus72xttbe5","newlat":40.61625,"state":"IN"},"type":"Feature","geometry":{"type":"Point","coordinates":[-85.53002778,40.61625]}},{"properties":{"city":"ANDREWS","category":"Macro Cell","post code":"46702","county":"HUNTINGTON","site name":"IN ANDREWS","country":"USA","oldlat":"40.86296667","newlong":-85.59331667,"street":"599 CALIFORNIA ST","oldlon":"-85.59331667","id":"abus72rosyrr","newlat":40.86296667,"state":"IN"},"type":"Feature","geometry":{"type":"Point","coordinates":[-85.59331667,40.86296667]}},{"properties":{"city":"HUNTINGTON","category":"Macro Cell","post code":"46750","county":"HUNTINGTON","site name":"IN HUNTINGTON","country":"USA","oldlat":"40 53 54","newlong":-85.48583333,"street":"1825 STULTS RD","oldlon":"-85 29 09","id":"abus72jvyxk8","newlat":40.89833333,"state":"IN"},"type":"Feature","geometry":{"type":"Point","coordinates":[-85.48583333,40.89833333]}},{"properties":{"city":"HUNTINGTON","category":"Macro Cell","post code":"46750","county":"HUNTINGTON","site name":"IN HUNTINGTON SOUTH - CHAS HAYES#1","country":"USA","oldlat":"40.89238333","newlong":-85.52021111,"street":"295 COMMERCE DR","oldlon":"-85.52021111","id":"abus72lmxvf0","newlat":40.89238333,"state":"IN"},"type":"Feature","geometry":{"type":"Point","coordinates":[-85.52021111,40.89238333]}},{"properties":{"city":"HUNTINGTON","category":"Macro Cell","post code":"46750","county":"HUNTINGTON","site name":"IN HUNTINGTON WEST","country":"USA","oldlat":"40 53 07","newlong":-85.55944444,"street":"3800 NORWOOD RD","oldlon":"-85 33 34","id":"abus72t9b1fw","newlat":40.88527778,"state":"IN"},"type":"Feature","geometry":{"type":"Point","coordinates":[-85.55944444,40.88527778]}},{"properties":{"city":"ROANOKE","category":"Macro Cell","post code":"46783","county":"HUNTINGTON","site name":"IN MAHON","country":"USA","oldlat":"40 56 42","newlong":-85.37916667,"street":"3829 E 800 N","oldlon":"-85 22 45","id":"abus72plgxgl","newlat":40.945,"state":"IN"},"type":"Feature","geometry":{"type":"Point","coordinates":[-85.37916667,40.945]}},{"properties":{"city":"HUNTINGTON","category":"Macro Cell","post code":"46750","county":"HUNTINGTON","site name":"IN MARDENIS","country":"USA","oldlat":"40 53 21.91","newlong":-85.34488889,"street":"5624 EAST 400 NORTH / 1825 STU","oldlon":"-85 20 41.60","id":"abus72wjkog4","newlat":40.88941944,"state":"IN"},"type":"Feature","geometry":{"type":"Point","coordinates":[-85.34488889,40.88941944]}},{"properties":{"city":"HUNTINGTON","category":"Macro Cell","post code":"46750","county":"HUNTINGTON","site name":"IN MARKLE","country":"USA","oldlat":"40 48 23","newlong":-85.35166667,"street":"1560 S CR 520 EAST","oldlon":"-85 21 06","id":"abus72nasdkn","newlat":40.80638889,"state":"IN"},"type":"Feature","geometry":{"type":"Point","coordinates":[-85.35166667,40.80638889]}},{"properties":{"city":"HUNTINGTON","category":"Macro Cell","post code":"46750","county":"HUNTINGTON","site name":"IN MT ETNA","country":"USA","oldlat":"40.75295833","newlong":-85.57194444,"street":"6436 W 550 S","oldlon":"-85.57194444","id":"abus72wm9tt3","newlat":40.75295833,"state":"IN"},"type":"Feature","geometry":{"type":"Point","coordinates":[-85.57194444,40.75295833]}},{"properties":{"city":"HUNTINGTON","category":"Macro Cell","post code":"46792","county":"HUNTINGTON","site name":"IN MT ZION","country":"USA","oldlat":"40 41 50.9","newlong":-85.38947222,"street":"CR 300 EAST","oldlon":"-85 23 22.1","id":"abus72ndbhmg","newlat":40.69747222,"state":"IN"},"type":"Feature","geometry":{"type":"Point","coordinates":[-85.38947222,40.69747222]}},{"properties":{"city":"WARREN","category":"Macro Cell","post code":"46792","county":"HUNTINGTON","site name":"IN SALAMONIE RIVER","country":"USA","oldlat":"40 41 51","newlong":-85.50972222,"street":"350 W COUNTY ROAD 900S","oldlon":"-85 30 35","id":"abus72vyg68u","newlat":40.6975,"state":"IN"},"type":"Feature","geometry":{"type":"Point","coordinates":[-85.50972222,40.6975]}},{"properties":{"city":"PENNVILLE","category":"Macro Cell","post code":"47369","county":"JAY","site name":"IN PENNVILLE","country":"USA","oldlat":"40 30 15","newlong":-85.175,"street":"4741 N  1025  WEST","oldlon":"-85 10 30","id":"abus72uphlo3","newlat":40.50416667,"state":"IN"},"type":"Feature","geometry":{"type":"Point","coordinates":[-85.175,40.50416667]}},{"properties":{"city":"PORTLAND","category":"Macro Cell","post code":"47371","county":"JAY","site name":"IN PORTLAND","country":"USA","oldlat":"40 24 48","newlong":-85.01916667,"street":"1563 S 200W","oldlon":"-85 01 09","id":"abus72uogcdw","newlat":40.41333333,"state":"IN"},"type":"Feature","geometry":{"type":"Point","coordinates":[-85.01916667,40.41333333]}},{"properties":{"city":"PORTLAND","category":"Macro Cell","post code":"47371","county":"JAY","site name":"IN PORTLAND DT","country":"USA","oldlat":"40 25 17.1","newlong":-84.96505556,"street":"1207 BOUNDRY PIKE","oldlon":"-84 57 54.2","id":"abus72o0jknp","newlat":40.42141667,"state":"IN"},"type":"Feature","geometry":{"type":"Point","coordinates":[-84.96505556,40.42141667]}},{"properties":{"city":"REDKEY","category":"Macro Cell","post code":"47373","county":"JAY","site name":"IN RED KEY","country":"USA","oldlat":"40 21 23","newlong":-85.14138889,"street":"8608 W SR 67","oldlon":"-85 8 29","id":"abus72lafaa9","newlat":40.35638889,"state":"IN"},"type":"Feature","geometry":{"type":"Point","coordinates":[-85.14138889,40.35638889]}},{"properties":{"city":"RIDGEVILLE","category":"Macro Cell","post code":"47380","county":"RANDOLPH","site name":"IN DEERFIELD","country":"USA","oldlat":"40 17 17.86","newlong":-85.00944722,"street":"1668 W COUNTY ROAD 850 N","oldlon":"-85 00 34.01","id":"abus72q16yp2","newlat":40.28829444,"state":"IN"},"type":"Feature","geometry":{"type":"Point","coordinates":[-85.00944722,40.28829444]}},{"properties":{"city":"LOSANTVILLE","category":"Macro Cell","post code":"47354","county":"RANDOLPH","site name":"IN LOSANTVILLE","country":"USA","oldlat":"40 01 29","newlong":-85.19194444,"street":"9530 SOUTH US HIGHWAY 35","oldlon":"-85 11 31","id":"abus72l3bdwt","newlat":40.02472222,"state":"IN"},"type":"Feature","geometry":{"type":"Point","coordinates":[-85.19194444,40.02472222]}},{"properties":{"city":"LYNN","category":"Macro Cell","post code":"47355","county":"RANDOLPH","site name":"IN LYNN","country":"USA","oldlat":"40-03-20","newlong":-84.94611111,"street":"1658-2 E US 36","oldlon":"-84-56-46","id":"abus72jxjk4m","newlat":40.05555556,"state":"IN"},"type":"Feature","geometry":{"type":"Point","coordinates":[-84.94611111,40.05555556]}},{"properties":{"city":"PARKER CITY","category":"Macro Cell","post code":"47368","county":"RANDOLPH","site name":"IN PARKER CITY","country":"USA","oldlat":"40 10 52.6","newlong":-85.18325,"street":"1161 NORTH COUNTY ROAD 1100 W","oldlon":"-85 10 59.7","id":"abus72is1g7w","newlat":40.18127778,"state":"IN"},"type":"Feature","geometry":{"type":"Point","coordinates":[-85.18325,40.18127778]}},{"properties":{"city":"WINCHESTER","category":"Macro Cell","post code":"47394","county":"RANDOLPH","site name":"IN WINCHESTER IN","country":"USA","oldlat":"40 8 33","newlong":-84.98972222,"street":"1748 S BLOOMINGPORT RD","oldlon":"-84 59 23","id":"abus72qr4f81","newlat":40.1425,"state":"IN"},"type":"Feature","geometry":{"type":"Point","coordinates":[-84.98972222,40.1425]}},{"properties":{"city":"BLUFFTON","category":"Macro Cell","post code":"46714","county":"WELLS","site name":"IN BLUFFTON","country":"USA","oldlat":"40 44 00","newlong":-85.07722222,"street":"7627 EAST 100 SOUTH","oldlon":"-85 04 38","id":"abus72ons4o5","newlat":40.73333333,"state":"IN"},"type":"Feature","geometry":{"type":"Point","coordinates":[-85.07722222,40.73333333]}},{"properties":{"city":"BLUFFTON","category":"Macro Cell","post code":"46714","county":"WELLS","site name":"IN BLUFFTON DT","country":"USA","oldlat":"40 44 43","newlong":-85.1725,"street":"200 CHARLES DEAM CT","oldlon":"-85 10 21","id":"abus72y0bc8i","newlat":40.74527778,"state":"IN"},"type":"Feature","geometry":{"type":"Point","coordinates":[-85.1725,40.74527778]}},{"properties":{"city":"CRAIGVILLE","category":"Macro Cell","post code":"46731","county":"WELLS","site name":"IN GN2 TOCSIN - SITE 1-US CELLULAR","country":"USA","oldlat":"40.8292","newlong":-85.1029,"street":"6320 E US HWY 224","oldlon":"-85.1029","id":"abus72u5dwj1","newlat":40.8292,"state":"IN"},"type":"Feature","geometry":{"type":"Point","coordinates":[-85.1029,40.8292]}},{"properties":{"city":"OSSIAN","category":"Macro Cell","post code":"46791","county":"WELLS","site name":"IN UNIONDALE","country":"USA","oldlat":"40 51 48","newlong":-85.22666667,"street":"8272 N MERIDIAN","oldlon":"-85 13 36","id":"abus72jt6rdq","newlat":40.86333333,"state":"IN"},"type":"Feature","geometry":{"type":"Point","coordinates":[-85.22666667,40.86333333]}},{"properties":{"city":"CHURUBUSCO","category":"Macro Cell","post code":"46723","county":"WHITLEY","site name":"IN CHURUBUSCO","country":"USA","oldlat":"41 12 25","newlong":-85.30805556,"street":"12626 US HIGHWAY 33 N","oldlon":"-85 18 29","id":"abus72quo1ku","newlat":41.20694444,"state":"IN"},"type":"Feature","geometry":{"type":"Point","coordinates":[-85.30805556,41.20694444]}},{"properties":{"city":"COLUMBIA CITY","category":"Macro Cell","post code":"46725","county":"WHITLEY","site name":"IN COESSE","country":"USA","oldlat":"41 07 33","newlong":-85.3525,"street":"7390 E US 30","oldlon":"-85 21 9","id":"abus72oqbayk","newlat":41.12583333,"state":"IN"},"type":"Feature","geometry":{"type":"Point","coordinates":[-85.3525,41.12583333]}},{"properties":{"city":"COLUMBIA CITY","category":"Macro Cell","post code":"46725","county":"WHITLEY","site name":"IN COLUMBIA CITY","country":"USA","oldlat":"41 09 05","newlong":-85.43722222,"street":"COUNTY ROAD 300 EAST","oldlon":"-85 26 14","id":"abus72stogse","newlat":41.15138889,"state":"IN"},"type":"Feature","geometry":{"type":"Point","coordinates":[-85.43722222,41.15138889]}},{"properties":{"city":"LARWILL","category":"Macro Cell","post code":"46764","county":"WHITLEY","site name":"IN LARWILL","country":"USA","oldlat":"41-10-2.9","newlong":-85.59361111,"street":"5389 WEST OLD TRAIL RD","oldlon":"-85-35-37","id":"abus72o394cs","newlat":41.16747222,"state":"IN"},"type":"Feature","geometry":{"type":"Point","coordinates":[-85.59361111,41.16747222]}},{"properties":{"city":"COLUMBIA CITY","category":"Macro Cell","post code":"46725","county":"WHITLEY","site name":"IN LAUD","country":"USA","oldlat":"41 04 56.6","newlong":-85.47477778,"street":"5622 SOUTH SR 9","oldlon":"-85 28 29.2","id":"abus72v8bo28","newlat":41.08238889,"state":"IN"},"type":"Feature","geometry":{"type":"Point","coordinates":[-85.47477778,41.08238889]}},{"properties":{"city":"SOUTH WHITLEY","category":"Macro Cell","post code":"46787","county":"WHITLEY","site name":"IN SOUTH WHITLEY","country":"USA","oldlat":"41-4-28.15","newlong":-85.61225,"street":"6329 W SR 14","oldlon":"-85 36 44.10","id":"abus72qlxtua","newlat":41.07448611,"state":"IN"},"type":"Feature","geometry":{"type":"Point","coordinates":[-85.61225,41.07448611]}},{"properties":{"city":"COLUMBIA CITY","category":"Macro Cell","post code":"46725","county":"WHITLEY","site name":"IN TRI LAKES","country":"USA","oldlat":"41 14 47.17","newlong":-85.46403056,"street":"5641 N SR9","oldlon":"-85 27 50.51","id":"abus72w5fp8i","newlat":41.24643611,"state":"IN"},"type":"Feature","geometry":{"type":"Point","coordinates":[-85.46403056,41.24643611]}},{"properties":{"city":"CEDAR LAKE","category":"Macro Cell","post code":null,"county":null,"site name":"CH BRUNSWICK","country":"USA","oldlat":"41-22-24.79","newlong":-87.46266111,"street":"10501-8B WEST 133RD AVE","oldlon":"-87-27-45.58","id":"abus72xf7ehj","newlat":41.37355278,"state":"IN"},"type":"Feature","geometry":{"type":"Point","coordinates":[-87.46266111,41.37355278]}},{"properties":{"city":"MORENCI","category":"Macro Cell","post code":"49256","county":"LENAWEE","site name":"OH MORENCI","country":"USA","oldlat":"41 42 39","newlong":-84.20666667,"street":"483 SKYLINE DR","oldlon":"-84 12 24","id":"abus72rx85he","newlat":41.71083333,"state":"MI"},"type":"Feature","geometry":{"type":"Point","coordinates":[-84.20666667,41.71083333]}},{"properties":{"city":"ERIE","category":"Macro Cell","post code":null,"county":"MONROE","site name":"OH ERIE [TEMPERANCE] [ALLTEL]","country":"USA","oldlat":"41-46-32.1","newlong":-83.50602778,"street":"8820 DIXIE HIGHWAY","oldlon":"-83-30-21.7","id":"abus72o71ss2","newlat":41.77558333,"state":"MI"},"type":"Feature","geometry":{"type":"Point","coordinates":[-83.50602778,41.77558333]}},{"properties":{"city":"LIMA","category":"Macro Cell","post code":"45801","county":"ALLEN","site name":"OH BIBLE &amp; I75","country":"USA","oldlat":"40 46 40.98","newlong":-84.06931944,"street":"2732 STEWART ROAD","oldlon":"-84 04 09.55","id":"abus72su7mfj","newlat":40.77805,"state":"OH"},"type":"Feature","geometry":{"type":"Point","coordinates":[-84.06931944,40.77805]}},{"properties":{"city":"BLUFFTON","category":"Macro Cell","post code":"45817","county":"ALLEN","site name":"OH BLUFFTON","country":"USA","oldlat":"40 53 41","newlong":-83.88055556,"street":"210 LAKE ST","oldlon":"-83 52 50","id":"abus72j5i6yb","newlat":40.89472222,"state":"OH"},"type":"Feature","geometry":{"type":"Point","coordinates":[-83.88055556,40.89472222]}},{"properties":{"city":"BLUFFTON","category":"Macro Cell","post code":"45817","county":"ALLEN","site name":"OH BLUFFTON SOUTH","country":"USA","oldlat":"40 51 58.7","newlong":-83.92313889,"street":"9485 HILLVILLE RD","oldlon":"-83 55 23.3","id":"abus72ihs6vh","newlat":40.86630556,"state":"OH"},"type":"Feature","geometry":{"type":"Point","coordinates":[-83.92313889,40.86630556]}},{"properties":{"city":"LIMA","category":"Macro Cell","post code":"45807","county":"ALLEN","site name":"OH CAIRO","country":"USA","oldlat":"40 50 58","newlong":-84.08194444,"street":"7680 OTTAWA RD","oldlon":"-84 04 55","id":"abus72mg8y6o","newlat":40.84944444,"state":"OH"},"type":"Feature","geometry":{"type":"Point","coordinates":[-84.08194444,40.84944444]}},{"properties":{"city":"LIMA","category":"Macro Cell","post code":"45806","county":"ALLEN","site name":"OH CRIDERSVILLE","country":"USA","oldlat":"40.66819167","newlong":-84.12913056,"street":"1380 W HUME RD","oldlon":"-84.12913056","id":"abus72lyjn3z","newlat":40.66819167,"state":"OH"},"type":"Feature","geometry":{"type":"Point","coordinates":[-84.12913056,40.66819167]}},{"properties":{"city":"DELPHOS","category":"Macro Cell","post code":"45833","county":"ALLEN","site name":"OH DELPHOS","country":"USA","oldlat":"40 50 27","newlong":-84.28388889,"street":"7147 BUETTNER RD","oldlon":"-84 17 02","id":"abus72j7fwet","newlat":40.84083333,"state":"OH"},"type":"Feature","geometry":{"type":"Point","coordinates":[-84.28388889,40.84083333]}},{"properties":{"city":"LIMA","category":"Macro Cell","post code":"45807","county":"ALLEN","site name":"OH DELPHOS II","country":"USA","oldlat":"40 46 41.89","newlong":-84.17841944,"street":"4152 ELIDA ROAD (CERTIFIED)","oldlon":"-84 10 42.31","id":"abus72xstzeq","newlat":40.77830278,"state":"OH"},"type":"Feature","geometry":{"type":"Point","coordinates":[-84.17841944,40.77830278]}},{"properties":{"city":"LIMA","category":"Macro Cell","post code":"45805","county":"ALLEN","site name":"OH ELM &amp; CABLE","country":"USA","oldlat":"40 43 44.5","newlong":-84.14252778,"street":"2341 SPENCERVILLE ROAD (OH-117","oldlon":"-84 08 33.1","id":"abus72t2xxny","newlat":40.72902778,"state":"OH"},"type":"Feature","geometry":{"type":"Point","coordinates":[-84.14252778,40.72902778]}},{"properties":{"city":"LIMA","category":"Macro Cell","post code":"45804","county":"ALLEN","site name":"OH HARDING HWY - C AND C PROPERTY MANAGEMEN","country":"USA","oldlat":"40.72997778","newlong":-84.04502778,"street":"3232 HARDING HIGHWAY","oldlon":"-84.04502778","id":"abus72nfhems","newlat":40.72997778,"state":"OH"},"type":"Feature","geometry":{"type":"Point","coordinates":[-84.04502778,40.72997778]}},{"properties":{"city":"LIMA","category":"Macro Cell","post code":"45807","county":"ALLEN","site name":"OH I-75 &amp; US30","country":"USA","oldlat":"40 49 06","newlong":-84.00333333,"street":"5415 E STATE RD","oldlon":"-84 00 12","id":"abus72ohkpap","newlat":40.81833333,"state":"OH"},"type":"Feature","geometry":{"type":"Point","coordinates":[-84.00333333,40.81833333]}},{"properties":{"city":"HARROD","category":"Macro Cell","post code":"45850","county":"ALLEN","site name":"OH LAFAYETTE NORTH - KRUGER","country":"USA","oldlat":"40.77515556","newlong":-83.96472778,"street":"2650 N NAPOLEON ROAD","oldlon":"-83.96472778","id":"abus72irqbm5","newlat":40.77515556,"state":"OH"},"type":"Feature","geometry":{"type":"Point","coordinates":[-83.96472778,40.77515556]}},{"properties":{"city":"LIMA","category":"Macro Cell","post code":"45801","county":"ALLEN","site name":"OH LIMA DOWNTOWN","country":"USA","oldlat":"40 44 36","newlong":-84.09777778,"street":"356 N PARK AVE","oldlon":"-84 05 52","id":"abus72osgpyo","newlat":40.74333333,"state":"OH"},"type":"Feature","geometry":{"type":"Point","coordinates":[-84.09777778,40.74333333]}},{"properties":{"city":"ADA","category":"Macro Cell","post code":"45810","county":"ALLEN","site name":"OH LIMA EAST","country":"USA","oldlat":"40 46 21.4","newlong":-83.88047222,"street":"2241 N HARDIN RD","oldlon":"-83 52 49.7","id":"abus72izwkpl","newlat":40.77261111,"state":"OH"},"type":"Feature","geometry":{"type":"Point","coordinates":[-83.88047222,40.77261111]}},{"properties":{"city":"LIMA","category":"Macro Cell","post code":"45804","county":"ALLEN","site name":"OH LIMA EAST II","country":"USA","oldlat":"40 42 58.5","newlong":-84.07691667,"street":"1812 EAST FOURTH ST","oldlon":"-84 04 36.9","id":"abus72ojki69","newlat":40.71625,"state":"OH"},"type":"Feature","geometry":{"type":"Point","coordinates":[-84.07691667,40.71625]}},{"properties":{"city":"LIMA","category":"Macro Cell","post code":"45805","county":"ALLEN","site name":"OH LIMA NORTH","country":"USA","oldlat":"40 45 24","newlong":-84.12972222,"street":"14660 N ROSEDALE AVE","oldlon":"-84 07 47","id":"abus72vkq46u","newlat":40.75666667,"state":"OH"},"type":"Feature","geometry":{"type":"Point","coordinates":[-84.12972222,40.75666667]}},{"properties":{"city":"LIMA","category":"Macro Cell","post code":"45804","county":"ALLEN","site name":"OH LIMA SOUTH","country":"USA","oldlat":"40 42 07","newlong":-84.10694444,"street":"2589 MCCLAIN (205 WEST HANTHOR","oldlon":"-84 06 25","id":"abus72jtjp4p","newlat":40.70194444,"state":"OH"},"type":"Feature","geometry":{"type":"Point","coordinates":[-84.10694444,40.70194444]}},{"properties":{"city":"LIMA","category":"Macro Cell","post code":"45806","county":"ALLEN","site name":"OH LIMA WEST","country":"USA","oldlat":"40 43 43","newlong":-84.18416667,"street":"771 S COPUS RD","oldlon":"-84 11 03","id":"abus72mm8jtl","newlat":40.72861111,"state":"OH"},"type":"Feature","geometry":{"type":"Point","coordinates":[-84.18416667,40.72861111]}},{"properties":{"city":"LIMA","category":"Macro Cell","post code":"45801","county":"ALLEN","site name":"OH OLD LIMA DOWNTOWN","country":"USA","oldlat":"40 44 28","newlong":-84.10638889,"street":"121 W HIGH ST","oldlon":"-84 6 23","id":"abus72no39c5","newlat":40.74111111,"state":"OH"},"type":"Feature","geometry":{"type":"Point","coordinates":[-84.10638889,40.74111111]}},{"properties":{"city":"LIMA","category":"Macro Cell","post code":"45801","county":"ALLEN","site name":"OH SAINT RITAS","country":"USA","oldlat":"40-44-29.96","newlong":-84.11838611,"street":"730 WEST MARKET ST  SUITE 1001","oldlon":"-84 07 06.19","id":"abus72rmp293","newlat":40.74165556,"state":"OH"},"type":"Feature","geometry":{"type":"Point","coordinates":[-84.11838611,40.74165556]}},{"properties":{"city":"LIMA","category":"Macro Cell","post code":"45806","county":"ALLEN","site name":"OH SHAWNEE","country":"USA","oldlat":"40-41-42.8","newlong":-84.16286111,"street":"3140 ZURMEHLY RD","oldlon":"-84-9-46.3","id":"abus72wvgqds","newlat":40.69522222,"state":"OH"},"type":"Feature","geometry":{"type":"Point","coordinates":[-84.16286111,40.69522222]}},{"properties":{"city":"LIMA","category":"Macro Cell","post code":"45807","county":"ALLEN","site name":"OH SLABTOWN - HANTHORN","country":"USA","oldlat":"40.79019444","newlong":-84.04314722,"street":"3340 WOLFE RD","oldlon":"-84.04314722","id":"abus72p0zwrj","newlat":40.79019444,"state":"OH"},"type":"Feature","geometry":{"type":"Point","coordinates":[-84.04314722,40.79019444]}},{"properties":{"city":"SPENCERVILLE","category":"Macro Cell","post code":"45887","county":"ALLEN","site name":"OH SPENCERVILLE","country":"USA","oldlat":"40 44 13","newlong":-84.33805556,"street":"12300 ALLENTOWN RD","oldlon":"-84 20 17","id":"abus72m5srh2","newlat":40.73694444,"state":"OH"},"type":"Feature","geometry":{"type":"Point","coordinates":[-84.33805556,40.73694444]}},{"properties":{"city":"WAPAKONETA","category":"Macro Cell","post code":"45895","county":"AUGLAIZE","site name":"OH APOLLO 11 - KNUEVE","country":"USA","oldlat":"40.57565833","newlong":-84.21867222,"street":"15020 RAMGA RD","oldlon":"-84.21867222","id":"abus72vebyxu","newlat":40.57565833,"state":"OH"},"type":"Feature","geometry":{"type":"Point","coordinates":[-84.21867222,40.57565833]}},{"properties":{"city":"CRIDERSVILLE","category":"Macro Cell","post code":"45806","county":"AUGLAIZE","site name":"OH BUCKLAND","country":"USA","oldlat":"40 38 03","newlong":-84.20805556,"street":"19507 STATE ROUTE 501","oldlon":"-84 12 29","id":"abus72m2chf4","newlat":40.63416667,"state":"OH"},"type":"Feature","geometry":{"type":"Point","coordinates":[-84.20805556,40.63416667]}},{"properties":{"city":"WAPAKONETA","category":"Macro Cell","post code":"45895","county":"AUGLAIZE","site name":"OH BUCKLAND II - DELL","country":"USA","oldlat":"40.63083333","newlong":-84.20444444,"street":"ADJACENT NORTH, 19157 SR 501","oldlon":"-84.20444444","id":"abus72jcztda","newlat":40.63083333,"state":"OH"},"type":"Feature","geometry":{"type":"Point","coordinates":[-84.20444444,40.63083333]}},{"properties":{"city":"MINSTER","category":"Macro Cell","post code":"45865","county":"AUGLAIZE","site name":"OH MINSTER","country":"USA","oldlat":"40 24 10","newlong":-84.35083333,"street":"5363 NORTH CORPORATION RD 36","oldlon":"-84 21 03","id":"abus72hnmn4s","newlat":40.40277778,"state":"OH"},"type":"Feature","geometry":{"type":"Point","coordinates":[-84.35083333,40.40277778]}},{"properties":{"city":"WAPAKONETA","category":"Macro Cell","post code":"45995","county":"AUGLAIZE","site name":"OH MOULTON","country":"USA","oldlat":"40-33-44.6","newlong":-84.27733333,"street":"NW QUAD OF SR 33 &amp; BAY RD","oldlon":"-84-16-38.4","id":"abus72rxkjac","newlat":40.56238889,"state":"OH"},"type":"Feature","geometry":{"type":"Point","coordinates":[-84.27733333,40.56238889]}},{"properties":{"city":"SAINT MARYS","category":"Macro Cell","post code":"45885","county":"AUGLAIZE","site name":"OH SAINT MARYS","country":"USA","oldlat":"40 32 59","newlong":-84.37722222,"street":"903 MCKINLEY RD","oldlon":"-84 22 38","id":"abus72hl3m54","newlat":40.54972222,"state":"OH"},"type":"Feature","geometry":{"type":"Point","coordinates":[-84.37722222,40.54972222]}},{"properties":{"city":"SAINT MARYS","category":"Macro Cell","post code":"45885","county":"AUGLAIZE","site name":"OH SAINT MARYS WEST - BUEHLER","country":"USA","oldlat":"40.56173","newlong":-84.41934,"street":"14489 LAMBERT RD","oldlon":"-84.41934","id":"abus72t3b56j","newlat":40.56173,"state":"OH"},"type":"Feature","geometry":{"type":"Point","coordinates":[-84.41934,40.56173]}},{"properties":{"city":"NEW KNOXVILLE","category":"Macro Cell","post code":"45871","county":"AUGLAIZE","site name":"OH ST MARYS SOUTH - D HENSCHEN","country":"USA","oldlat":"40.50278333","newlong":-84.33298611,"street":"06159 HOLTKAMP RD","oldlon":"-84.33298611","id":"abus72w99cyb","newlat":40.50278333,"state":"OH"},"type":"Feature","geometry":{"type":"Point","coordinates":[-84.33298611,40.50278333]}},{"properties":{"city":"WAPAKONETA","category":"Macro Cell","post code":"45895","county":"AUGLAIZE","site name":"OH WAPAKONETA","country":"USA","oldlat":"40 33 34","newlong":-80.18222222,"street":"900 N INDUSTRIAL DR","oldlon":"-80 10 56","id":"abus72w8kona","newlat":40.55944444,"state":"OH"},"type":"Feature","geometry":{"type":"Point","coordinates":[-80.18222222,40.55944444]}},{"properties":{"city":"WAYNESFIELD","category":"Macro Cell","post code":"45895","county":"AUGLAIZE","site name":"OH WAPAKONETA II","country":"USA","oldlat":"40 35 57","newlong":-83.96277778,"street":"25702 STATE ROUTE 67","oldlon":"-83 57 46","id":"abus72nnxqoo","newlat":40.59916667,"state":"OH"},"type":"Feature","geometry":{"type":"Point","coordinates":[-83.96277778,40.59916667]}},{"properties":{"city":"FAIRFIELD","category":"Macro Cell","post code":"45014","county":"BUTLER","site name":"OH BULLDOG","country":"USA","oldlat":null,"newlong":null,"street":"3247 MACK RD","oldlon":null,"id":"abus72j5v1yn","newlat":null,"state":"OH"},"type":"Feature","geometry":null},{"properties":{"city":"MIDDLETOWN","category":"Macro Cell","post code":"45042","county":"BUTLER","site name":"OH DOWNTOWN MIDDLETOWN","country":"USA","oldlat":"39.51777778","newlong":-84.40222222,"street":"1027 MANCHESTER","oldlon":"-84.40222222","id":"abus72u4c5zt","newlat":39.51777778,"state":"OH"},"type":"Feature","geometry":{"type":"Point","coordinates":[-84.40222222,39.51777778]}},{"properties":{"city":"HAMILTON","category":"Macro Cell","post code":"45011","county":"BUTLER","site name":"OH EAST HAMILTON","country":"USA","oldlat":"39 23 12.678","newlong":-84.51747722,"street":"6755 GILMORE RD","oldlon":"-84 31 02.918","id":"abus72ry2zvs","newlat":39.386855,"state":"OH"},"type":"Feature","geometry":{"type":"Point","coordinates":[-84.51747722,39.386855]}},{"properties":{"city":"OXFORD","category":"Macro Cell","post code":"45056","county":"BUTLER","site name":"OH FOXFIRE","country":"USA","oldlat":"39-29-54.8","newlong":-84.74077778,"street":"945 COLLINS RUN RD","oldlon":"-84-44-26.8","id":"abus72nigzph","newlat":39.49855556,"state":"OH"},"type":"Feature","geometry":{"type":"Point","coordinates":[-84.74077778,39.49855556]}},{"properties":{"city":"OXFORD","category":"Macro Cell","post code":"45056","county":"BUTLER","site name":"OH GREENBRIAR","country":"USA","oldlat":"39 30 39.91","newlong":-84.63699722,"street":"2230 TRENTON OXFORD RD","oldlon":"-84 38 13.19","id":"abus72pm3r31","newlat":39.51108611,"state":"OH"},"type":"Feature","geometry":{"type":"Point","coordinates":[-84.63699722,39.51108611]}},{"properties":{"city":"HAMILTON","category":"Macro Cell","post code":"45013","county":"BUTLER","site name":"OH HAMILTON","country":"USA","oldlat":"39 25 41","newlong":-84.62916667,"street":"1505 BOYLE RD","oldlon":"-84 37 45","id":"abus72nnqzp5","newlat":39.42805556,"state":"OH"},"type":"Feature","geometry":{"type":"Point","coordinates":[-84.62916667,39.42805556]}},{"properties":{"city":"FAIRFIELD","category":"Macro Cell","post code":"45014","county":"BUTLER","site name":"OH HARBIN PARK","country":"USA","oldlat":"39-18-48.4","newlong":-84.56208333,"street":"PLEASANT AVE","oldlon":"-84-33-43.5","id":"abus72ntpaye","newlat":39.31344444,"state":"OH"},"type":"Feature","geometry":{"type":"Point","coordinates":[-84.56208333,39.31344444]}},{"properties":{"city":"WEST CHESTER","category":"Macro Cell","post code":"45069","county":"BUTLER","site name":"OH JUMBO","country":"USA","oldlat":"39-20-49.85","newlong":-84.46255833,"street":"8521 PRINCETON GLENDALE RD","oldlon":"-84-27-45.21","id":"abus72tk5mck","newlat":39.34718056,"state":"OH"},"type":"Feature","geometry":{"type":"Point","coordinates":[-84.46255833,39.34718056]}},{"properties":{"city":"LIBERTY TOWNSHIP","category":"Macro Cell","post code":"45011","county":"BUTLER","site name":"OH MAUSTOWN","country":"USA","oldlat":"39-21-8.33","newlong":-84.36805556,"street":"6126 PRINCETON GLENDALE RD","oldlon":"-84-22-5","id":"abus72smrbnw","newlat":39.35231389,"state":"OH"},"type":"Feature","geometry":{"type":"Point","coordinates":[-84.36805556,39.35231389]}},{"properties":{"city":"OXFORD","category":"Macro Cell","post code":"45056","county":"BUTLER","site name":"OH MIAMI UNIVERSITY","country":"USA","oldlat":"39 31 05.50","newlong":-84.74271111,"street":"5217 MORNING SUN ROAD","oldlon":"-84 44 33.76","id":"abus72jrl9rd","newlat":39.51819444,"state":"OH"},"type":"Feature","geometry":{"type":"Point","coordinates":[-84.74271111,39.51819444]}},{"properties":{"city":"LIBERTY TOWNSHIP","category":"Macro Cell","post code":"45011","county":"BUTLER","site name":"OH MILLIKIN","country":"USA","oldlat":"39-24-2.12","newlong":-84.40246111,"street":"MILLIKIN RD","oldlon":"-84-24-8.86","id":"abus72j4n66k","newlat":39.40058889,"state":"OH"},"type":"Feature","geometry":{"type":"Point","coordinates":[-84.40246111,39.40058889]}},{"properties":{"city":"HAMILTON","category":"Macro Cell","post code":"45013","county":"BUTLER","site name":"OH MILLVILLE","country":"USA","oldlat":"39 22 40.947","newlong":-84.64657611,"street":"1451 BLACK RD","oldlon":"-84 38 47.674","id":"abus72qgx9uv","newlat":39.37804083,"state":"OH"},"type":"Feature","geometry":{"type":"Point","coordinates":[-84.64657611,39.37804083]}},{"properties":{"city":"TRENTON","category":"Macro Cell","post code":"45067","county":"BUTLER","site name":"OH MILTONVILLE","country":"USA","oldlat":"39 31 02","newlong":-84.48694444,"street":"5106 THOMAS RD","oldlon":"-84 29 13","id":"abus72hp8dza","newlat":39.51722222,"state":"OH"},"type":"Feature","geometry":{"type":"Point","coordinates":[-84.48694444,39.51722222]}},{"properties":{"city":"OXFORD","category":"Macro Cell","post code":"45056","county":"BUTLER","site name":"OH OXFORD","country":"USA","oldlat":"39 30 21","newlong":-84.73666667,"street":"306 S OAK ST","oldlon":"-84 44 12","id":"abus72mfusab","newlat":39.50583333,"state":"OH"},"type":"Feature","geometry":{"type":"Point","coordinates":[-84.73666667,39.50583333]}},{"properties":{"city":"OXFORD","category":"Macro Cell","post code":"45056","county":"BUTLER","site name":"OH OXFORD FIBER","country":"USA","oldlat":"39 29 22.39","newlong":-84.72842222,"street":"4135 OXFORD MILLVILLE RD","oldlon":"-84 43 42.32","id":"abus72v05bg1","newlat":39.48955278,"state":"OH"},"type":"Feature","geometry":{"type":"Point","coordinates":[-84.72842222,39.48955278]}},{"properties":{"city":"FAIRFIELD","category":"Macro Cell","post code":"45014","county":"BUTLER","site name":"OH PANDA","country":"USA","oldlat":"39-21-19","newlong":-84.53944444,"street":"4400 DIXIE HWY","oldlon":"-84-32-22","id":"abus72k3d84z","newlat":39.35527778,"state":"OH"},"type":"Feature","geometry":{"type":"Point","coordinates":[-84.53944444,39.35527778]}},{"properties":{"city":"FAIRFIELD","category":"Macro Cell","post code":"45014","county":"BUTLER","site name":"OH PANDA SBA - ARCADIA","country":"USA","oldlat":"39.36262778","newlong":-84.53731667,"street":"2613 IVY LN","oldlon":"-84.53731667","id":"abus72u3jx03","newlat":39.36262778,"state":"OH"},"type":"Feature","geometry":{"type":"Point","coordinates":[-84.53731667,39.36262778]}},{"properties":{"city":"HAMILTON","category":"Macro Cell","post code":"45013","county":"BUTLER","site name":"OH ROSS","country":"USA","oldlat":"39 19 00","newlong":-84.67777778,"street":"4088 CHRISTIAN RD","oldlon":"-84 40 40","id":"abus72uz0sph","newlat":39.31666667,"state":"OH"},"type":"Feature","geometry":{"type":"Point","coordinates":[-84.67777778,39.31666667]}},{"properties":{"city":"LIBERTY TWP","category":"Macro Cell","post code":"45011","county":"BUTLER","site name":"OH VAN GORDON","country":"USA","oldlat":"39.37298789","newlong":-84.47708633,"street":"7047 LIBERTY FAIRFIELD RD","oldlon":"-84.47708633","id":"abus72kt5188","newlat":39.37298789,"state":"OH"},"type":"Feature","geometry":{"type":"Point","coordinates":[-84.47708633,39.37298789]}},{"properties":{"city":"WEST CHESTER","category":"Macro Cell","post code":"43056","county":"BUTLER","site name":"OH VOICE OF AMERICA CROWN","country":"USA","oldlat":"39.35231389","newlong":-84.36806111,"street":"7731 TYLERSVILLE RD","oldlon":"-84.36806111","id":"abus72rxknyl","newlat":39.35231389,"state":"OH"},"type":"Feature","geometry":{"type":"Point","coordinates":[-84.36806111,39.35231389]}},{"properties":{"city":"HAMILTON","category":"Macro Cell","post code":"45011","county":"BUTLER","site name":"OH WILLIAMSDALE","country":"USA","oldlat":"39 26 30","newlong":-84.525,"street":"3862 N RIVERSIDE DR","oldlon":"-84 31 30","id":"abus72in0tx2","newlat":39.44166667,"state":"OH"},"type":"Feature","geometry":{"type":"Point","coordinates":[-84.525,39.44166667]}},{"properties":{"city":"URBANA","category":"Macro Cell","post code":"43078","county":"CHAMPAIGN","site name":"OH COUNTY LINE","country":"USA","oldlat":"40 03 04.09","newlong":-83.76973056,"street":"462 E DALLAS RD","oldlon":"-83 46 11.03","id":"abus72qg6qn6","newlat":40.05113611,"state":"OH"},"type":"Feature","geometry":{"type":"Point","coordinates":[-83.76973056,40.05113611]}},{"properties":{"city":"URBANA","category":"Macro Cell","post code":"43078","county":"CHAMPAIGN","site name":"OH DUGAN RUN","country":"USA","oldlat":"40 06 42.19","newlong":-83.75820278,"street":"83 UNION ALLEY","oldlon":"-83 45 29.53","id":"abus72svdwig","newlat":40.11171944,"state":"OH"},"type":"Feature","geometry":{"type":"Point","coordinates":[-83.75820278,40.11171944]}},{"properties":{"city":"MECHANICSBURG","category":"Macro Cell","post code":"43044","county":"CHAMPAIGN","site name":"OH MECHANICSBURG","country":"USA","oldlat":"40 05 02","newlong":-83.54444444,"street":"10618 STATE ROUTE 4","oldlon":"-83 32 40","id":"abus72hsphse","newlat":40.08388889,"state":"OH"},"type":"Feature","geometry":{"type":"Point","coordinates":[-83.54444444,40.08388889]}},{"properties":{"city":"SAINT PARIS","category":"Macro Cell","post code":"43072","county":"CHAMPAIGN","site name":"OH SAINT PARIS","country":"USA","oldlat":"40 08 21","newlong":-83.96388889,"street":"731 APPLE RD","oldlon":"-83 57 50","id":"abus72mza4sr","newlat":40.13916667,"state":"OH"},"type":"Feature","geometry":{"type":"Point","coordinates":[-83.96388889,40.13916667]}},{"properties":{"city":"URBANA","category":"Macro Cell","post code":"43078","county":"CHAMPAIGN","site name":"OH URBANA","country":"USA","oldlat":"40 08 27","newlong":-83.71305556,"street":"1830 JACKSON HILL RD","oldlon":"-83 42 47","id":"abus72sv2a1b","newlat":40.14083333,"state":"OH"},"type":"Feature","geometry":{"type":"Point","coordinates":[-83.71305556,40.14083333]}},{"properties":{"city":"NEW CARLISLE","category":"Macro Cell","post code":"45344","county":"CLARK","site name":"OH BIRD","country":"USA","oldlat":"39 59 38","newlong":-84.00138889,"street":"4015 DAYTON-LAKEVIEW ROAD (SR-","oldlon":"-84 00 05","id":"abus72wb7tjn","newlat":39.99388889,"state":"OH"},"type":"Feature","geometry":{"type":"Point","coordinates":[-84.00138889,39.99388889]}},{"properties":{"city":"SPRINGFIELD","category":"Macro Cell","post code":"45503","county":"CLARK","site name":"OH BURNS","country":"USA","oldlat":"39.92564","newlong":-83.75991,"street":"3000 E MAIN ST","oldlon":"-83.75991","id":"abus72rjk9cf","newlat":39.92564,"state":"OH"},"type":"Feature","geometry":{"type":"Point","coordinates":[-83.75991,39.92564]}},{"properties":{"city":"MEDWAY","category":"Macro Cell","post code":"45341","county":"CLARK","site name":"OH EAST HUBER HEIGHTS","country":"USA","oldlat":"39 51 51","newlong":-84.04666667,"street":"12250 LOWER VALLEY PIKE","oldlon":"-84 02 48","id":"abus72whthyl","newlat":39.86416667,"state":"OH"},"type":"Feature","geometry":{"type":"Point","coordinates":[-84.04666667,39.86416667]}},{"properties":{"city":"SPRINGFIELD","category":"Macro Cell","post code":"45502","county":"CLARK","site name":"OH ENON","country":"USA","oldlat":"39 53 24","newlong":-83.87722222,"street":"3436 CRIST ROAD (SBC CITY: MAD","oldlon":"-83 52 38","id":"abus72k40rln","newlat":39.89,"state":"OH"},"type":"Feature","geometry":{"type":"Point","coordinates":[-83.87722222,39.89]}},{"properties":{"city":"NEW CARLISLE","category":"Macro Cell","post code":"45344","county":"CLARK","site name":"OH I675 &amp; I70","country":"USA","oldlat":"39 52 40","newlong":-83.96527778,"street":"3030 SNIDER ROAD","oldlon":"-83 57 55","id":"abus72l7od1m","newlat":39.87777778,"state":"OH"},"type":"Feature","geometry":{"type":"Point","coordinates":[-83.96527778,39.87777778]}},{"properties":{"city":"NEW CARLISLE","category":"Macro Cell","post code":"45344","county":"CLARK","site name":"OH NEW CARLISLE","country":"USA","oldlat":"39 56 43.76","newlong":-84.021975,"street":"440 N MAIN ST","oldlon":"-84 01 19.11","id":"abus72ivtc7b","newlat":39.94548889,"state":"OH"},"type":"Feature","geometry":{"type":"Point","coordinates":[-84.021975,39.94548889]}},{"properties":{"city":"SPRINGFIELD","category":"Macro Cell","post code":"45502","county":"CLARK","site name":"OH SIMPSON","country":"USA","oldlat":"39 55 27.43","newlong":-83.80884722,"street":"1 SOUTH LIMESTONE ST","oldlon":"-83 48 31.85","id":"abus72pbhrvt","newlat":39.92428611,"state":"OH"},"type":"Feature","geometry":{"type":"Point","coordinates":[-83.80884722,39.92428611]}},{"properties":{"city":"SOUTH CHARLESTON","category":"Macro Cell","post code":"45368","county":"CLARK","site name":"OH SOUTH CHARLESTON","country":"USA","oldlat":"39 50 07.44","newlong":-83.62004722,"street":"10374 COLUMBUS - CINCINNATI RO","oldlon":"-83 37 12.17","id":"abus72jokqie","newlat":39.8354,"state":"OH"},"type":"Feature","geometry":{"type":"Point","coordinates":[-83.62004722,39.8354]}},{"properties":{"city":"SOUTH VIENNA","category":"Macro Cell","post code":"45369","county":"CLARK","site name":"OH SOUTH VIENNA","country":"USA","oldlat":"39 55 37","newlong":-83.63694444,"street":"8932 EAST NATIONAL ROAD (RT 40","oldlon":"-83 38 13","id":"abus72r4b3bd","newlat":39.92694444,"state":"OH"},"type":"Feature","geometry":{"type":"Point","coordinates":[-83.63694444,39.92694444]}},{"properties":{"city":"SPRINGFIELD (SPRINGFIELD TOWNSHIP)","category":"Macro Cell","post code":"45502","county":"CLARK","site name":"OH SOUTHEAST SPRINGFIELD","country":"USA","oldlat":"39 53 39","newlong":-83.72388889,"street":"1839 RIDGE RD","oldlon":"-83 43 26","id":"abus72t87g11","newlat":39.89416667,"state":"OH"},"type":"Feature","geometry":{"type":"Point","coordinates":[-83.72388889,39.89416667]}},{"properties":{"city":"SPRINGFIELD","category":"Macro Cell","post code":"45504","county":"CLARK","site name":"OH SOUTHWEST SPRINGFIELD","country":"USA","oldlat":"39 56 33","newlong":-83.85666667,"street":"1115 UPPER VALLEY PIKE","oldlon":"-83 51 24","id":"abus72s7cers","newlat":39.9425,"state":"OH"},"type":"Feature","geometry":{"type":"Point","coordinates":[-83.85666667,39.9425]}},{"properties":{"city":"FAIRBORN","category":"Macro Cell","post code":"45324","county":"CLARK","site name":"OH SPANGLER","country":"USA","oldlat":"39.85047778","newlong":-83.99493333,"street":"5800 SPANGLER RD","oldlon":"-83.99493333","id":"abus72mei6ur","newlat":39.85047778,"state":"OH"},"type":"Feature","geometry":{"type":"Point","coordinates":[-83.99493333,39.85047778]}},{"properties":{"city":"SPRINGFIELD","category":"Macro Cell","post code":"45504","county":"CLARK","site name":"OH SPRINGFIELD (DYTN)","country":"USA","oldlat":"39 57 02","newlong":-83.80138889,"street":"2122 NORTH LIMESTONE ST","oldlon":"-83 48 05","id":"abus72hzpx5t","newlat":39.95055556,"state":"OH"},"type":"Feature","geometry":{"type":"Point","coordinates":[-83.80138889,39.95055556]}},{"properties":{"city":"CLARKSVILLE","category":"Macro Cell","post code":"45113","county":"CLINTON","site name":"OH CLARKSVILLE","country":"USA","oldlat":"39 24 52","newlong":-83.97916667,"street":"775 S GEORGE RD","oldlon":"-83 58 45","id":"abus72p7s1o3","newlat":39.41444444,"state":"OH"},"type":"Feature","geometry":{"type":"Point","coordinates":[-83.97916667,39.41444444]}},{"properties":{"city":"BLANCHESTER","category":"Macro Cell","post code":"45107","county":"CLINTON","site name":"OH FIDEL","country":"USA","oldlat":"39.36575","newlong":-83.88153056,"street":"893 SR 350","oldlon":"-83.88153056","id":"abus72na1h5b","newlat":39.36575,"state":"OH"},"type":"Feature","geometry":{"type":"Point","coordinates":[-83.88153056,39.36575]}},{"properties":{"city":"WILMINGTON","category":"Macro Cell","post code":"45177","county":"CLINTON","site name":"OH GURNEYVILLE","country":"USA","oldlat":"39 30 05","newlong":-83.89416667,"street":"3400 CENTER RD","oldlon":"-83 53 39","id":"abus72tjce72","newlat":39.50138889,"state":"OH"},"type":"Feature","geometry":{"type":"Point","coordinates":[-83.89416667,39.50138889]}},{"properties":{"city":"NEW VIENNA","category":"Macro Cell","post code":"45159","county":"CLINTON","site name":"OH NEW VIENNA","country":"USA","oldlat":"39 19 50","newlong":-83.71666667,"street":"3500 CLARK RD","oldlon":"-83 43 00","id":"abus72s3ms3f","newlat":39.33055556,"state":"OH"},"type":"Feature","geometry":{"type":"Point","coordinates":[-83.71666667,39.33055556]}},{"properties":{"city":"SABINA","category":"Macro Cell","post code":"45169","county":"CLINTON","site name":"OH SABINA","country":"USA","oldlat":"39 28 59","newlong":-83.65666667,"street":"10143 US ROUTE 22 E","oldlon":"-83 39 24","id":"abus72nmbzqh","newlat":39.48305556,"state":"OH"},"type":"Feature","geometry":{"type":"Point","coordinates":[-83.65666667,39.48305556]}},{"properties":{"city":"WILMINGTON","category":"Macro Cell","post code":"45177","county":"CLINTON","site name":"OH TOWNSEND","country":"USA","oldlat":"39 26 08","newlong":-83.82805556,"street":"712A  NORTH SOUTH ST (PER TELC","oldlon":"-83 49 41","id":"abus72odo2st","newlat":39.43555556,"state":"OH"},"type":"Feature","geometry":{"type":"Point","coordinates":[-83.82805556,39.43555556]}},{"properties":{"city":"WILMINGTON","category":"Macro Cell","post code":"45117","county":"CLINTON","site name":"OH WILMINGTON","country":"USA","oldlat":"39 26 35","newlong":-83.87444444,"street":"2667 STATE ROUTE 3 W","oldlon":"-83 52 28","id":"abus72taa0b5","newlat":39.44305556,"state":"OH"},"type":"Feature","geometry":{"type":"Point","coordinates":[-83.87444444,39.44305556]}},{"properties":{"city":"ARCANUM","category":"Macro Cell","post code":"45304","county":"DARKE","site name":"OH ARCANUM","country":"USA","oldlat":"40 00 16","newlong":-84.51194444,"street":"7849 HOLLANSBURG-SAMPSON ROAD","oldlon":"-84 30 43","id":"abus72krdfgt","newlat":40.00444444,"state":"OH"},"type":"Feature","geometry":{"type":"Point","coordinates":[-84.51194444,40.00444444]}},{"properties":{"city":"ARCANUM","category":"Macro Cell","post code":"45304","county":"DARKE","site name":"OH CASTINE","country":"USA","oldlat":"39 56 45.87","newlong":-84.6317,"street":"4562 OTTERBEIN-ITHACA  RD","oldlon":"-84 37 54.12","id":"abus72wd653h","newlat":39.946075,"state":"OH"},"type":"Feature","geometry":{"type":"Point","coordinates":[-84.6317,39.946075]}},{"properties":{"city":"GREENVILLE","category":"Macro Cell","post code":"45331","county":"DARKE","site name":"OH GREENVILLE","country":"USA","oldlat":"40 06 44","newlong":-84.59138889,"street":"5768 REQUARTH RD","oldlon":"-84 35 29","id":"abus72lpwag8","newlat":40.11222222,"state":"OH"},"type":"Feature","geometry":{"type":"Point","coordinates":[-84.59138889,40.11222222]}},{"properties":{"city":"VERSAILLES","category":"Macro Cell","post code":"45380","county":"DARKE","site name":"OH PALACE","country":"USA","oldlat":"40 13 53","newlong":-84.48222222,"street":"10709 REED RD","oldlon":"-84 28 56","id":"abus72pssas1","newlat":40.23138889,"state":"OH"},"type":"Feature","geometry":{"type":"Point","coordinates":[-84.48222222,40.23138889]}},{"properties":{"city":"GREENVILLE","category":"Macro Cell","post code":"45331","county":"DARKE","site name":"OH SHARPS CROSSING","country":"USA","oldlat":"40 09 11.45","newlong":-84.73653889,"street":"1868 SR 571 WEST","oldlon":"-84 44 11.54","id":"abus72wk6dk3","newlat":40.15318056,"state":"OH"},"type":"Feature","geometry":{"type":"Point","coordinates":[-84.73653889,40.15318056]}},{"properties":{"city":"UNION CITY","category":"Macro Cell","post code":"45390","county":"DARKE","site name":"OH UNION CITY","country":"USA","oldlat":"40 11 59.97","newlong":-84.79758333,"street":"117 S DEERFIELD RD","oldlon":"-84 47 51.30","id":"abus72xoxrcx","newlat":40.19999167,"state":"OH"},"type":"Feature","geometry":{"type":"Point","coordinates":[-84.79758333,40.19999167]}},{"properties":{"city":"DEFIANCE","category":"Macro Cell","post code":"43512","county":"DEFIANCE","site name":"OH DEFIANCE [ALLTEL]","country":"USA","oldlat":"41 18 42","newlong":-84.36472222,"street":"160 ELLIOTT RD","oldlon":"-84 21 53","id":"abus72jzh3mg","newlat":41.31166667,"state":"OH"},"type":"Feature","geometry":{"type":"Point","coordinates":[-84.36472222,41.31166667]}},{"properties":{"city":"DEFIANCE","category":"Macro Cell","post code":"43512","county":"DEFIANCE","site name":"OH DEFIANCE CENTER [ALLTEL]","country":"USA","oldlat":"41 17 2","newlong":-84.36388889,"street":"602 CLINTON ST","oldlon":"-84 21 50","id":"abus72r4nmw2","newlat":41.28388889,"state":"OH"},"type":"Feature","geometry":{"type":"Point","coordinates":[-84.36388889,41.28388889]}},{"properties":{"city":"DEFIANCE","category":"Macro Cell","post code":"43512","county":"DEFIANCE","site name":"OH DOWNTOWN DEFIANCE [ALLTEL]","country":"USA","oldlat":"41 15 43","newlong":-84.35916667,"street":"1789 PALMER DR","oldlon":"-84 21 33","id":"abus72i68rtu","newlat":41.26194444,"state":"OH"},"type":"Feature","geometry":{"type":"Point","coordinates":[-84.35916667,41.26194444]}},{"properties":{"city":"HICKSVILLE","category":"Macro Cell","post code":"43526","county":"DEFIANCE","site name":"OH HICKSVILLE - VILLAGE OF HICKSVILLE","country":"USA","oldlat":"41.30519167","newlong":-84.75903056,"street":"613 INDUSTRIAL DR","oldlon":"-84.75903056","id":"abus72x5sonz","newlat":41.30519167,"state":"OH"},"type":"Feature","geometry":{"type":"Point","coordinates":[-84.75903056,41.30519167]}},{"properties":{"city":"RICHLAND TOWNSHIP","category":"Macro Cell","post code":"43512","county":"DEFIANCE","site name":"OH JEWELL - BRESNAN","country":"USA","oldlat":"41.33393889","newlong":-84.28462222,"street":"7243 INDEPENDENCE RD","oldlon":"-84.28462222","id":"abus72vuuxg6","newlat":41.33393889,"state":"OH"},"type":"Feature","geometry":{"type":"Point","coordinates":[-84.28462222,41.33393889]}},{"properties":{"city":"DEFIANCE (TIFFIN TOWNSHIP)","category":"Macro Cell","post code":"43512","county":"DEFIANCE","site name":"OH MORRISON ST - VOGELSONG","country":"USA","oldlat":"41.42710278","newlong":-84.401975,"street":"N PT N PT E 1/2 NE QTR OF SECT","oldlon":"-84.401975","id":"abus72o94bhl","newlat":41.42710278,"state":"OH"},"type":"Feature","geometry":{"type":"Point","coordinates":[-84.401975,41.42710278]}},{"properties":{"city":"NEY","category":"Macro Cell","post code":"43549","county":"DEFIANCE","site name":"OH NEY [ALLTEL]","country":"USA","oldlat":"41 19 55","newlong":-84.53416667,"street":"15054 MUD CREEK RD","oldlon":"-84 32 03","id":"abus72urtorv","newlat":41.33194444,"state":"OH"},"type":"Feature","geometry":{"type":"Point","coordinates":[-84.53416667,41.33194444]}},{"properties":{"city":"METAMORA","category":"Macro Cell","post code":"43540","county":"FULTON","site name":"OH ASSUMPTION","country":"USA","oldlat":"41 40 31","newlong":-83.95138889,"street":"14250 COUNTY ROAD 4-3","oldlon":"-83 57 05","id":"abus72hx2tju","newlat":41.67527778,"state":"OH"},"type":"Feature","geometry":{"type":"Point","coordinates":[-83.95138889,41.67527778]}},{"properties":{"city":"DELTA","category":"Macro Cell","post code":"43515","county":"FULTON","site name":"OH DELTA","country":"USA","oldlat":"41 35 33","newlong":-84.03694444,"street":"8300 STATE ROUTE 109","oldlon":"-84 02 13","id":"abus72ismwld","newlat":41.5925,"state":"OH"},"type":"Feature","geometry":{"type":"Point","coordinates":[-84.03694444,41.5925]}},{"properties":{"city":"DELTA","category":"Macro Cell","post code":"43515","county":"FULTON","site name":"OH DELTA [ALLTEL]","country":"USA","oldlat":"41 37 47","newlong":-84.07361111,"street":"11151 CO. RD  11","oldlon":"-84 04 25","id":"abus72rmndmc","newlat":41.62972222,"state":"OH"},"type":"Feature","geometry":{"type":"Point","coordinates":[-84.07361111,41.62972222]}},{"properties":{"city":"DELTA","category":"Macro Cell","post code":"43515","county":"FULTON","site name":"OH DELTA II","country":"USA","oldlat":"41 32 19","newlong":-83.98944444,"street":"4567-A COUNTY ROAD 6-1","oldlon":"-83 59 22","id":"abus72r4mt04","newlat":41.53861111,"state":"OH"},"type":"Feature","geometry":{"type":"Point","coordinates":[-83.98944444,41.53861111]}},{"properties":{"city":"FAYETTE","category":"Macro Cell","post code":"43521","county":"FULTON","site name":"OH FAYETTE [ALLTEL]","country":"USA","oldlat":"41 39 46.03","newlong":-84.3275,"street":"13755 STATE HWY 66 (PER VERIZO","oldlon":"-84 19 39","id":"abus72jhfs9b","newlat":41.66278611,"state":"OH"},"type":"Feature","geometry":{"type":"Point","coordinates":[-84.3275,41.66278611]}},{"properties":{"city":"ARCHBOLD","category":"Macro Cell","post code":"43502","county":"FULTON","site name":"OH I-80 &amp; SR-66","country":"USA","oldlat":"41 35 11.85","newlong":-84.29772222,"street":"22511 COUNTY ROAD H (CERTIFIED","oldlon":"-84 17 51.80","id":"abus72ppr389","newlat":41.586625,"state":"OH"},"type":"Feature","geometry":{"type":"Point","coordinates":[-84.29772222,41.586625]}},{"properties":{"city":"SWANTON","category":"Macro Cell","post code":"43558","county":"FULTON","site name":"OH NEW SWANTON [ALLTEL]","country":"USA","oldlat":"41 35 21.1","newlong":-83.93797222,"street":"3686 COUNTY ROAD H","oldlon":"-83 56 16.7","id":"abus72kmqjna","newlat":41.58919444,"state":"OH"},"type":"Feature","geometry":{"type":"Point","coordinates":[-83.93797222,41.58919444]}},{"properties":{"city":"WAUSEON","category":"Macro Cell","post code":"43567","county":"FULTON","site name":"OH WAUSEON","country":"USA","oldlat":"41 34 10","newlong":-84.19333333,"street":"6789 COUNTY ROAD 17","oldlon":"-84 11 36","id":"abus72qpgyah","newlat":41.56944444,"state":"OH"},"type":"Feature","geometry":{"type":"Point","coordinates":[-84.19333333,41.56944444]}},{"properties":{"city":"WAUSEON","category":"Macro Cell","post code":"43567","county":"FULTON","site name":"OH WAUSEON [ALLTEL]","country":"USA","oldlat":"41 33 07","newlong":-84.11444444,"street":"5570 CO. RD 13","oldlon":"-84 06 52","id":"abus72nfpu7k","newlat":41.55194444,"state":"OH"},"type":"Feature","geometry":{"type":"Point","coordinates":[-84.11444444,41.55194444]}},{"properties":{"city":"BIDWELL","category":"Macro Cell","post code":"45614","county":"GALLIA","site name":"OH RIO GRANDE [ALLTEL]","country":"USA","oldlat":"38.88864244","newlong":-82.38073186,"street":"11770 STATE ROUTE 588","oldlon":"-82.38073186","id":"abus72mba7t5","newlat":38.88864244,"state":"OH"},"type":"Feature","geometry":{"type":"Point","coordinates":[-82.38073186,38.88864244]}},{"properties":{"city":"HIRAM","category":"Macro Cell","post code":"44234","county":"GEAUGA","site name":"OH AUBURN CORNERS","country":"USA","oldlat":"41 22 31","newlong":-81.17666667,"street":"18076 RAPIDS RD","oldlon":"-81 10 36","id":"abus72o6dz60","newlat":41.37527778,"state":"OH"},"type":"Feature","geometry":{"type":"Point","coordinates":[-81.17666667,41.37527778]}},{"properties":{"city":"CHAGRIN FALLS","category":"Macro Cell","post code":"44023","county":"GEAUGA","site name":"OH AUBURN CORNERS [ALLTEL]","country":"USA","oldlat":"41.38833","newlong":-81.22111,"street":"11692 EAST WASHINGTON ST","oldlon":"-81.22111","id":"abus72vc33pe","newlat":41.38833,"state":"OH"},"type":"Feature","geometry":{"type":"Point","coordinates":[-81.22111,41.38833]}},{"properties":{"city":"CHAGRIN FALLS","category":"Macro Cell","post code":"44023","county":"GEAUGA","site name":"OH AUBURN WEST","country":"USA","oldlat":"41 23 57","newlong":-81.28194444,"street":"17248 MUNN RD","oldlon":"-81 16 55","id":"abus72u1zjbs","newlat":41.39916667,"state":"OH"},"type":"Feature","geometry":{"type":"Point","coordinates":[-81.28194444,41.39916667]}},{"properties":{"city":"BAINBRIDGE","category":"Macro Cell","post code":"44202","county":"GEAUGA","site name":"OH AURORA CLEVELAND","country":"USA","oldlat":"41 21 17","newlong":-81.39027778,"street":"7035 AURORA ROAD (OLD ADDRESS)","oldlon":"-81 23 25","id":"abus72pcikww","newlat":41.35472222,"state":"OH"},"type":"Feature","geometry":{"type":"Point","coordinates":[-81.39027778,41.35472222]}},{"properties":{"city":"BAINBRIDGE","category":"Macro Cell","post code":"44023","county":"GEAUGA","site name":"OH BAINBRIDGE","country":"USA","oldlat":"41 24 25","newlong":-81.3875,"street":"7142 COUNTRY LN","oldlon":"-81 23 15","id":"abus72p9jt20","newlat":41.40694444,"state":"OH"},"type":"Feature","geometry":{"type":"Point","coordinates":[-81.3875,41.40694444]}},{"properties":{"city":"NEWBURY","category":"Macro Cell","post code":"44065","county":"GEAUGA","site name":"OH BAINBRIDGE [ALLTEL]","country":"USA","oldlat":"41.465056","newlong":-81.286778,"street":"14781 SPERRY RD","oldlon":"-81.286778","id":"abus72m3f8as","newlat":41.465056,"state":"OH"},"type":"Feature","geometry":{"type":"Point","coordinates":[-81.286778,41.465056]}},{"properties":{"city":"CHAGRIN FALLS","category":"Macro Cell","post code":"44023","county":"GEAUGA","site name":"OH BAINBRIDGE EAST","country":"USA","oldlat":"41 23 07","newlong":-81.32638889,"street":"17798 HASKINS RD","oldlon":"-81 19 35","id":"abus72u17wo8","newlat":41.38527778,"state":"OH"},"type":"Feature","geometry":{"type":"Point","coordinates":[-81.32638889,41.38527778]}},{"properties":{"city":"CHARDON","category":"Macro Cell","post code":"44024","county":"GEAUGA","site name":"OH CHARDON","country":"USA","oldlat":"41 34 55","newlong":-81.22777778,"street":"112 PARKER CT","oldlon":"-81 13 40","id":"abus72hx2o4n","newlat":41.58194444,"state":"OH"},"type":"Feature","geometry":{"type":"Point","coordinates":[-81.22777778,41.58194444]}},{"properties":{"city":"BURTON","category":"Macro Cell","post code":"44021","county":"GEAUGA","site name":"OH CHARDON [ALLTEL]","country":"USA","oldlat":"41.48417","newlong":-81.14639,"street":"14128 CLARIDON TROY RD","oldlon":"-81.14639","id":"abus72kx2nqa","newlat":41.48417,"state":"OH"},"type":"Feature","geometry":{"type":"Point","coordinates":[-81.14639,41.48417]}},{"properties":{"city":"CHESTERLAND","category":"Macro Cell","post code":"44026","county":"GEAUGA","site name":"OH CHESTER TOWNSHIP","country":"USA","oldlat":"41 31 54","newlong":-81.36055556,"street":"12447 CAVES RD","oldlon":"-81 21 38","id":"abus72w8ahmf","newlat":41.53166667,"state":"OH"},"type":"Feature","geometry":{"type":"Point","coordinates":[-81.36055556,41.53166667]}},{"properties":{"city":"CHESTERLAND","category":"Macro Cell","post code":"44026","county":"GEAUGA","site name":"OH CHESTERLAND [ALLTEL]","country":"USA","oldlat":"41.520689","newlong":-81.328997,"street":"8761 MAYFIELD RD","oldlon":"-81.328997","id":"abus72xj50wy","newlat":41.520689,"state":"OH"},"type":"Feature","geometry":{"type":"Point","coordinates":[-81.328997,41.520689]}},{"properties":{"city":"CHESTERLAND","category":"Macro Cell","post code":"44026","county":"GEAUGA","site name":"OH CHESTERLAND EAST","country":"USA","oldlat":"41-31-28.06","newlong":-81.28836111,"street":"9904 MAYFIELD RD","oldlon":"-81-17-18.1","id":"abus72qjpk9t","newlat":41.52446111,"state":"OH"},"type":"Feature","geometry":{"type":"Point","coordinates":[-81.28836111,41.52446111]}},{"properties":{"city":"CHARDON","category":"Macro Cell","post code":"44024","county":"GEAUGA","site name":"OH FOWLERS MILL","country":"USA","oldlat":"41 31 53","newlong":-81.21416667,"street":"11858 MAYFIELD RD","oldlon":"-81 12 51","id":"abus72lxbcn6","newlat":41.53138889,"state":"OH"},"type":"Feature","geometry":{"type":"Point","coordinates":[-81.21416667,41.53138889]}},{"properties":{"city":"CHESTERLAND","category":"Macro Cell","post code":"44026","county":"GEAUGA","site name":"OH GATES MILLS [ALLTEL]","country":"USA","oldlat":"41.547","newlong":-81.38677778,"street":"7100 A WILSON MILLS RD","oldlon":"-81.38677778","id":"abus72uqr7m1","newlat":41.547,"state":"OH"},"type":"Feature","geometry":{"type":"Point","coordinates":[-81.38677778,41.547]}},{"properties":{"city":"CHARDON","category":"Macro Cell","post code":"44024","county":"GEAUGA","site name":"OH HAMBDEN","country":"USA","oldlat":"41 36 19","newlong":-81.14333333,"street":"13887 GAR HIGHWAY (SR 6)","oldlon":"-81 08 36","id":"abus72ia15d8","newlat":41.60527778,"state":"OH"},"type":"Feature","geometry":{"type":"Point","coordinates":[-81.14333333,41.60527778]}},{"properties":{"city":"HUNTSBURG","category":"Macro Cell","post code":"44046","county":"GEAUGA","site name":"OH HUNTSBURG","country":"USA","oldlat":"41 33 51","newlong":-81.06666667,"street":"16130 CHARDON WINDSOR RD","oldlon":"-81 04 00","id":"abus72s4oxi4","newlat":41.56416667,"state":"OH"},"type":"Feature","geometry":{"type":"Point","coordinates":[-81.06666667,41.56416667]}},{"properties":{"city":"HUNTSBURG","category":"Macro Cell","post code":"44046","county":"GEAUGA","site name":"OH HUNTSBURG [ALLTEL]","country":"USA","oldlat":"41.52794444","newlong":-81.084825,"street":"12603 PRINCETON RD","oldlon":"-81.084825","id":"abus72stl7ez","newlat":41.52794444,"state":"OH"},"type":"Feature","geometry":{"type":"Point","coordinates":[-81.084825,41.52794444]}},{"properties":{"city":"MIDDLEFIELD","category":"Macro Cell","post code":"44062","county":"GEAUGA","site name":"OH MIDDLEFIELD","country":"USA","oldlat":"41 27 36","newlong":-81.05888889,"street":"16345 KINSMAN RD","oldlon":"-81 03 32","id":"abus72rj6ed0","newlat":41.46,"state":"OH"},"type":"Feature","geometry":{"type":"Point","coordinates":[-81.05888889,41.46]}},{"properties":{"city":"CHARDON","category":"Macro Cell","post code":"44024","county":"GEAUGA","site name":"OH MITCHELL MILL [ALLTEL]","country":"USA","oldlat":"41.601","newlong":-81.2371,"street":"9949 A-1 MENTOR RD","oldlon":"-81.2371","id":"abus72wf0qdw","newlat":41.601,"state":"OH"},"type":"Feature","geometry":{"type":"Point","coordinates":[-81.2371,41.601]}},{"properties":{"city":"MONTVILLE TWP","category":"Macro Cell","post code":"44064","county":"GEAUGA","site name":"OH MONTVILLE","country":"USA","oldlat":"41.60441","newlong":-81.01369,"street":"17575A GAR HWY","oldlon":"-81.01369","id":"abus72oa3d0h","newlat":41.60441,"state":"OH"},"type":"Feature","geometry":{"type":"Point","coordinates":[-81.01369,41.60441]}},{"properties":{"city":"MONTVILLE","category":"Macro Cell","post code":"44064","county":"GEAUGA","site name":"OH MONTVILLE [ALLTEL]","country":"USA","oldlat":"41.63377778","newlong":-81.06102778,"street":"16343 LEGGETT RD","oldlon":"-81.06102778","id":"abus72vhgmm7","newlat":41.63377778,"state":"OH"},"type":"Feature","geometry":{"type":"Point","coordinates":[-81.06102778,41.63377778]}},{"properties":{"city":"NEWBURY","category":"Macro Cell","post code":"44065","county":"GEAUGA","site name":"OH NEWBURY","country":"USA","oldlat":"41 28 58","newlong":-81.19916667,"street":"12240 PEKIN RD","oldlon":"-81 11 57","id":"abus72qjwanw","newlat":41.48277778,"state":"OH"},"type":"Feature","geometry":{"type":"Point","coordinates":[-81.19916667,41.48277778]}},{"properties":{"city":"NOVELTY","category":"Macro Cell","post code":"44072","county":"GEAUGA","site name":"OH NOVELTY","country":"USA","oldlat":"41-28-59.73","newlong":-81.33298889,"street":"8636 PEKIN RD","oldlon":"-81-19-58.76","id":"abus72sazmb3","newlat":41.48325833,"state":"OH"},"type":"Feature","geometry":{"type":"Point","coordinates":[-81.33298889,41.48325833]}},{"properties":{"city":"NOVELTY","category":"Macro Cell","post code":"44072","county":"GEAUGA","site name":"OH NOVELTY [ALLTEL]","country":"USA","oldlat":"41.48325833","newlong":-81.33298889,"street":"8636 PEKIN RD","oldlon":"-81.33298889","id":"abus72l1nlbb","newlat":41.48325833,"state":"OH"},"type":"Feature","geometry":{"type":"Point","coordinates":[-81.33298889,41.48325833]}},{"properties":{"city":"PARKMAN TOWNSHIP","category":"Macro Cell","post code":"44080","county":"GEAUGA","site name":"OH PARKMAN","country":"USA","oldlat":"41 22 18.56","newlong":-81.07592222,"street":"15840 MAIN MARKET RD (CERTIFIE","oldlon":"-81 04 33.32","id":"abus72q8lm5g","newlat":41.37182222,"state":"OH"},"type":"Feature","geometry":{"type":"Point","coordinates":[-81.07592222,41.37182222]}},{"properties":{"city":"NOVELTY","category":"Macro Cell","post code":"44072","county":"GEAUGA","site name":"OH RUSSELL CENTER","country":"USA","oldlat":"41 26 36","newlong":-81.34,"street":"15564 CHILLICOTHE RD","oldlon":"-81 20 24","id":"abus72msato6","newlat":41.44333333,"state":"OH"},"type":"Feature","geometry":{"type":"Point","coordinates":[-81.34,41.44333333]}},{"properties":{"city":"CHAGRIN FALLS","category":"Macro Cell","post code":"44022","county":"GEAUGA","site name":"OH SOUTH RUSSELL [ALLTEL]","country":"USA","oldlat":"41.42116667","newlong":-81.38622222,"street":"7185 CHAGRIN RD","oldlon":"-81.38622222","id":"abus72vc921r","newlat":41.42116667,"state":"OH"},"type":"Feature","geometry":{"type":"Point","coordinates":[-81.38622222,41.42116667]}},{"properties":{"city":"THOMPSON","category":"Macro Cell","post code":"44086","county":"GEAUGA","site name":"OH THOMPSON","country":"USA","oldlat":"41 40 04.40","newlong":-81.04245556,"street":"16834A ROCK CREEK RD","oldlon":"-81 02 32.84","id":"abus72wfl5zn","newlat":41.66788889,"state":"OH"},"type":"Feature","geometry":{"type":"Point","coordinates":[-81.04245556,41.66788889]}},{"properties":{"city":"BEAVERCREEK","category":"Macro Cell","post code":"45434","county":"GREENE","site name":"OH ALPHA","country":"USA","oldlat":"39 44 29.39","newlong":-84.03816111,"street":"1807 DEERBROOK TRAIL","oldlon":"-84 02 17.38","id":"abus72rj9hif","newlat":39.74149722,"state":"OH"},"type":"Feature","geometry":{"type":"Point","coordinates":[-84.03816111,39.74149722]}},{"properties":{"city":"BOWERSVILLE","category":"Macro Cell","post code":"45307","county":"GREENE","site name":"OH BOWERSVILLE","country":"USA","oldlat":"39 34 05","newlong":-83.70666667,"street":"3541 ORCHARD GROVE ROAD","oldlon":"-83 42 24","id":"abus72uufyd4","newlat":39.56805556,"state":"OH"},"type":"Feature","geometry":{"type":"Point","coordinates":[-83.70666667,39.56805556]}},{"properties":{"city":null,"category":"Macro Cell","post code":null,"county":"GREENE","site name":"OH CARRIAGE HILL_CBW","country":"USA","oldlat":"39.82416667","newlong":-84.0675,"street":null,"oldlon":"-84.0675","id":"abus72ucnpdj","newlat":39.82416667,"state":"OH"},"type":"Feature","geometry":{"type":"Point","coordinates":[-84.0675,39.82416667]}},{"properties":{"city":"CEDARVILLE","category":"Macro Cell","post code":"45314","county":"GREENE","site name":"OH CEDARVILLE","country":"USA","oldlat":"39 44 11","newlong":-83.81777778,"street":"2941 US 42 E","oldlon":"-83 49 04","id":"abus72p359lx","newlat":39.73638889,"state":"OH"},"type":"Feature","geometry":{"type":"Point","coordinates":[-83.81777778,39.73638889]}},{"properties":{"city":"YELLOW SPRINGS","category":"Macro Cell","post code":"45387","county":"GREENE","site name":"OH FLUSH_VILLAGE #2 - VILLAGE 3","country":"USA","oldlat":"39.80783","newlong":-83.88725,"street":"100-B DAYTON ST","oldlon":"-83.88725","id":"abus72trvm3n","newlat":39.80783,"state":"OH"},"type":"Feature","geometry":{"type":"Point","coordinates":[-83.88725,39.80783]}},{"properties":{"city":"XENIA","category":"Macro Cell","post code":"45385","county":"GREENE","site name":"OH NEW JASPER","country":"USA","oldlat":"39 38 25","newlong":-83.81472222,"street":"1262 PAINTERSVILLE NEW JASPER","oldlon":"-83 48 53","id":"abus72wdc63t","newlat":39.64027778,"state":"OH"},"type":"Feature","geometry":{"type":"Point","coordinates":[-83.81472222,39.64027778]}},{"properties":{"city":"BEAVERCREEK","category":"Macro Cell","post code":"45385","county":"GREENE","site name":"OH OMEGA","country":"USA","oldlat":"39 42 18","newlong":-84.02555556,"street":"591 SOUTH ORCHARD LANE","oldlon":"-84 01 32","id":"abus72m1tmkd","newlat":39.705,"state":"OH"},"type":"Feature","geometry":{"type":"Point","coordinates":[-84.02555556,39.705]}},{"properties":{"city":"SPRING VALLEY","category":"Macro Cell","post code":"45370","county":"GREENE","site name":"OH SEABISCUIT","country":"USA","oldlat":"39 35 45","newlong":-84.00583333,"street":"3285 HOUSTON RD","oldlon":"-84 00 21","id":"abus72lh0wk4","newlat":39.59583333,"state":"OH"},"type":"Feature","geometry":{"type":"Point","coordinates":[-84.00583333,39.59583333]}},{"properties":{"city":"XENIA","category":"Macro Cell","post code":"45385","county":"GREENE","site name":"OH SPRING VALLEY","country":"USA","oldlat":"39 39 12","newlong":-84.00777778,"street":"1104 SPRING VALLEY-ALPHA RD","oldlon":"-84 00 28","id":"abus72npvd2n","newlat":39.65333333,"state":"OH"},"type":"Feature","geometry":{"type":"Point","coordinates":[-84.00777778,39.65333333]}},{"properties":{"city":"XENIA","category":"Macro Cell","post code":"45385","county":"GREENE","site name":"OH STORM","country":"USA","oldlat":"39.68038333","newlong":-83.94496389,"street":"552 BELLBROOK AVE","oldlon":"-83.94496389","id":"abus72k76xvr","newlat":39.68038333,"state":"OH"},"type":"Feature","geometry":{"type":"Point","coordinates":[-83.94496389,39.68038333]}},{"properties":{"city":"DAYTON","category":"Macro Cell","post code":"45459","county":"GREENE","site name":"OH SUGARCREEK","country":"USA","oldlat":"39 39 05","newlong":-84.10583333,"street":"4398 CLYO RD","oldlon":"-84 06 21","id":"abus72kjgbyq","newlat":39.65138889,"state":"OH"},"type":"Feature","geometry":{"type":"Point","coordinates":[-84.10583333,39.65138889]}},{"properties":{"city":"DAYTON","category":"Macro Cell","post code":"45440","county":"GREENE","site name":"OH SWIGART","country":"USA","oldlat":"39.67391667","newlong":-84.09429167,"street":"4457 SWIGART RD","oldlon":"-84.09429167","id":"abus72i27wk2","newlat":39.67391667,"state":"OH"},"type":"Feature","geometry":{"type":"Point","coordinates":[-84.09429167,39.67391667]}},{"properties":{"city":"XENIA","category":"Macro Cell","post code":"45385","county":"GREENE","site name":"OH WEST XENIA","country":"USA","oldlat":"39 41 53","newlong":-83.91166667,"street":"590 US  ROUTE 42 E","oldlon":"-83 54 42","id":"abus72pm5wpc","newlat":39.69805556,"state":"OH"},"type":"Feature","geometry":{"type":"Point","coordinates":[-83.91166667,39.69805556]}},{"properties":{"city":"YELLOW SPRINGS","category":"Macro Cell","post code":"45387","county":"GREENE","site name":"OH YELLOW SPRINGS","country":"USA","oldlat":"39 46 49","newlong":-83.89277778,"street":"777 EAST HYDE RD","oldlon":"-83 53 34","id":"abus72nn227f","newlat":39.78027778,"state":"OH"},"type":"Feature","geometry":{"type":"Point","coordinates":[-83.89277778,39.78027778]}},{"properties":{"city":"FINDLAY","category":"Macro Cell","post code":"45840","county":"HANCOCK","site name":"OH ARCADIA","country":"USA","oldlat":"41 04 4","newlong":-83.53444444,"street":"6717 COUNTY ROAD 248","oldlon":"-83 32 4","id":"abus72id8ijm","newlat":41.06777778,"state":"OH"},"type":"Feature","geometry":{"type":"Point","coordinates":[-83.53444444,41.06777778]}},{"properties":{"city":"RAWSON","category":"Macro Cell","post code":"45881","county":"HANCOCK","site name":"OH BENTON RIDGE","country":"USA","oldlat":"40 58 25.10","newlong":-83.80444444,"street":"13358 COUNTY ROAD 57 (PER TELC","oldlon":"-83 48 16.00","id":"abus72qg2hw6","newlat":40.97363889,"state":"OH"},"type":"Feature","geometry":{"type":"Point","coordinates":[-83.80444444,40.97363889]}},{"properties":{"city":"ARLINGTON","category":"Macro Cell","post code":"45814","county":"HANCOCK","site name":"OH EAGLE CREEK - HIGGINS","country":"USA","oldlat":"40.89915833","newlong":-83.66087222,"street":"18830 TOWNSHIP ROAD 71","oldlon":"-83.66087222","id":"abus72i3cokk","newlat":40.89915833,"state":"OH"},"type":"Feature","geometry":{"type":"Point","coordinates":[-83.66087222,40.89915833]}},{"properties":{"city":"FINDLAY","category":"Macro Cell","post code":"45840","county":"HANCOCK","site name":"OH FINDLAY","country":"USA","oldlat":"40 02 57","newlong":-83.6425,"street":"431 PROSPECT AVE","oldlon":"-83 38 33","id":"abus72xebn23","newlat":40.04916667,"state":"OH"},"type":"Feature","geometry":{"type":"Point","coordinates":[-83.6425,40.04916667]}},{"properties":{"city":"FINDLAY","category":"Macro Cell","post code":"45840","county":"HANCOCK","site name":"OH FINDLAY EAST","country":"USA","oldlat":"41-04-26.36","newlong":-83.58962778,"street":"6481 COUNTY ROAD 236","oldlon":"-83 35 22.66","id":"abus72tr9mh3","newlat":41.07398889,"state":"OH"},"type":"Feature","geometry":{"type":"Point","coordinates":[-83.58962778,41.07398889]}},{"properties":{"city":"FINDLAY","category":"Macro Cell","post code":"45840","county":"HANCOCK","site name":"OH FINDLAY II","country":"USA","oldlat":"41 00 30.8","newlong":-83.63122222,"street":"13004 TOWNSHIP ROAD 204","oldlon":"-83 37 52.4","id":"abus72xy6gpv","newlat":41.00855556,"state":"OH"},"type":"Feature","geometry":{"type":"Point","coordinates":[-83.63122222,41.00855556]}},{"properties":{"city":"FINDLAY","category":"Macro Cell","post code":"45840","county":"HANCOCK","site name":"OH FINDLAY NORTH","country":"USA","oldlat":"41 05 44.82","newlong":-83.66076667,"street":"11362 TOWNSHIP ROAD 100","oldlon":"-83 39 38.76","id":"abus72rlbmlo","newlat":41.09578333,"state":"OH"},"type":"Feature","geometry":{"type":"Point","coordinates":[-83.66076667,41.09578333]}},{"properties":{"city":"FINDLAY","category":"Macro Cell","post code":"45840","county":"HANCOCK","site name":"OH FINDLAY SOUTHWEST","country":"USA","oldlat":"41-02-35.9","newlong":-83.67872222,"street":"1783 WEST MAIN CROSS","oldlon":"-83 40 43.4","id":"abus72polrps","newlat":41.04330556,"state":"OH"},"type":"Feature","geometry":{"type":"Point","coordinates":[-83.67872222,41.04330556]}},{"properties":{"city":"FINDLAY","category":"Macro Cell","post code":"45840","county":"HANCOCK","site name":"OH FINDLAY SOUTHWEST II - LAUBENTHAL","country":"USA","oldlat":"41.01501389","newlong":-83.71343889,"street":"10575 TOWNSHIP ROAD 139","oldlon":"-83.71343889","id":"abus72mb6szu","newlat":41.01501389,"state":"OH"},"type":"Feature","geometry":{"type":"Point","coordinates":[-83.71343889,41.01501389]}},{"properties":{"city":"FOSTORIA","category":"Macro Cell","post code":"44830","county":"HANCOCK","site name":"OH FOSTORIA WEST - CONINE","country":"USA","oldlat":"41.13231111","newlong":-83.43203056,"street":"21727 ST RT 12","oldlon":"-83.43203056","id":"abus72u0trq9","newlat":41.13231111,"state":"OH"},"type":"Feature","geometry":{"type":"Point","coordinates":[-83.43203056,41.13231111]}},{"properties":{"city":"MCCOMB","category":"Macro Cell","post code":"45858","county":"HANCOCK","site name":"OH MCCOMB - RITTER #1","country":"USA","oldlat":"41.09755833","newlong":-83.78157778,"street":"4810 SR 186","oldlon":"-83.78157778","id":"abus72iedwro","newlat":41.09755833,"state":"OH"},"type":"Feature","geometry":{"type":"Point","coordinates":[-83.78157778,41.09755833]}},{"properties":{"city":"JACKSON TWP","category":"Macro Cell","post code":"45814","county":"HANCOCK","site name":"OH MOUNT BLANCHARD","country":"USA","oldlat":"40.92036111","newlong":-83.56611111,"street":"16645 TOWNSHIP RD 25","oldlon":"-83.56611111","id":"abus72scp43r","newlat":40.92036111,"state":"OH"},"type":"Feature","geometry":{"type":"Point","coordinates":[-83.56611111,40.92036111]}},{"properties":{"city":"VANLUE","category":"Macro Cell","post code":"45890","county":"HANCOCK","site name":"OH VANLUE - WATSON","country":"USA","oldlat":"40.99122222","newlong":-83.50250833,"street":"11975 BIGLICK TOWNSHIP 196","oldlon":"-83.50250833","id":"abus72j4472h","newlat":40.99122222,"state":"OH"},"type":"Feature","geometry":{"type":"Point","coordinates":[-83.50250833,40.99122222]}},{"properties":{"city":"ADA","category":"Macro Cell","post code":"45810","county":"HARDIN","site name":"OH ADA","country":"USA","oldlat":"40-45-16.4","newlong":-83.824,"street":"4503 STATE ROUTE 235","oldlon":"-83 49 26.4","id":"abus72m97yfi","newlat":40.75455556,"state":"OH"},"type":"Feature","geometry":{"type":"Point","coordinates":[-83.824,40.75455556]}},{"properties":{"city":"DUNKIRK","category":"Macro Cell","post code":"45836","county":"HARDIN","site name":"OH DUNKIRK","country":"USA","oldlat":"40-48-18","newlong":-83.66083333,"street":"11520 TOWNSHIP ROAD 20","oldlon":"-83 39 39","id":"abus72hte3ka","newlat":40.805,"state":"OH"},"type":"Feature","geometry":{"type":"Point","coordinates":[-83.66083333,40.805]}},{"properties":{"city":"KENTON","category":"Macro Cell","post code":"43326","county":"HARDIN","site name":"OH KENTON","country":"USA","oldlat":"40 40 25","newlong":-83.60888889,"street":"14262 TOWNSHIP RD #110","oldlon":"-83 36 32","id":"abus72u3qaxa","newlat":40.67361111,"state":"OH"},"type":"Feature","geometry":{"type":"Point","coordinates":[-83.60888889,40.67361111]}},{"properties":{"city":"KENTON","category":"Macro Cell","post code":"43326","county":"HARDIN","site name":"OH KENTON EAST","country":"USA","oldlat":"40.63347222","newlong":-83.57008611,"street":"16206 TWP RD 140","oldlon":"-83.57008611","id":"abus72w0sk35","newlat":40.63347222,"state":"OH"},"type":"Feature","geometry":{"type":"Point","coordinates":[-83.57008611,40.63347222]}},{"properties":{"city":"MCGUFFEY","category":"Macro Cell","post code":"45859","county":"HARDIN","site name":"OH MCGUFFEY","country":"USA","oldlat":"40 41 24.34","newlong":-83.77729444,"street":"605 MARSH RD","oldlon":"-83 46 38.26","id":"abus72m5lw3l","newlat":40.69009444,"state":"OH"},"type":"Feature","geometry":{"type":"Point","coordinates":[-83.77729444,40.69009444]}},{"properties":{"city":"MOUNT VICTORY","category":"Macro Cell","post code":"43340","county":"HARDIN","site name":"OH MOUNT VICTORY--SARF - ELLIOTT 1","country":"USA","oldlat":"40.53122","newlong":-83.54776,"street":"APPROX. 900'  WEST OF 17762 SR","oldlon":"-83.54776","id":"abus72o2afnn","newlat":40.53122,"state":"OH"},"type":"Feature","geometry":{"type":"Point","coordinates":[-83.54776,40.53122]}},{"properties":{"city":"DESHLER","category":"Macro Cell","post code":"43516","county":"HENRY","site name":"OH DESHLER [ALLTEL]","country":"USA","oldlat":"41 12 41","newlong":-83.93611111,"street":"3840 CO RD D","oldlon":"-83 56 10","id":"abus72lcnf0y","newlat":41.21138889,"state":"OH"},"type":"Feature","geometry":{"type":"Point","coordinates":[-83.93611111,41.21138889]}},{"properties":{"city":"DESHLER","category":"Macro Cell","post code":"43516","county":"HENRY","site name":"OH HAMLER DESHLER","country":"USA","oldlat":"41-15-04.60","newlong":-83.97717222,"street":"COUNTY ROAD 6","oldlon":"-83-58-37.82","id":"abus72t8tisf","newlat":41.25127778,"state":"OH"},"type":"Feature","geometry":{"type":"Point","coordinates":[-83.97717222,41.25127778]}},{"properties":{"city":"HOLGATE","category":"Macro Cell","post code":"43527","county":"HENRY","site name":"OH HOLGATE","country":"USA","oldlat":"41 17 06.93","newlong":-84.11459722,"street":"STATE ROUTE 281","oldlon":"-84 06 52.55","id":"abus72ln5991","newlat":41.28525833,"state":"OH"},"type":"Feature","geometry":{"type":"Point","coordinates":[-84.11459722,41.28525833]}},{"properties":{"city":"HOLGATE","category":"Macro Cell","post code":"43527","county":"HENRY","site name":"OH HOLGATE [ALLTEL]","country":"USA","oldlat":"41 14 15","newlong":-84.11194444,"street":"876 CR 13","oldlon":"-84 06 43","id":"abus72vz9mgv","newlat":41.2375,"state":"OH"},"type":"Feature","geometry":{"type":"Point","coordinates":[-84.11194444,41.2375]}},{"properties":{"city":"NAPOLEON","category":"Macro Cell","post code":"43545","county":"HENRY","site name":"OH MAUMEE RIVER","country":"USA","oldlat":"41 23 43","newlong":-84.12027778,"street":"850 VOCKE ST","oldlon":"-84 07 13","id":"abus72hpz0sk","newlat":41.39527778,"state":"OH"},"type":"Feature","geometry":{"type":"Point","coordinates":[-84.12027778,41.39527778]}},{"properties":{"city":"NAPOLEON","category":"Macro Cell","post code":"43545","county":"HENRY","site name":"OH MAUMEE RIVER [ALLTEL]","country":"USA","oldlat":"41 24 15","newlong":-84.13611111,"street":"1515 N SCOTT ST","oldlon":"-84 8 10","id":"abus72rpdrbf","newlat":41.40416667,"state":"OH"},"type":"Feature","geometry":{"type":"Point","coordinates":[-84.13611111,41.40416667]}},{"properties":{"city":"FLORIDA","category":"Macro Cell","post code":"43545","county":"HENRY","site name":"OH NAPOLEON [ALLTEL]","country":"USA","oldlat":"41 17 49.3","newlong":-84.20477778,"street":"17706 TWP. RD J","oldlon":"-84 12 17.2","id":"abus72j0ayg5","newlat":41.29702778,"state":"OH"},"type":"Feature","geometry":{"type":"Point","coordinates":[-84.20477778,41.29702778]}},{"properties":{"city":"HOLGATE","category":"Macro Cell","post code":"43527","county":"HENRY","site name":"OH NAPOLEON REPLACEMENT - ZACHRICH","country":"USA","oldlat":"41.28253056","newlong":-84.20698056,"street":"I088 COUNTY ROAD 18","oldlon":"-84.20698056","id":"abus72whhr2a","newlat":41.28253056,"state":"OH"},"type":"Feature","geometry":{"type":"Point","coordinates":[-84.20698056,41.28253056]}},{"properties":{"city":"ARCHBOLD","category":"Macro Cell","post code":"43502","county":"HENRY","site name":"OH RIDGEVILLE CORNER [ALLTEL]","country":"USA","oldlat":"41 28 56","newlong":-84.30138889,"street":"760 STATE ROUTE 66","oldlon":"-84 18 05","id":"abus72m2qdvf","newlat":41.48222222,"state":"OH"},"type":"Feature","geometry":{"type":"Point","coordinates":[-84.30138889,41.48222222]}},{"properties":{"city":"RIDGEVILLE CORNERS","category":"Macro Cell","post code":"43555","county":"HENRY","site name":"OH RIDGEVILLE CORNERS SOUTH - D&amp;D # 2","country":"USA","oldlat":"41.43734167","newlong":-84.24919167,"street":"NEC QUALITY DRIVE &amp; US HWY 6","oldlon":"-84.24919167","id":"abus72qhntx3","newlat":41.43734167,"state":"OH"},"type":"Feature","geometry":{"type":"Point","coordinates":[-84.24919167,41.43734167]}},{"properties":{"city":"LIBERTY CENTER","category":"Macro Cell","post code":"43532","county":"HENRY","site name":"OH TEXAS","country":"USA","oldlat":"41 25 44.2","newlong":-83.97472222,"street":"5796 COUNTY ROAD S","oldlon":"-83 58 29","id":"abus72tthu7k","newlat":41.42894444,"state":"OH"},"type":"Feature","geometry":{"type":"Point","coordinates":[-83.97472222,41.42894444]}},{"properties":{"city":"LIBERTY CENTER","category":"Macro Cell","post code":"43532","county":"HENRY","site name":"OH TEXAS [ALLTEL]","country":"USA","oldlat":"41.42893333","newlong":-83.98750278,"street":"6-328 COUNTY ROAD S","oldlon":"-83.98750278","id":"abus72kn1j1x","newlat":41.42893333,"state":"OH"},"type":"Feature","geometry":{"type":"Point","coordinates":[-83.98750278,41.42893333]}},{"properties":{"city":"LIBERTY CENTER","category":"Macro Cell","post code":"43532","county":"HENRY","site name":"OH TEXAS II","country":"USA","oldlat":"41-25-16.18","newlong":-84.05606667,"street":"R507 COUNTRY RD 10","oldlon":"-84-3-21.84","id":"abus72inueft","newlat":41.42116111,"state":"OH"},"type":"Feature","geometry":{"type":"Point","coordinates":[-84.05606667,41.42116111]}},{"properties":{"city":"MCCLURE","category":"Macro Cell","post code":"43534","county":"HENRY","site name":"OH WESTHOPE [ALLTEL]","country":"USA","oldlat":"41 19 19","newlong":-83.96,"street":"K-630 COUNTY ROAD 5","oldlon":"-83 57 36","id":"abus72rp1nme","newlat":41.32194444,"state":"OH"},"type":"Feature","geometry":{"type":"Point","coordinates":[-83.96,41.32194444]}},{"properties":{"city":"BELLEFONTAINE","category":"Macro Cell","post code":"43311","county":"LOGAN","site name":"OH BELLEFONTAINE","country":"USA","oldlat":"40 20 35","newlong":-83.71138889,"street":"3209 COUNTY ROAD 55","oldlon":"-83 42 41","id":"abus72y04ft8","newlat":40.34305556,"state":"OH"},"type":"Feature","geometry":{"type":"Point","coordinates":[-83.71138889,40.34305556]}},{"properties":{"city":"QUINCY","category":"Macro Cell","post code":"43343","county":"LOGAN","site name":"OH DEGRAFF","country":"USA","oldlat":"40 19 12","newlong":-83.94166667,"street":"10060 COUNTY ROAD 75","oldlon":"-83 56 30","id":"abus72lav439","newlat":40.32,"state":"OH"},"type":"Feature","geometry":{"type":"Point","coordinates":[-83.94166667,40.32]}},{"properties":{"city":"EAST LIBERTY","category":"Macro Cell","post code":"43319","county":"LOGAN","site name":"OH EAST LIBERTY(CLMB)","country":"USA","oldlat":"40 19 1.25","newlong":-83.59741944,"street":"8744 CR 144","oldlon":"-83 35 50.71","id":"abus72x18st3","newlat":40.31701389,"state":"OH"},"type":"Feature","geometry":{"type":"Point","coordinates":[-83.59741944,40.31701389]}},{"properties":{"city":"HUNTSVILLE","category":"Macro Cell","post code":"43324","county":"LOGAN","site name":"OH HUNTSVILLE","country":"USA","oldlat":"40-27-08.83","newlong":-83.83194722,"street":"6009 TWP RD 99","oldlon":"-83-49-55.01","id":"abus72vsxj0w","newlat":40.45245278,"state":"OH"},"type":"Feature","geometry":{"type":"Point","coordinates":[-83.83194722,40.45245278]}},{"properties":{"city":"LAKEVIEW","category":"Macro Cell","post code":"43331","county":"LOGAN","site name":"OH INDIAN LAKE","country":"USA","oldlat":"40 31 40","newlong":-83.88055556,"street":"14297 STATE ROUTE 235 NORTH","oldlon":"-83 52 50","id":"abus72n1zh28","newlat":40.52777778,"state":"OH"},"type":"Feature","geometry":{"type":"Point","coordinates":[-83.88055556,40.52777778]}},{"properties":{"city":"BELLEFONTAINE","category":"Macro Cell","post code":"43311","county":"LOGAN","site name":"OH NEW JERUSALEM","country":"USA","oldlat":"40.39794167","newlong":-83.66196944,"street":"1555 STATE ROUTE 533","oldlon":"-83.66196944","id":"abus72ogew0r","newlat":40.39794167,"state":"OH"},"type":"Feature","geometry":{"type":"Point","coordinates":[-83.66196944,40.39794167]}},{"properties":{"city":"BELLEFONTAINE","category":"Macro Cell","post code":"43311","county":"LOGAN","site name":"OH NORTH BELLEFONTAINE","country":"USA","oldlat":"40 23 13.85","newlong":-83.75361111,"street":"1903 US HIGHWAY 68 NORTH","oldlon":"-83 45 13","id":"abus72t46oju","newlat":40.38718056,"state":"OH"},"type":"Feature","geometry":{"type":"Point","coordinates":[-83.75361111,40.38718056]}},{"properties":{"city":"MARYSVILLE","category":"Macro Cell","post code":"43040","county":"LOGAN","site name":"OH RAYMOND","country":"USA","oldlat":"40-20-44.7","newlong":-83.45650833,"street":"20970 HOOVER BAULT RD","oldlon":"-83-27-23.43","id":"abus72thfr5q","newlat":40.34575,"state":"OH"},"type":"Feature","geometry":{"type":"Point","coordinates":[-83.45650833,40.34575]}},{"properties":{"city":"RUSHSYLVANIA","category":"Macro Cell","post code":"43347","county":"LOGAN","site name":"OH RUSHSYLVANIA","country":"USA","oldlat":"40 27 46","newlong":-83.69166667,"street":"1352 COUNTY ROAD 113 E","oldlon":"-83 41 30","id":"abus72kjb9di","newlat":40.46277778,"state":"OH"},"type":"Feature","geometry":{"type":"Point","coordinates":[-83.69166667,40.46277778]}},{"properties":{"city":"WEST LIBERTY","category":"Macro Cell","post code":"43357","county":"LOGAN","site name":"OH WEST LIBERTY","country":"USA","oldlat":"40.24345833","newlong":-83.75237222,"street":"8393 US ROUTE 68 SOUTH","oldlon":"-83.75237222","id":"abus72xinxi0","newlat":40.24345833,"state":"OH"},"type":"Feature","geometry":{"type":"Point","coordinates":[-83.75237222,40.24345833]}},{"properties":{"city":"PLAIN CITY","category":"Macro Cell","post code":"43064","county":"MADISON","site name":"OH CANAAN TOWNSHIP","country":"USA","oldlat":"40 00 59.23","newlong":-83.30506944,"street":"5205 US 42 NE","oldlon":"-83 18 18.25","id":"abus72i3vkiq","newlat":40.01645278,"state":"OH"},"type":"Feature","geometry":{"type":"Point","coordinates":[-83.30506944,40.01645278]}},{"properties":{"city":"MOUNT STERLING","category":"Macro Cell","post code":"43143","county":"MADISON","site name":"OH CHENOWETH","country":"USA","oldlat":"39 43 44","newlong":-83.36916667,"street":"6000 STATE ROUTE 323 (SBC SR 3","oldlon":"-83 22 09","id":"abus72mla01z","newlat":39.72888889,"state":"OH"},"type":"Feature","geometry":{"type":"Point","coordinates":[-83.36916667,39.72888889]}},{"properties":{"city":"LONDON","category":"Macro Cell","post code":"43140","county":"MADISON","site name":"OH K_SUMMERFORD","country":"USA","oldlat":"39.94805278","newlong":-83.50451944,"street":"3990 OLD COLUMBUS ROAD","oldlon":"-83.50451944","id":"abus72xscdjf","newlat":39.94805278,"state":"OH"},"type":"Feature","geometry":{"type":"Point","coordinates":[-83.50451944,39.94805278]}},{"properties":{"city":"LONDON","category":"Macro Cell","post code":"43140","county":"MADISON","site name":"OH LONDON","country":"USA","oldlat":"39 56 44","newlong":-83.38666667,"street":"501 US 42 NE","oldlon":"-83 23 12","id":"abus72vwlki0","newlat":39.94555556,"state":"OH"},"type":"Feature","geometry":{"type":"Point","coordinates":[-83.38666667,39.94555556]}},{"properties":{"city":"LONDON","category":"Macro Cell","post code":"43140","county":"MADISON","site name":"OH LONDON DOWNTOWN","country":"USA","oldlat":"39 52 38","newlong":-83.46416667,"street":"731 STATE ROUTE 42","oldlon":"-83 27 51","id":"abus72wgy561","newlat":39.87722222,"state":"OH"},"type":"Feature","geometry":{"type":"Point","coordinates":[-83.46416667,39.87722222]}},{"properties":{"city":"PLAIN CITY","category":"Macro Cell","post code":"43064","county":"MADISON","site name":"OH PLAIN CITY","country":"USA","oldlat":"40 06 28","newlong":-83.27944444,"street":"258 S JEFFERSON AVENUE (SR-42)","oldlon":"-83 16 46","id":"abus72in63hg","newlat":40.10777778,"state":"OH"},"type":"Feature","geometry":{"type":"Point","coordinates":[-83.27944444,40.10777778]}},{"properties":{"city":"LONDON","category":"Macro Cell","post code":"43140","county":"MADISON","site name":"OH PLUMWOOD","country":"USA","oldlat":"40 02 12.95","newlong":-83.41246944,"street":"6864 STATE ROUTE 38 NW","oldlon":"-83 24 44.89","id":"abus72xs8met","newlat":40.03693056,"state":"OH"},"type":"Feature","geometry":{"type":"Point","coordinates":[-83.41246944,40.03693056]}},{"properties":{"city":"SOUTH SOLON","category":"Macro Cell","post code":"43153","county":"MADISON","site name":"OH SOUTH SOLON","country":"USA","oldlat":"39 43 51","newlong":-83.54083333,"street":"3315 STATE ROUTE 323-SW","oldlon":"-83 32 27","id":"abus72vb5rz8","newlat":39.73083333,"state":"OH"},"type":"Feature","geometry":{"type":"Point","coordinates":[-83.54083333,39.73083333]}},{"properties":{"city":"LONDON","category":"Macro Cell","post code":"43140","county":"MADISON","site name":"OH SUMMERFORD","country":"USA","oldlat":"39-56-52.99","newlong":-83.50451944,"street":"3990 OLD COLUMBUS RD (3570 OLD","oldlon":"-83 30 16.27","id":"abus72k9b9al","newlat":39.94805278,"state":"OH"},"type":"Feature","geometry":{"type":"Point","coordinates":[-83.50451944,39.94805278]}},{"properties":{"city":"WEST JEFFERSON","category":"Macro Cell","post code":"43162","county":"MADISON","site name":"OH WEST JEFFERSON","country":"USA","oldlat":"39 57 28.91","newlong":-83.27056944,"street":"751 MIDDLE PIKE","oldlon":"-83 16 14.05","id":"abus72r05z7h","newlat":39.95803056,"state":"OH"},"type":"Feature","geometry":{"type":"Point","coordinates":[-83.27056944,39.95803056]}},{"properties":{"city":"CELINA","category":"Macro Cell","post code":"45822","county":"MERCER","site name":"OH CELINA","country":"USA","oldlat":"40 33 28","newlong":-84.52694444,"street":"7141 HAVEMAN RD","oldlon":"-84 31 37","id":"abus72w480sc","newlat":40.55777778,"state":"OH"},"type":"Feature","geometry":{"type":"Point","coordinates":[-84.52694444,40.55777778]}},{"properties":{"city":"CELINA","category":"Macro Cell","post code":"45822","county":"MERCER","site name":"OH CELINA SOUTH","country":"USA","oldlat":"40 32 15.2","newlong":-84.58119444,"street":"1025 ELM ST","oldlon":"-84 34 52.3","id":"abus72mtn97o","newlat":40.53755556,"state":"OH"},"type":"Feature","geometry":{"type":"Point","coordinates":[-84.58119444,40.53755556]}},{"properties":{"city":"FORT RECOVERY","category":"Macro Cell","post code":"45846","county":"MERCER","site name":"OH FORT RECOVERY - KELLER","country":"USA","oldlat":"40.41473611","newlong":-84.76125556,"street":"1007 STATE ROUTE 119","oldlon":"-84.76125556","id":"abus72s1bl5x","newlat":40.41473611,"state":"OH"},"type":"Feature","geometry":{"type":"Point","coordinates":[-84.76125556,40.41473611]}},{"properties":{"city":"MENDON","category":"Macro Cell","post code":"45862","county":"MERCER","site name":"OH ROCKFORD SE","country":"USA","oldlat":"40 40 03.33","newlong":-84.57981111,"street":"10926 US ROUTE 127","oldlon":"-84 34 47.32","id":"abus72qkosqo","newlat":40.66759167,"state":"OH"},"type":"Feature","geometry":{"type":"Point","coordinates":[-84.57981111,40.66759167]}},{"properties":{"city":"SAINT HENRY","category":"Macro Cell","post code":"45883","county":"MERCER","site name":"OH SAINT HENRY","country":"USA","oldlat":"40 25 44.15","newlong":-84.61633611,"street":"954 COOPER AVE","oldlon":"-84 36 58.81","id":"abus72jr8b0h","newlat":40.42893056,"state":"OH"},"type":"Feature","geometry":{"type":"Point","coordinates":[-84.61633611,40.42893056]}},{"properties":{"city":"TIPP CITY","category":"Macro Cell","post code":"45371","county":"MIAMI","site name":"OH BETHEL TOWNSHIP","country":"USA","oldlat":"39 53 48","newlong":-84.0875,"street":"8975 SOUTH STATE ROUTE 201","oldlon":"-84 05 15","id":"abus72s5ve5r","newlat":39.89666667,"state":"OH"},"type":"Feature","geometry":{"type":"Point","coordinates":[-84.0875,39.89666667]}},{"properties":{"city":"COVINGTON","category":"Macro Cell","post code":"45308","county":"MIAMI","site name":"OH BRADFORD","country":"USA","oldlat":"40 07 22","newlong":-84.39916667,"street":"10387 W US ROUTE 36","oldlon":"-84 23 57","id":"abus72vct7yi","newlat":40.12277778,"state":"OH"},"type":"Feature","geometry":{"type":"Point","coordinates":[-84.39916667,40.12277778]}},{"properties":{"city":"PIQUA","category":"Macro Cell","post code":"45356","county":"MIAMI","site name":"OH ECHO","country":"USA","oldlat":"40 08 33.06","newlong":-84.24801389,"street":"441 S. COLLEGE ST","oldlon":"-84 14 52.85","id":"abus72j1pjzy","newlat":40.14251667,"state":"OH"},"type":"Feature","geometry":{"type":"Point","coordinates":[-84.24801389,40.14251667]}},{"properties":{"city":"TROY","category":"Macro Cell","post code":"45373","county":"MIAMI","site name":"OH HELEN","country":"USA","oldlat":"40 02 32","newlong":-84.19777778,"street":"202 EAST STAUNTON RD","oldlon":"-84 11 52","id":"abus72wb0csq","newlat":40.04222222,"state":"OH"},"type":"Feature","geometry":{"type":"Point","coordinates":[-84.19777778,40.04222222]}},{"properties":{"city":"PIQUA","category":"Macro Cell","post code":"45356","county":"MIAMI","site name":"OH PIQUA","country":"USA","oldlat":"40 08 05","newlong":-84.21305556,"street":"901 WEST STATLER ROAD","oldlon":"-84 12 47","id":"abus72wygn0d","newlat":40.13472222,"state":"OH"},"type":"Feature","geometry":{"type":"Point","coordinates":[-84.21305556,40.13472222]}},{"properties":{"city":"WEST MILTON","category":"Macro Cell","post code":"45383","county":"MIAMI","site name":"OH STILLWATER FALLS","country":"USA","oldlat":"39 57 48.44","newlong":-84.31294444,"street":"5970 STATE ROUTE 571","oldlon":"-84 18 46.60","id":"abus72vlssow","newlat":39.96345556,"state":"OH"},"type":"Feature","geometry":{"type":"Point","coordinates":[-84.31294444,39.96345556]}},{"properties":{"city":"TIPP CITY","category":"Macro Cell","post code":"45371","county":"MIAMI","site name":"OH TIPP CITY","country":"USA","oldlat":"39 57 56","newlong":-84.19666667,"street":"300 TOWER DR","oldlon":"-84 11 48","id":"abus72lgl42f","newlat":39.96555556,"state":"OH"},"type":"Feature","geometry":{"type":"Point","coordinates":[-84.19666667,39.96555556]}},{"properties":{"city":"TROY","category":"Macro Cell","post code":"45373","county":"MIAMI","site name":"OH TROY","country":"USA","oldlat":"40 01 01","newlong":-84.24583333,"street":"2310 WEST STATE ROUTE 55","oldlon":"-84 14 45","id":"abus72i13unf","newlat":40.01694444,"state":"OH"},"type":"Feature","geometry":{"type":"Point","coordinates":[-84.24583333,40.01694444]}},{"properties":{"city":"ANTWERP","category":"Macro Cell","post code":"45813","county":"PAULDING","site name":"OH ANTWERP","country":"USA","oldlat":"41.17826667","newlong":-84.73477778,"street":"301 E  CANAL ST","oldlon":"-84.73477778","id":"abus72wr3sap","newlat":41.17826667,"state":"OH"},"type":"Feature","geometry":{"type":"Point","coordinates":[-84.73477778,41.17826667]}},{"properties":{"city":"PAULDING","category":"Macro Cell","post code":"45879","county":"PAULDING","site name":"OH DT PAULDING [ALLTEL]","country":"USA","oldlat":"41-7-54","newlong":-84.58944444,"street":"CR 132","oldlon":"-84-35-22","id":"abus72pjyyt2","newlat":41.13166667,"state":"OH"},"type":"Feature","geometry":{"type":"Point","coordinates":[-84.58944444,41.13166667]}},{"properties":{"city":"GROVER HILL","category":"Macro Cell","post code":"45849","county":"PAULDING","site name":"OH GROVER HILL [ALLTEL]","country":"USA","oldlat":"41 02 02","newlong":-84.48166667,"street":"17737 TWP. RD 48","oldlon":"-84 28 54","id":"abus72j0l5vd","newlat":41.03388889,"state":"OH"},"type":"Feature","geometry":{"type":"Point","coordinates":[-84.48166667,41.03388889]}},{"properties":{"city":"OAKWOOD","category":"Macro Cell","post code":"45873","county":"PAULDING","site name":"OH HIGHWAY 15 [ALLTEL]","country":"USA","oldlat":"41 10 09","newlong":-84.3425,"street":"13001 COUNTY RD 263","oldlon":"-84 20 33","id":"abus72rcy0fk","newlat":41.16916667,"state":"OH"},"type":"Feature","geometry":{"type":"Point","coordinates":[-84.3425,41.16916667]}},{"properties":{"city":"OAKWOOD","category":"Macro Cell","post code":"45873","county":"PAULDING","site name":"OH OAKWOOD_MELROSE - SHISLER","country":"USA","oldlat":"41.0854","newlong":-84.39991944,"street":"7587 ROAD 187","oldlon":"-84.39991944","id":"abus72nlf2to","newlat":41.0854,"state":"OH"},"type":"Feature","geometry":{"type":"Point","coordinates":[-84.39991944,41.0854]}},{"properties":{"city":"PAULDING","category":"Macro Cell","post code":"45879","county":"PAULDING","site name":"OH PAULDING [ALLTEL]","country":"USA","oldlat":"41.212776","newlong":-84.571663,"street":"TWP. RD 208","oldlon":"-84.571663","id":"abus72r7yrwz","newlat":41.212776,"state":"OH"},"type":"Feature","geometry":{"type":"Point","coordinates":[-84.571663,41.212776]}},{"properties":{"city":"PAULDING","category":"Macro Cell","post code":"45879","county":"PAULDING","site name":"OH PAULDING DT - PAULDING COUNTY EMA","country":"USA","oldlat":"41.13134167","newlong":-84.58969444,"street":"700 FAIRGROUND DRIVE","oldlon":"-84.58969444","id":"abus72p8z2g1","newlat":41.13134167,"state":"OH"},"type":"Feature","geometry":{"type":"Point","coordinates":[-84.58969444,41.13134167]}},{"properties":{"city":"PAYNE","category":"Macro Cell","post code":"45880","county":"PAULDING","site name":"OH PAYNE - PAYNE COMMUNITY PARK","country":"USA","oldlat":"41.08640278","newlong":-84.73073611,"street":"N MAIN (NEXT TO 605 MAIN)","oldlon":"-84.73073611","id":"abus72rs5arf","newlat":41.08640278,"state":"OH"},"type":"Feature","geometry":{"type":"Point","coordinates":[-84.73073611,41.08640278]}},{"properties":{"city":"CAMDEN","category":"Macro Cell","post code":"45381","county":"PREBLE","site name":"OH CAMDEN","country":"USA","oldlat":"39 39 10","newlong":-84.57666667,"street":"6401 QUAKER TRACE RD","oldlon":"-84 34 36","id":"abus72l4mu1k","newlat":39.65277778,"state":"OH"},"type":"Feature","geometry":{"type":"Point","coordinates":[-84.57666667,39.65277778]}},{"properties":{"city":"EATON","category":"Macro Cell","post code":"45320","county":"PREBLE","site name":"OH EATON","country":"USA","oldlat":"39 45 29","newlong":-84.63916667,"street":"201 W LEXINGTON RD","oldlon":"-84 38 21","id":"abus72qlpsme","newlat":39.75805556,"state":"OH"},"type":"Feature","geometry":{"type":"Point","coordinates":[-84.63916667,39.75805556]}},{"properties":{"city":"LEWISBURG","category":"Macro Cell","post code":"45320","county":"PREBLE","site name":"OH LEWISBURG","country":"USA","oldlat":"39 49 45","newlong":-84.61333333,"street":"891 SCHEYING RD","oldlon":"-84 36 48","id":"abus72ph92yo","newlat":39.82916667,"state":"OH"},"type":"Feature","geometry":{"type":"Point","coordinates":[-84.61333333,39.82916667]}},{"properties":{"city":"NEW PARIS","category":"Macro Cell","post code":"45347","county":"PREBLE","site name":"OH NEW WESTVILLE","country":"USA","oldlat":"39 49 37","newlong":-84.78888889,"street":"5320 STATE ROUTE 320","oldlon":"-84 47 20","id":"abus72qr1p4w","newlat":39.82694444,"state":"OH"},"type":"Feature","geometry":{"type":"Point","coordinates":[-84.78888889,39.82694444]}},{"properties":{"city":"CAMDEN","category":"Macro Cell","post code":"45311","county":"PREBLE","site name":"OH SEVEN MILE CREEK","country":"USA","oldlat":"39 36 18","newlong":-84.67055556,"street":"1570 CAMDEN COLLEGE CORNER RD","oldlon":"-84 40 14","id":"abus72vc1whb","newlat":39.605,"state":"OH"},"type":"Feature","geometry":{"type":"Point","coordinates":[-84.67055556,39.605]}},{"properties":{"city":"COLUMBUS GROVE","category":"Macro Cell","post code":"45830","county":"PUTNAM","site name":"OH COLUMBUS GROVE - SCHROEDER","country":"USA","oldlat":"40.73958333","newlong":-84.04379722,"street":"STATE ROUTE 12 &amp; COUNTY 9-Q","oldlon":"-84.04379722","id":"abus72jnjeyw","newlat":40.73958333,"state":"OH"},"type":"Feature","geometry":{"type":"Point","coordinates":[-84.04379722,40.73958333]}},{"properties":{"city":"CONTINENTAL","category":"Macro Cell","post code":"45831","county":"PUTNAM","site name":"OH CONTINENTAL - M SHALTER","country":"USA","oldlat":"41.09327222","newlong":-84.26085833,"street":"18512 STATE ROAD 613","oldlon":"-84.26085833","id":"abus72ouigaz","newlat":41.09327222,"state":"OH"},"type":"Feature","geometry":{"type":"Point","coordinates":[-84.26085833,41.09327222]}},{"properties":{"city":"FORT JENNINGS","category":"Macro Cell","post code":"45844","county":"PUTNAM","site name":"OH FORT JENNINGS","country":"USA","oldlat":"40-54-55","newlong":-84.2925,"street":"18200-A STATE ROUTE 634","oldlon":"-84 17 33","id":"abus72x73tdx","newlat":40.91527778,"state":"OH"},"type":"Feature","geometry":{"type":"Point","coordinates":[-84.2925,40.91527778]}},{"properties":{"city":"OTTAWA","category":"Macro Cell","post code":"45875","county":"PUTNAM","site name":"OH KALIDA - EDWARDS","country":"USA","oldlat":"40.99894722","newlong":-84.19585278,"street":"12399 SR 115","oldlon":"-84.19585278","id":"abus72w89g4t","newlat":40.99894722,"state":"OH"},"type":"Feature","geometry":{"type":"Point","coordinates":[-84.19585278,40.99894722]}},{"properties":{"city":"LEIPSIC","category":"Macro Cell","post code":"45856","county":"PUTNAM","site name":"OH LEIPSIC","country":"USA","oldlat":"41-06-35","newlong":-83.93388889,"street":"3766-A ROAD E","oldlon":"-83 56 02","id":"abus72pwedag","newlat":41.10972222,"state":"OH"},"type":"Feature","geometry":{"type":"Point","coordinates":[-83.93388889,41.10972222]}},{"properties":{"city":"OTTAWA","category":"Macro Cell","post code":"45875","county":"PUTNAM","site name":"OH OTTAWA","country":"USA","oldlat":"41 00 26","newlong":-84.09138889,"street":"11969 ROAD TWELVE","oldlon":"-84 05 29","id":"abus72izixay","newlat":41.00722222,"state":"OH"},"type":"Feature","geometry":{"type":"Point","coordinates":[-84.09138889,41.00722222]}},{"properties":{"city":"OTTAWA","category":"Macro Cell","post code":"45875","county":"PUTNAM","site name":"OH OTTAWA EAST","country":"USA","oldlat":"41.0149","newlong":-84.02039,"street":"8195 OLD STATE ROUTE 224","oldlon":"-84.02039","id":"abus72jihkmu","newlat":41.0149,"state":"OH"},"type":"Feature","geometry":{"type":"Point","coordinates":[-84.02039,41.0149]}},{"properties":{"city":"ALVADA","category":"Macro Cell","post code":"44802","county":"SENECA","site name":"OH ARCADIA EAST","country":"USA","oldlat":"41 05 06.96","newlong":-83.40340833,"street":"2610 SOUTH US 23","oldlon":"-83 24 12.27","id":"abus72p8ym0x","newlat":41.08526667,"state":"OH"},"type":"Feature","geometry":{"type":"Point","coordinates":[-83.40340833,41.08526667]}},{"properties":{"city":"ATTICA","category":"Macro Cell","post code":"44807","county":"SENECA","site name":"OH ATTICA","country":"USA","oldlat":"41 03 16","newlong":-82.86055556,"street":"16048 E US ROUTE 224","oldlon":"-82 51 38","id":"abus72ofhigy","newlat":41.05444444,"state":"OH"},"type":"Feature","geometry":{"type":"Point","coordinates":[-82.86055556,41.05444444]}},{"properties":{"city":"TIFFIN","category":"Macro Cell","post code":"44883","county":"SENECA","site name":"OH BASCOM - DEWALD FARM","country":"USA","oldlat":"41.12321111","newlong":-83.28998889,"street":"0 CR 7","oldlon":"-83.28998889","id":"abus72ppf6co","newlat":41.12321111,"state":"OH"},"type":"Feature","geometry":{"type":"Point","coordinates":[-83.28998889,41.12321111]}},{"properties":{"city":"BETTSVILLE","category":"Macro Cell","post code":"44815","county":"SENECA","site name":"OH BETTSVILLE - VILLAGE COMPLEX","country":"USA","oldlat":"41.24211111","newlong":-83.23411111,"street":"308 EMMA ST","oldlon":"-83.23411111","id":"abus72v01sea","newlat":41.24211111,"state":"OH"},"type":"Feature","geometry":{"type":"Point","coordinates":[-83.23411111,41.24211111]}},{"properties":{"city":"LOUDON TOWNSHIP","category":"Macro Cell","post code":"44830","county":"SENECA","site name":"OH FOSTORIA EAST","country":"USA","oldlat":"41.15333333","newlong":-83.39908889,"street":"294 BOSTON AVE","oldlon":"-83.39908889","id":"abus72xbpwae","newlat":41.15333333,"state":"OH"},"type":"Feature","geometry":{"type":"Point","coordinates":[-83.39908889,41.15333333]}},{"properties":{"city":"GREEN SPRINGS","category":"Macro Cell","post code":"44836","county":"SENECA","site name":"OH GREEN SPRINGS","country":"USA","oldlat":"41 14 31","newlong":-83.06416667,"street":"5498 COUNTY ROAD 34","oldlon":"-83 03 51","id":"abus72xgb1s3","newlat":41.24194444,"state":"OH"},"type":"Feature","geometry":{"type":"Point","coordinates":[-83.06416667,41.24194444]}},{"properties":{"city":"REPUBLIC","category":"Macro Cell","post code":"44867","county":"SENECA","site name":"OH REPUBLIC","country":"USA","oldlat":"41 06 33","newlong":-83.02583333,"street":"7450 EAST TOWNSHIP ROAD 8","oldlon":"-83 01 33","id":"abus72wozayl","newlat":41.10916667,"state":"OH"},"type":"Feature","geometry":{"type":"Point","coordinates":[-83.02583333,41.10916667]}},{"properties":{"city":"TIFFIN","category":"Macro Cell","post code":"44883","county":"SENECA","site name":"OH TIFFIN","country":"USA","oldlat":"41 09 20","newlong":-83.18944444,"street":"3136 N COUNTY ROAD #135 (3136","oldlon":"-83 11 22","id":"abus72sxfq8k","newlat":41.15555556,"state":"OH"},"type":"Feature","geometry":{"type":"Point","coordinates":[-83.18944444,41.15555556]}},{"properties":{"city":"TIFFIN","category":"Macro Cell","post code":"44883","county":"SENECA","site name":"OH TIFFIN DOWNTOWN","country":"USA","oldlat":"41 07 11.9","newlong":-83.17641667,"street":"28 HARRISON ST (CERTIFIED)","oldlon":"-83 10 35.1","id":"abus72rd6hca","newlat":41.11997222,"state":"OH"},"type":"Feature","geometry":{"type":"Point","coordinates":[-83.17641667,41.11997222]}},{"properties":{"city":"TIFFIN","category":"Macro Cell","post code":"44883","county":"SENECA","site name":"OH TIFFIN NORTHEAST","country":"USA","oldlat":"41.13855833","newlong":-83.128325,"street":"2130 E TR 122","oldlon":"-83.128325","id":"abus72qingu7","newlat":41.13855833,"state":"OH"},"type":"Feature","geometry":{"type":"Point","coordinates":[-83.128325,41.13855833]}},{"properties":{"city":"TIFFIN","category":"Macro Cell","post code":"44883","county":"SENECA","site name":"OH TIFFIN SOUTH","country":"USA","oldlat":"41 05 16.9","newlong":-83.17986111,"street":"260 W US ROUTE 224","oldlon":"-83 10 47.5","id":"abus72wngs61","newlat":41.08802778,"state":"OH"},"type":"Feature","geometry":{"type":"Point","coordinates":[-83.17986111,41.08802778]}},{"properties":{"city":"FORT LORAMIE","category":"Macro Cell","post code":"45845","county":"SHELBY","site name":"OH COUNTRY CONCERT COW","country":"USA","oldlat":"40-18-03","newlong":-84.36861111,"street":"7103 SR 66","oldlon":"-84-22-7","id":"abus72i533c3","newlat":40.30083333,"state":"OH"},"type":"Feature","geometry":{"type":"Point","coordinates":[-84.36861111,40.30083333]}},{"properties":{"city":"SIDNEY","category":"Macro Cell","post code":"45365","county":"SHELBY","site name":"OH DOWNTOWN SIDNEY","country":"USA","oldlat":"40-16-58.584","newlong":-84.16089983,"street":"223-V S WALNUT AVE","oldlon":"-84 09 39.2394","id":"abus72lug0c3","newlat":40.28294,"state":"OH"},"type":"Feature","geometry":{"type":"Point","coordinates":[-84.16089983,40.28294]}},{"properties":{"city":"JACKSON CENTER","category":"Macro Cell","post code":"45334","county":"SHELBY","site name":"OH JACKSON CENTER","country":"USA","oldlat":"40.44711111","newlong":-84.04094444,"street":"16971 STATE ROUTE 65","oldlon":"-84.04094444","id":"abus72s88ak7","newlat":40.44711111,"state":"OH"},"type":"Feature","geometry":{"type":"Point","coordinates":[-84.04094444,40.44711111]}},{"properties":{"city":"SIDNEY","category":"Macro Cell","post code":"45365","county":"SHELBY","site name":"OH SIDNEY","country":"USA","oldlat":"40 20 13","newlong":-84.13055556,"street":"9380 SIDNEY-FRYBURG RD","oldlon":"-84 07 50","id":"abus72mo5tub","newlat":40.33694444,"state":"OH"},"type":"Feature","geometry":{"type":"Point","coordinates":[-84.13055556,40.33694444]}},{"properties":{"city":"SIDNEY","category":"Macro Cell","post code":"45365","county":"SHELBY","site name":"OH SOUTH SIDNEY","country":"USA","oldlat":"40 16 01","newlong":-84.19194444,"street":"2388 W MILLCREEK RD","oldlon":"-84 11 31","id":"abus72ub3if1","newlat":40.26694444,"state":"OH"},"type":"Feature","geometry":{"type":"Point","coordinates":[-84.19194444,40.26694444]}},{"properties":{"city":"BOTKINS","category":"Macro Cell","post code":"45306","county":"SHELBY","site name":"OH VADER","country":"USA","oldlat":"40 26 07.19","newlong":-84.17332778,"street":"13500 STATE ROUTE 274, STE C","oldlon":"-84 10 23.98","id":"abus72ou2dek","newlat":40.43533056,"state":"OH"},"type":"Feature","geometry":{"type":"Point","coordinates":[-84.17332778,40.43533056]}},{"properties":{"city":"MARYSVILLE","category":"Macro Cell","post code":"43040","county":"UNION","site name":"OH BRIDGEPORT","country":"USA","oldlat":"40 08 39","newlong":-83.38083333,"street":"9871 STATE ROUTE 38","oldlon":"-83 22 51","id":"abus72ncppbp","newlat":40.14416667,"state":"OH"},"type":"Feature","geometry":{"type":"Point","coordinates":[-83.38083333,40.14416667]}},{"properties":{"city":"RICHWOOD","category":"Macro Cell","post code":"43344","county":"UNION","site name":"OH BYHALIA","country":"USA","oldlat":"40 26 40","newlong":-83.45333333,"street":"30725 STATE ROUTE 739","oldlon":"-83 27 12","id":"abus72jt97da","newlat":40.44444444,"state":"OH"},"type":"Feature","geometry":{"type":"Point","coordinates":[-83.45333333,40.44444444]}},{"properties":{"city":"MARYSVILLE","category":"Macro Cell","post code":"43040","county":"UNION","site name":"OH DOWNTOWN MARYSVILLE","country":"USA","oldlat":"40 15 35","newlong":-83.375,"street":"17823 STATE ROUTE 31","oldlon":"-83 22 30","id":"abus72vacqpk","newlat":40.25972222,"state":"OH"},"type":"Feature","geometry":{"type":"Point","coordinates":[-83.375,40.25972222]}},{"properties":{"city":"MARYSVILLE","category":"Macro Cell","post code":"43040","county":"UNION","site name":"OH E_RAYMOND__STYLER","country":"USA","oldlat":"40.34547778","newlong":-83.45595556,"street":"20970 HOOVER BAULT RD","oldlon":"-83.45595556","id":"abus72sjnz7q","newlat":40.34547778,"state":"OH"},"type":"Feature","geometry":{"type":"Point","coordinates":[-83.45595556,40.34547778]}},{"properties":{"city":"MARYSVILLE","category":"Macro Cell","post code":"43040","county":"UNION","site name":"OH MARYSVILLE","country":"USA","oldlat":"40 16 06","newlong":-83.465,"street":"18700 POLING RD","oldlon":"-83 27 54","id":"abus72iccw00","newlat":40.26833333,"state":"OH"},"type":"Feature","geometry":{"type":"Point","coordinates":[-83.465,40.26833333]}},{"properties":{"city":"MARYSVILLE","category":"Macro Cell","post code":"43040","county":"UNION","site name":"OH MARYSVILLE WEST","country":"USA","oldlat":"40.22768889","newlong":-83.39889722,"street":"18743 COLLINS ROAD","oldlon":"-83.39889722","id":"abus72sum3yj","newlat":40.22768889,"state":"OH"},"type":"Feature","geometry":{"type":"Point","coordinates":[-83.39889722,40.22768889]}},{"properties":{"city":"MARYSVILLE","category":"Macro Cell","post code":"43040","county":"UNION","site name":"OH MILL CREEK","country":"USA","oldlat":"40 11 48","newlong":-83.27694444,"street":"12741 ADELSBERGER RD","oldlon":"-83 16 37","id":"abus72ivpaxi","newlat":40.19666667,"state":"OH"},"type":"Feature","geometry":{"type":"Point","coordinates":[-83.27694444,40.19666667]}},{"properties":{"city":"MARYSVILLE","category":"Macro Cell","post code":"43040","county":"UNION","site name":"OH PARIS TOWNSHIP","country":"USA","oldlat":"40 14 10.92","newlong":-83.34956667,"street":"1011 DELAWARE AVE","oldlon":"-83 20 58.44","id":"abus72tkrtjh","newlat":40.23636667,"state":"OH"},"type":"Feature","geometry":{"type":"Point","coordinates":[-83.34956667,40.23636667]}},{"properties":{"city":"MARYSVILLE","category":"Macro Cell","post code":"43040","county":"UNION","site name":"OH POTTERSBURG","country":"USA","oldlat":"40-16-23.70","newlong":-83.5108,"street":"24155 HONDA PKWY","oldlon":"-83 30 38.88","id":"abus72jqamrq","newlat":40.27325,"state":"OH"},"type":"Feature","geometry":{"type":"Point","coordinates":[-83.5108,40.27325]}},{"properties":{"city":"RICHWOOD","category":"Macro Cell","post code":"43344","county":"UNION","site name":"OH RICHWOOD OHIO","country":"USA","oldlat":"40 25 53","newlong":-83.29583333,"street":"252 NORTH FRANKLIN ST","oldlon":"-83 17 45","id":"abus72k4zxwn","newlat":40.43138889,"state":"OH"},"type":"Feature","geometry":{"type":"Point","coordinates":[-83.29583333,40.43138889]}},{"properties":{"city":"CONVOY","category":"Macro Cell","post code":"45832","county":"VAN WERT","site name":"OH CONVOY","country":"USA","oldlat":"40 55 54.04","newlong":-84.71469722,"street":"5617 MENTZER RD","oldlon":"-84 42 52.91","id":"abus72q85z37","newlat":40.93167778,"state":"OH"},"type":"Feature","geometry":{"type":"Point","coordinates":[-84.71469722,40.93167778]}},{"properties":{"city":"DELPHOS","category":"Macro Cell","post code":"45833","county":"VAN WERT","site name":"OH DELPHOS DOWNTOWN","country":"USA","oldlat":"40.85861111","newlong":-84.34083333,"street":"24998 POHLMAN RD","oldlon":"-84.34083333","id":"abus72lnbv7b","newlat":40.85861111,"state":"OH"},"type":"Feature","geometry":{"type":"Point","coordinates":[-84.34083333,40.85861111]}},{"properties":{"city":"MIDDLE POINT","category":"Macro Cell","post code":"45863","county":"VAN WERT","site name":"OH MIDDLE POINT","country":"USA","oldlat":"40 52 18","newlong":-84.45222222,"street":"19184 LINCOLN HWY","oldlon":"-84 27 08","id":"abus72oxtnq4","newlat":40.87166667,"state":"OH"},"type":"Feature","geometry":{"type":"Point","coordinates":[-84.45222222,40.87166667]}},{"properties":{"city":"OHIO CITY","category":"Macro Cell","post code":"45874","county":"VAN WERT","site name":"OH OHIO CITY","country":"USA","oldlat":"40 46 36","newlong":-84.62833333,"street":"15633-A LIBERTY UNION RD","oldlon":"-84 37 42","id":"abus72vlqc1r","newlat":40.77666667,"state":"OH"},"type":"Feature","geometry":{"type":"Point","coordinates":[-84.62833333,40.77666667]}},{"properties":{"city":"VAN WERT","category":"Macro Cell","post code":"45891","county":"VAN WERT","site name":"OH VAN WERT","country":"USA","oldlat":"40 53 16","newlong":-84.61,"street":"1198 JOHN BROWN RD","oldlon":"-84 36 36","id":"abus72m6nw8o","newlat":40.88777778,"state":"OH"},"type":"Feature","geometry":{"type":"Point","coordinates":[-84.61,40.88777778]}},{"properties":{"city":"VAN WERT","category":"Macro Cell","post code":"45891","county":"VAN WERT","site name":"OH VAN WERT II","country":"USA","oldlat":"40 50 58.8","newlong":-84.54813889,"street":"14235 STATE ROUTE 116","oldlon":"-84 32 53.3","id":"abus72v128wp","newlat":40.84966667,"state":"OH"},"type":"Feature","geometry":{"type":"Point","coordinates":[-84.54813889,40.84966667]}},{"properties":{"city":"WILLSHIRE","category":"Macro Cell","post code":"45898","county":"VAN WERT","site name":"OH WILLSHIRE","country":"USA","oldlat":"40 44 44.46","newlong":-84.7606,"street":"3275 ROUTE 81","oldlon":"-84 45 38.16","id":"abus72n8wr1u","newlat":40.74568333,"state":"OH"},"type":"Feature","geometry":{"type":"Point","coordinates":[-84.7606,40.74568333]}},{"properties":{"city":"BLANCHESTER","category":"Macro Cell","post code":"45107","county":"WARREN","site name":"OH BLANCHESTER","country":"USA","oldlat":"39 17 25","newlong":-84.00416667,"street":"10990 STATE ROUTE 28","oldlon":"-84 00 15","id":"abus72u4e0t0","newlat":39.29027778,"state":"OH"},"type":"Feature","geometry":{"type":"Point","coordinates":[-84.00416667,39.29027778]}},{"properties":{"city":"WAYNESVILLE","category":"Macro Cell","post code":"45068","county":"WARREN","site name":"OH CAESAR CREEK","country":"USA","oldlat":"39 30 49","newlong":-84.06611111,"street":"5638 NORTH CLARKSVILLE ROAD","oldlon":"-84 03 58","id":"abus72mv0r1g","newlat":39.51361111,"state":"OH"},"type":"Feature","geometry":{"type":"Point","coordinates":[-84.06611111,39.51361111]}},{"properties":{"city":"SPRINGBORO","category":"Macro Cell","post code":"45066","county":"WARREN","site name":"OH FIVE POINTS_GOLF","country":"USA","oldlat":"39.56125","newlong":-84.21993333,"street":"8302 COUNTRY CLUB LN","oldlon":"-84.21993333","id":"abus72knrr86","newlat":39.56125,"state":"OH"},"type":"Feature","geometry":{"type":"Point","coordinates":[-84.21993333,39.56125]}},{"properties":{"city":"FRANKLIN","category":"Macro Cell","post code":"45005","county":"WARREN","site name":"OH FRANKLIN","country":"USA","oldlat":"39 31 35","newlong":-84.28027778,"street":"5781 NORTH STATE ROUTE 123","oldlon":"-84 16 49","id":"abus72vnxgho","newlat":39.52638889,"state":"OH"},"type":"Feature","geometry":{"type":"Point","coordinates":[-84.28027778,39.52638889]}},{"properties":{"city":"MASON","category":"Macro Cell","post code":"45040","county":"WARREN","site name":"OH KINGS ISLAND","country":"USA","oldlat":"39 19 33","newlong":-84.27222222,"street":"2501 WESTERN ROW RD","oldlon":"-84 16 20","id":"abus72hz5gr3","newlat":39.32583333,"state":"OH"},"type":"Feature","geometry":{"type":"Point","coordinates":[-84.27222222,39.32583333]}},{"properties":{"city":"LEBANON","category":"Macro Cell","post code":"45036","county":"WARREN","site name":"OH LEBANON","country":"USA","oldlat":"39 24 09","newlong":-84.17472222,"street":"1790 WOOD RD","oldlon":"-84 10 29","id":"abus72ighixj","newlat":39.4025,"state":"OH"},"type":"Feature","geometry":{"type":"Point","coordinates":[-84.17472222,39.4025]}},{"properties":{"city":"MAINEVILLE","category":"Macro Cell","post code":"45039","county":"WARREN","site name":"OH MAINEVILLE","country":"USA","oldlat":"39 19 15","newlong":-84.21944444,"street":"7796 SOUTH STATE ROUTE 48","oldlon":"-84 13 10","id":"abus72vc08ic","newlat":39.32083333,"state":"OH"},"type":"Feature","geometry":{"type":"Point","coordinates":[-84.21944444,39.32083333]}},{"properties":{"city":"MORROW","category":"Macro Cell","post code":"45152","county":"WARREN","site name":"OH MORROW","country":"USA","oldlat":"39 20 03","newlong":-84.12555556,"street":"6600B WOODVILLE RD","oldlon":"-84 07 32","id":"abus72seqjh0","newlat":39.33416667,"state":"OH"},"type":"Feature","geometry":{"type":"Point","coordinates":[-84.12555556,39.33416667]}},{"properties":{"city":"LOVELAND","category":"Macro Cell","post code":"45140","county":"WARREN","site name":"OH MURDOCK","country":"USA","oldlat":"39 16 22","newlong":-84.19083333,"street":"10607 DALLASBURG RD","oldlon":"-84 11 27","id":"abus72iqtkbb","newlat":39.27277778,"state":"OH"},"type":"Feature","geometry":{"type":"Point","coordinates":[-84.19083333,39.27277778]}},{"properties":{"city":"LEBANON","category":"Macro Cell","post code":"45036","county":"WARREN","site name":"OH RED LION","country":"USA","oldlat":"39-29-22.61","newlong":-84.24804444,"street":"2425 STATE ROUTE 122","oldlon":"-84 14 52.96","id":"abus72k5ivhh","newlat":39.48961389,"state":"OH"},"type":"Feature","geometry":{"type":"Point","coordinates":[-84.24804444,39.48961389]}},{"properties":{"city":"MASON","category":"Macro Cell","post code":"45036","county":"WARREN","site name":"OH SOUTH LEBANON","country":"USA","oldlat":null,"newlong":null,"street":"3472 SOUTH LEBANON RD","oldlon":null,"id":"abus72r6xcya","newlat":null,"state":"OH"},"type":"Feature","geometry":null},{"properties":{"city":"MIDDLETOWN","category":"Macro Cell","post code":"45044","county":"WARREN","site name":"OH TURTLE CREEK","country":"USA","oldlat":"39 28 06","newlong":-84.32694444,"street":"1501 GREENTREE RD","oldlon":"-84 19 37","id":"abus72mj5tgx","newlat":39.46833333,"state":"OH"},"type":"Feature","geometry":{"type":"Point","coordinates":[-84.32694444,39.46833333]}},{"properties":{"city":"OREGONIA","category":"Macro Cell","post code":"45054","county":"WARREN","site name":"OH WASHINGTON TOWNSHIP (CNCN)","country":"USA","oldlat":"39 25 41","newlong":-84.08472222,"street":"6371 WILMINGTON RD","oldlon":"-84 05 05","id":"abus72w34lj1","newlat":39.42805556,"state":"OH"},"type":"Feature","geometry":{"type":"Point","coordinates":[-84.08472222,39.42805556]}},{"properties":{"city":"WAYNESVILLE","category":"Macro Cell","post code":"45068","county":"WARREN","site name":"OH WAYNESVILLE","country":"USA","oldlat":"39 32 45","newlong":-84.11,"street":"4336 E STATE ROUTE 73","oldlon":"-84 06 36","id":"abus72javf9y","newlat":39.54583333,"state":"OH"},"type":"Feature","geometry":{"type":"Point","coordinates":[-84.11,39.54583333]}},{"properties":{"city":"BRIDGEWATER","category":"Macro Cell","post code":"43543","county":"WILLIAMS","site name":"OH BRIDGEWATER","country":"USA","oldlat":"41 37 21.49","newlong":-84.66920833,"street":"COUNTY ROAD 8 &amp; COUNTY ROAD N3","oldlon":"-84 40 09.15","id":"abus72oar5b5","newlat":41.62263611,"state":"OH"},"type":"Feature","geometry":{"type":"Point","coordinates":[-84.66920833,41.62263611]}},{"properties":{"city":"BRYAN","category":"Macro Cell","post code":"43506","county":"WILLIAMS","site name":"OH BRYAN","country":"USA","oldlat":"41 29 47.84","newlong":-84.55647222,"street":"05815 STATE ROUTE 15","oldlon":"-84 33 23.30","id":"abus72llnsl6","newlat":41.49662222,"state":"OH"},"type":"Feature","geometry":{"type":"Point","coordinates":[-84.55647222,41.49662222]}},{"properties":{"city":"BRYAN","category":"Macro Cell","post code":"43506","county":"WILLIAMS","site name":"OH BRYAN [ALLTEL]","country":"USA","oldlat":"41 32 17.6","newlong":-84.554,"street":"8686 ST RT 15","oldlon":"-84 33 14.4","id":"abus72poj83e","newlat":41.53822222,"state":"OH"},"type":"Feature","geometry":{"type":"Point","coordinates":[-84.554,41.53822222]}},{"properties":{"city":"BRYAN","category":"Macro Cell","post code":"43506","county":"WILLIAMS","site name":"OH DOWNTOWN BRYAN [ALLTEL]","country":"USA","oldlat":"41 28 49","newlong":-84.55444444,"street":"320 PAIGE ST","oldlon":"-84 33 16","id":"abus72u5ghco","newlat":41.48027778,"state":"OH"},"type":"Feature","geometry":{"type":"Point","coordinates":[-84.55444444,41.48027778]}},{"properties":{"city":"EDGERTON","category":"Macro Cell","post code":"43517","county":"WILLIAMS","site name":"OH EDGERTON [ALLTEL]","country":"USA","oldlat":"41 26 31","newlong":-84.71444444,"street":"1803 CR 6 (PER TELCO - 5761 CO","oldlon":"-84 42 52","id":"abus72pd6ydf","newlat":41.44194444,"state":"OH"},"type":"Feature","geometry":{"type":"Point","coordinates":[-84.71444444,41.44194444]}},{"properties":{"city":"EDON","category":"Macro Cell","post code":"43518","county":"WILLIAMS","site name":"OH EDON - WOODVILLE LOT 37","country":"USA","oldlat":"41.55296389","newlong":-84.76208889,"street":"510 WOODVILLE ST","oldlon":"-84.76208889","id":"abus72lqd1zs","newlat":41.55296389,"state":"OH"},"type":"Feature","geometry":{"type":"Point","coordinates":[-84.76208889,41.55296389]}},{"properties":{"city":"MONTPELIER","category":"Macro Cell","post code":"43543","county":"WILLIAMS","site name":"OH MONTPELIER [ALLTEL]","country":"USA","oldlat":"41 36 51","newlong":-84.63277778,"street":"13843 CO RD 10","oldlon":"-84 37 58","id":"abus72paicgn","newlat":41.61416667,"state":"OH"},"type":"Feature","geometry":{"type":"Point","coordinates":[-84.63277778,41.61416667]}},{"properties":{"city":"PIONEER","category":"Macro Cell","post code":"43554","county":"WILLIAMS","site name":"OH PIONEER [ALLTEL]","country":"USA","oldlat":"41 40 20.8806","newlong":-84.555025,"street":"508 SOUTH STATE ST","oldlon":"-84 33 18.09","id":"abus72m5mh87","newlat":41.67246683,"state":"OH"},"type":"Feature","geometry":{"type":"Point","coordinates":[-84.555025,41.67246683]}},{"properties":{"city":"EDON","category":"Macro Cell","post code":"43518","county":"WILLIAMS","site name":"OH PRINCE - OHIO TURNP - KELLOGG","country":"USA","oldlat":"41.63577778","newlong":-84.78316667,"street":"2173 US HIGHWAY 20","oldlon":"-84.78316667","id":"abus72xpwtds","newlat":41.63577778,"state":"OH"},"type":"Feature","geometry":{"type":"Point","coordinates":[-84.78316667,41.63577778]}},{"properties":{"city":"STRYKER","category":"Macro Cell","post code":"43557","county":"WILLIAMS","site name":"OH STRYKER","country":"USA","oldlat":"41 30 51.14","newlong":-84.45621944,"street":"19123 COUNTY ROAD G","oldlon":"-84 27 22.39","id":"abus72iy2ji7","newlat":41.51420556,"state":"OH"},"type":"Feature","geometry":{"type":"Point","coordinates":[-84.45621944,41.51420556]}},{"properties":{"city":"STRYKER","category":"Macro Cell","post code":"43557","county":"WILLIAMS","site name":"OH STRYKER [ALLTEL]","country":"USA","oldlat":"41 30 42","newlong":-84.41833333,"street":"204 ELLIS ST","oldlon":"-84 25 6","id":"abus72nnmfi5","newlat":41.51166667,"state":"OH"},"type":"Feature","geometry":{"type":"Point","coordinates":[-84.41833333,41.51166667]}},{"properties":{"city":"MONTPELIER","category":"Macro Cell","post code":"43543","county":"WILLIAMS","site name":"OH WEST JEFFERSON TOLD","country":"USA","oldlat":"41-36-28.34","newlong":-84.56036389,"street":"13952 COUNTY ROAD M50","oldlon":"-84-33-37.31","id":"abus72pgo5br","newlat":41.60787222,"state":"OH"},"type":"Feature","geometry":{"type":"Point","coordinates":[-84.56036389,41.60787222]}},{"properties":{"city":"WEST UNITY","category":"Macro Cell","post code":"43570","county":"WILLIAMS","site name":"OH WEST UNITY","country":"USA","oldlat":"41 36 08.65","newlong":-84.42452778,"street":"20777 COUNTY ROAD M","oldlon":"-84 25 28.30","id":"abus72hxf632","newlat":41.60240278,"state":"OH"},"type":"Feature","geometry":{"type":"Point","coordinates":[-84.42452778,41.60240278]}},{"properties":{"city":"WEST UNITY","category":"Macro Cell","post code":"43570","county":"WILLIAMS","site name":"OH WEST UNITY [ALLTEL]","country":"USA","oldlat":"41 36 8","newlong":-84.40611111,"street":"21625 CO. RD M","oldlon":"-84 24 22","id":"abus72hzsnr9","newlat":41.60222222,"state":"OH"},"type":"Feature","geometry":{"type":"Point","coordinates":[-84.40611111,41.60222222]}},{"properties":{"city":"BOWLING GREEN","category":"Macro Cell","post code":"43402","county":"WOOD","site name":"OH BGSU","country":"USA","oldlat":"41.37361111","newlong":-83.61461111,"street":"EXIT 181 WOOSTER RD &amp; I-75","oldlon":"-83.61461111","id":"abus72ldy8zd","newlat":41.37361111,"state":"OH"},"type":"Feature","geometry":{"type":"Point","coordinates":[-83.61461111,41.37361111]}},{"properties":{"city":"BOWLING GREEN","category":"Macro Cell","post code":"43402","county":"WOOD","site name":"OH BOWLING GREEN [ALLTEL]","country":"USA","oldlat":"41 20 58.1","newlong":-83.60408333,"street":"10653 LINWOOD RD","oldlon":"-83 36 14.7","id":"abus72m3fwkh","newlat":41.34947222,"state":"OH"},"type":"Feature","geometry":{"type":"Point","coordinates":[-83.60408333,41.34947222]}},{"properties":{"city":"BOWLING GREEN","category":"Macro Cell","post code":"43402","county":"WOOD","site name":"OH BOWLING GREEN DOWNTOWN","country":"USA","oldlat":"41 22 43","newlong":-83.64416667,"street":"515 RIDGE ST","oldlon":"-83 38 39","id":"abus72ifyo1z","newlat":41.37861111,"state":"OH"},"type":"Feature","geometry":{"type":"Point","coordinates":[-83.64416667,41.37861111]}},{"properties":{"city":"BOWLING GREEN","category":"Macro Cell","post code":"43403","county":"WOOD","site name":"OH BOWLING GREEN DOWNTOWN [ALLTEL]","country":"USA","oldlat":"41.371667","newlong":-83.6415,"street":"247 TROUP ST","oldlon":"-83.6415","id":"abus72i6n8j1","newlat":41.371667,"state":"OH"},"type":"Feature","geometry":{"type":"Point","coordinates":[-83.6415,41.371667]}},{"properties":{"city":"BOWLING GREEN","category":"Macro Cell","post code":"43402","county":"WOOD","site name":"OH BOWLING GREEN DT II","country":"USA","oldlat":"41 22 18","newlong":-83.64138889,"street":"245 TROUP AVE","oldlon":"-83 38 29","id":"abus72m60tv9","newlat":41.37166667,"state":"OH"},"type":"Feature","geometry":{"type":"Point","coordinates":[-83.64138889,41.37166667]}},{"properties":{"city":"PEMBERVILLE","category":"Macro Cell","post code":"43450","county":"WOOD","site name":"OH BOWLING GREEN EAST","country":"USA","oldlat":"41 21 24","newlong":-83.51833333,"street":"6160 LINWOOD RD","oldlon":"-83 31 06","id":"abus72rf6jk5","newlat":41.35666667,"state":"OH"},"type":"Feature","geometry":{"type":"Point","coordinates":[-83.51833333,41.35666667]}},{"properties":{"city":"BOWLING GREEN","category":"Macro Cell","post code":"43402","county":"WOOD","site name":"OH BOWLING GREEN NORTH","country":"USA","oldlat":"41 26 16","newlong":-83.63583333,"street":"12400 CROSS CREEK RD","oldlon":"-83 38 09","id":"abus72jlog8f","newlat":41.43777778,"state":"OH"},"type":"Feature","geometry":{"type":"Point","coordinates":[-83.63583333,41.43777778]}},{"properties":{"city":"RUDOLPH","category":"Macro Cell","post code":"43462","county":"WOOD","site name":"OH BOWLING GREEN SOUTH","country":"USA","oldlat":"41 18 17","newlong":-83.69,"street":"10130 MITCHELL RD","oldlon":"-83 41 24","id":"abus72xqinfx","newlat":41.30472222,"state":"OH"},"type":"Feature","geometry":{"type":"Point","coordinates":[-83.69,41.30472222]}},{"properties":{"city":"BOWLING GREEN","category":"Macro Cell","post code":"43402","county":"WOOD","site name":"OH BOWLING GREEN WEST","country":"USA","oldlat":"41 22 24","newlong":-83.80416667,"street":"20892 BOWLING GREEN RD W","oldlon":"-83 48 15","id":"abus72wulfla","newlat":41.37333333,"state":"OH"},"type":"Feature","geometry":{"type":"Point","coordinates":[-83.80416667,41.37333333]}},{"properties":{"city":"BRADNER","category":"Macro Cell","post code":"43406","county":"WOOD","site name":"OH BRADNER [ALLTEL]","country":"USA","oldlat":"41 19 37","newlong":-83.43527778,"street":"236A CALDWELL RD","oldlon":"-83 26 07","id":"abus72t5ycx3","newlat":41.32694444,"state":"OH"},"type":"Feature","geometry":{"type":"Point","coordinates":[-83.43527778,41.32694444]}},{"properties":{"city":"CYGNET","category":"Macro Cell","post code":"43413","county":"WOOD","site name":"OH CYGNET [ALLTEL]","country":"USA","oldlat":"41 14 54","newlong":-83.65916667,"street":"6489 S. DIXIE HWY","oldlon":"-83 39 33","id":"abus72hhed38","newlat":41.24833333,"state":"OH"},"type":"Feature","geometry":{"type":"Point","coordinates":[-83.65916667,41.24833333]}},{"properties":{"city":"DUNBRIDGE","category":"Macro Cell","post code":"43402","county":"WOOD","site name":"OH DUNBRIDGE [ALLTEL]","country":"USA","oldlat":"41 28 52","newlong":-83.62277778,"street":"11776 DOWLING RD","oldlon":"-83 37 22","id":"abus72klx72u","newlat":41.48111111,"state":"OH"},"type":"Feature","geometry":{"type":"Point","coordinates":[-83.62277778,41.48111111]}},{"properties":{"city":"FOSTORIA","category":"Macro Cell","post code":"44830","county":"WOOD","site name":"OH FOSTORIA","country":"USA","oldlat":"41 10 25","newlong":-83.42388889,"street":"1239 PERRYSBURG RD","oldlon":"-83 25 26","id":"abus72x2vare","newlat":41.17361111,"state":"OH"},"type":"Feature","geometry":{"type":"Point","coordinates":[-83.42388889,41.17361111]}},{"properties":{"city":"BOWLING GREEN","category":"Macro Cell","post code":"43402","county":"WOOD","site name":"OH HASKINS [ALLTEL]","country":"USA","oldlat":"41.45961111","newlong":-83.74278056,"street":"17748 MIDDLETON PIKE (PER TELC","oldlon":"-83.74278056","id":"abus72tzhrue","newlat":41.45961111,"state":"OH"},"type":"Feature","geometry":{"type":"Point","coordinates":[-83.74278056,41.45961111]}},{"properties":{"city":"MILLBURY","category":"Macro Cell","post code":"43447","county":"WOOD","site name":"OH I-280 &amp; 795","country":"USA","oldlat":"41-34-17.1","newlong":-83.45897222,"street":"3201 AYERS RD","oldlon":"-83-27-32.3","id":"abus72u3r6j7","newlat":41.57141667,"state":"OH"},"type":"Feature","geometry":{"type":"Point","coordinates":[-83.45897222,41.57141667]}},{"properties":{"city":"PERRYSBURG","category":"Macro Cell","post code":"43551","county":"WOOD","site name":"OH I-475 &amp; SR-25","country":"USA","oldlat":"40 43 44.5","newlong":-84.14252778,"street":"25851 FORT MEIGS RD","oldlon":"-84 08 33.1","id":"abus72r5o67z","newlat":40.72902778,"state":"OH"},"type":"Feature","geometry":{"type":"Point","coordinates":[-84.14252778,40.72902778]}},{"properties":{"city":"WALBRIDGE","category":"Macro Cell","post code":"43465","county":"WOOD","site name":"OH LATCHIE [ALLTEL]","country":"USA","oldlat":"41 31 58","newlong":-83.48194444,"street":"26174 CUMMINGS RD","oldlon":"-83 28 55","id":"abus72s30zwe","newlat":41.53277778,"state":"OH"},"type":"Feature","geometry":{"type":"Point","coordinates":[-83.48194444,41.53277778]}},{"properties":{"city":"PERRYSBURG","category":"Macro Cell","post code":"43551","county":"WOOD","site name":"OH LUCKEY [ALLTEL]","country":"USA","oldlat":"41 28 34.08","newlong":-83.47778611,"street":"22339 LEMOYNE RD","oldlon":"-83 28 40.03","id":"abus72u6z0tl","newlat":41.47613333,"state":"OH"},"type":"Feature","geometry":{"type":"Point","coordinates":[-83.47778611,41.47613333]}},{"properties":{"city":"NORTH BALTIMORE","category":"Macro Cell","post code":"44839","county":"WOOD","site name":"OH NORTH BALTIMORE","country":"USA","oldlat":"41 10 04","newlong":-83.64888889,"street":"1188 S DIXIE RD","oldlon":"-83 38 56","id":"abus72r5d37k","newlat":41.16777778,"state":"OH"},"type":"Feature","geometry":{"type":"Point","coordinates":[-83.64888889,41.16777778]}},{"properties":{"city":"NORTHWOOD","category":"Macro Cell","post code":"43619","county":"WOOD","site name":"OH NORTHWOOD","country":"USA","oldlat":"41 36 10","newlong":-83.45638889,"street":"3035 EAST PLAZA DR","oldlon":"-83 27 23","id":"abus72k4aqqu","newlat":41.60277778,"state":"OH"},"type":"Feature","geometry":{"type":"Point","coordinates":[-83.45638889,41.60277778]}},{"properties":{"city":"NORTHWOOD","category":"Macro Cell","post code":"43619","county":"WOOD","site name":"OH NORTHWOOD [ALLTEL]","country":"USA","oldlat":"41-35-15","newlong":-83.52222222,"street":"6425 WALBRIDGE RD","oldlon":"-83-31-20","id":"abus72lqdjgh","newlat":41.5875,"state":"OH"},"type":"Feature","geometry":{"type":"Point","coordinates":[-83.52222222,41.5875]}},{"properties":{"city":"FREEDOM TWP","category":"Macro Cell","post code":"43450","county":"WOOD","site name":"OH PEMBERVILLE","country":"USA","oldlat":"41.386225","newlong":-83.41671944,"street":"16095 STATE ROUTE 23","oldlon":"-83.41671944","id":"abus72sm9urt","newlat":41.386225,"state":"OH"},"type":"Feature","geometry":{"type":"Point","coordinates":[-83.41671944,41.386225]}},{"properties":{"city":"PERRYSBURG","category":"Macro Cell","post code":"43551","county":"WOOD","site name":"OH PERRYSBURG [ALLTEL]","country":"USA","oldlat":"41.52488889","newlong":-83.658,"street":"25651 FORT MEIGS RD","oldlon":"-83.658","id":"abus72t7t4ms","newlat":41.52488889,"state":"OH"},"type":"Feature","geometry":{"type":"Point","coordinates":[-83.658,41.52488889]}},{"properties":{"city":"PERRYSBURG","category":"Macro Cell","post code":"43551","county":"WOOD","site name":"OH PERRYSBURG II","country":"USA","oldlat":"41 32 10","newlong":-83.60083333,"street":"10701 ECKEL JUNCTION RD","oldlon":"-83 36 03","id":"abus72pthrdu","newlat":41.53611111,"state":"OH"},"type":"Feature","geometry":{"type":"Point","coordinates":[-83.60083333,41.53611111]}},{"properties":{"city":"BOWLING GREEN","category":"Macro Cell","post code":"43402","county":"WOOD","site name":"OH PORTAGE NORTH","country":"USA","oldlat":"41-20-47.76","newlong":-83.63676944,"street":"13323 KLOPFENSTEIN RD","oldlon":"-83-38-12.37","id":"abus72ovqzm1","newlat":41.3466,"state":"OH"},"type":"Feature","geometry":{"type":"Point","coordinates":[-83.63676944,41.3466]}},{"properties":{"city":"BOWLING GREEN","category":"Macro Cell","post code":"43402","county":"WOOD","site name":"OH QUAIL HOLLOW","country":"USA","oldlat":"41 22 20.39","newlong":-83.68398611,"street":"14720 BOWLING GREEN RD W","oldlon":"-83 41 02.35","id":"abus72jzvbjf","newlat":41.37233056,"state":"OH"},"type":"Feature","geometry":{"type":"Point","coordinates":[-83.68398611,41.37233056]}},{"properties":{"city":"RISINGSUN","category":"Macro Cell","post code":"43457","county":"WOOD","site name":"OH RISINGSUN","country":"USA","oldlat":"41.28283333","newlong":-83.42826667,"street":"1483 GIRTON RD","oldlon":"-83.42826667","id":"abus72jg1h9z","newlat":41.28283333,"state":"OH"},"type":"Feature","geometry":{"type":"Point","coordinates":[-83.42826667,41.28283333]}},{"properties":{"city":"ROSSFORD","category":"Macro Cell","post code":"43460","county":"WOOD","site name":"OH ROSSFORD","country":"USA","oldlat":"41 35 09","newlong":-83.55833333,"street":"910 GLENWOOD RD","oldlon":"-83 33 30","id":"abus72ohdrk9","newlat":41.58583333,"state":"OH"},"type":"Feature","geometry":{"type":"Point","coordinates":[-83.55833333,41.58583333]}},{"properties":{"city":"BOWLING GREEN","category":"Macro Cell","post code":"43402","county":"WOOD","site name":"OH TONTOGANY [ALLTEL]","country":"USA","oldlat":"41 24 03","newlong":-83.68888889,"street":"17008 MITCHELL RD","oldlon":"-83 41 20","id":"abus72wca7y0","newlat":41.40083333,"state":"OH"},"type":"Feature","geometry":{"type":"Point","coordinates":[-83.68888889,41.40083333]}},{"properties":{"city":"PERRYSBURG","category":"Macro Cell","post code":"43551","county":"WOOD","site name":"OH WALBRIDGE","country":"USA","oldlat":"41 30 34","newlong":-83.46444444,"street":"3652 TRUMAN RD","oldlon":"-83 27 52","id":"abus72qer465","newlat":41.50944444,"state":"OH"},"type":"Feature","geometry":{"type":"Point","coordinates":[-83.46444444,41.50944444]}},{"properties":{"city":"CAREY","category":"Macro Cell","post code":"43316","county":"WYANDOT","site name":"OH CAREY","country":"USA","oldlat":"40 56 05","newlong":-83.38277778,"street":"3842A PATTERSON ST (CR-97)","oldlon":"-83 22 58","id":"abus72nm7ujp","newlat":40.93472222,"state":"OH"},"type":"Feature","geometry":{"type":"Point","coordinates":[-83.38277778,40.93472222]}},{"properties":{"city":"FOREST","category":"Macro Cell","post code":"45843","county":"WYANDOT","site name":"OH FOREST - SEARFOSS","country":"USA","oldlat":"40.82400833","newlong":-83.47862778,"street":"11651 COUNTY HIGHWAY 81","oldlon":"-83.47862778","id":"abus72wr7vcc","newlat":40.82400833,"state":"OH"},"type":"Feature","geometry":{"type":"Point","coordinates":[-83.47862778,40.82400833]}},{"properties":{"city":"PITT TWP","category":"Macro Cell","post code":"43351","county":"WYANDOT","site name":"OH HARPSTER NORTH - - AT&amp;T","country":"USA","oldlat":"40.76245412","newlong":-83.22855451,"street":"6768 COUNTY HIGHWAY 61","oldlon":"-83.22855451","id":"abus72mni5hp","newlat":40.76245412,"state":"OH"},"type":"Feature","geometry":{"type":"Point","coordinates":[-83.22855451,40.76245412]}},{"properties":{"city":"MARSEILLES","category":"Macro Cell","post code":"43351","county":"WYANDOT","site name":"OH MARSEILLES - WEAVER","country":"USA","oldlat":"40.70425556","newlong":-83.40013056,"street":"19561 COUNTY HIGHWAY 96","oldlon":"-83.40013056","id":"abus72pwfgjo","newlat":40.70425556,"state":"OH"},"type":"Feature","geometry":{"type":"Point","coordinates":[-83.40013056,40.70425556]}},{"properties":{"city":"SYCAMORE","category":"Macro Cell","post code":"44882","county":"WYANDOT","site name":"OH SYCAMORE - SIPE","country":"USA","oldlat":"40.99986667","newlong":-83.18918056,"street":"3896 STATE HIGHWAY 103","oldlon":"-83.18918056","id":"abus72sazq3l","newlat":40.99986667,"state":"OH"},"type":"Feature","geometry":{"type":"Point","coordinates":[-83.18918056,40.99986667]}},{"properties":{"city":"UPPER SANDUSKY","category":"Macro Cell","post code":"43351","county":"WYANDOT","site name":"OH UPPER SANDUSKY","country":"USA","oldlat":"40 50 44","newlong":-83.27583333,"street":"280 INDIAN MILL DR","oldlon":"-83 16 33","id":"abus72iviz1v","newlat":40.84555556,"state":"OH"},"type":"Feature","geometry":{"type":"Point","coordinates":[-83.27583333,40.84555556]}},{"properties":{"city":"RIVERSIDER","category":"Macro Cell","post code":"45431","county":null,"site name":"OH WRIGHT","country":"USA","oldlat":"39-45-59.16","newlong":-84.12020833,"street":"180 WOODMAN DR","oldlon":"-84-7-12.75","id":"abus72sxqb3l","newlat":39.76643333,"state":"OH"},"type":"Feature","geometry":{"type":"Point","coordinates":[-84.12020833,39.76643333]}},{"properties":{"city":"AT&amp;T: AUSTINT","category":"Macro Cell","post code":"330-792","county":"OH","site name":"PI FOUR MILE RUN","country":"MAHONING","oldlat":"ATTPOHAR","newlong":null,"street":"162 S RACCOON RD","oldlon":"41.09839167","id":"abus72w451if","newlat":null,"state":"YOUNGSTOWN"},"type":"Feature","geometry":null},{"properties":{"city":null,"category":"Macro Cell","post code":null,"county":null,"site name":"CH SOUTH ADDISON","country":"USA","oldlat":"41-54-31.3","newlong":null,"street":"ADDRESS  NOT OBTAINED YET","oldlon":"-87-58-16.6","id":"abus72m9auji","newlat":null,"state":null},"type":"Feature","geometry":null},{"properties":{"city":"ALBANY","category":"Macro Cell","post code":"56037","county":"STEARNS","site name":"GP ALBANY","country":"USA","oldlat":"45-36-55","newlong":null,"street":"401 14TH ST","oldlon":"-94-32-42","id":"abus72r9kuh7","newlat":null,"state":null},"type":"Feature","geometry":null},{"properties":{"city":null,"category":"Macro Cell","post code":null,"county":null,"site name":"GP ATWATER","country":"USA","oldlat":"45-09-47.00","newlong":null,"street":null,"oldlon":"-94-47-11","id":"abus72u3800x","newlat":null,"state":null},"type":"Feature","geometry":null},{"properties":{"city":null,"category":"Macro Cell","post code":null,"county":null,"site name":"GP BLOOMINGP","country":"USA","oldlat":"43-54-46.30","newlong":null,"street":null,"oldlon":"-93-04-28.00","id":"abus72qm5gem","newlat":null,"state":null},"type":"Feature","geometry":null},{"properties":{"city":null,"category":"Macro Cell","post code":null,"county":null,"site name":"GP CHARLES CITY RAGBRAI","country":"USA","oldlat":"43 3 30.834","newlong":null,"street":null,"oldlon":"-92 39 43.74","id":"abus72ju04mt","newlat":null,"state":null},"type":"Feature","geometry":null},{"properties":{"city":null,"category":"Macro Cell","post code":null,"county":null,"site name":"GP CLEAR LAKE RAGBRAI","country":"USA","oldlat":"43 8 30.6276","newlong":null,"street":null,"oldlon":"-93 21 43.4664","id":"abus72wwdll6","newlat":null,"state":null},"type":"Feature","geometry":null},{"properties":{"city":null,"category":"Macro Cell","post code":null,"county":null,"site name":"GP COUNTRY CLUB","country":"USA","oldlat":"44-11-07.00","newlong":null,"street":null,"oldlon":"-93-58-24","id":"abus72ijpylf","newlat":null,"state":null},"type":"Feature","geometry":null},{"properties":{"city":null,"category":"Macro Cell","post code":null,"county":null,"site name":"GP EXETER REPEATER","country":"USA","oldlat":"40 38 43.35","newlong":null,"street":null,"oldlon":"-97 26 52.73","id":"abus72lma6iv","newlat":null,"state":null},"type":"Feature","geometry":null},{"properties":{"city":null,"category":"Macro Cell","post code":null,"county":null,"site name":"GP FAIRFAX-RCC(DIVESTED)","country":"USA","oldlat":"44-29-56.13","newlong":null,"street":null,"oldlon":"-94-44-56.12","id":"abus72rmc1ie","newlat":null,"state":null},"type":"Feature","geometry":null},{"properties":{"city":null,"category":"Macro Cell","post code":null,"county":null,"site name":"GP FARIBAULT DT","country":"USA","oldlat":"44-16-52.87","newlong":null,"street":null,"oldlon":"-93-15-39.28","id":"abus72ukgllt","newlat":null,"state":null},"type":"Feature","geometry":null},{"properties":{"city":null,"category":"Macro Cell","post code":null,"county":null,"site name":"GP GRETNA WATER TANK","country":null,"oldlat":null,"newlong":null,"street":"11221 S 204TH ST","oldlon":null,"id":"abus72suy6de","newlat":null,"state":null},"type":"Feature","geometry":null},{"properties":{"city":null,"category":"Macro Cell","post code":null,"county":null,"site name":"GP HARPO","country":"USA","oldlat":"45 07 20.70","newlong":null,"street":null,"oldlon":"-94 59 52.00","id":"abus72jik60y","newlat":null,"state":null},"type":"Feature","geometry":null},{"properties":{"city":null,"category":"Macro Cell","post code":null,"county":null,"site name":"GP HRBEK 1&amp;2 [TARGET FIELD]","country":"USA","oldlat":"44-58-55","newlong":null,"street":null,"oldlon":"-93-16-38","id":"abus72kbbnzj","newlat":null,"state":null},"type":"Feature","geometry":null},{"properties":{"city":null,"category":"Macro Cell","post code":null,"county":null,"site name":"GP HUTCHINSON NORTH","country":"USA","oldlat":"44-55-51.78","newlong":null,"street":null,"oldlon":"-94-20-55.87","id":"abus72mqkliv","newlat":null,"state":null},"type":"Feature","geometry":null},{"properties":{"city":null,"category":"Macro Cell","post code":null,"county":null,"site name":"GP JEFFERSON LAKE","country":"USA","oldlat":"44-17-21.30","newlong":null,"street":null,"oldlon":"-93-47-48.8","id":"abus72m1b3gf","newlat":null,"state":null},"type":"Feature","geometry":null},{"properties":{"city":null,"category":"Macro Cell","post code":null,"county":null,"site name":"GP KANDIYOHI-RCC","country":"USA","oldlat":"45-7-55","newlong":null,"street":null,"oldlon":"-94-55-22","id":"abus72vc082q","newlat":null,"state":null},"type":"Feature","geometry":null},{"properties":{"city":null,"category":"Macro Cell","post code":null,"county":null,"site name":"GP KELLOGG","country":null,"oldlat":null,"newlong":null,"street":"43 COUNTY ROAD 84","oldlon":null,"id":"abus72tq79ut","newlat":null,"state":null},"type":"Feature","geometry":null},{"properties":{"city":null,"category":"Macro Cell","post code":null,"county":null,"site name":"GP LITCHFIELD DT","country":"USA","oldlat":"45-8-40.9","newlong":null,"street":null,"oldlon":"-94-32-2.5","id":"abus72rc9us0","newlat":null,"state":null},"type":"Feature","geometry":null},{"properties":{"city":null,"category":"Macro Cell","post code":null,"county":null,"site name":"GP LUVERNE DIVESTED","country":"USA","oldlat":"43-43-7.87","newlong":null,"street":null,"oldlon":"-96-13-38.69","id":"abus72r9zasl","newlat":null,"state":null},"type":"Feature","geometry":null},{"properties":{"city":null,"category":"Macro Cell","post code":null,"county":null,"site name":"GP MADISON NORTH","country":"USA","oldlat":"45-1-22.81","newlong":null,"street":null,"oldlon":"-96-12-46.52","id":"abus72tvuifg","newlat":null,"state":null},"type":"Feature","geometry":null},{"properties":{"city":null,"category":"Macro Cell","post code":null,"county":null,"site name":"GP MANCHESTER RAGBRAI","country":"USA","oldlat":"42 30 6.4152","newlong":null,"street":null,"oldlon":"-91 27 0.54","id":"abus72j6fp0o","newlat":null,"state":null},"type":"Feature","geometry":null},{"properties":{"city":null,"category":"Macro Cell","post code":null,"county":null,"site name":"GP MARSHALL EAST","country":"USA","oldlat":"44-26-48.15","newlong":null,"street":null,"oldlon":"-95-46-33.96","id":"abus72mx3s3s","newlat":null,"state":null},"type":"Feature","geometry":null},{"properties":{"city":null,"category":"Macro Cell","post code":null,"county":null,"site name":"GP MINESTRONE","country":"USA","oldlat":"44 54 58.59","newlong":null,"street":null,"oldlon":"-95 25 17.05","id":"abus72hlv0d8","newlat":null,"state":null},"type":"Feature","geometry":null},{"properties":{"city":null,"category":"Macro Cell","post code":null,"county":null,"site name":"GP MINNEOTA","country":"USA","oldlat":"44-33-45","newlong":null,"street":null,"oldlon":"-95-59-37","id":"abus72xwj6z8","newlat":null,"state":null},"type":"Feature","geometry":null},{"properties":{"city":null,"category":"Macro Cell","post code":null,"county":null,"site name":"GP MORTON","country":"USA","oldlat":"44-34-21.07","newlong":null,"street":null,"oldlon":"-94-59-35.52","id":"abus72s72i4t","newlat":null,"state":null},"type":"Feature","geometry":null},{"properties":{"city":null,"category":"Macro Cell","post code":null,"county":null,"site name":"GP NORTHFIELD-RCC","country":"USA","oldlat":"44-27-35","newlong":null,"street":null,"oldlon":"-93-11-5","id":"abus72up0zr6","newlat":null,"state":null},"type":"Feature","geometry":null},{"properties":{"city":null,"category":"Macro Cell","post code":null,"county":null,"site name":"GP REDWOOD FALLS FAIR","country":"USA","oldlat":"44-32-42","newlong":null,"street":null,"oldlon":"-105.1","id":"abus72kowi4i","newlat":null,"state":null},"type":"Feature","geometry":null},{"properties":{"city":null,"category":"Macro Cell","post code":null,"county":null,"site name":"GP RENVILLE-RCC(DIVESTED)","country":"USA","oldlat":"44-47-32","newlong":null,"street":null,"oldlon":"-95-12-22","id":"abus72sn7x3j","newlat":null,"state":null},"type":"Feature","geometry":null},{"properties":{"city":null,"category":"Macro Cell","post code":null,"county":null,"site name":"GP ROCHERT","country":null,"oldlat":null,"newlong":null,"street":"35600 HIGHWAY 34","oldlon":null,"id":"abus72mdzf4w","newlat":null,"state":null},"type":"Feature","geometry":null},{"properties":{"city":null,"category":"Macro Cell","post code":null,"county":null,"site name":"GP STJAMES","country":"USA","oldlat":"43-58-48.7","newlong":null,"street":null,"oldlon":"-94-38-10.2","id":"abus72xjsxyc","newlat":null,"state":null},"type":"Feature","geometry":null},{"properties":{"city":null,"category":"Macro Cell","post code":null,"county":null,"site name":"GP THUNDERBOLT","country":null,"oldlat":null,"newlong":null,"street":"9210 FLYING CLOUD DR","oldlon":null,"id":"abus72wlhcnc","newlat":null,"state":null},"type":"Feature","geometry":null},{"properties":{"city":null,"category":"Macro Cell","post code":null,"county":null,"site name":"GP VESTA","country":"USA","oldlat":"44-29-58","newlong":null,"street":null,"oldlon":"-95-24-42","id":"abus72ty3ggm","newlat":null,"state":null},"type":"Feature","geometry":null},{"properties":{"city":null,"category":"Macro Cell","post code":null,"county":null,"site name":"GP WATERLOO RAGBRAI","country":"USA","oldlat":"42 26 51.072","newlong":null,"street":null,"oldlon":"-92 18 31.176","id":"abus72i8m0gb","newlat":null,"state":null},"type":"Feature","geometry":null},{"properties":{"city":null,"category":"Macro Cell","post code":null,"county":null,"site name":"GP WILLMAR DT","country":"USA","oldlat":"45-7-27.86","newlong":null,"street":null,"oldlon":"-95-3-9.03","id":"abus72l28b1z","newlat":null,"state":null},"type":"Feature","geometry":null},{"properties":{"city":null,"category":"Macro Cell","post code":null,"county":null,"site name":"KM BASSMASTER","country":"USA","oldlat":"37-05-50.55","newlong":null,"street":null,"oldlon":"-93-47-11.91","id":"abus72jru95b","newlat":null,"state":null},"type":"Feature","geometry":null},{"properties":{"city":null,"category":"Macro Cell","post code":null,"county":null,"site name":"KM EUGENE PCS","country":null,"oldlat":null,"newlong":null,"street":"RTE AA &amp; SPRING GARDEN RD","oldlon":null,"id":"abus72i7cz6m","newlat":null,"state":null},"type":"Feature","geometry":null},{"properties":{"city":null,"category":"Macro Cell","post code":null,"county":null,"site name":"KM PHILLIPSBERG","country":null,"oldlat":"37.58330556","newlong":null,"street":"13730 CATTAIL RD","oldlon":"-92.78497222","id":"abus72qffh3j","newlat":null,"state":null},"type":"Feature","geometry":null},{"properties":{"city":null,"category":"Macro Cell","post code":null,"county":null,"site name":"KM RAINBOW TOWERS","country":null,"oldlat":null,"newlong":null,"street":"3838 RAINBOW BLVD","oldlon":"-94-32-17.45","id":"abus72mq1gqz","newlat":null,"state":null},"type":"Feature","geometry":null},{"properties":{"city":null,"category":"Macro Cell","post code":null,"county":null,"site name":"KM UNIONVILLE","country":null,"oldlat":null,"newlong":null,"street":"RURAL ROUTE 3","oldlon":"-90-45-14","id":"abus72lpzt40","newlat":null,"state":null},"type":"Feature","geometry":null},{"properties":{"city":null,"category":"Macro Cell","post code":null,"county":null,"site name":"KM VALENCIA","country":null,"oldlat":null,"newlong":null,"street":"1046 SW VALENCIA RD","oldlon":"-95-6-36","id":"abus72kn7pug","newlat":null,"state":null},"type":"Feature","geometry":null},{"properties":{"city":null,"category":"Macro Cell","post code":null,"county":"NA","site name":"OH STRSBURG","country":"USA","oldlat":null,"newlong":null,"street":null,"oldlon":null,"id":"abus72v9xhv2","newlat":null,"state":null},"type":"Feature","geometry":null}],"is_temporal":false,"author":{"url":"","metadata":"","contact_name":"","contact_address":"","source":"","contact_phone":""},"source":"","pagination":{"sort":null,"start":0,"total":489,"limit":1000000},"state":"complete","tags":"","published":"2014-08-16T21:09:22-04:00","id":315926}