{"type":"FeatureCollection","data_type":"Dataset","url_type":null,"permissions":[{"permissions":{"download":true,"view":true},"group_id":"everyone"}],"classification":null,"title":"Vermont Population and Housing Units By ZIP Code (ZCTA) -2010","count":246,"stream_id":316061,"contributor":{"url":"http://geocommons.com/users/45691","name":"CalebChase"},"data_attributes":null,"calculation_params":null,"icon_link":null,"link":"http://geocommons.com/overlays/316061.json","extent":[-73.3514,42.7654,-71.5063,45.0084],"geometry_types":["point"],"unique_name":null,"name":"Vermont Population and Housing Units By ZIP Code (ZCTA) -2010","feature_count":246,"description":"Vermont Population and Housing Units By ZIP Code (ZCTA) -2010","next_feature":null,"is_raster":false,"short_classification":"Y","stats":{"latitude":{"max":45.008398,"variance":0.389596595713514,"mean":44.0192910934959,"stdev":0.624176734357757,"min":42.765401,"median":44.083457},"column_7":{"max":5907,"variance":84846.6663348266,"mean":5488.89430894309,"stdev":291.284510976513,"min":5001,"median":5482},"population - 2010":{"max":38940,"variance":17439704.6960013,"mean":2469.69105691057,"stdev":4176.08724717304,"min":48,"median":1098},"housing units- 2010":{"max":16417,"variance":3177797.86115812,"mean":1194.0081300813,"stdev":1782.63789400936,"min":19,"median":599},"longitude":{"max":-71.506286,"variance":0.166258116523616,"mean":-72.6468443780488,"stdev":0.407747613755882,"min":-73.351448,"median":-72.644939}},"features":[{"properties":{"latitude":43.662892,"population - 2010":9172,"column_7":5001,"zip code":"05001","housing units- 2010":4604,"town":"White River Junction","longitude":-72.368259,"id":"abv7odes551x","state":"VT"},"type":"Feature","geometry":{"type":"Point","coordinates":[-72.368259,43.662892]}},{"properties":{"latitude":43.735816,"population - 2010":98,"column_7":5031,"zip code":"05031","housing units- 2010":111,"town":"Barnard","longitude":-72.602606,"id":"abv7odjskhpp","state":"VT"},"type":"Feature","geometry":{"type":"Point","coordinates":[-72.602606,43.735816]}},{"properties":{"latitude":43.811958,"population - 2010":2682,"column_7":5032,"zip code":"05032","housing units- 2010":1361,"town":"Bethel","longitude":-72.644939,"id":"abv7od84c2zo","state":"VT"},"type":"Feature","geometry":{"type":"Point","coordinates":[-72.644939,43.811958]}},{"properties":{"latitude":43.994064,"population - 2010":2783,"column_7":5033,"zip code":"05033","housing units- 2010":1306,"town":"Bradford","longitude":-72.155344,"id":"abv7odfabhzr","state":"VT"},"type":"Feature","geometry":{"type":"Point","coordinates":[-72.155344,43.994064]}},{"properties":{"latitude":43.577762,"population - 2010":296,"column_7":5034,"zip code":"05034","housing units- 2010":162,"town":"Bridgewater","longitude":-72.617894,"id":"abv7odjkt5pa","state":"VT"},"type":"Feature","geometry":{"type":"Point","coordinates":[-72.617894,43.577762]}},{"properties":{"latitude":43.608849,"population - 2010":749,"column_7":5035,"zip code":"05035","housing units- 2010":473,"town":"Bridgewater Corners","longitude":-72.679908,"id":"abv7odjzga66","state":"VT"},"type":"Feature","geometry":{"type":"Point","coordinates":[-72.679908,43.608849]}},{"properties":{"latitude":44.02591,"population - 2010":1007,"column_7":5036,"zip code":"05036","housing units- 2010":509,"town":"Brookfield","longitude":-72.585029,"id":"abv7odb8hh3g","state":"VT"},"type":"Feature","geometry":{"type":"Point","coordinates":[-72.585029,44.02591]}},{"properties":{"latitude":43.461468,"population - 2010":397,"column_7":5037,"zip code":"05037","housing units- 2010":343,"town":"Brownsville","longitude":-72.48743,"id":"abv7od6rppqw","state":"VT"},"type":"Feature","geometry":{"type":"Point","coordinates":[-72.48743,43.461468]}},{"properties":{"latitude":43.989583,"population - 2010":1322,"column_7":5038,"zip code":"05038","housing units- 2010":695,"town":"Chelsea","longitude":-72.46276,"id":"abv7odag9obd","state":"VT"},"type":"Feature","geometry":{"type":"Point","coordinates":[-72.46276,43.989583]}},{"properties":{"latitude":44.026521,"population - 2010":1154,"column_7":5039,"zip code":"05039","housing units- 2010":569,"town":"Corinth","longitude":-72.293479,"id":"abv7odbw4q7e","state":"VT"},"type":"Feature","geometry":{"type":"Point","coordinates":[-72.293479,44.026521]}},{"properties":{"latitude":44.070771,"population - 2010":389,"column_7":5040,"zip code":"05040","housing units- 2010":178,"town":"East Corinth","longitude":-72.212753,"id":"abv7odcn2fjg","state":"VT"},"type":"Feature","geometry":{"type":"Point","coordinates":[-72.212753,44.070771]}},{"properties":{"latitude":43.966821,"population - 2010":188,"column_7":5041,"zip code":"05041","housing units- 2010":80,"town":"East Randolph","longitude":-72.547849,"id":"abv7odhltfp1","state":"VT"},"type":"Feature","geometry":{"type":"Point","coordinates":[-72.547849,43.966821]}},{"properties":{"latitude":44.213499,"population - 2010":633,"column_7":5042,"zip code":"05042","housing units- 2010":316,"town":"East Ryegate","longitude":-72.080378,"id":"abv7od6m9jad","state":"VT"},"type":"Feature","geometry":{"type":"Point","coordinates":[-72.080378,44.213499]}},{"properties":{"latitude":43.795686,"population - 2010":596,"column_7":5043,"zip code":"05043","housing units- 2010":258,"town":"East Thetford","longitude":-72.213257,"id":"abv7od4mhdyy","state":"VT"},"type":"Feature","geometry":{"type":"Point","coordinates":[-72.213257,43.795686]}},{"properties":{"latitude":43.919887,"population - 2010":1603,"column_7":5045,"zip code":"05045","housing units- 2010":914,"town":"Fairlee","longitude":-72.206559,"id":"abv7ode53qrz","state":"VT"},"type":"Feature","geometry":{"type":"Point","coordinates":[-72.206559,43.919887]}},{"properties":{"latitude":44.254302,"population - 2010":1192,"column_7":5046,"zip code":"05046","housing units- 2010":866,"town":"Groton","longitude":-72.226695,"id":"abv7odb5gt07","state":"VT"},"type":"Feature","geometry":{"type":"Point","coordinates":[-72.226695,44.254302]}},{"properties":{"latitude":43.566105,"population - 2010":1900,"column_7":5048,"zip code":"05048","housing units- 2010":786,"town":"Hartland","longitude":-72.399418,"id":"abv7oddwq59y","state":"VT"},"type":"Feature","geometry":{"type":"Point","coordinates":[-72.399418,43.566105]}},{"properties":{"latitude":44.075132,"population - 2010":544,"column_7":5050,"zip code":"05051","housing units- 2010":257,"town":"Mc Indoe Falls","longitude":-72.071745,"id":"abv7od6zzwgp","state":"VT"},"type":"Feature","geometry":{"type":"Point","coordinates":[-72.071745,44.075132]}},{"properties":{"latitude":43.598261,"population - 2010":246,"column_7":5051,"zip code":"05052","housing units- 2010":101,"town":"Newbury","longitude":-72.351009,"id":"abv7odclsmzm","state":"VT"},"type":"Feature","geometry":{"type":"Point","coordinates":[-72.351009,43.598261]}},{"properties":{"latitude":43.714887,"population - 2010":204,"column_7":5052,"zip code":"05053","housing units- 2010":88,"town":"North Hartland","longitude":-72.498862,"id":"abv7odj01luv","state":"VT"},"type":"Feature","geometry":{"type":"Point","coordinates":[-72.498862,43.714887]}},{"properties":{"latitude":43.852619,"population - 2010":196,"column_7":5053,"zip code":"05054","housing units- 2010":84,"town":"North Pomfret","longitude":-72.187984,"id":"abv7odh5dg3a","state":"VT"},"type":"Feature","geometry":{"type":"Point","coordinates":[-72.187984,43.852619]}},{"properties":{"latitude":43.735335,"population - 2010":3500,"column_7":5055,"zip code":"05055","housing units- 2010":1484,"town":"Norwich","longitude":-72.290867,"id":"abv7odftu0sx","state":"VT"},"type":"Feature","geometry":{"type":"Point","coordinates":[-72.290867,43.735335]}},{"properties":{"latitude":43.531612,"population - 2010":315,"column_7":5056,"zip code":"05056","housing units- 2010":498,"town":"Plymouth","longitude":-72.721795,"id":"abv7oddbe4h8","state":"VT"},"type":"Feature","geometry":{"type":"Point","coordinates":[-72.721795,43.531612]}},{"properties":{"latitude":43.884626,"population - 2010":78,"column_7":5058,"zip code":"05058","housing units- 2010":33,"town":"Post Mills","longitude":-72.26075,"id":"abv7oda4sfhx","state":"VT"},"type":"Feature","geometry":{"type":"Point","coordinates":[-72.26075,43.884626]}},{"properties":{"latitude":43.649153,"population - 2010":627,"column_7":5059,"zip code":"05059","housing units- 2010":632,"town":"Quechee","longitude":-72.429436,"id":"abv7od7g3tfl","state":"VT"},"type":"Feature","geometry":{"type":"Point","coordinates":[-72.429436,43.649153]}},{"properties":{"latitude":43.954353,"population - 2010":4576,"column_7":5060,"zip code":"05060","housing units- 2010":2038,"town":"Randolph","longitude":-72.669164,"id":"abv7oddbky02","state":"VT"},"type":"Feature","geometry":{"type":"Point","coordinates":[-72.669164,43.954353]}},{"properties":{"latitude":43.928369,"population - 2010":1552,"column_7":5061,"zip code":"05061","housing units- 2010":466,"town":"Randolph Center","longitude":-72.573107,"id":"abv7odbauxnp","state":"VT"},"type":"Feature","geometry":{"type":"Point","coordinates":[-72.573107,43.928369]}},{"properties":{"latitude":43.485715,"population - 2010":786,"column_7":5062,"zip code":"05062","housing units- 2010":424,"town":"Reading","longitude":-72.553603,"id":"abv7odgwr9w8","state":"VT"},"type":"Feature","geometry":{"type":"Point","coordinates":[-72.553603,43.485715]}},{"properties":{"latitude":43.775807,"population - 2010":1192,"column_7":5065,"zip code":"05065","housing units- 2010":561,"town":"Sharon","longitude":-72.423872,"id":"abv7oddtaeld","state":"VT"},"type":"Feature","geometry":{"type":"Point","coordinates":[-72.423872,43.775807]}},{"properties":{"latitude":43.687515,"population - 2010":213,"column_7":5067,"zip code":"05067","housing units- 2010":116,"town":"South Pomfret","longitude":-72.542727,"id":"abv7od7fei59","state":"VT"},"type":"Feature","geometry":{"type":"Point","coordinates":[-72.542727,43.687515]}},{"properties":{"latitude":43.808623,"population - 2010":2906,"column_7":5068,"zip code":"05068","housing units- 2010":1466,"town":"South Royalton","longitude":-72.532086,"id":"abv7odb9k8xk","state":"VT"},"type":"Feature","geometry":{"type":"Point","coordinates":[-72.532086,43.808623]}},{"properties":{"latitude":44.168111,"population - 2010":681,"column_7":5069,"zip code":"05069","housing units- 2010":381,"town":"South Ryegate","longitude":-72.142458,"id":"abv7oddy4nlq","state":"VT"},"type":"Feature","geometry":{"type":"Point","coordinates":[-72.142458,44.168111]}},{"properties":{"latitude":43.830375,"population - 2010":439,"column_7":5070,"zip code":"05070","housing units- 2010":213,"town":"South Strafford","longitude":-72.362282,"id":"abv7odd4ygx6","state":"VT"},"type":"Feature","geometry":{"type":"Point","coordinates":[-72.362282,43.830375]}},{"properties":{"latitude":43.568095,"population - 2010":456,"column_7":5071,"zip code":"05071","housing units- 2010":277,"town":"South Woodstock","longitude":-72.553277,"id":"abv7odiqzz10","state":"VT"},"type":"Feature","geometry":{"type":"Point","coordinates":[-72.553277,43.568095]}},{"properties":{"latitude":43.890244,"population - 2010":504,"column_7":5072,"zip code":"05072","housing units- 2010":275,"town":"Strafford","longitude":-72.39364,"id":"abv7od5vy1zu","state":"VT"},"type":"Feature","geometry":{"type":"Point","coordinates":[-72.39364,43.890244]}},{"properties":{"latitude":43.83178,"population - 2010":1487,"column_7":5075,"zip code":"05075","housing units- 2010":680,"town":"Thetford Center","longitude":-72.271259,"id":"abv7od4xolvd","state":"VT"},"type":"Feature","geometry":{"type":"Point","coordinates":[-72.271259,43.83178]}},{"properties":{"latitude":44.128666,"population - 2010":549,"column_7":5076,"zip code":"05076","housing units- 2010":318,"town":"Topsham","longitude":-72.234507,"id":"abv7od89x1ek","state":"VT"},"type":"Feature","geometry":{"type":"Point","coordinates":[-72.234507,44.128666]}},{"properties":{"latitude":43.897183,"population - 2010":1250,"column_7":5077,"zip code":"05077","housing units- 2010":652,"town":"Tunbridge","longitude":-72.484803,"id":"abv7odg41y98","state":"VT"},"type":"Feature","geometry":{"type":"Point","coordinates":[-72.484803,43.897183]}},{"properties":{"latitude":43.948258,"population - 2010":629,"column_7":5079,"zip code":"05079","housing units- 2010":379,"town":"Vershire","longitude":-72.320926,"id":"abv7od8d1k8x","state":"VT"},"type":"Feature","geometry":{"type":"Point","coordinates":[-72.320926,43.948258]}},{"properties":{"latitude":44.135828,"population - 2010":850,"column_7":5081,"zip code":"05081","housing units- 2010":563,"town":"Wells River","longitude":-72.090611,"id":"abv7odfug0ev","state":"VT"},"type":"Feature","geometry":{"type":"Point","coordinates":[-72.090611,44.135828]}},{"properties":{"latitude":43.910089,"population - 2010":230,"column_7":5083,"zip code":"05083","housing units- 2010":97,"town":"West Fairlee","longitude":-72.266378,"id":"abv7odf0iu9z","state":"VT"},"type":"Feature","geometry":{"type":"Point","coordinates":[-72.266378,43.910089]}},{"properties":{"latitude":43.720826,"population - 2010":126,"column_7":5084,"zip code":"05084","housing units- 2010":45,"town":"West Hartford","longitude":-72.433724,"id":"abv7od8ridcm","state":"VT"},"type":"Feature","geometry":{"type":"Point","coordinates":[-72.433724,43.720826]}},{"properties":{"latitude":44.116731,"population - 2010":807,"column_7":5086,"zip code":"05086","housing units- 2010":382,"town":"West Topsham","longitude":-72.319153,"id":"abv7odbsfg35","state":"VT"},"type":"Feature","geometry":{"type":"Point","coordinates":[-72.319153,44.116731]}},{"properties":{"latitude":43.676947,"population - 2010":777,"column_7":5089,"zip code":"05088","housing units- 2010":353,"town":"Windsor","longitude":-72.308201,"id":"abv7od686f0e","state":"VT"},"type":"Feature","geometry":{"type":"Point","coordinates":[-72.308201,43.676947]}},{"properties":{"latitude":43.486791,"population - 2010":5459,"column_7":5091,"zip code":"05089","housing units- 2010":2465,"town":"Woodstock","longitude":-72.426116,"id":"abv7odkbp3cr","state":"VT"},"type":"Feature","geometry":{"type":"Point","coordinates":[-72.426116,43.486791]}},{"properties":{"latitude":43.631076,"population - 2010":3342,"column_7":5101,"zip code":"05091","housing units- 2010":1821,"town":"Bellows Falls","longitude":-72.537393,"id":"abv7od87p7uy","state":"VT"},"type":"Feature","geometry":{"type":"Point","coordinates":[-72.537393,43.631076]}},{"properties":{"latitude":43.156451,"population - 2010":4997,"column_7":5141,"zip code":"05101","housing units- 2010":2245,"town":"Cambridgeport","longitude":-72.472904,"id":"abv7odkl0l86","state":"VT"},"type":"Feature","geometry":{"type":"Point","coordinates":[-72.472904,43.156451]}},{"properties":{"latitude":43.40422,"population - 2010":760,"column_7":5142,"zip code":"05142","housing units- 2010":436,"town":"Cavendish","longitude":-72.590485,"id":"abv7od5o56qz","state":"VT"},"type":"Feature","geometry":{"type":"Point","coordinates":[-72.590485,43.40422]}},{"properties":{"latitude":43.26449,"population - 2010":4605,"column_7":5143,"zip code":"05143","housing units- 2010":2542,"town":"Chester","longitude":-72.618314,"id":"abv7od4tutg2","state":"VT"},"type":"Feature","geometry":{"type":"Point","coordinates":[-72.618314,43.26449]}},{"properties":{"latitude":43.186044,"population - 2010":619,"column_7":5146,"zip code":"05146","housing units- 2010":411,"town":"Grafton","longitude":-72.616611,"id":"abv7od5i2k30","state":"VT"},"type":"Feature","geometry":{"type":"Point","coordinates":[-72.616611,43.186044]}},{"properties":{"latitude":43.238921,"population - 2010":792,"column_7":5148,"zip code":"05148","housing units- 2010":573,"town":"Londonderry","longitude":-72.801066,"id":"abv7odiv2hs9","state":"VT"},"type":"Feature","geometry":{"type":"Point","coordinates":[-72.801066,43.238921]}},{"properties":{"latitude":43.416827,"population - 2010":2668,"column_7":5149,"zip code":"05149","housing units- 2010":3259,"town":"Ludlow","longitude":-72.704165,"id":"abv7od83yye7","state":"VT"},"type":"Feature","geometry":{"type":"Point","coordinates":[-72.704165,43.416827]}},{"properties":{"latitude":43.334787,"population - 2010":861,"column_7":5150,"zip code":"05150","housing units- 2010":410,"town":"North Springfield","longitude":-72.530532,"id":"abv7odcbstcl","state":"VT"},"type":"Feature","geometry":{"type":"Point","coordinates":[-72.530532,43.334787]}},{"properties":{"latitude":43.380411,"population - 2010":1315,"column_7":5151,"zip code":"05151","housing units- 2010":619,"town":"Perkinsville","longitude":-72.493976,"id":"abv7odgek5hx","state":"VT"},"type":"Feature","geometry":{"type":"Point","coordinates":[-72.493976,43.380411]}},{"properties":{"latitude":43.24283,"population - 2010":574,"column_7":5152,"zip code":"05152","housing units- 2010":610,"town":"Peru","longitude":-72.88309,"id":"abv7odax04kl","state":"VT"},"type":"Feature","geometry":{"type":"Point","coordinates":[-72.88309,43.24283]}},{"properties":{"latitude":43.439302,"population - 2010":833,"column_7":5153,"zip code":"05153","housing units- 2010":516,"town":"Proctorsville","longitude":-72.637382,"id":"abv7odejfwnn","state":"VT"},"type":"Feature","geometry":{"type":"Point","coordinates":[-72.637382,43.439302]}},{"properties":{"latitude":43.139961,"population - 2010":365,"column_7":5154,"zip code":"05154","housing units- 2010":160,"town":"Saxtons River","longitude":-72.508443,"id":"abv7od5mf5cv","state":"VT"},"type":"Feature","geometry":{"type":"Point","coordinates":[-72.508443,43.139961]}},{"properties":{"latitude":43.158484,"population - 2010":1012,"column_7":5155,"zip code":"05155","housing units- 2010":1495,"town":"South Londonderry","longitude":-72.844971,"id":"abv7odkrl0sr","state":"VT"},"type":"Feature","geometry":{"type":"Point","coordinates":[-72.844971,43.158484]}},{"properties":{"latitude":43.300126,"population - 2010":8967,"column_7":5156,"zip code":"05156","housing units- 2010":4164,"town":"Springfield","longitude":-72.477677,"id":"abv7od4r2luk","state":"VT"},"type":"Feature","geometry":{"type":"Point","coordinates":[-72.477677,43.300126]}},{"properties":{"latitude":43.093695,"population - 2010":866,"column_7":5158,"zip code":"05158","housing units- 2010":364,"town":"Westminster","longitude":-72.450542,"id":"abv7od52z5ha","state":"VT"},"type":"Feature","geometry":{"type":"Point","coordinates":[-72.450542,43.093695]}},{"properties":{"latitude":43.303613,"population - 2010":630,"column_7":5161,"zip code":"05161","housing units- 2010":537,"town":"Weston","longitude":-72.791346,"id":"abv7odas5l12","state":"VT"},"type":"Feature","geometry":{"type":"Point","coordinates":[-72.791346,43.303613]}},{"properties":{"latitude":42.882231,"population - 2010":15829,"column_7":5201,"zip code":"05201","housing units- 2010":6952,"town":"Bennington","longitude":-73.178735,"id":"abv7od9tay0j","state":"VT"},"type":"Feature","geometry":{"type":"Point","coordinates":[-73.178735,42.882231]}},{"properties":{"latitude":43.106492,"population - 2010":3295,"column_7":5250,"zip code":"05250","housing units- 2010":1757,"town":"Arlington","longitude":-73.174051,"id":"abv7od9d5433","state":"VT"},"type":"Feature","geometry":{"type":"Point","coordinates":[-73.174051,43.106492]}},{"properties":{"latitude":43.266886,"population - 2010":1920,"column_7":5251,"zip code":"05251","housing units- 2010":1289,"town":"Dorset","longitude":-73.113083,"id":"abv7odfnpg9d","state":"VT"},"type":"Feature","geometry":{"type":"Point","coordinates":[-73.113083,43.266886]}},{"properties":{"latitude":43.065891,"population - 2010":312,"column_7":5252,"zip code":"05252","housing units- 2010":182,"town":"East Arlington","longitude":-73.078244,"id":"abv7odam2wh0","state":"VT"},"type":"Feature","geometry":{"type":"Point","coordinates":[-73.078244,43.065891]}},{"properties":{"latitude":43.243449,"population - 2010":544,"column_7":5253,"zip code":"05253","housing units- 2010":275,"town":"East Dorset","longitude":-73.007588,"id":"abv7odb93md2","state":"VT"},"type":"Feature","geometry":{"type":"Point","coordinates":[-73.007588,43.243449]}},{"properties":{"latitude":43.162074,"population - 2010":227,"column_7":5254,"zip code":"05254","housing units- 2010":243,"town":"Manchester","longitude":-73.071553,"id":"abv7odbwip8e","state":"VT"},"type":"Feature","geometry":{"type":"Point","coordinates":[-73.071553,43.162074]}},{"properties":{"latitude":43.172699,"population - 2010":3944,"column_7":5255,"zip code":"05255","housing units- 2010":2207,"town":"Manchester Center","longitude":-73.052611,"id":"abv7odkvjxp7","state":"VT"},"type":"Feature","geometry":{"type":"Point","coordinates":[-73.052611,43.172699]}},{"properties":{"latitude":42.936801,"population - 2010":2447,"column_7":5257,"zip code":"05257","housing units- 2010":893,"town":"North Bennington","longitude":-73.248388,"id":"abv7odgm45ci","state":"VT"},"type":"Feature","geometry":{"type":"Point","coordinates":[-73.248388,42.936801]}},{"properties":{"latitude":42.797636,"population - 2010":288,"column_7":5260,"zip code":"05260","housing units- 2010":104,"town":"North Pownal","longitude":-73.25716,"id":"abv7od9es384","state":"VT"},"type":"Feature","geometry":{"type":"Point","coordinates":[-73.25716,42.797636]}},{"properties":{"latitude":42.776384,"population - 2010":2456,"column_7":5261,"zip code":"05261","housing units- 2010":1106,"town":"Pownal","longitude":-73.213957,"id":"abv7od5mdlpn","state":"VT"},"type":"Feature","geometry":{"type":"Point","coordinates":[-73.213957,42.776384]}},{"properties":{"latitude":42.977018,"population - 2010":2571,"column_7":5262,"zip code":"05262","housing units- 2010":1096,"town":"Shaftsbury","longitude":-73.16602,"id":"abv7odi708bh","state":"VT"},"type":"Feature","geometry":{"type":"Point","coordinates":[-73.16602,42.977018]}},{"properties":{"latitude":42.849957,"population - 2010":16444,"column_7":5301,"zip code":"05301","housing units- 2010":7920,"town":"Brattleboro","longitude":-72.623285,"id":"abv7odj1prn5","state":"VT"},"type":"Feature","geometry":{"type":"Point","coordinates":[-72.623285,42.849957]}},{"properties":{"latitude":43.15601,"population - 2010":688,"column_7":5340,"zip code":"05340","housing units- 2010":1705,"town":"Bondville","longitude":-72.91347,"id":"abv7odbnhvve","state":"VT"},"type":"Feature","geometry":{"type":"Point","coordinates":[-72.91347,43.15601]}},{"properties":{"latitude":42.952754,"population - 2010":586,"column_7":5341,"zip code":"05341","housing units- 2010":482,"town":"East Dover","longitude":-72.796945,"id":"abv7odfq0j3e","state":"VT"},"type":"Feature","geometry":{"type":"Point","coordinates":[-72.796945,42.952754]}},{"properties":{"latitude":42.781648,"population - 2010":570,"column_7":5342,"zip code":"05342","housing units- 2010":369,"town":"Jacksonville","longitude":-72.806099,"id":"abv7od7v07bt","state":"VT"},"type":"Feature","geometry":{"type":"Point","coordinates":[-72.806099,42.781648]}},{"properties":{"latitude":43.103191,"population - 2010":893,"column_7":5343,"zip code":"05343","housing units- 2010":1165,"town":"Jamaica","longitude":-72.7925,"id":"abv7ode5gucu","state":"VT"},"type":"Feature","geometry":{"type":"Point","coordinates":[-72.7925,43.103191]}},{"properties":{"latitude":43.003271,"population - 2010":1704,"column_7":5345,"zip code":"05345","housing units- 2010":928,"town":"Newfane","longitude":-72.657773,"id":"abv7od5yg73v","state":"VT"},"type":"Feature","geometry":{"type":"Point","coordinates":[-72.657773,43.003271]}},{"properties":{"latitude":43.02419,"population - 2010":5213,"column_7":5346,"zip code":"05346","housing units- 2010":2244,"town":"Putney","longitude":-72.517255,"id":"abv7odafhj88","state":"VT"},"type":"Feature","geometry":{"type":"Point","coordinates":[-72.517255,43.02419]}},{"properties":{"latitude":42.779542,"population - 2010":809,"column_7":5350,"zip code":"05350","housing units- 2010":466,"town":"Readsboro","longitude":-72.961461,"id":"abv7od5cdaz5","state":"VT"},"type":"Feature","geometry":{"type":"Point","coordinates":[-72.961461,42.779542]}},{"properties":{"latitude":42.765401,"population - 2010":813,"column_7":5352,"zip code":"05352","housing units- 2010":382,"town":"Stamford","longitude":-73.060252,"id":"abv7od9xmetf","state":"VT"},"type":"Feature","geometry":{"type":"Point","coordinates":[-73.060252,42.765401]}},{"properties":{"latitude":43.04943,"population - 2010":998,"column_7":5353,"zip code":"05353","housing units- 2010":586,"town":"Townshend","longitude":-72.666431,"id":"abv7oddoolb5","state":"VT"},"type":"Feature","geometry":{"type":"Point","coordinates":[-72.666431,43.04943]}},{"properties":{"latitude":42.768143,"population - 2010":2133,"column_7":5354,"zip code":"05354","housing units- 2010":781,"town":"Vernon","longitude":-72.518357,"id":"abv7oda1ub0k","state":"VT"},"type":"Feature","geometry":{"type":"Point","coordinates":[-72.518357,42.768143]}},{"properties":{"latitude":43.034152,"population - 2010":704,"column_7":5355,"zip code":"05355","housing units- 2010":635,"town":"Wardsboro","longitude":-72.807481,"id":"abv7ode72sll","state":"VT"},"type":"Feature","geometry":{"type":"Point","coordinates":[-72.807481,43.034152]}},{"properties":{"latitude":42.952974,"population - 2010":824,"column_7":5356,"zip code":"05356","housing units- 2010":2267,"town":"West Dover","longitude":-72.872376,"id":"abv7odczhsl0","state":"VT"},"type":"Feature","geometry":{"type":"Point","coordinates":[-72.872376,42.952974]}},{"properties":{"latitude":42.77448,"population - 2010":153,"column_7":5358,"zip code":"05358","housing units- 2010":91,"town":"West Halifax","longitude":-72.717024,"id":"abv7odk4um5o","state":"VT"},"type":"Feature","geometry":{"type":"Point","coordinates":[-72.717024,42.77448]}},{"properties":{"latitude":43.149377,"population - 2010":418,"column_7":5359,"zip code":"05359","housing units- 2010":353,"town":"West Townshend","longitude":-72.72492,"id":"abv7odkdf5td","state":"VT"},"type":"Feature","geometry":{"type":"Point","coordinates":[-72.72492,43.149377]}},{"properties":{"latitude":43.028157,"population - 2010":244,"column_7":5360,"zip code":"05360","housing units- 2010":274,"town":"West Wardsboro","longitude":-72.879141,"id":"abv7od5l9ygf","state":"VT"},"type":"Feature","geometry":{"type":"Point","coordinates":[-72.879141,43.028157]}},{"properties":{"latitude":42.782281,"population - 2010":840,"column_7":5361,"zip code":"05361","housing units- 2010":531,"town":"Whitingham","longitude":-72.869623,"id":"abv7oddapx6h","state":"VT"},"type":"Feature","geometry":{"type":"Point","coordinates":[-72.869623,42.782281]}},{"properties":{"latitude":42.9445,"population - 2010":337,"column_7":5362,"zip code":"05362","housing units- 2010":215,"town":"Williamsville","longitude":-72.692224,"id":"abv7od5bigo8","state":"VT"},"type":"Feature","geometry":{"type":"Point","coordinates":[-72.692224,42.9445]}},{"properties":{"latitude":42.886921,"population - 2010":2263,"column_7":5363,"zip code":"05363","housing units- 2010":2253,"town":"Wilmington","longitude":-72.864572,"id":"abv7odisisjj","state":"VT"},"type":"Feature","geometry":{"type":"Point","coordinates":[-72.864572,42.886921]}},{"properties":{"latitude":44.484038,"population - 2010":38940,"column_7":5401,"zip code":"05401","housing units- 2010":16417,"town":"Burlington","longitude":-73.221265,"id":"abv7odju68bc","state":"VT"},"type":"Feature","geometry":{"type":"Point","coordinates":[-73.221265,44.484038]}},{"properties":{"latitude":44.451941,"population - 2010":15726,"column_7":5403,"zip code":"05403","housing units- 2010":6459,"town":"South Burlington","longitude":-73.179412,"id":"abv7odbhxgn8","state":"VT"},"type":"Feature","geometry":{"type":"Point","coordinates":[-73.179412,44.451941]}},{"properties":{"latitude":44.494999,"population - 2010":6561,"column_7":5404,"zip code":"05404","housing units- 2010":3015,"town":"Winooski","longitude":-73.182597,"id":"abv7oda990r5","state":"VT"},"type":"Feature","geometry":{"type":"Point","coordinates":[-73.182597,44.494999]}},{"properties":{"latitude":44.966836,"population - 2010":1952,"column_7":5440,"zip code":"05440","housing units- 2010":1259,"town":"Alburgh","longitude":-73.270287,"id":"abv7odhyvy3v","state":"VT"},"type":"Feature","geometry":{"type":"Point","coordinates":[-73.270287,44.966836]}},{"properties":{"latitude":44.772886,"population - 2010":469,"column_7":5441,"zip code":"05441","housing units- 2010":213,"town":"Bakersfield","longitude":-72.788546,"id":"abv7odalfhxw","state":"VT"},"type":"Feature","geometry":{"type":"Point","coordinates":[-72.788546,44.772886]}},{"properties":{"latitude":44.755398,"population - 2010":294,"column_7":5442,"zip code":"05442","housing units- 2010":194,"town":"Belvidere Center","longitude":-72.680296,"id":"abv7od4sfcv7","state":"VT"},"type":"Feature","geometry":{"type":"Point","coordinates":[-72.680296,44.755398]}},{"properties":{"latitude":44.129002,"population - 2010":6360,"column_7":5443,"zip code":"05443","housing units- 2010":2635,"town":"Bristol","longitude":-73.052585,"id":"abv7odgtn5ca","state":"VT"},"type":"Feature","geometry":{"type":"Point","coordinates":[-73.052585,44.129002]}},{"properties":{"latitude":44.645649,"population - 2010":1516,"column_7":5444,"zip code":"05444","housing units- 2010":569,"town":"Cambridge","longitude":-72.901518,"id":"abv7oda4xivd","state":"VT"},"type":"Feature","geometry":{"type":"Point","coordinates":[-72.901518,44.645649]}},{"properties":{"latitude":44.309241,"population - 2010":3569,"column_7":5445,"zip code":"05445","housing units- 2010":1500,"town":"Charlotte","longitude":-73.235041,"id":"abv7od5thhot","state":"VT"},"type":"Feature","geometry":{"type":"Point","coordinates":[-73.235041,44.309241]}},{"properties":{"latitude":44.541902,"population - 2010":17236,"column_7":5446,"zip code":"05446","housing units- 2010":6828,"town":"Colchester","longitude":-73.196595,"id":"abv7odg06e2z","state":"VT"},"type":"Feature","geometry":{"type":"Point","coordinates":[-73.196595,44.541902]}},{"properties":{"latitude":44.751801,"population - 2010":1430,"column_7":5448,"zip code":"05448","housing units- 2010":633,"town":"East Fairfield","longitude":-72.882471,"id":"abv7odf1vznz","state":"VT"},"type":"Feature","geometry":{"type":"Point","coordinates":[-72.882471,44.751801]}},{"properties":{"latitude":44.885689,"population - 2010":4949,"column_7":5450,"zip code":"05450","housing units- 2010":2037,"town":"Enosburg Falls","longitude":-72.789924,"id":"abv7od8z9quk","state":"VT"},"type":"Feature","geometry":{"type":"Point","coordinates":[-72.789924,44.885689]}},{"properties":{"latitude":44.501991,"population - 2010":18490,"column_7":5452,"zip code":"05452","housing units- 2010":7109,"town":"Essex Junction","longitude":-73.093768,"id":"abv7odklx1ln","state":"VT"},"type":"Feature","geometry":{"type":"Point","coordinates":[-73.093768,44.501991]}},{"properties":{"latitude":44.693805,"population - 2010":3978,"column_7":5454,"zip code":"05454","housing units- 2010":1317,"town":"Fairfax","longitude":-73.040994,"id":"abv7oddkqngt","state":"VT"},"type":"Feature","geometry":{"type":"Point","coordinates":[-73.040994,44.693805]}},{"properties":{"latitude":44.801734,"population - 2010":1071,"column_7":5455,"zip code":"05455","housing units- 2010":448,"town":"Fairfield","longitude":-72.962136,"id":"abv7odfffe94","state":"VT"},"type":"Feature","geometry":{"type":"Point","coordinates":[-72.962136,44.801734]}},{"properties":{"latitude":44.204926,"population - 2010":1279,"column_7":5456,"zip code":"05456","housing units- 2010":526,"town":"Ferrisburgh","longitude":-73.251434,"id":"abv7od66q046","state":"VT"},"type":"Feature","geometry":{"type":"Point","coordinates":[-73.251434,44.204926]}},{"properties":{"latitude":44.961552,"population - 2010":1567,"column_7":5457,"zip code":"05457","housing units- 2010":842,"town":"Franklin","longitude":-72.893518,"id":"abv7odev2y0k","state":"VT"},"type":"Feature","geometry":{"type":"Point","coordinates":[-72.893518,44.961552]}},{"properties":{"latitude":44.712593,"population - 2010":1995,"column_7":5458,"zip code":"05458","housing units- 2010":1066,"town":"Grand Isle","longitude":-73.305264,"id":"abv7od622xkw","state":"VT"},"type":"Feature","geometry":{"type":"Point","coordinates":[-73.305264,44.712593]}},{"properties":{"latitude":44.941617,"population - 2010":1952,"column_7":5459,"zip code":"05459","housing units- 2010":709,"town":"Highgate Center","longitude":-73.03056,"id":"abv7od5e61qc","state":"VT"},"type":"Feature","geometry":{"type":"Point","coordinates":[-73.03056,44.941617]}},{"properties":{"latitude":44.332217,"population - 2010":4415,"column_7":5461,"zip code":"05461","housing units- 2010":1721,"town":"Hinesburg","longitude":-73.092547,"id":"abv7od97ughe","state":"VT"},"type":"Feature","geometry":{"type":"Point","coordinates":[-73.092547,44.332217]}},{"properties":{"latitude":44.304004,"population - 2010":1873,"column_7":5462,"zip code":"05462","housing units- 2010":752,"town":"Huntington","longitude":-72.979994,"id":"abv7odi1dzvv","state":"VT"},"type":"Feature","geometry":{"type":"Point","coordinates":[-72.979994,44.304004]}},{"properties":{"latitude":44.866344,"population - 2010":488,"column_7":5463,"zip code":"05463","housing units- 2010":415,"town":"Isle La Motte","longitude":-73.330815,"id":"abv7od9jxjdk","state":"VT"},"type":"Feature","geometry":{"type":"Point","coordinates":[-73.330815,44.866344]}},{"properties":{"latitude":44.636283,"population - 2010":2385,"column_7":5464,"zip code":"05464","housing units- 2010":1034,"town":"Jeffersonville","longitude":-72.822579,"id":"abv7odf6nhpz","state":"VT"},"type":"Feature","geometry":{"type":"Point","coordinates":[-72.822579,44.636283]}},{"properties":{"latitude":44.486113,"population - 2010":5327,"column_7":5465,"zip code":"05465","housing units- 2010":1895,"town":"Jericho","longitude":-72.963173,"id":"abv7odeiurkp","state":"VT"},"type":"Feature","geometry":{"type":"Point","coordinates":[-72.963173,44.486113]}},{"properties":{"latitude":44.641974,"population - 2010":11268,"column_7":5468,"zip code":"05468","housing units- 2010":4097,"town":"Milton","longitude":-73.13469,"id":"abv7od9g7vc7","state":"VT"},"type":"Feature","geometry":{"type":"Point","coordinates":[-73.13469,44.641974]}},{"properties":{"latitude":44.874895,"population - 2010":684,"column_7":5471,"zip code":"05471","housing units- 2010":511,"town":"Montgomery Center","longitude":-72.587986,"id":"abv7odhmpbge","state":"VT"},"type":"Feature","geometry":{"type":"Point","coordinates":[-72.587986,44.874895]}},{"properties":{"latitude":44.121825,"population - 2010":1648,"column_7":5472,"zip code":"05472","housing units- 2010":642,"town":"New Haven","longitude":-73.166003,"id":"abv7od6cuv39","state":"VT"},"type":"Feature","geometry":{"type":"Point","coordinates":[-73.166003,44.121825]}},{"properties":{"latitude":44.255574,"population - 2010":1313,"column_7":5473,"zip code":"05473","housing units- 2010":653,"town":"North Ferrisburgh","longitude":-73.222534,"id":"abv7odab9oaz","state":"VT"},"type":"Feature","geometry":{"type":"Point","coordinates":[-73.222534,44.255574]}},{"properties":{"latitude":44.831101,"population - 2010":810,"column_7":5474,"zip code":"05474","housing units- 2010":906,"town":"North Hero","longitude":-73.273549,"id":"abv7odgvjuz6","state":"VT"},"type":"Feature","geometry":{"type":"Point","coordinates":[-73.273549,44.831101]}},{"properties":{"latitude":44.970417,"population - 2010":3219,"column_7":5476,"zip code":"05476","housing units- 2010":1397,"town":"Richford","longitude":-72.663168,"id":"abv7odbhlzlh","state":"VT"},"type":"Feature","geometry":{"type":"Point","coordinates":[-72.663168,44.970417]}},{"properties":{"latitude":44.392443,"population - 2010":4628,"column_7":5477,"zip code":"05477","housing units- 2010":1770,"town":"Richmond","longitude":-72.959368,"id":"abv7od9r8kcr","state":"VT"},"type":"Feature","geometry":{"type":"Point","coordinates":[-72.959368,44.392443]}},{"properties":{"latitude":44.807555,"population - 2010":14836,"column_7":5478,"zip code":"05478","housing units- 2010":6333,"town":"Saint Albans","longitude":-73.090778,"id":"abv7odb0mb46","state":"VT"},"type":"Feature","geometry":{"type":"Point","coordinates":[-73.090778,44.807555]}},{"properties":{"latitude":44.388556,"population - 2010":6981,"column_7":5482,"zip code":"05482","housing units- 2010":2761,"town":"Shelburne","longitude":-73.22318,"id":"abv7oddzzmt0","state":"VT"},"type":"Feature","geometry":{"type":"Point","coordinates":[-73.22318,44.388556]}},{"properties":{"latitude":44.884125,"population - 2010":1479,"column_7":5483,"zip code":"05483","housing units- 2010":551,"town":"Sheldon","longitude":-72.975101,"id":"abv7odibswbl","state":"VT"},"type":"Feature","geometry":{"type":"Point","coordinates":[-72.975101,44.884125]}},{"properties":{"latitude":44.645192,"population - 2010":1656,"column_7":5486,"zip code":"05486","housing units- 2010":1017,"town":"South Hero","longitude":-73.314528,"id":"abv7odd1my56","state":"VT"},"type":"Feature","geometry":{"type":"Point","coordinates":[-73.314528,44.645192]}},{"properties":{"latitude":44.224103,"population - 2010":1540,"column_7":5487,"zip code":"05487","housing units- 2010":615,"town":"Starksboro","longitude":-73.031646,"id":"abv7od4kj2h6","state":"VT"},"type":"Feature","geometry":{"type":"Point","coordinates":[-73.031646,44.224103]}},{"properties":{"latitude":44.930163,"population - 2010":7210,"column_7":5488,"zip code":"05488","housing units- 2010":3401,"town":"Swanton","longitude":-73.120996,"id":"abv7odcfdp47","state":"VT"},"type":"Feature","geometry":{"type":"Point","coordinates":[-73.120996,44.930163]}},{"properties":{"latitude":44.546538,"population - 2010":3166,"column_7":5489,"zip code":"05489","housing units- 2010":1157,"town":"Underhill","longitude":-72.926497,"id":"abv7od5q7ygk","state":"VT"},"type":"Feature","geometry":{"type":"Point","coordinates":[-72.926497,44.546538]}},{"properties":{"latitude":44.12753,"population - 2010":6079,"column_7":5491,"zip code":"05491","housing units- 2010":2688,"town":"Vergennes","longitude":-73.284379,"id":"abv7od6qwyuj","state":"VT"},"type":"Feature","geometry":{"type":"Point","coordinates":[-73.284379,44.12753]}},{"properties":{"latitude":44.708468,"population - 2010":725,"column_7":5492,"zip code":"05492","housing units- 2010":297,"town":"Waterville","longitude":-72.758501,"id":"abv7odeb7z5o","state":"VT"},"type":"Feature","geometry":{"type":"Point","coordinates":[-72.758501,44.708468]}},{"properties":{"latitude":44.608283,"population - 2010":1852,"column_7":5494,"zip code":"05494","housing units- 2010":665,"town":"Westford","longitude":-73.009794,"id":"abv7odfcmaj6","state":"VT"},"type":"Feature","geometry":{"type":"Point","coordinates":[-73.009794,44.608283]}},{"properties":{"latitude":44.44524,"population - 2010":8350,"column_7":5495,"zip code":"05495","housing units- 2010":3314,"town":"Williston","longitude":-73.099177,"id":"abv7od5fj1ax","state":"VT"},"type":"Feature","geometry":{"type":"Point","coordinates":[-73.099177,44.44524]}},{"properties":{"latitude":44.265633,"population - 2010":12223,"column_7":5602,"zip code":"05602","housing units- 2010":5665,"town":"Montpelier","longitude":-72.596865,"id":"abv7odk5rsv9","state":"VT"},"type":"Feature","geometry":{"type":"Point","coordinates":[-72.596865,44.265633]}},{"properties":{"latitude":44.354296,"population - 2010":48,"column_7":5640,"zip code":"05640","housing units- 2010":19,"town":"Adamant","longitude":-72.490535,"id":"abv7odh916o5","state":"VT"},"type":"Feature","geometry":{"type":"Point","coordinates":[-72.490535,44.354296]}},{"properties":{"latitude":44.194307,"population - 2010":17239,"column_7":5641,"zip code":"05641","housing units- 2010":7634,"town":"Barre","longitude":-72.494436,"id":"abv7odg6tfuq","state":"VT"},"type":"Feature","geometry":{"type":"Point","coordinates":[-72.494436,44.194307]}},{"properties":{"latitude":44.414576,"population - 2010":927,"column_7":5647,"zip code":"05647","housing units- 2010":503,"town":"Cabot","longitude":-72.286524,"id":"abv7od8mb0hn","state":"VT"},"type":"Feature","geometry":{"type":"Point","coordinates":[-72.286524,44.414576]}},{"properties":{"latitude":44.375726,"population - 2010":451,"column_7":5648,"zip code":"05648","housing units- 2010":235,"town":"Calais","longitude":-72.495096,"id":"abv7od7p3lq8","state":"VT"},"type":"Feature","geometry":{"type":"Point","coordinates":[-72.495096,44.375726]}},{"properties":{"latitude":44.152477,"population - 2010":269,"column_7":5649,"zip code":"05649","housing units- 2010":107,"town":"East Barre","longitude":-72.433286,"id":"abv7odi65wkz","state":"VT"},"type":"Feature","geometry":{"type":"Point","coordinates":[-72.433286,44.152477]}},{"properties":{"latitude":44.403899,"population - 2010":853,"column_7":5650,"zip code":"05650","housing units- 2010":571,"town":"East Calais","longitude":-72.443284,"id":"abv7odbbiwoz","state":"VT"},"type":"Feature","geometry":{"type":"Point","coordinates":[-72.443284,44.403899]}},{"properties":{"latitude":44.282269,"population - 2010":1469,"column_7":5651,"zip code":"05651","housing units- 2010":589,"town":"East Montpelier","longitude":-72.489839,"id":"abv7od9i2jp1","state":"VT"},"type":"Feature","geometry":{"type":"Point","coordinates":[-72.489839,44.282269]}},{"properties":{"latitude":44.715079,"population - 2010":702,"column_7":5652,"zip code":"05652","housing units- 2010":287,"town":"Eden","longitude":-72.571705,"id":"abv7odgjycp8","state":"VT"},"type":"Feature","geometry":{"type":"Point","coordinates":[-72.571705,44.715079]}},{"properties":{"latitude":44.711083,"population - 2010":450,"column_7":5653,"zip code":"05653","housing units- 2010":295,"town":"Eden Mills","longitude":-72.508466,"id":"abv7odie7sro","state":"VT"},"type":"Feature","geometry":{"type":"Point","coordinates":[-72.508466,44.711083]}},{"properties":{"latitude":44.140716,"population - 2010":1248,"column_7":5654,"zip code":"05654","housing units- 2010":521,"town":"Graniteville","longitude":-72.476757,"id":"abv7odjonjia","state":"VT"},"type":"Feature","geometry":{"type":"Point","coordinates":[-72.476757,44.140716]}},{"properties":{"latitude":44.610931,"population - 2010":2794,"column_7":5655,"zip code":"05655","housing units- 2010":1181,"town":"Hyde Park","longitude":-72.599717,"id":"abv7od6sktb0","state":"VT"},"type":"Feature","geometry":{"type":"Point","coordinates":[-72.599717,44.610931]}},{"properties":{"latitude":44.645219,"population - 2010":3306,"column_7":5656,"zip code":"05656","housing units- 2010":1278,"town":"Johnson","longitude":-72.679417,"id":"abv7od51z0kf","state":"VT"},"type":"Feature","geometry":{"type":"Point","coordinates":[-72.679417,44.645219]}},{"properties":{"latitude":44.541415,"population - 2010":94,"column_7":5657,"zip code":"05657","housing units- 2010":65,"town":"Lake Elmore","longitude":-72.526938,"id":"abv7odbfu881","state":"VT"},"type":"Feature","geometry":{"type":"Point","coordinates":[-72.526938,44.541415]}},{"properties":{"latitude":44.353823,"population - 2010":1408,"column_7":5658,"zip code":"05658","housing units- 2010":705,"town":"Marshfield","longitude":-72.349251,"id":"abv7odgunm78","state":"VT"},"type":"Feature","geometry":{"type":"Point","coordinates":[-72.349251,44.353823]}},{"properties":{"latitude":44.248198,"population - 2010":1339,"column_7":5660,"zip code":"05660","housing units- 2010":641,"town":"Moretown","longitude":-72.785251,"id":"abv7odggqog4","state":"VT"},"type":"Feature","geometry":{"type":"Point","coordinates":[-72.785251,44.248198]}},{"properties":{"latitude":44.549391,"population - 2010":5430,"column_7":5661,"zip code":"05661","housing units- 2010":2416,"town":"Morrisville","longitude":-72.603323,"id":"abv7odijefkf","state":"VT"},"type":"Feature","geometry":{"type":"Point","coordinates":[-72.603323,44.549391]}},{"properties":{"latitude":44.141056,"population - 2010":6156,"column_7":5663,"zip code":"05663","housing units- 2010":2150,"town":"Northfield","longitude":-72.664437,"id":"abv7odcxsfzu","state":"VT"},"type":"Feature","geometry":{"type":"Point","coordinates":[-72.664437,44.141056]}},{"properties":{"latitude":44.171238,"population - 2010":405,"column_7":5664,"zip code":"05664","housing units- 2010":162,"town":"Northfield Falls","longitude":-72.649769,"id":"abv7odg163nm","state":"VT"},"type":"Feature","geometry":{"type":"Point","coordinates":[-72.649769,44.171238]}},{"properties":{"latitude":44.295577,"population - 2010":2434,"column_7":5667,"zip code":"05667","housing units- 2010":1042,"town":"Plainfield","longitude":-72.423656,"id":"abv7od7uhfq3","state":"VT"},"type":"Feature","geometry":{"type":"Point","coordinates":[-72.423656,44.295577]}},{"properties":{"latitude":44.062311,"population - 2010":473,"column_7":5669,"zip code":"05669","housing units- 2010":294,"town":"Roxbury","longitude":-72.743644,"id":"abv7odiuj4b9","state":"VT"},"type":"Feature","geometry":{"type":"Point","coordinates":[-72.743644,44.062311]}},{"properties":{"latitude":44.475387,"population - 2010":4360,"column_7":5672,"zip code":"05672","housing units- 2010":2748,"town":"Stowe","longitude":-72.702253,"id":"abv7odkma7pn","state":"VT"},"type":"Feature","geometry":{"type":"Point","coordinates":[-72.702253,44.475387]}},{"properties":{"latitude":44.184704,"population - 2010":2327,"column_7":5673,"zip code":"05673","housing units- 2010":1559,"town":"Waitsfield","longitude":-72.836707,"id":"abv7odha82lp","state":"VT"},"type":"Feature","geometry":{"type":"Point","coordinates":[-72.836707,44.184704]}},{"properties":{"latitude":44.106922,"population - 2010":1681,"column_7":5674,"zip code":"05674","housing units- 2010":2078,"town":"Warren","longitude":-72.85816,"id":"abv7od73748v","state":"VT"},"type":"Feature","geometry":{"type":"Point","coordinates":[-72.85816,44.106922]}},{"properties":{"latitude":44.083457,"population - 2010":964,"column_7":5675,"zip code":"05675","housing units- 2010":482,"town":"Washington","longitude":-72.422002,"id":"abv7odaw04zr","state":"VT"},"type":"Feature","geometry":{"type":"Point","coordinates":[-72.422002,44.083457]}},{"properties":{"latitude":44.348486,"population - 2010":4630,"column_7":5676,"zip code":"05676","housing units- 2010":2033,"town":"Waterbury","longitude":-72.770818,"id":"abv7od90xqo1","state":"VT"},"type":"Feature","geometry":{"type":"Point","coordinates":[-72.770818,44.348486]}},{"properties":{"latitude":44.375144,"population - 2010":1941,"column_7":5677,"zip code":"05677","housing units- 2010":794,"town":"Waterbury Center","longitude":-72.713622,"id":"abv7odeoc3mm","state":"VT"},"type":"Feature","geometry":{"type":"Point","coordinates":[-72.713622,44.375144]}},{"properties":{"latitude":44.158979,"population - 2010":110,"column_7":5678,"zip code":"05678","housing units- 2010":43,"town":"Websterville","longitude":-72.469423,"id":"abv7od4vleuy","state":"VT"},"type":"Feature","geometry":{"type":"Point","coordinates":[-72.469423,44.158979]}},{"properties":{"latitude":44.109793,"population - 2010":2935,"column_7":5679,"zip code":"05679","housing units- 2010":1201,"town":"Williamstown","longitude":-72.541556,"id":"abv7oddzths9","state":"VT"},"type":"Feature","geometry":{"type":"Point","coordinates":[-72.541556,44.109793]}},{"properties":{"latitude":44.551056,"population - 2010":1989,"column_7":5680,"zip code":"05680","housing units- 2010":927,"town":"Wolcott","longitude":-72.473907,"id":"abv7od990qhu","state":"VT"},"type":"Feature","geometry":{"type":"Point","coordinates":[-72.473907,44.551056]}},{"properties":{"latitude":44.457481,"population - 2010":277,"column_7":5681,"zip code":"05681","housing units- 2010":267,"town":"Woodbury","longitude":-72.406597,"id":"abv7odhn5pul","state":"VT"},"type":"Feature","geometry":{"type":"Point","coordinates":[-72.406597,44.457481]}},{"properties":{"latitude":44.383559,"population - 2010":1178,"column_7":5682,"zip code":"05682","housing units- 2010":511,"town":"Worcester","longitude":-72.55088,"id":"abv7odjdlpt3","state":"VT"},"type":"Feature","geometry":{"type":"Point","coordinates":[-72.55088,44.383559]}},{"properties":{"latitude":43.617302,"population - 2010":22001,"column_7":5701,"zip code":"05701","housing units- 2010":10145,"town":"Rutland","longitude":-72.963253,"id":"abv7odga2gnr","state":"VT"},"type":"Feature","geometry":{"type":"Point","coordinates":[-72.963253,43.617302]}},{"properties":{"latitude":43.416666,"population - 2010":328,"column_7":5730,"zip code":"05730","housing units- 2010":235,"town":"Belmont","longitude":-72.834454,"id":"abv7od8q4n3u","state":"VT"},"type":"Feature","geometry":{"type":"Point","coordinates":[-72.834454,43.416666]}},{"properties":{"latitude":43.644208,"population - 2010":645,"column_7":5732,"zip code":"05732","housing units- 2010":544,"town":"Bomoseen","longitude":-73.202847,"id":"abv7od9xce6u","state":"VT"},"type":"Feature","geometry":{"type":"Point","coordinates":[-73.202847,43.644208]}},{"properties":{"latitude":43.810371,"population - 2010":5666,"column_7":5733,"zip code":"05733","housing units- 2010":2880,"town":"Brandon","longitude":-73.099986,"id":"abv7od5dlc0y","state":"VT"},"type":"Feature","geometry":{"type":"Point","coordinates":[-73.099986,43.810371]}},{"properties":{"latitude":43.987529,"population - 2010":1270,"column_7":5734,"zip code":"05734","housing units- 2010":599,"town":"Bridport","longitude":-73.351448,"id":"abv7od93mtoe","state":"VT"},"type":"Feature","geometry":{"type":"Point","coordinates":[-73.351448,43.987529]}},{"properties":{"latitude":43.640503,"population - 2010":4250,"column_7":5735,"zip code":"05735","housing units- 2010":1754,"town":"Castleton","longitude":-73.161186,"id":"abv7odhspquo","state":"VT"},"type":"Feature","geometry":{"type":"Point","coordinates":[-73.161186,43.640503]}},{"properties":{"latitude":43.602211,"population - 2010":361,"column_7":5736,"zip code":"05736","housing units- 2010":162,"town":"Center Rutland","longitude":-73.012982,"id":"abv7odbkard1","state":"VT"},"type":"Feature","geometry":{"type":"Point","coordinates":[-73.012982,43.602211]}},{"properties":{"latitude":43.735819,"population - 2010":738,"column_7":5737,"zip code":"05737","housing units- 2010":362,"town":"Chittenden","longitude":-72.931455,"id":"abv7odbwe9ds","state":"VT"},"type":"Feature","geometry":{"type":"Point","coordinates":[-72.931455,43.735819]}},{"properties":{"latitude":43.507854,"population - 2010":1154,"column_7":5738,"zip code":"05738","housing units- 2010":533,"town":"Cuttingsville","longitude":-72.864209,"id":"abv7od8wkymi","state":"VT"},"type":"Feature","geometry":{"type":"Point","coordinates":[-72.864209,43.507854]}},{"properties":{"latitude":43.341177,"population - 2010":1248,"column_7":5739,"zip code":"05739","housing units- 2010":624,"town":"Danby","longitude":-73.016025,"id":"abv7odftg111","state":"VT"},"type":"Feature","geometry":{"type":"Point","coordinates":[-73.016025,43.341177]}},{"properties":{"latitude":43.441404,"population - 2010":456,"column_7":5742,"zip code":"05742","housing units- 2010":236,"town":"East Wallingford","longitude":-72.885078,"id":"abv7odg3azs6","state":"VT"},"type":"Feature","geometry":{"type":"Point","coordinates":[-72.885078,43.441404]}},{"properties":{"latitude":43.666758,"population - 2010":4474,"column_7":5743,"zip code":"05743","housing units- 2010":2186,"town":"Fair Haven","longitude":-73.285702,"id":"abv7odjch85l","state":"VT"},"type":"Feature","geometry":{"type":"Point","coordinates":[-73.285702,43.666758]}},{"properties":{"latitude":43.68805,"population - 2010":609,"column_7":5744,"zip code":"05744","housing units- 2010":266,"town":"Florence","longitude":-73.067838,"id":"abv7odfg65gp","state":"VT"},"type":"Feature","geometry":{"type":"Point","coordinates":[-73.067838,43.68805]}},{"properties":{"latitude":43.999811,"population - 2010":274,"column_7":5747,"zip code":"05747","housing units- 2010":205,"town":"Granville","longitude":-72.839275,"id":"abv7odk7jcyi","state":"VT"},"type":"Feature","geometry":{"type":"Point","coordinates":[-72.839275,43.999811]}},{"properties":{"latitude":43.926595,"population - 2010":382,"column_7":5748,"zip code":"05748","housing units- 2010":214,"town":"Hancock","longitude":-72.871432,"id":"abv7od8pprg4","state":"VT"},"type":"Feature","geometry":{"type":"Point","coordinates":[-72.871432,43.926595]}},{"properties":{"latitude":43.659839,"population - 2010":1098,"column_7":5751,"zip code":"05751","housing units- 2010":2533,"town":"Killington","longitude":-72.794192,"id":"abv7odcxxlde","state":"VT"},"type":"Feature","geometry":{"type":"Point","coordinates":[-72.794192,43.659839]}},{"properties":{"latitude":44.006024,"population - 2010":10096,"column_7":5753,"zip code":"05753","housing units- 2010":3587,"town":"Middlebury","longitude":-73.172007,"id":"abv7odkjv5hf","state":"VT"},"type":"Feature","geometry":{"type":"Point","coordinates":[-73.172007,44.006024]}},{"properties":{"latitude":43.477827,"population - 2010":873,"column_7":5757,"zip code":"05757","housing units- 2010":421,"town":"Middletown Springs","longitude":-73.123119,"id":"abv7odk9cy5m","state":"VT"},"type":"Feature","geometry":{"type":"Point","coordinates":[-73.123119,43.477827]}},{"properties":{"latitude":43.452914,"population - 2010":862,"column_7":5758,"zip code":"05758","housing units- 2010":630,"town":"Mount Holly","longitude":-72.796472,"id":"abv7od6lbh6w","state":"VT"},"type":"Feature","geometry":{"type":"Point","coordinates":[-72.796472,43.452914]}},{"properties":{"latitude":43.553904,"population - 2010":1987,"column_7":5759,"zip code":"05759","housing units- 2010":887,"town":"North Clarendon","longitude":-72.961684,"id":"abv7odj2j3qv","state":"VT"},"type":"Feature","geometry":{"type":"Point","coordinates":[-72.961684,43.553904]}},{"properties":{"latitude":43.801501,"population - 2010":1161,"column_7":5760,"zip code":"05760","housing units- 2010":580,"town":"Orwell","longitude":-73.286909,"id":"abv7odgxfjk4","state":"VT"},"type":"Feature","geometry":{"type":"Point","coordinates":[-73.286909,43.801501]}},{"properties":{"latitude":43.357161,"population - 2010":1055,"column_7":5761,"zip code":"05761","housing units- 2010":568,"town":"Pawlet","longitude":-73.134679,"id":"abv7odet7s9r","state":"VT"},"type":"Feature","geometry":{"type":"Point","coordinates":[-73.134679,43.357161]}},{"properties":{"latitude":43.768578,"population - 2010":427,"column_7":5762,"zip code":"05762","housing units- 2010":393,"town":"Pittsfield","longitude":-72.831384,"id":"abv7od5viqhd","state":"VT"},"type":"Feature","geometry":{"type":"Point","coordinates":[-72.831384,43.768578]}},{"properties":{"latitude":43.719898,"population - 2010":2848,"column_7":5763,"zip code":"05763","housing units- 2010":1260,"town":"Pittsford","longitude":-73.000874,"id":"abv7od7nfkeg","state":"VT"},"type":"Feature","geometry":{"type":"Point","coordinates":[-73.000874,43.719898]}},{"properties":{"latitude":43.521021,"population - 2010":3699,"column_7":5764,"zip code":"05764","housing units- 2010":1657,"town":"Poultney","longitude":-73.216037,"id":"abv7odavebdp","state":"VT"},"type":"Feature","geometry":{"type":"Point","coordinates":[-73.216037,43.521021]}},{"properties":{"latitude":43.657716,"population - 2010":1917,"column_7":5765,"zip code":"05765","housing units- 2010":813,"town":"Proctor","longitude":-73.032806,"id":"abv7od63qlbn","state":"VT"},"type":"Feature","geometry":{"type":"Point","coordinates":[-73.032806,43.657716]}},{"properties":{"latitude":43.981681,"population - 2010":556,"column_7":5766,"zip code":"05766","housing units- 2010":283,"town":"Ripton","longitude":-73.015503,"id":"abv7odca0uyu","state":"VT"},"type":"Feature","geometry":{"type":"Point","coordinates":[-73.015503,43.981681]}},{"properties":{"latitude":43.876046,"population - 2010":1171,"column_7":5767,"zip code":"05767","housing units- 2010":768,"town":"Rochester","longitude":-72.812124,"id":"abv7od6cvsf5","state":"VT"},"type":"Feature","geometry":{"type":"Point","coordinates":[-72.812124,43.876046]}},{"properties":{"latitude":43.914026,"population - 2010":1145,"column_7":5769,"zip code":"05769","housing units- 2010":631,"town":"Salisbury","longitude":-73.107032,"id":"abv7od83owdk","state":"VT"},"type":"Feature","geometry":{"type":"Point","coordinates":[-73.107032,43.914026]}},{"properties":{"latitude":43.892373,"population - 2010":1047,"column_7":5770,"zip code":"05770","housing units- 2010":462,"town":"Shoreham","longitude":-73.315836,"id":"abv7od8yonpe","state":"VT"},"type":"Feature","geometry":{"type":"Point","coordinates":[-73.315836,43.892373]}},{"properties":{"latitude":43.761779,"population - 2010":554,"column_7":5772,"zip code":"05772","housing units- 2010":465,"town":"Stockbridge","longitude":-72.737037,"id":"abv7odkfdkfd","state":"VT"},"type":"Feature","geometry":{"type":"Point","coordinates":[-72.737037,43.761779]}},{"properties":{"latitude":43.444268,"population - 2010":2328,"column_7":5773,"zip code":"05773","housing units- 2010":1128,"town":"Wallingford","longitude":-72.987329,"id":"abv7od5danh3","state":"VT"},"type":"Feature","geometry":{"type":"Point","coordinates":[-72.987329,43.444268]}},{"properties":{"latitude":43.43357,"population - 2010":1063,"column_7":5774,"zip code":"05774","housing units- 2010":881,"town":"Wells","longitude":-73.19578,"id":"abv7odch3agh","state":"VT"},"type":"Feature","geometry":{"type":"Point","coordinates":[-73.19578,43.43357]}},{"properties":{"latitude":43.365073,"population - 2010":658,"column_7":5775,"zip code":"05775","housing units- 2010":324,"town":"West Pawlet","longitude":-73.236122,"id":"abv7od9hlmqb","state":"VT"},"type":"Feature","geometry":{"type":"Point","coordinates":[-73.236122,43.365073]}},{"properties":{"latitude":43.235771,"population - 2010":186,"column_7":5776,"zip code":"05776","housing units- 2010":88,"town":"West Rupert","longitude":-73.248904,"id":"abv7odclmier","state":"VT"},"type":"Feature","geometry":{"type":"Point","coordinates":[-73.248904,43.235771]}},{"properties":{"latitude":43.574326,"population - 2010":3662,"column_7":5777,"zip code":"05777","housing units- 2010":1528,"town":"West Rutland","longitude":-73.042158,"id":"abv7od4ujnss","state":"VT"},"type":"Feature","geometry":{"type":"Point","coordinates":[-73.042158,43.574326]}},{"properties":{"latitude":43.864419,"population - 2010":732,"column_7":5778,"zip code":"05778","housing units- 2010":298,"town":"Whiting","longitude":-73.21148,"id":"abv7odbel1za","state":"VT"},"type":"Feature","geometry":{"type":"Point","coordinates":[-73.21148,43.864419]}},{"properties":{"latitude":44.412413,"population - 2010":9220,"column_7":5819,"zip code":"05819","housing units- 2010":4204,"town":"Saint Johnsbury","longitude":-72.009963,"id":"abv7odbw6y56","state":"VT"},"type":"Feature","geometry":{"type":"Point","coordinates":[-72.009963,44.412413]}},{"properties":{"latitude":44.733624,"population - 2010":328,"column_7":5820,"zip code":"05820","housing units- 2010":161,"town":"Albany","longitude":-72.383085,"id":"abv7odbnp16m","state":"VT"},"type":"Feature","geometry":{"type":"Point","coordinates":[-72.383085,44.733624]}},{"properties":{"latitude":44.311706,"population - 2010":1458,"column_7":5821,"zip code":"05821","housing units- 2010":764,"town":"Barnet","longitude":-72.103468,"id":"abv7odbq64g5","state":"VT"},"type":"Feature","geometry":{"type":"Point","coordinates":[-72.103468,44.311706]}},{"properties":{"latitude":44.750509,"population - 2010":1653,"column_7":5822,"zip code":"05822","housing units- 2010":1048,"town":"Barton","longitude":-72.163761,"id":"abv7od5cfp2r","state":"VT"},"type":"Feature","geometry":{"type":"Point","coordinates":[-72.163761,44.750509]}},{"properties":{"latitude":44.428537,"population - 2010":724,"column_7":5824,"zip code":"05824","housing units- 2010":532,"town":"Concord","longitude":-71.872125,"id":"abv7odcac1qn","state":"VT"},"type":"Feature","geometry":{"type":"Point","coordinates":[-71.872125,44.428537]}},{"properties":{"latitude":44.863351,"population - 2010":117,"column_7":5825,"zip code":"05825","housing units- 2010":42,"town":"Coventry","longitude":-72.266492,"id":"abv7odgacio7","state":"VT"},"type":"Feature","geometry":{"type":"Point","coordinates":[-72.266492,44.863351]}},{"properties":{"latitude":44.647068,"population - 2010":870,"column_7":5826,"zip code":"05826","housing units- 2010":426,"town":"Craftsbury","longitude":-72.388703,"id":"abv7oddsmb16","state":"VT"},"type":"Feature","geometry":{"type":"Point","coordinates":[-72.388703,44.647068]}},{"properties":{"latitude":44.678879,"population - 2010":328,"column_7":5827,"zip code":"05827","housing units- 2010":181,"town":"Craftsbury Common","longitude":-72.359754,"id":"abv7odgn0i8v","state":"VT"},"type":"Feature","geometry":{"type":"Point","coordinates":[-72.359754,44.678879]}},{"properties":{"latitude":44.424043,"population - 2010":2036,"column_7":5828,"zip code":"05828","housing units- 2010":907,"town":"Danville","longitude":-72.128081,"id":"abv7odaaq77m","state":"VT"},"type":"Feature","geometry":{"type":"Point","coordinates":[-72.128081,44.424043]}},{"properties":{"latitude":44.945925,"population - 2010":1766,"column_7":5829,"zip code":"05829","housing units- 2010":950,"town":"Derby","longitude":-72.098645,"id":"abv7odieprqi","state":"VT"},"type":"Feature","geometry":{"type":"Point","coordinates":[-72.098645,44.945925]}},{"properties":{"latitude":44.985004,"population - 2010":1518,"column_7":5830,"zip code":"05830","housing units- 2010":766,"town":"Derby Line","longitude":-72.058577,"id":"abv7od5i88ik","state":"VT"},"type":"Feature","geometry":{"type":"Point","coordinates":[-72.058577,44.985004]}},{"properties":{"latitude":44.588911,"population - 2010":843,"column_7":5832,"zip code":"05832","housing units- 2010":575,"town":"East Burke","longitude":-71.927053,"id":"abv7od7atoy8","state":"VT"},"type":"Feature","geometry":{"type":"Point","coordinates":[-71.927053,44.588911]}},{"properties":{"latitude":44.82446,"population - 2010":157,"column_7":5833,"zip code":"05833","housing units- 2010":98,"town":"East Charleston","longitude":-71.969009,"id":"abv7odehbvrn","state":"VT"},"type":"Feature","geometry":{"type":"Point","coordinates":[-71.969009,44.82446]}},{"properties":{"latitude":44.529915,"population - 2010":1153,"column_7":5836,"zip code":"05836","housing units- 2010":599,"town":"East Hardwick","longitude":-72.268199,"id":"abv7od7jmg6i","state":"VT"},"type":"Feature","geometry":{"type":"Point","coordinates":[-72.268199,44.529915]}},{"properties":{"latitude":44.643171,"population - 2010":301,"column_7":5837,"zip code":"05837","housing units- 2010":173,"town":"East Haven","longitude":-71.863949,"id":"abv7odbuzvlb","state":"VT"},"type":"Feature","geometry":{"type":"Point","coordinates":[-71.863949,44.643171]}},{"properties":{"latitude":44.684488,"population - 2010":735,"column_7":5839,"zip code":"05839","housing units- 2010":475,"town":"Glover","longitude":-72.209364,"id":"abv7od66di84","state":"VT"},"type":"Feature","geometry":{"type":"Point","coordinates":[-72.209364,44.684488]}},{"properties":{"latitude":44.612521,"population - 2010":86,"column_7":5841,"zip code":"05840","housing units- 2010":78,"town":"Greensboro","longitude":-71.715367,"id":"abv7odb59ec4","state":"VT"},"type":"Feature","geometry":{"type":"Point","coordinates":[-71.715367,44.612521]}},{"properties":{"latitude":44.599177,"population - 2010":359,"column_7":5842,"zip code":"05841","housing units- 2010":584,"town":"Greensboro Bend","longitude":-72.311797,"id":"abv7odjlpcwu","state":"VT"},"type":"Feature","geometry":{"type":"Point","coordinates":[-72.311797,44.599177]}},{"properties":{"latitude":44.574196,"population - 2010":404,"column_7":5843,"zip code":"05842","housing units- 2010":186,"town":"Hardwick","longitude":-72.243338,"id":"abv7od4pbdd5","state":"VT"},"type":"Feature","geometry":{"type":"Point","coordinates":[-72.243338,44.574196]}},{"properties":{"latitude":44.504593,"population - 2010":2705,"column_7":5845,"zip code":"05843","housing units- 2010":1241,"town":"Irasburg","longitude":-72.358222,"id":"abv7odhtgyn7","state":"VT"},"type":"Feature","geometry":{"type":"Point","coordinates":[-72.358222,44.504593]}},{"properties":{"latitude":44.800462,"population - 2010":1113,"column_7":5846,"zip code":"05845","housing units- 2010":540,"town":"Island Pond","longitude":-72.28964,"id":"abv7odkkr3qb","state":"VT"},"type":"Feature","geometry":{"type":"Point","coordinates":[-72.28964,44.800462]}},{"properties":{"latitude":44.803005,"population - 2010":1293,"column_7":5847,"zip code":"05846","housing units- 2010":955,"town":"Lowell","longitude":-71.846836,"id":"abv7odi605tf","state":"VT"},"type":"Feature","geometry":{"type":"Point","coordinates":[-71.846836,44.803005]}},{"properties":{"latitude":44.799008,"population - 2010":738,"column_7":5850,"zip code":"05847","housing units- 2010":405,"town":"Lyndon Center","longitude":-72.450259,"id":"abv7odegf3n0","state":"VT"},"type":"Feature","geometry":{"type":"Point","coordinates":[-72.450259,44.799008]}},{"properties":{"latitude":44.541352,"population - 2010":6306,"column_7":5851,"zip code":"05851","housing units- 2010":2631,"town":"Lyndonville","longitude":-72.026862,"id":"abv7od8qd259","state":"VT"},"type":"Feature","geometry":{"type":"Point","coordinates":[-72.026862,44.541352]}},{"properties":{"latitude":44.881758,"population - 2010":543,"column_7":5853,"zip code":"05853","housing units- 2010":633,"town":"Morgan","longitude":-71.966536,"id":"abv7od9v58k2","state":"VT"},"type":"Feature","geometry":{"type":"Point","coordinates":[-71.966536,44.881758]}},{"properties":{"latitude":44.936237,"population - 2010":7898,"column_7":5855,"zip code":"05855","housing units- 2010":3659,"town":"Newport","longitude":-72.199218,"id":"abv7odetpg2u","state":"VT"},"type":"Feature","geometry":{"type":"Point","coordinates":[-72.199218,44.936237]}},{"properties":{"latitude":44.944231,"population - 2010":1467,"column_7":5857,"zip code":"05857","housing units- 2010":724,"town":"Newport Center","longitude":-72.300549,"id":"abv7odhydkec","state":"VT"},"type":"Feature","geometry":{"type":"Point","coordinates":[-72.300549,44.944231]}},{"properties":{"latitude":44.498374,"population - 2010":380,"column_7":5858,"zip code":"05858","housing units- 2010":224,"town":"North Concord","longitude":-71.837735,"id":"abv7odfo338q","state":"VT"},"type":"Feature","geometry":{"type":"Point","coordinates":[-71.837735,44.498374]}},{"properties":{"latitude":44.963802,"population - 2010":1837,"column_7":5859,"zip code":"05859","housing units- 2010":1085,"town":"North Troy","longitude":-72.417827,"id":"abv7odjpj3bg","state":"VT"},"type":"Feature","geometry":{"type":"Point","coordinates":[-72.417827,44.963802]}},{"properties":{"latitude":44.815511,"population - 2010":2481,"column_7":5860,"zip code":"05860","housing units- 2010":1429,"town":"Orleans","longitude":-72.15478,"id":"abv7odeah2ba","state":"VT"},"type":"Feature","geometry":{"type":"Point","coordinates":[-72.15478,44.815511]}},{"properties":{"latitude":44.632918,"population - 2010":741,"column_7":5866,"zip code":"05866","housing units- 2010":406,"town":"Sheffield","longitude":-72.132459,"id":"abv7odhmorn6","state":"VT"},"type":"Feature","geometry":{"type":"Point","coordinates":[-72.132459,44.632918]}},{"properties":{"latitude":44.653046,"population - 2010":888,"column_7":5867,"zip code":"05867","housing units- 2010":385,"town":"Sutton","longitude":-72.043722,"id":"abv7odk0loen","state":"VT"},"type":"Feature","geometry":{"type":"Point","coordinates":[-72.043722,44.653046]}},{"properties":{"latitude":44.902837,"population - 2010":104,"column_7":5868,"zip code":"05868","housing units- 2010":46,"town":"Troy","longitude":-72.408002,"id":"abv7odgxw1u0","state":"VT"},"type":"Feature","geometry":{"type":"Point","coordinates":[-72.408002,44.902837]}},{"properties":{"latitude":44.673586,"population - 2010":1545,"column_7":5871,"zip code":"05871","housing units- 2010":915,"town":"West Burke","longitude":-71.954148,"id":"abv7od8epfuw","state":"VT"},"type":"Feature","geometry":{"type":"Point","coordinates":[-71.954148,44.673586]}},{"properties":{"latitude":44.865723,"population - 2010":686,"column_7":5872,"zip code":"05872","housing units- 2010":455,"town":"West Charleston","longitude":-72.046476,"id":"abv7od5a634k","state":"VT"},"type":"Feature","geometry":{"type":"Point","coordinates":[-72.046476,44.865723]}},{"properties":{"latitude":44.411321,"population - 2010":571,"column_7":5873,"zip code":"05873","housing units- 2010":466,"town":"West Danville","longitude":-72.212309,"id":"abv7odfqmd7x","state":"VT"},"type":"Feature","geometry":{"type":"Point","coordinates":[-72.212309,44.411321]}},{"properties":{"latitude":44.876447,"population - 2010":524,"column_7":5874,"zip code":"05874","housing units- 2010":282,"town":"Westfield","longitude":-72.429021,"id":"abv7odegvv1c","state":"VT"},"type":"Feature","geometry":{"type":"Point","coordinates":[-72.429021,44.876447]}},{"properties":{"latitude":44.722453,"population - 2010":623,"column_7":5875,"zip code":"05875","housing units- 2010":423,"town":"West Glover","longitude":-72.256022,"id":"abv7odfs69f4","state":"VT"},"type":"Feature","geometry":{"type":"Point","coordinates":[-72.256022,44.722453]}},{"properties":{"latitude":45.008398,"population - 2010":238,"column_7":5902,"zip code":"05902","housing units- 2010":107,"town":"Beecher Falls","longitude":-71.506286,"id":"abv7odb66v7l","state":"VT"},"type":"Feature","geometry":{"type":"Point","coordinates":[-71.506286,45.008398]}},{"properties":{"latitude":44.972508,"population - 2010":947,"column_7":5903,"zip code":"05903","housing units- 2010":621,"town":"Canaan","longitude":-71.592755,"id":"abv7odhzbs7r","state":"VT"},"type":"Feature","geometry":{"type":"Point","coordinates":[-71.592755,44.972508]}},{"properties":{"latitude":44.413715,"population - 2010":416,"column_7":5904,"zip code":"05904","housing units- 2010":199,"town":"Gilman","longitude":-71.709063,"id":"abv7oddb3ier","state":"VT"},"type":"Feature","geometry":{"type":"Point","coordinates":[-71.709063,44.413715]}},{"properties":{"latitude":44.682269,"population - 2010":741,"column_7":5905,"zip code":"05905","housing units- 2010":741,"town":"Guildhall","longitude":-71.662382,"id":"abv7odcf2qxt","state":"VT"},"type":"Feature","geometry":{"type":"Point","coordinates":[-71.662382,44.682269]}},{"properties":{"latitude":44.458803,"population - 2010":1101,"column_7":5906,"zip code":"05906","housing units- 2010":645,"town":"Lunenburg","longitude":-71.716203,"id":"abv7od55i4z6","state":"VT"},"type":"Feature","geometry":{"type":"Point","coordinates":[-71.716203,44.458803]}},{"properties":{"latitude":44.959647,"population - 2010":232,"column_7":5907,"zip code":"05907","housing units- 2010":487,"town":"Norton","longitude":-71.811347,"id":"abv7odfkyr8t","state":"VT"},"type":"Feature","geometry":{"type":"Point","coordinates":[-71.811347,44.959647]}}],"is_temporal":false,"author":{"url":"","metadata":"","contact_name":"","contact_address":"","source":"","contact_phone":""},"source":"","pagination":{"sort":null,"start":0,"total":246,"limit":1000000},"state":"complete","tags":"population,vermont","published":"2014-08-16T21:20:14-04:00","id":316061}