{"type":"FeatureCollection","data_type":"Dataset","url_type":null,"permissions":[{"permissions":{"download":true,"view":true},"group_id":"everyone"}],"classification":null,"title":"WayneINmacrocells","count":9,"stream_id":316133,"contributor":{"url":"http://geocommons.com/users/12008","name":"pantheon"},"data_attributes":null,"calculation_params":null,"icon_link":null,"link":"http://geocommons.com/overlays/316133.json","extent":[-85.1344,39.7789,-84.8546,39.9691],"geometry_types":["point"],"unique_name":null,"name":"WayneINmacrocells","feature_count":9,"description":"","next_feature":null,"is_raster":false,"short_classification":"Y","stats":{"post code":{"max":47375,"variance":435.694444444445,"mean":47357.2222222222,"stdev":20.8732950068849,"min":47327,"median":47374}},"features":[{"properties":{"city":"CAMBRIDGE CITY","lon":"-85 07 29","category":"Macro Cell","post code":47327,"county":"WAYNE","site name":"IN CAMBRIDGE CITY","country":"USA","geo_score":0.902,"street":"13523 FRONTAGE RD","id":"abvj1vx41a9i","lat":"39 51 04","geo_precision":"range","state":"IN"},"type":"Feature","geometry":{"type":"Point","coordinates":[-85.13442,39.852331]}},{"properties":{"city":"CENTERVILLE","lon":"-84 57 50","category":"Macro Cell","post code":47330,"county":"WAYNE","site name":"IN CENTERVILLE IN","country":"USA","geo_score":0.902,"street":"4628 GATES RD","id":"abvj1vomvha9","lat":"39 50 18","geo_precision":"range","state":"IN"},"type":"Feature","geometry":{"type":"Point","coordinates":[-84.976475,39.838315]}},{"properties":{"city":"RICHMOND","lon":"-84 52 27","category":"Macro Cell","post code":47374,"county":"WAYNE","site name":"IN DOWNTOWN RICHMOND","country":"USA","geo_score":0.902,"street":"2001 HAWKINS RD","id":"abvj1vz3ixry","lat":"39 50 13","geo_precision":"range","state":"IN"},"type":"Feature","geometry":{"type":"Point","coordinates":[-84.87138,39.840174]}},{"properties":{"city":"RICHMOND","lon":"-84 54 16","category":"Macro Cell","post code":47375,"county":"WAYNE","site name":"IN EARLHAM COLLEGE","country":"USA","geo_score":0.902,"street":"240 NW E ST","id":"abvj1vuk2c5m","lat":"39 50 10","geo_precision":"range","state":"IN"},"type":"Feature","geometry":{"type":"Point","coordinates":[-84.903308,39.835501]}},{"properties":{"city":"FOUNTAIN CITY","lon":"-84 56 7.40","category":"Macro Cell","post code":47341,"county":"WAYNE","site name":"IN FOUNTAIN CITY","country":"USA","geo_score":0.696,"street":"BOX 2424 DAVIS MEYERS RD","id":"abvj1vo9i43d","lat":"39 58 19.09","geo_precision":"street","state":"IN"},"type":"Feature","geometry":{"type":"Point","coordinates":[-84.925051,39.969069]}},{"properties":{"city":"HAGERSTOWN","lon":"-85 08 30.09","category":"Macro Cell","post code":47346,"county":"WAYNE","site name":"IN HAGERSTOWN","country":"USA","geo_score":0.488,"street":"201 WOODPECKER ROAD","id":"abvj1vmgh775","lat":"39 54 39.85","geo_precision":"city","state":"IN"},"type":"Feature","geometry":{"type":"Point","coordinates":[-85.05967,39.895789]}},{"properties":{"city":"RICHMOND","lon":"-84 55 49","category":"Macro Cell","post code":47374,"county":"WAYNE","site name":"IN RICHMOND CITY","country":"USA","geo_score":0.545,"street":"2161 N US 35","id":"abvj1vwz1gxf","lat":"39 52 22","geo_precision":"street","state":"IN"},"type":"Feature","geometry":{"type":"Point","coordinates":[-84.93087,39.870377]}},{"properties":{"city":"RICHMOND","lon":"-84 51 17.4","category":"Macro Cell","post code":47374,"county":"WAYNE","site name":"IN RICHMOND EAST","country":"USA","geo_score":0.902,"street":"3500 E MAIN ST","id":"abvj1vpiqnj9","lat":"39 49 38.6","geo_precision":"range","state":"IN"},"type":"Feature","geometry":{"type":"Point","coordinates":[-84.854575,39.831005]}},{"properties":{"city":"RICHMOND","lon":"-84 54 30","category":"Macro Cell","post code":47374,"county":"WAYNE","site name":"IN RICHMOND SW","country":"USA","geo_score":0.849,"street":"3587 S US HWY 27","id":"abvj1vsvbqxf","lat":"39 46 46","geo_precision":"range","state":"IN"},"type":"Feature","geometry":{"type":"Point","coordinates":[-84.908796,39.778859]}}],"is_temporal":false,"author":{"url":"","metadata":"","contact_name":"","contact_address":"","source":"","contact_phone":""},"source":"","pagination":{"sort":null,"start":0,"total":9,"limit":1000000},"state":"complete","tags":"","published":"2014-08-16T21:24:33-04:00","id":316133}