{"type":"FeatureCollection","data_type":"Dataset","url_type":null,"permissions":[{"permissions":{"download":true,"view":true},"group_id":"everyone"}],"classification":null,"title":"CPO 2010","count":71,"stream_id":316445,"contributor":{"url":"http://geocommons.com/users/60461","name":"rwbronco"},"data_attributes":null,"calculation_params":null,"icon_link":null,"link":"http://geocommons.com/overlays/316445.json","extent":[0.0,0.0,0.0,0.0],"geometry_types":null,"unique_name":null,"name":"CPO 2010","feature_count":71,"description":"","next_feature":null,"is_raster":false,"short_classification":"Y","features":[{"properties":{"city":"Jackson","rank":"1","value":"37","id":"abwh6250drji","state":"MS"},"type":"Feature","geometry":null},{"properties":{"city":"Brandon","rank":"2","value":"18","id":"abwh62455ieu","state":"MS"},"type":"Feature","geometry":null},{"properties":{"city":"Madison","rank":"3","value":"17","id":"abwh61z1rrqr","state":"MS"},"type":"Feature","geometry":null},{"properties":{"city":"Ridgeland","rank":"4","value":"10","id":"abwh624hh6t5","state":"MS"},"type":"Feature","geometry":null},{"properties":{"city":"Canton","rank":"5","value":"7","id":"abwh626xih7q","state":"MS"},"type":"Feature","geometry":null},{"properties":{"city":"Clinton","rank":"6","value":"7","id":"abwh61x6vkwh","state":"MS"},"type":"Feature","geometry":null},{"properties":{"city":"Florence","rank":"7","value":"7","id":"abwh624ehm7o","state":"MS"},"type":"Feature","geometry":null},{"properties":{"city":"Richland","rank":"8","value":"6","id":"abwh6273arpz","state":"MS"},"type":"Feature","geometry":null},{"properties":{"city":"Terry","rank":"9","value":"6","id":"abwh629fwd8r","state":"MS"},"type":"Feature","geometry":null},{"properties":{"city":"Vicksburg","rank":"10","value":"6","id":"abwh626myb7c","state":"MS"},"type":"Feature","geometry":null},{"properties":{"city":"Yazoo City","rank":"11","value":"6","id":"abwh61vwo5ob","state":"MS"},"type":"Feature","geometry":null},{"properties":{"city":"Flowood","rank":"12","value":"5","id":"abwh622lthid","state":"MS"},"type":"Feature","geometry":null},{"properties":{"city":"Kosciusko","rank":"13","value":"5","id":"abwh61zmbe63","state":"MS"},"type":"Feature","geometry":null},{"properties":{"city":"Raymond","rank":"14","value":"5","id":"abwh625znfrr","state":"MS"},"type":"Feature","geometry":null},{"properties":{"city":"Flora","rank":"15","value":"4","id":"abwh620zllp9","state":"MS"},"type":"Feature","geometry":null},{"properties":{"city":"Carthage","rank":"16","value":"3","id":"abwh621g6q3t","state":"MS"},"type":"Feature","geometry":null},{"properties":{"city":"Greenville","rank":"17","value":"3","id":"abwh61xmijjd","state":"MS"},"type":"Feature","geometry":null},{"properties":{"city":"Mccool","rank":"18","value":"3","id":"abwh61zjbt4n","state":"MS"},"type":"Feature","geometry":null},{"properties":{"city":"Pearl","rank":"19","value":"3","id":"abwh627dj4ci","state":"MS"},"type":"Feature","geometry":null},{"properties":{"city":"Sartatia","rank":"20","value":"3","id":"abwh622y8t3f","state":"MS"},"type":"Feature","geometry":null},{"properties":{"city":"Terry","rank":"21","value":"3","id":"abwh6275jbu4","state":"MS"},"type":"Feature","geometry":null},{"properties":{"city":"Bogue Chitto","rank":"22","value":"2","id":"abwh61yiv1nf","state":"MS"},"type":"Feature","geometry":null},{"properties":{"city":"Bolton","rank":"23","value":"2","id":"abwh6232pdpt","state":"MS"},"type":"Feature","geometry":null},{"properties":{"city":"Durant","rank":"24","value":"2","id":"abwh61zax3gn","state":"MS"},"type":"Feature","geometry":null},{"properties":{"city":"Greenwood","rank":"25","value":"2","id":"abwh6293tm0f","state":"MS"},"type":"Feature","geometry":null},{"properties":{"city":"Hazlehurst","rank":"26","value":"2","id":"abwh62ap4hd1","state":"MS"},"type":"Feature","geometry":null},{"properties":{"city":"Lexington","rank":"27","value":"2","id":"abwh61x6zoym","state":"MS"},"type":"Feature","geometry":null},{"properties":{"city":"Mccomb","rank":"28","value":"2","id":"abwh61wul1x0","state":"MS"},"type":"Feature","geometry":null},{"properties":{"city":"Meridian","rank":"29","value":"2","id":"abwh61x189u2","state":"MS"},"type":"Feature","geometry":null},{"properties":{"city":"Natchez","rank":"30","value":"2","id":"abwh6205dcku","state":"MS"},"type":"Feature","geometry":null},{"properties":{"city":"Pelahatchie","rank":"31","value":"2","id":"abwh628ai7un","state":"MS"},"type":"Feature","geometry":null},{"properties":{"city":"Ackerman","rank":"32","value":"1","id":"abwh6260tip1","state":"MS"},"type":"Feature","geometry":null},{"properties":{"city":"Benoit","rank":"33","value":"1","id":"abwh622zb2x9","state":"MS"},"type":"Feature","geometry":null},{"properties":{"city":"Benton","rank":"34","value":"1","id":"abwh61vectvx","state":"MS"},"type":"Feature","geometry":null},{"properties":{"city":"Bentonia","rank":"35","value":"1","id":"abwh6235bpr1","state":"MS"},"type":"Feature","geometry":null},{"properties":{"city":"Boyle","rank":"36","value":"1","id":"abwh61viq10o","state":"MS"},"type":"Feature","geometry":null},{"properties":{"city":"Brookhaven","rank":"37","value":"1","id":"abwh626iki74","state":"MS"},"type":"Feature","geometry":null},{"properties":{"city":"Carson","rank":"38","value":"1","id":"abwh6270y95z","state":"MS"},"type":"Feature","geometry":null},{"properties":{"city":"Cleveland","rank":"39","value":"1","id":"abwh624jdiev","state":"MS"},"type":"Feature","geometry":null},{"properties":{"city":"Coila","rank":"40","value":"1","id":"abwh62ad1ugn","state":"MS"},"type":"Feature","geometry":null},{"properties":{"city":"Crystal Springs","rank":"41","value":"1","id":"abwh61vhyvw1","state":"MS"},"type":"Feature","geometry":null},{"properties":{"city":"Grenada","rank":"42","value":"1","id":"abwh623rwu9q","state":"MS"},"type":"Feature","geometry":null},{"properties":{"city":"Indianola","rank":"43","value":"1","id":"abwh61wxbds5","state":"MS"},"type":"Feature","geometry":null},{"properties":{"city":"Jayess","rank":"44","value":"1","id":"abwh61vnbwys","state":"MS"},"type":"Feature","geometry":null},{"properties":{"city":"Larue","rank":"45","value":"1","id":"abwh61wprez1","state":"TX"},"type":"Feature","geometry":null},{"properties":{"city":"League City","rank":"46","value":"1","id":"abwh62972ylc","state":"TX"},"type":"Feature","geometry":null},{"properties":{"city":"Liberty","rank":"47","value":"1","id":"abwh622sy7he","state":"MS"},"type":"Feature","geometry":null},{"properties":{"city":"Maben","rank":"48","value":"1","id":"abwh6285ghk0","state":"MS"},"type":"Feature","geometry":null},{"properties":{"city":"Magee","rank":"49","value":"1","id":"abwh61wlvuej","state":"MS"},"type":"Feature","geometry":null},{"properties":{"city":"Mandeville","rank":"50","value":"1","id":"abwh6270e5jh","state":"LA"},"type":"Feature","geometry":null},{"properties":{"city":"Meadville","rank":"51","value":"1","id":"abwh61zlq2dl","state":"MS"},"type":"Feature","geometry":null},{"properties":{"city":"Mendenhall","rank":"52","value":"1","id":"abwh62aolvcm","state":"MS"},"type":"Feature","geometry":null},{"properties":{"city":"Metarie","rank":"53","value":"1","id":"abwh625hffp7","state":"LA"},"type":"Feature","geometry":null},{"properties":{"city":"Mize","rank":"54","value":"1","id":"abwh627co9ii","state":"MS"},"type":"Feature","geometry":null},{"properties":{"city":"Monroe","rank":"55","value":"1","id":"abwh624tt1j6","state":"LA"},"type":"Feature","geometry":null},{"properties":{"city":"Mt Olive","rank":"56","value":"1","id":"abwh61wpp2pc","state":"MS"},"type":"Feature","geometry":null},{"properties":{"city":"Philadelphia","rank":"57","value":"1","id":"abwh623sxw2n","state":"MS"},"type":"Feature","geometry":null},{"properties":{"city":"Pickens","rank":"58","value":"1","id":"abwh629xtt4r","state":"MS"},"type":"Feature","geometry":null},{"properties":{"city":"Pinola","rank":"59","value":"1","id":"abwh629r5i8o","state":"MS"},"type":"Feature","geometry":null},{"properties":{"city":"Port Gibson","rank":"60","value":"1","id":"abwh625lk7l4","state":"MS"},"type":"Feature","geometry":null},{"properties":{"city":"Raleigh","rank":"61","value":"1","id":"abwh62anhoct","state":"MS"},"type":"Feature","geometry":null},{"properties":{"city":"River Ridge","rank":"62","value":"1","id":"abwh623gjfi3","state":"LA"},"type":"Feature","geometry":null},{"properties":{"city":"Sandhill","rank":"63","value":"1","id":"abwh628oynw5","state":"MS"},"type":"Feature","geometry":null},{"properties":{"city":"Slidell","rank":"64","value":"1","id":"abwh6204zpe2","state":"LA"},"type":"Feature","geometry":null},{"properties":{"city":"Starkville","rank":"65","value":"1","id":"abwh6258r7wv","state":"MS"},"type":"Feature","geometry":null},{"properties":{"city":"Taylorsville","rank":"66","value":"1","id":"abwh61yjd82m","state":"MS"},"type":"Feature","geometry":null},{"properties":{"city":"Utica","rank":"67","value":"1","id":"abwh61zwxo2b","state":"MS"},"type":"Feature","geometry":null},{"properties":{"city":"Vaughn","rank":"68","value":"1","id":"abwh6213mmbh","state":"MS"},"type":"Feature","geometry":null},{"properties":{"city":"Water Valley","rank":"69","value":"1","id":"abwh626yuzrb","state":"MS"},"type":"Feature","geometry":null},{"properties":{"city":"Weir","rank":"70","value":"1","id":"abwh624r0h6w","state":"MS"},"type":"Feature","geometry":null},{"properties":{"city":"West Point","rank":"71","value":"1","id":"abwh61x5006m","state":"MS"},"type":"Feature","geometry":null}],"is_temporal":false,"author":{"url":"","metadata":"","contact_name":"","contact_address":"","source":"","contact_phone":""},"source":"","pagination":{"sort":null,"start":0,"total":71,"limit":1000000},"state":"complete","tags":"","published":"2014-08-16T21:54:27-04:00","id":316445}