{"type":"FeatureCollection","data_type":"Dataset","url_type":null,"permissions":[{"permissions":{"download":true,"view":true},"group_id":"everyone"}],"classification":null,"title":"Final Agency List  for Feeding America 8.30.12 graham","count":8,"stream_id":316495,"contributor":{"url":"http://geocommons.com/users/60409","name":"mheddings"},"data_attributes":null,"calculation_params":null,"icon_link":null,"link":"http://geocommons.com/overlays/316495.json","extent":[-109.746,32.7584,-109.716,32.8504],"geometry_types":["point"],"unique_name":null,"name":"Final Agency List  for Feeding America 8.30.12 graham","feature_count":8,"description":"","next_feature":null,"is_raster":false,"short_classification":"Y","stats":{},"features":[{"properties":{"city":"Safford","street address 1":null,"zip":"85546","county name":"Graham","does this agency have a grocery program? (yes/no)":"no","geo_score":0.857,"does this agency have a meal program?  (yes/no)":"yes","id":"abwj7d050v8l","geo_precision":"zip","agency name":"Mt. Graham Safe House","state":"AZ"},"type":"Feature","geometry":{"type":"Point","coordinates":[-109.716191,32.758401]}},{"properties":{"city":"Safford","street address 1":"1020 S. 10th Ave.","zip":"85546","county name":"Graham","does this agency have a grocery program? (yes/no)":"no","geo_score":0.857,"does this agency have a meal program?  (yes/no)":"yes","id":"abwj7cvkzxqy","geo_precision":"zip","agency name":"First United Methodist Church Day Care","state":"AZ"},"type":"Feature","geometry":{"type":"Point","coordinates":[-109.716191,32.758401]}},{"properties":{"city":"Safford","street address 1":"1020 S. 10th Ave","zip":"85546","county name":"Graham","does this agency have a grocery program? (yes/no)":"yes","geo_score":0.857,"does this agency have a meal program?  (yes/no)":"no","id":"abwj7cmo3aqk","geo_precision":"zip","agency name":"Our Neighbor's Pantry/Graham County Interfaith","state":"AZ"},"type":"Feature","geometry":{"type":"Point","coordinates":[-109.716191,32.758401]}},{"properties":{"city":"Safford","street address 1":"1901 S. 20th","zip":"85546","county name":"Graham","does this agency have a grocery program? (yes/no)":"yes","geo_score":0.857,"does this agency have a meal program?  (yes/no)":"no","id":"abwj7cxacy93","geo_precision":"zip","agency name":"Sunshine Valley Apartments","state":"AZ"},"type":"Feature","geometry":{"type":"Point","coordinates":[-109.716191,32.758401]}},{"properties":{"city":"Safford","street address 1":"822 W. Main St.","zip":"85546","county name":"Graham","does this agency have a grocery program? (yes/no)":"yes","geo_score":0.857,"does this agency have a meal program?  (yes/no)":"no","id":"abwj7czd3crt","geo_precision":"zip","agency name":"SEACUS","state":"AZ"},"type":"Feature","geometry":{"type":"Point","coordinates":[-109.716191,32.758401]}},{"properties":{"city":"Safford","street address 1":"311 S. Central Ave.","zip":"85546","county name":"Graham","does this agency have a grocery program? (yes/no)":"yes","geo_score":0.857,"does this agency have a meal program?  (yes/no)":"no","id":"abwj7cs9ludf","geo_precision":"zip","agency name":"Society of St. Vincent De Paul","state":"AZ"},"type":"Feature","geometry":{"type":"Point","coordinates":[-109.716191,32.758401]}},{"properties":{"city":"Thatcher","street address 1":"523 S. 1st Ave","zip":"85552","county name":"Graham","does this agency have a grocery program? (yes/no)":"yes","geo_score":0.857,"does this agency have a meal program?  (yes/no)":"no","id":"abwj7cpq9twg","geo_precision":"zip","agency name":"Thatcher Friend to Friend Food Bank","state":"AZ"},"type":"Feature","geometry":{"type":"Point","coordinates":[-109.746133,32.850436]}},{"properties":{"city":"Safford","street address 1":"1775 S. 20th Ave.","zip":"85546","county name":"Graham","does this agency have a grocery program? (yes/no)":"yes","geo_score":0.857,"does this agency have a meal program?  (yes/no)":"no","id":"abwj7cvvyq9l","geo_precision":"zip","agency name":"Casa de Flores","state":"AZ"},"type":"Feature","geometry":{"type":"Point","coordinates":[-109.716191,32.758401]}}],"is_temporal":false,"author":{"url":"","metadata":"","contact_name":"","contact_address":"","source":"","contact_phone":""},"source":"","pagination":{"sort":null,"start":0,"total":8,"limit":1000000},"state":"complete","tags":"","published":"2014-08-16T21:57:27-04:00","id":316495}