{"type":"FeatureCollection","data_type":"Dataset","url_type":null,"permissions":[{"permissions":{"download":true,"view":true},"group_id":"everyone"}],"classification":null,"title":"alameda_county_public_schools","count":496,"stream_id":316665,"contributor":{"url":"http://geocommons.com/users/53838","name":"kj2120"},"data_attributes":null,"calculation_params":null,"icon_link":null,"link":"http://geocommons.com/overlays/316665.json","extent":[-122.393,0.0,0.0,37.8978],"geometry_types":["point"],"unique_name":null,"name":"alameda_county_public_schools","feature_count":496,"description":"","next_feature":null,"is_raster":false,"short_classification":"Y","stats":{"latitude":{"max":37.897824,"variance":10.4897800804751,"mean":37.4252249962963,"stdev":3.23879299747222,"min":0.0,"median":37.712904},"longitude":{"max":0.0,"variance":109.924137933226,"mean":-121.20457545679,"stdev":10.4844712758072,"min":-122.39304,"median":-122.14623}},"features":[{"properties":{"city":"Alameda","school name":"Academy of Alameda","latitude":null,"zip code":"94501-1837","street":"401 Pacific Ave.","phone":"(510) 214-2460","longitude":null,"id":"abwohmxhf9iv","state":"CA"},"type":"Feature","geometry":null},{"properties":{"city":"Oakland","school name":"Achieve Academy","latitude":37.782379,"zip code":"94601-2455","street":"1700 28th Ave.","phone":"(510) 904-6440","longitude":-122.22607,"id":"abwohn2ymau4","state":"CA"},"type":"Feature","geometry":{"type":"Point","coordinates":[-122.22607,37.782379]}},{"properties":{"city":"Oakland","school name":"ACORN Woodland Elementary","latitude":37.752836,"zip code":"94621-2455","street":"1025 81st Ave.","phone":"(510) 639-3344","longitude":-122.18604,"id":"abwohmo4al9y","state":"CA"},"type":"Feature","geometry":{"type":"Point","coordinates":[-122.18604,37.752836]}},{"properties":{"city":"Alameda","school name":"Alameda Adult","latitude":null,"zip code":"94501-4411","street":"2250 Central Ave.","phone":"(510) 522-3858","longitude":null,"id":"abwohn0vmo7y","state":"CA"},"type":"Feature","geometry":null},{"properties":{"city":"Alameda","school name":"Alameda Community Learning Center","latitude":37.773638,"zip code":"94501","street":"210 Central Ave., Rm. 603","phone":"(510) 521-7123","longitude":-122.29025,"id":"abwohmy1hbg5","state":"CA"},"type":"Feature","geometry":{"type":"Point","coordinates":[-122.29025,37.773638]}},{"properties":{"city":"Hayward","school name":"Alameda County Community","latitude":37.658184,"zip code":"94544-1136","street":"313 West Winton Ave.","phone":"(510) 670-6619","longitude":-122.09712,"id":"abwohn0s1cw9","state":"CA"},"type":"Feature","geometry":{"type":"Point","coordinates":[-122.09712,37.658184]}},{"properties":{"city":"San Leandro","school name":"Alameda County Juvenile Hall/Court","latitude":37.712904,"zip code":"94578-1005","street":"2500 Fairmont Ave.","phone":"(510) 667-7435","longitude":-122.11172,"id":"abwohmrz278o","state":"CA"},"type":"Feature","geometry":{"type":"Point","coordinates":[-122.11172,37.712904]}},{"properties":{"city":"Hayward","school name":"Alameda County Opportunity","latitude":37.658184,"zip code":"94544-1136","street":"313 West Winton Ave.","phone":"(510) 670-4558","longitude":-122.09712,"id":"abwohmngm8yw","state":"CA"},"type":"Feature","geometry":{"type":"Point","coordinates":[-122.09712,37.658184]}},{"properties":{"city":"Hayward","school name":"Alameda County Special Education","latitude":37.658184,"zip code":"94544-1136","street":"313 West Winton Ave.","phone":"(510) 670-7737","longitude":-122.09712,"id":"abwohmx91qdy","state":"CA"},"type":"Feature","geometry":{"type":"Point","coordinates":[-122.09712,37.658184]}},{"properties":{"city":"Alameda","school name":"Alameda High","latitude":37.764268,"zip code":"94501-4406","street":"2201 Encinal Ave.","phone":"(510) 337-7022","longitude":-122.24809,"id":"abwohmv5r0e2","state":"CA"},"type":"Feature","geometry":{"type":"Point","coordinates":[-122.24809,37.764268]}},{"properties":{"city":"Alameda","school name":"Alameda Science and Technology Institute","latitude":37.779857,"zip code":"94501","street":"555 Atlantic Ave.","phone":"(510) 748-4021","longitude":-122.28053,"id":"abwohn21gcys","state":"CA"},"type":"Feature","geometry":{"type":"Point","coordinates":[-122.28053,37.779857]}},{"properties":{"city":"Albany","school name":"Albany Adult","latitude":null,"zip code":"94706-1422","street":"603 Key Route Blvd.","phone":"(510) 558-2516","longitude":null,"id":"abwohmvpge7y","state":"CA"},"type":"Feature","geometry":null},{"properties":{"city":"Albany","school name":"Albany High","latitude":37.896658,"zip code":"94706-1422","street":"603 Key Route Blvd.","phone":"(510) 558-2500","longitude":-122.2926,"id":"abwohmrjuzo9","state":"CA"},"type":"Feature","geometry":{"type":"Point","coordinates":[-122.2926,37.896658]}},{"properties":{"city":"Albany","school name":"Albany Middle","latitude":37.897824,"zip code":"94706","street":"1259 Brighton Ave.","phone":"(510) 558-3600","longitude":-122.29531,"id":"abwohmpnh6fx","state":"CA"},"type":"Feature","geometry":{"type":"Point","coordinates":[-122.29531,37.897824]}},{"properties":{"city":"Pleasanton","school name":"Alisal Elementary","latitude":null,"zip code":"94566-5697","street":"1454 Santa Rita Rd.","phone":null,"longitude":null,"id":"abwohn1as3d4","state":"CA"},"type":"Feature","geometry":null},{"properties":{"city":"Pleasanton","school name":"Alisal Elementary","latitude":37.67224,"zip code":"94566-5697","street":"1454 Santa Rita Rd.","phone":"(925) 426-4200","longitude":-121.87219,"id":"abwohn085ecr","state":"CA"},"type":"Feature","geometry":{"type":"Point","coordinates":[-121.87219,37.67224]}},{"properties":{"city":"Oakland","school name":"Allendale Elementary","latitude":37.788621,"zip code":"94619-1116","street":"3670 Penniman Ave.","phone":"(510) 535-2812","longitude":-122.20519,"id":"abwohn2lp68f","state":"CA"},"type":"Feature","geometry":{"type":"Point","coordinates":[-122.20519,37.788621]}},{"properties":{"city":"Oakland","school name":"Alliance Academy","latitude":37.746392,"zip code":"94603-2702","street":"1800 98th Ave.","phone":"(510) 639-2893","longitude":-122.16611,"id":"abwohmu74qud","state":"CA"},"type":"Feature","geometry":{"type":"Point","coordinates":[-122.16611,37.746392]}},{"properties":{"city":"Castro Valley","school name":"Alma Preschool","latitude":0.0,"zip code":"94546-3104","street":"4400 Alma Ave.","phone":"(510) 537-3000","longitude":0.0,"id":"abwohmxqk5py","state":"CA"},"type":"Feature","geometry":{"type":"Point","coordinates":[0.0,0.0]}},{"properties":{"city":"Livermore","school name":"Altamont Creek Elementary","latitude":37.72229,"zip code":"94551","street":"6500 Garaventa Ranch Rd.","phone":"(925) 454-5575","longitude":-121.7184,"id":"abwohmogxca3","state":"CA"},"type":"Feature","geometry":{"type":"Point","coordinates":[-121.7184,37.72229]}},{"properties":{"city":"Hayward","school name":"Alternative Learning Academy at Conley-Caraballo High","latitude":37.615224,"zip code":"94544","street":"541 Blanche St.","phone":"(510) 471-5126","longitude":-122.02878,"id":"abwohmoedahw","state":"CA"},"type":"Feature","geometry":{"type":"Point","coordinates":[-122.02878,37.615224]}},{"properties":{"city":"Union City","school name":"Alvarado Elementary","latitude":37.595619,"zip code":"94587-2662","street":"31100 Fredi St.","phone":"(510) 471-1039","longitude":-122.07696,"id":"abwohmqzn8na","state":"CA"},"type":"Feature","geometry":{"type":"Point","coordinates":[-122.07696,37.595619]}},{"properties":{"city":"Union City","school name":"Alvarado Middle","latitude":37.591718,"zip code":"94587-5802","street":"31604 Alvarado Blvd.","phone":"(510) 489-0700","longitude":-122.08036,"id":"abwohn30idv8","state":"CA"},"type":"Feature","geometry":{"type":"Point","coordinates":[-122.08036,37.591718]}},{"properties":{"city":"Pleasanton","school name":"Amador Valley Adult and Community Education","latitude":null,"zip code":"94566-7499","street":"215 Abbie St.","phone":"(925) 426-4280","longitude":null,"id":"abwohmzl0r0p","state":"CA"},"type":"Feature","geometry":null},{"properties":{"city":"Pleasanton","school name":"Amador Valley Adult Education","latitude":null,"zip code":"94566-7399","street":"4750 First St.","phone":null,"longitude":null,"id":"abwohmsgf4wr","state":"CA"},"type":"Feature","geometry":null},{"properties":{"city":"Pleasanton","school name":"Amador Valley High","latitude":37.668294,"zip code":"94566-6176","street":"1155 Santa Rita Rd.","phone":"(925) 461-6100","longitude":-121.87324,"id":"abwohmwy6obp","state":"CA"},"type":"Feature","geometry":{"type":"Point","coordinates":[-121.87324,37.668294]}},{"properties":{"city":"Pleasanton","school name":"Amador Valley High","latitude":null,"zip code":"94566-6176","street":"1155 Santa Rita Rd.","phone":null,"longitude":null,"id":"abwohmnkq9ua","state":"CA"},"type":"Feature","geometry":null},{"properties":{"city":"Alameda","school name":"Amelia Earhart Elementary","latitude":37.745266,"zip code":"94502-6534","street":"400 Packet Landing Rd.","phone":"(510) 748-4003","longitude":-122.23931,"id":"abwohn2bz251","state":"CA"},"type":"Feature","geometry":{"type":"Point","coordinates":[-122.23931,37.745266]}},{"properties":{"city":"Fremont","school name":"American High","latitude":37.56362,"zip code":"94536-3511","street":"36300 Fremont Blvd.","phone":"(510) 796-1776","longitude":-122.01749,"id":"abwohmqbil0i","state":"CA"},"type":"Feature","geometry":{"type":"Point","coordinates":[-122.01749,37.56362]}},{"properties":{"city":"Oakland","school name":"American Indian Public Charter","latitude":37.793383,"zip code":"94619","street":"3637 Magee Ave.","phone":"(510) 482-6000","longitude":-122.1995,"id":"abwohn325tjv","state":"CA"},"type":"Feature","geometry":{"type":"Point","coordinates":[-122.1995,37.793383]}},{"properties":{"city":"Oakland","school name":"American Indian Public Charter School II","latitude":37.800186,"zip code":"94607-4900","street":"171 12th St.","phone":"(510) 482-6000","longitude":-122.26566,"id":"abwohmscxssn","state":"CA"},"type":"Feature","geometry":{"type":"Point","coordinates":[-122.26566,37.800186]}},{"properties":{"city":"Oakland","school name":"American Indian Public High","latitude":37.793899,"zip code":"94619","street":"3637 Magee Ave.","phone":"(510) 482-6000","longitude":-122.19987,"id":"abwohmrrkqtf","state":"CA"},"type":"Feature","geometry":{"type":"Point","coordinates":[-122.19987,37.793899]}},{"properties":{"city":"Livermore","school name":"Andrew N. Christensen Middle","latitude":37.726516,"zip code":"94551-1100","street":"5757 Haggin Oaks Ave.","phone":"(925) 606-4702","longitude":-121.72853,"id":"abwohn1q0qap","state":"CA"},"type":"Feature","geometry":{"type":"Point","coordinates":[-121.72853,37.726516]}},{"properties":{"city":"Emeryville","school name":"Anna Yates Elementary","latitude":37.832516,"zip code":"94608-3643","street":"1070 41st St.","phone":"(510) 601-4916","longitude":-122.27846,"id":"abwohmt8e0qz","state":"CA"},"type":"Feature","geometry":{"type":"Point","coordinates":[-122.27846,37.832516]}},{"properties":{"city":"Hayward","school name":"Anthony W. Ochoa Middle","latitude":37.638807,"zip code":"94545-2428","street":"2121 Depot Rd.","phone":"(510) 723-3130","longitude":-122.10968,"id":"abwohmpes7q8","state":"CA"},"type":"Feature","geometry":{"type":"Point","coordinates":[-122.10968,37.638807]}},{"properties":{"city":"Fremont","school name":"Ardenwood Elementary","latitude":37.572594,"zip code":"94555-2068","street":"33955 Emilia Ln.","phone":"(510) 794-0392","longitude":-122.05303,"id":"abwohmv14uth","state":"CA"},"type":"Feature","geometry":{"type":"Point","coordinates":[-122.05303,37.572594]}},{"properties":{"city":"Oakland","school name":"ARISE High","latitude":37.776188,"zip code":"94601-2940","street":"3301 East 12th St., Ste. 205","phone":"(510) 436-5487","longitude":-122.22507,"id":"abwohn16wyyu","state":"CA"},"type":"Feature","geometry":{"type":"Point","coordinates":[-122.22507,37.776188]}},{"properties":{"city":"San Lorenzo","school name":"Arroyo High","latitude":37.680819,"zip code":"94580-1407","street":"15701 Lorenzo Ave.","phone":"(510) 317-4000","longitude":-122.13833,"id":"abwohmviqij2","state":"CA"},"type":"Feature","geometry":{"type":"Point","coordinates":[-122.13833,37.680819]}},{"properties":{"city":"Livermore","school name":"Arroyo Seco Elementary","latitude":37.683649,"zip code":"94550-3508","street":"5280 Irene Way","phone":"(925) 606-4700","longitude":-121.72857,"id":"abwohn2q3nvw","state":"CA"},"type":"Feature","geometry":{"type":"Point","coordinates":[-121.72857,37.683649]}},{"properties":{"city":"Oakland","school name":"Arts School","latitude":null,"zip code":"94618","street":"5263 Broadway Ter.","phone":null,"longitude":null,"id":"abwohmrmwwir","state":"CA"},"type":"Feature","geometry":null},{"properties":{"city":"Oakland","school name":"ASCEND","latitude":37.774046,"zip code":"94601","street":"3709 East 12th St.","phone":"(510) 534-7252","longitude":-122.22163,"id":"abwohn1pz5ct","state":"CA"},"type":"Feature","geometry":{"type":"Point","coordinates":[-122.22163,37.774046]}},{"properties":{"city":"Oakland","school name":"Aspire Berkley Maynard Academy","latitude":37.844784,"zip code":"94608-2228","street":"6200 San Pablo Ave.","phone":"(510) 658-2900","longitude":-122.2842,"id":"abwohmvq1lcr","state":"CA"},"type":"Feature","geometry":{"type":"Point","coordinates":[-122.2842,37.844784]}},{"properties":{"city":"Berkeley","school name":"Aspire California College Preparatory Academy","latitude":37.868993,"zip code":"94703-1414","street":"2125 Jefferson Ave.","phone":"(510) 486-8133","longitude":-122.27812,"id":"abwohmo7zl8p","state":"CA"},"type":"Feature","geometry":{"type":"Point","coordinates":[-122.27812,37.868993]}},{"properties":{"city":"Oakland","school name":"Aspire ERES Academy","latitude":37.7757,"zip code":"94601","street":"1936 Courtland Ave.","phone":"(510) 436-9760","longitude":-122.21206,"id":"abwohmrxhz2w","state":"CA"},"type":"Feature","geometry":{"type":"Point","coordinates":[-122.21206,37.7757]}},{"properties":{"city":"Oakland","school name":"Aspire Golden State College Preparatory Academy","latitude":37.761474,"zip code":"94610-3430","street":"1009 66th Ave.","phone":"(510) 562-8030","longitude":-122.17103,"id":"abwohmwms277","state":"CA"},"type":"Feature","geometry":{"type":"Point","coordinates":[-122.17103,37.761474]}},{"properties":{"city":"Oakland","school name":"Aspire Lionel Wilson College Preparatory Academy","latitude":37.729396,"zip code":"94603-2968","street":"400 105th Ave.","phone":"(510) 635-7737","longitude":-122.18051,"id":"abwohn1e0vls","state":"CA"},"type":"Feature","geometry":{"type":"Point","coordinates":[-122.18051,37.729396]}},{"properties":{"city":"Oakland","school name":"Aspire Millsmont Academy","latitude":37.774309,"zip code":"94605-1614","street":"3200 62nd Ave.","phone":"(510) 638-9445","longitude":-122.18236,"id":"abwohmt5ee61","state":"CA"},"type":"Feature","geometry":{"type":"Point","coordinates":[-122.18236,37.774309]}},{"properties":{"city":"Oakland","school name":"Aspire Monarch Academy","latitude":37.742277,"zip code":"94603-3207","street":"1445 101st Ave.","phone":"(510) 568-3101","longitude":-122.16832,"id":"abwohmnp171b","state":"CA"},"type":"Feature","geometry":{"type":"Point","coordinates":[-122.16832,37.742277]}},{"properties":{"city":"Newark","school name":"August Schilling Elementary","latitude":37.528267,"zip code":"94560-2719","street":"36901 Spruce St.","phone":"(510) 818-3800","longitude":-122.0461,"id":"abwohmofcz4j","state":"CA"},"type":"Feature","geometry":{"type":"Point","coordinates":[-122.0461,37.528267]}},{"properties":{"city":"San Leandro","school name":"Bancroft Middle","latitude":37.729158,"zip code":"94577-3863","street":"1150 Bancroft Ave.","phone":"(510) 618-4380","longitude":-122.14867,"id":"abwohmoeirnl","state":"CA"},"type":"Feature","geometry":{"type":"Point","coordinates":[-122.14867,37.729158]}},{"properties":{"city":"Oakland","school name":"Barack Obama Academy","latitude":37.751204,"zip code":"94605","street":"9736 Lawlor St.","phone":"(510) 729-7713","longitude":-122.15712,"id":"abwohn18xdg8","state":"CA"},"type":"Feature","geometry":{"type":"Point","coordinates":[-122.15712,37.751204]}},{"properties":{"city":"Alameda","school name":"Bay Area School of Enterprise","latitude":37.778625,"zip code":"94501-1851","street":"1900 Third St.","phone":"(510) 748-4314","longitude":-122.28792,"id":"abwohn3ogjpu","state":"CA"},"type":"Feature","geometry":{"type":"Point","coordinates":[-122.28792,37.778625]}},{"properties":{"city":"Oakland","school name":"Bay Area Technology","latitude":37.833537,"zip code":"94609-2140","street":"4521 Webster St.","phone":"(510) 645-9932","longitude":-122.26015,"id":"abwohn2nm3v2","state":"CA"},"type":"Feature","geometry":{"type":"Point","coordinates":[-122.26015,37.833537]}},{"properties":{"city":"San Lorenzo","school name":"Bay Elementary","latitude":37.672113,"zip code":"94580-1903","street":"2001 Bockman Rd.","phone":"(510) 317-4300","longitude":-122.14723,"id":"abwohmz3v25m","state":"CA"},"type":"Feature","geometry":{"type":"Point","coordinates":[-122.14723,37.672113]}},{"properties":{"city":"Alameda","school name":"Bay Farm Elementary","latitude":37.738999,"zip code":"94502-7451","street":"200 Aughinbaugh Way","phone":"(510) 748-4010","longitude":-122.25199,"id":"abwohmtrqvx1","state":"CA"},"type":"Feature","geometry":{"type":"Point","coordinates":[-122.25199,37.738999]}},{"properties":{"city":"Emeryville","school name":"Beach Elementary","latitude":37.824218,"zip code":"94608","street":"1275 - 61st St","phone":"(510) 594-2666","longitude":-122.2471,"id":"abwohms6xz1y","state":"CA"},"type":"Feature","geometry":{"type":"Point","coordinates":[-122.2471,37.824218]}},{"properties":{"city":"Oakland","school name":"Bella Vista Elementary","latitude":37.800015,"zip code":"94610-4018","street":"1025 East 28th St.","phone":"(510) 436-4900","longitude":-122.23758,"id":"abwohn1hl715","state":"CA"},"type":"Feature","geometry":{"type":"Point","coordinates":[-122.23758,37.800015]}},{"properties":{"city":"Berkeley","school name":"Berkeley Adult","latitude":null,"zip code":"94702-1709","street":"1701 San Pablo Ave.","phone":"(510) 644-6130","longitude":null,"id":"abwohmqi9hdc","state":"CA"},"type":"Feature","geometry":null},{"properties":{"city":"Berkeley","school name":"Berkeley Arts Magnet at Whittier","latitude":37.876917,"zip code":"94709-2073","street":"1645 Milvia St.","phone":"(510) 644-6225","longitude":-122.27126,"id":"abwohms71hbu","state":"CA"},"type":"Feature","geometry":{"type":"Point","coordinates":[-122.27126,37.876917]}},{"properties":{"city":"Berkeley","school name":"Berkeley High","latitude":37.868942,"zip code":"94704","street":"1980 Allston Way","phone":"(510) 644-6120","longitude":-122.2712,"id":"abwohmyj7cj0","state":"CA"},"type":"Feature","geometry":{"type":"Point","coordinates":[-122.2712,37.868942]}},{"properties":{"city":"Berkeley","school name":"Berkeley Special Education Preschool","latitude":null,"zip code":"94704-1180","street":"2134 Martin Luther King Jr. Way","phone":"(510) 644-6120","longitude":null,"id":"abwohmzs692b","state":"CA"},"type":"Feature","geometry":null},{"properties":{"city":"Berkeley","school name":"Berkeley Technology Academy","latitude":37.85974,"zip code":"94704","street":"2701 Martin Luther King Jr. Way","phone":"(510) 644-6159","longitude":-122.27171,"id":"abwohmuxh9y4","state":"CA"},"type":"Feature","geometry":{"type":"Point","coordinates":[-122.27171,37.85974]}},{"properties":{"city":"San Lorenzo","school name":"Bohannon Middle","latitude":37.67082,"zip code":"94580-2906","street":"800 Bockman Rd.","phone":"(510) 317-3800","longitude":-122.1282,"id":"abwohn01zs5c","state":"CA"},"type":"Feature","geometry":{"type":"Point","coordinates":[-122.1282,37.67082]}},{"properties":{"city":"Hayward","school name":"Bowman Elementary","latitude":37.641653,"zip code":"94544-4126","street":"520 Jefferson St.","phone":"(510) 723-3800","longitude":-122.06266,"id":"abwohn17qlf5","state":"CA"},"type":"Feature","geometry":{"type":"Point","coordinates":[-122.06266,37.641653]}},{"properties":{"city":"Hayward","school name":"Brenkwitz High","latitude":37.671941,"zip code":"94541-3817","street":"22100 Princeton St.","phone":"(510) 723-3160","longitude":-122.09898,"id":"abwohmqyzn06","state":"CA"},"type":"Feature","geometry":{"type":"Point","coordinates":[-122.09898,37.671941]}},{"properties":{"city":"Hayward","school name":"Bret Harte Middle","latitude":37.670284,"zip code":"94540-5000","street":"1047 E St.","phone":"(510) 723-3100","longitude":-122.07901,"id":"abwohmyx040a","state":"CA"},"type":"Feature","geometry":{"type":"Point","coordinates":[-122.07901,37.670284]}},{"properties":{"city":"Oakland","school name":"Bret Harte Middle","latitude":37.800592,"zip code":"94602-3309","street":"3700 Coolidge Ave.","phone":"(510) 531-6400","longitude":-122.20655,"id":"abwohn28y98w","state":"CA"},"type":"Feature","geometry":{"type":"Point","coordinates":[-122.20655,37.800592]}},{"properties":{"city":"Newark","school name":"Bridgepoint High (Continuation)","latitude":37.550583,"zip code":"94560-5007","street":"35753 Cedar Blvd.","phone":"(510) 818-3200","longitude":-122.03779,"id":"abwohmvc8e4l","state":"CA"},"type":"Feature","geometry":{"type":"Point","coordinates":[-122.03779,37.550583]}},{"properties":{"city":"Oakland","school name":"Bridges Academy","latitude":37.767761,"zip code":"94601-5728","street":"1325 53rd Ave.","phone":"(510) 535-3876","longitude":-122.2065,"id":"abwohmxoreg3","state":"CA"},"type":"Feature","geometry":{"type":"Point","coordinates":[-122.2065,37.767761]}},{"properties":{"city":"Fremont","school name":"Brier Elementary","latitude":37.539757,"zip code":"94538-1916","street":"39201 Sundale Dr.","phone":"(510) 657-5020","longitude":-121.98467,"id":"abwohmq0omb9","state":"CA"},"type":"Feature","geometry":{"type":"Point","coordinates":[-121.98467,37.539757]}},{"properties":{"city":"Oakland","school name":"Brookfield Elementary","latitude":37.734706,"zip code":"94603-1123","street":"401 Jones Ave.","phone":"(510) 879-0806","longitude":-122.18896,"id":"abwohmrwofxg","state":"CA"},"type":"Feature","geometry":{"type":"Point","coordinates":[-122.18896,37.734706]}},{"properties":{"city":"Fremont","school name":"Brookvale Elementary","latitude":37.568791,"zip code":"94536-3598","street":"3400 Nicolet Ave.","phone":"(510) 797-5940","longitude":-122.01399,"id":"abwohmv9bc4h","state":"CA"},"type":"Feature","geometry":{"type":"Point","coordinates":[-122.01399,37.568791]}},{"properties":{"city":"Hayward","school name":"Burbank Elementary","latitude":37.667951,"zip code":"94541-6307","street":"353 B St.","phone":"(510) 723-3805","longitude":-122.09429,"id":"abwohmps6r9v","state":"CA"},"type":"Feature","geometry":{"type":"Point","coordinates":[-122.09429,37.667951]}},{"properties":{"city":"Oakland","school name":"Burbank Preschool Center","latitude":null,"zip code":"94605-1802","street":"3550 64th Ave.","phone":"(510) 729-7771","longitude":null,"id":"abwohn0nfqgo","state":"CA"},"type":"Feature","geometry":null},{"properties":{"city":"Oakland","school name":"Burckhalter Elementary","latitude":37.775598,"zip code":"94605-2616","street":"3994 Burckhalter Ave.","phone":"(510) 729-7700","longitude":-122.16681,"id":"abwohn322rfd","state":"CA"},"type":"Feature","geometry":{"type":"Point","coordinates":[-122.16681,37.775598]}},{"properties":{"city":"Hayward","school name":"Burke (William P.) Special Center","latitude":null,"zip code":"94541","street":"612 West A St.","phone":null,"longitude":null,"id":"abwohn3nbsji","state":"CA"},"type":"Feature","geometry":null},{"properties":{"city":"Oakland","school name":"Business and Information Technology High","latitude":37.75887,"zip code":"94605-4037","street":"8601 MacArthur Blvd.","phone":"(510) 879-3010","longitude":-122.1625,"id":"abwohmo0n58d","state":"CA"},"type":"Feature","geometry":{"type":"Point","coordinates":[-122.1625,37.75887]}},{"properties":{"city":"Union City","school name":"Cabello Student Support Center","latitude":37.586165,"zip code":"94587","street":"4500 Cabello St.","phone":"(510) 489-4141","longitude":-122.07657,"id":"abwohmyy3jlz","state":"CA"},"type":"Feature","geometry":{"type":"Point","coordinates":[-122.07657,37.586165]}},{"properties":{"city":"Fremont","school name":"Cabrillo Elementary","latitude":37.550804,"zip code":"94536-6406","street":"36700 San Pedro Dr.","phone":"(510) 792-3232","longitude":-122.02335,"id":"abwohmx0b5zb","state":"CA"},"type":"Feature","geometry":{"type":"Point","coordinates":[-122.02335,37.550804]}},{"properties":{"city":"Fremont","school name":"California School for the Blind","latitude":37.562594,"zip code":"94536-4365","street":"500 Walnut Ave.","phone":"(510) 794-3800","longitude":-121.96565,"id":"abwohmox9v17","state":"CA"},"type":"Feature","geometry":{"type":"Point","coordinates":[-121.96565,37.562594]}},{"properties":{"city":"Fremont","school name":"California School for the Deaf-Fremont","latitude":37.558939,"zip code":"94538-2308","street":"39350 Gallaudet Dr.","phone":"(510) 794-3666","longitude":-121.96554,"id":"abwohmp6e2b7","state":"CA"},"type":"Feature","geometry":{"type":"Point","coordinates":[-121.96554,37.558939]}},{"properties":{"city":"Castro Valley","school name":"Canyon Middle","latitude":37.705774,"zip code":"94552-3715","street":"19600 Cull Canyon Rd.","phone":"(510) 538-8833","longitude":-122.05429,"id":"abwohn1d6dqa","state":"CA"},"type":"Feature","geometry":{"type":"Point","coordinates":[-122.05429,37.705774]}},{"properties":{"city":"Oakland","school name":"Carl B. Munck Elementary","latitude":37.794907,"zip code":"94619-3104","street":"11900 Campus Dr.","phone":"(510) 531-4900","longitude":-122.17382,"id":"abwohmnxorlq","state":"CA"},"type":"Feature","geometry":{"type":"Point","coordinates":[-122.17382,37.794907]}},{"properties":{"city":"Oakland","school name":"Castlemont High","latitude":null,"zip code":"94605-4037","street":"8601 MacArthur Blvd.","phone":"(510) 636-1466","longitude":null,"id":"abwohmoypegs","state":"CA"},"type":"Feature","geometry":null},{"properties":{"city":"Castro Valley","school name":"Castro Valley Adult and Career Education","latitude":null,"zip code":"94546-4704","street":"4430 Alma Ave.","phone":"(510) 886-1000","longitude":null,"id":"abwohn1r9iib","state":"CA"},"type":"Feature","geometry":null},{"properties":{"city":"Castro Valley","school name":"Castro Valley Elementary","latitude":37.698044,"zip code":"94546-0146","street":"20185 San Miguel Ave.","phone":"(510) 537-1919","longitude":-122.08099,"id":"abwohn02jysm","state":"CA"},"type":"Feature","geometry":{"type":"Point","coordinates":[-122.08099,37.698044]}},{"properties":{"city":"Castro Valley","school name":"Castro Valley High","latitude":37.704885,"zip code":"94546-3400","street":"19400 Santa Maria Ave.","phone":"(510) 537-5910","longitude":-122.07654,"id":"abwohn0v38pd","state":"CA"},"type":"Feature","geometry":{"type":"Point","coordinates":[-122.07654,37.704885]}},{"properties":{"city":"Fremont","school name":"Centerville Junior High","latitude":37.557279,"zip code":"94536-5096","street":"37720 Fremont Blvd.","phone":"(510) 797-2072","longitude":-122.0006,"id":"abwohmzch4g5","state":"CA"},"type":"Feature","geometry":{"type":"Point","coordinates":[-122.0006,37.557279]}},{"properties":{"city":"Hayward","school name":"Cesar Chavez Middle","latitude":37.636992,"zip code":"94544-4752","street":"27845 Whitman Rd.","phone":"(510) 723-3110","longitude":-122.06274,"id":"abwohn0pnloq","state":"CA"},"type":"Feature","geometry":{"type":"Point","coordinates":[-122.06274,37.636992]}},{"properties":{"city":"Union City","school name":"Cesar Chavez Middle","latitude":37.590181,"zip code":"94587-5708","street":"2801 Hop Ranch Rd.","phone":"(510) 471-5363","longitude":-122.04732,"id":"abwohn1w18nc","state":"CA"},"type":"Feature","geometry":{"type":"Point","coordinates":[-122.04732,37.590181]}},{"properties":{"city":"Oakland","school name":"Chabot Elementary","latitude":37.850143,"zip code":"94618-1641","street":"6686 Chabot Rd.","phone":"(510) 654-4884","longitude":-122.2427,"id":"abwohn3nzn3b","state":"CA"},"type":"Feature","geometry":{"type":"Point","coordinates":[-122.2427,37.850143]}},{"properties":{"city":"Castro Valley","school name":"Chabot Elementary","latitude":37.707073,"zip code":"94546-2936","street":"19104 Lake Chabot Rd.","phone":"(510) 537-2342","longitude":-122.09016,"id":"abwohn0pbma8","state":"CA"},"type":"Feature","geometry":{"type":"Point","coordinates":[-122.09016,37.707073]}},{"properties":{"city":"Hayward","school name":"Cherryland Elementary","latitude":37.675675,"zip code":"94541-2424","street":"585 Willow Ave.","phone":"(510) 723-3810","longitude":-122.09837,"id":"abwohn0ucbwu","state":"CA"},"type":"Feature","geometry":{"type":"Point","coordinates":[-122.09837,37.675675]}},{"properties":{"city":"Fremont","school name":"Circle of Independent Learning","latitude":37.537974,"zip code":"94538","street":"4700 Calaveras Ave.","phone":"(510) 797-0100","longitude":-121.9921,"id":"abwohn03nply","state":"CA"},"type":"Feature","geometry":{"type":"Point","coordinates":[-121.9921,37.537974]}},{"properties":{"city":"Oakland","school name":"Civicorps Corpsmember Academy","latitude":37.79877,"zip code":"94607-2507","street":"101 Myrtle St.","phone":"(510) 992-7800","longitude":-122.28552,"id":"abwohmxb14dt","state":"CA"},"type":"Feature","geometry":{"type":"Point","coordinates":[-122.28552,37.79877]}},{"properties":{"city":"Oakland","school name":"Civicorps Elementary","latitude":37.847364,"zip code":"94608-1265","street":"1086 Alcatraz Ave.","phone":"(510) 420-3701","longitude":-122.28363,"id":"abwohn2d7ox7","state":"CA"},"type":"Feature","geometry":{"type":"Point","coordinates":[-122.28363,37.847364]}},{"properties":{"city":"Oakland","school name":"Claremont Middle","latitude":37.845749,"zip code":"94618-1629","street":"5750 College Ave.","phone":"(510) 654-7337","longitude":-122.25188,"id":"abwohmvhg3jz","state":"CA"},"type":"Feature","geometry":{"type":"Point","coordinates":[-122.25188,37.845749]}},{"properties":{"city":"Oakland","school name":"Cleveland Elementary","latitude":37.804391,"zip code":"94606-1513","street":"745 Cleveland St.","phone":"(510) 879-1080","longitude":-122.24404,"id":"abwohmsr5a3f","state":"CA"},"type":"Feature","geometry":{"type":"Point","coordinates":[-122.24404,37.804391]}},{"properties":{"city":"Oakland","school name":"Coliseum College Prep Academy","latitude":37.762001,"zip code":"94621-3506","street":"1390 66th Ave.","phone":"(510) 639-3201","longitude":-122.19339,"id":"abwohmxbvanw","state":"CA"},"type":"Feature","geometry":{"type":"Point","coordinates":[-122.19339,37.762001]}},{"properties":{"city":"Oakland","school name":"College Preparatory and Architecture Academy","latitude":37.774366,"zip code":"93601","street":"4610 Foothill Blvd.","phone":"(510) 879-1131","longitude":-122.20951,"id":"abwohn0dvv9z","state":"CA"},"type":"Feature","geometry":{"type":"Point","coordinates":[-122.20951,37.774366]}},{"properties":{"city":"Hayward","school name":"Colonial Acres Elementary","latitude":37.683022,"zip code":"94541-1304","street":"17115 Meekland Ave.","phone":"(510) 317-4500","longitude":-122.11723,"id":"abwohmtkv9pq","state":"CA"},"type":"Feature","geometry":{"type":"Point","coordinates":[-122.11723,37.683022]}},{"properties":{"city":"Oakland","school name":"Community Day","latitude":37.788448,"zip code":"94619","street":"4917 Mountain Blvd.","phone":"(510) 879-8450","longitude":-122.178,"id":"abwohmohfv1i","state":"CA"},"type":"Feature","geometry":{"type":"Point","coordinates":[-122.178,37.788448]}},{"properties":{"city":"Oakland","school name":"Community School for Creative Education","latitude":null,"zip code":"94605-4197","street":"8755 Fontaine St.","phone":"(510) 517-0331","longitude":null,"id":"abwohmxs58k8","state":"CA"},"type":"Feature","geometry":null},{"properties":{"city":"Oakland","school name":"Community United Elementary","latitude":37.761449,"zip code":"94621","street":"6701 International Blvd.","phone":"(510) 879-1340","longitude":-122.19187,"id":"abwohmzkv9e2","state":"CA"},"type":"Feature","geometry":{"type":"Point","coordinates":[-122.19187,37.761449]}},{"properties":{"city":"Oakland","school name":"Conservatory of Vocal/Instrumental Arts","latitude":37.802065,"zip code":"94619-1630","street":"3800 Mountain Blvd.","phone":"(510) 285-7511","longitude":-122.185,"id":"abwohmrwd70k","state":"CA"},"type":"Feature","geometry":{"type":"Point","coordinates":[-122.185,37.802065]}},{"properties":{"city":"Hayward","school name":"Core Learning Academy at Conley-Caraballo High","latitude":37.615224,"zip code":"94544","street":"541 Blanche St.","phone":"(510) 471-5126","longitude":-122.02878,"id":"abwohmuaj8ht","state":"CA"},"type":"Feature","geometry":{"type":"Point","coordinates":[-122.02878,37.615224]}},{"properties":{"city":"Albany","school name":"Cornell Elementary","latitude":37.889831,"zip code":"94706-2020","street":"920 Talbot Ave.","phone":"(510) 558-3700","longitude":-122.29515,"id":"abwohn2h5te7","state":"CA"},"type":"Feature","geometry":{"type":"Point","coordinates":[-122.29515,37.889831]}},{"properties":{"city":"San Leandro","school name":"Corvallis Elementary","latitude":37.697537,"zip code":"94579-1174","street":"14790 Corvallis St.","phone":"(510) 317-4900","longitude":-122.15125,"id":"abwohmvtx562","state":"CA"},"type":"Feature","geometry":{"type":"Point","coordinates":[-122.15125,37.697537]}},{"properties":{"city":"Oakland","school name":"Cox Academy","latitude":null,"zip code":"94603-2750","street":"9860 Sunnyside St.","phone":"(510) 904-6300","longitude":null,"id":"abwohn2ai7dh","state":"CA"},"type":"Feature","geometry":null},{"properties":{"city":"Berkeley","school name":"Cragmont Elementary","latitude":37.891953,"zip code":"94708","street":"830 Regal Rd.","phone":"(510) 644-8810","longitude":-122.26383,"id":"abwohmo6sany","state":"CA"},"type":"Feature","geometry":{"type":"Point","coordinates":[-122.26383,37.891953]}},{"properties":{"city":"Castro Valley","school name":"Creekside Middle","latitude":37.699925,"zip code":"94546","street":"19722 Center St.","phone":"(510) 247-0665","longitude":-122.06127,"id":"abwohmw8rbc7","state":"CA"},"type":"Feature","geometry":{"type":"Point","coordinates":[-122.06127,37.699925]}},{"properties":{"city":"Oakland","school name":"Crocker Highlands Elementary","latitude":37.811112,"zip code":"94610-1813","street":"525 Midcrest Rd.","phone":"(510) 451-5900","longitude":-122.2276,"id":"abwohn3fn10s","state":"CA"},"type":"Feature","geometry":{"type":"Point","coordinates":[-122.2276,37.811112]}},{"properties":{"city":"Dublin","school name":"Cronin Elementary","latitude":null,"zip code":"94568","street":"6901 York Dr.","phone":null,"longitude":null,"id":"abwohmypsvre","state":"CA"},"type":"Feature","geometry":null},{"properties":{"city":"Newark","school name":"Crossroads High (Alternative)","latitude":37.550583,"zip code":"94560","street":"35753 Cedar Blvd.","phone":"(510) 818-3720","longitude":-122.03779,"id":"abwohmypysve","state":"CA"},"type":"Feature","geometry":{"type":"Point","coordinates":[-122.03779,37.550583]}},{"properties":{"city":"San Lorenzo","school name":"Dayton Elementary","latitude":37.688565,"zip code":"94579-1528","street":"1500 Dayton Ave.","phone":"(510) 317-3600","longitude":-122.15676,"id":"abwohmxp1g8z","state":"CA"},"type":"Feature","geometry":{"type":"Point","coordinates":[-122.15676,37.688565]}},{"properties":{"city":"San Lorenzo","school name":"Del Rey Elementary","latitude":37.668663,"zip code":"94580-2760","street":"1510 Via Sonya","phone":"(510) 317-5000","longitude":-122.13657,"id":"abwohmzv2na9","state":"CA"},"type":"Feature","geometry":{"type":"Point","coordinates":[-122.13657,37.668663]}},{"properties":{"city":"Livermore","school name":"Del Valle Continuation High","latitude":37.678927,"zip code":"94550-4549","street":"2253 Fifth St.","phone":"(925) 606-4709","longitude":-121.76675,"id":"abwohmqm1faf","state":"CA"},"type":"Feature","geometry":{"type":"Point","coordinates":[-121.76675,37.678927]}},{"properties":{"city":"Union City","school name":"Delaine Eastin Elementary","latitude":37.566808,"zip code":"94587","street":"34901 Eastin Dr.","phone":"(510) 475-9630","longitude":-122.07485,"id":"abwohmtiznij","state":"CA"},"type":"Feature","geometry":{"type":"Point","coordinates":[-122.07485,37.566808]}},{"properties":{"city":"Oakland","school name":"Dewey Academy","latitude":37.79668,"zip code":"94606","street":"1111 2nd Ave.","phone":"(510) 874-3660","longitude":-122.25814,"id":"abwohmprlc7o","state":"CA"},"type":"Feature","geometry":{"type":"Point","coordinates":[-122.25814,37.79668]}},{"properties":{"city":"Alameda","school name":"Donald D. Lum Elementary","latitude":37.762208,"zip code":"94501-6024","street":"1801 Sandcreek Way","phone":"(510) 748-4009","longitude":-122.25898,"id":"abwohmx6qwf7","state":"CA"},"type":"Feature","geometry":{"type":"Point","coordinates":[-122.25898,37.762208]}},{"properties":{"city":"Pleasanton","school name":"Donlon Elementary","latitude":37.684425,"zip code":"94588-4411","street":"4150 Dorman Rd.","phone":"(925) 426-4220","longitude":-121.90955,"id":"abwohmxz1xcx","state":"CA"},"type":"Feature","geometry":{"type":"Point","coordinates":[-121.90955,37.684425]}},{"properties":{"city":"Pleasanton","school name":"Donlon Elementary","latitude":null,"zip code":"94566","street":"4150 Dorman Rd.","phone":null,"longitude":null,"id":"abwohmqwfqp5","state":"CA"},"type":"Feature","geometry":null},{"properties":{"city":"Pleasanton","school name":"Donlon Elementary","latitude":null,"zip code":"94568","street":"4150 Dorman Rd.","phone":null,"longitude":null,"id":"abwohmu91mjv","state":"CA"},"type":"Feature","geometry":null},{"properties":{"city":"Dublin","school name":"Dublin Adult Education","latitude":null,"zip code":"94568-1500","street":"6901 York Dr.","phone":"(925) 829-4322","longitude":null,"id":"abwohn1i0flt","state":"CA"},"type":"Feature","geometry":null},{"properties":{"city":"Dublin","school name":"Dublin Elementary","latitude":null,"zip code":"94566","street":"7997 Vomac Rd.","phone":null,"longitude":null,"id":"abwohn1jgzxv","state":"CA"},"type":"Feature","geometry":null},{"properties":{"city":"Dublin","school name":"Dublin Elementary","latitude":37.714317,"zip code":"94568-1599","street":"7997 Vomac Rd.","phone":"(925) 833-1204","longitude":-121.93693,"id":"abwohmprxhkf","state":"CA"},"type":"Feature","geometry":{"type":"Point","coordinates":[-121.93693,37.714317]}},{"properties":{"city":"Dublin","school name":"Dublin High","latitude":37.720901,"zip code":"94568-1656","street":"8151 Village Pkwy.","phone":"(925) 833-3300","longitude":-121.92404,"id":"abwohmvevi6k","state":"CA"},"type":"Feature","geometry":{"type":"Point","coordinates":[-121.92404,37.720901]}},{"properties":{"city":"Dublin","school name":"Dublin High","latitude":null,"zip code":"94568","street":"8151 Village Pkwy.","phone":null,"longitude":null,"id":"abwohn1isbff","state":"CA"},"type":"Feature","geometry":null},{"properties":{"city":"Newark","school name":"E. L. Musick Elementary","latitude":37.542272,"zip code":"94560-2554","street":"5735 Musick Ave.","phone":"(510) 818-4000","longitude":-122.03167,"id":"abwohmy3d7t5","state":"CA"},"type":"Feature","geometry":{"type":"Point","coordinates":[-122.03167,37.542272]}},{"properties":{"city":"Fremont","school name":"E. M. Grimmer Elementary","latitude":37.520434,"zip code":"94538-6113","street":"43030 Newport Dr.","phone":"(510) 656-1250","longitude":-121.95058,"id":"abwohn15at3v","state":"CA"},"type":"Feature","geometry":{"type":"Point","coordinates":[-121.95058,37.520434]}},{"properties":{"city":"Hayward","school name":"East Avenue Elementary","latitude":37.671385,"zip code":"94541-5634","street":"2424 East Ave.","phone":"(510) 723-3815","longitude":-122.0542,"id":"abwohmuk9s4w","state":"CA"},"type":"Feature","geometry":{"type":"Point","coordinates":[-122.0542,37.671385]}},{"properties":{"city":"Livermore","school name":"East Avenue Middle","latitude":37.679841,"zip code":"94550-4830","street":"3951 East Ave.","phone":"(925) 606-4711","longitude":-121.75005,"id":"abwohn0mha9p","state":"CA"},"type":"Feature","geometry":{"type":"Point","coordinates":[-121.75005,37.679841]}},{"properties":{"city":"Hayward","school name":"East Bay Arts High","latitude":37.669316,"zip code":"94541","street":"20450 Royal Ave.","phone":"(510) 317-4471","longitude":-122.11418,"id":"abwohmxgcbtf","state":"CA"},"type":"Feature","geometry":{"type":"Point","coordinates":[-122.11418,37.669316]}},{"properties":{"city":"Alameda","school name":"East Bay Regional Occupation Center/Agency (ROC/P)","latitude":37.778625,"zip code":"94501","street":"1900 Third St., Rm. 23","phone":"(510) 879-3037","longitude":-122.28792,"id":"abwohn2v1pak","state":"CA"},"type":"Feature","geometry":{"type":"Point","coordinates":[-122.28792,37.778625]}},{"properties":{"city":"Oakland","school name":"East Oakland Leadership Academy","latitude":37.771856,"zip code":"94605","street":"2614 Seminary Ave.","phone":"(510) 562-5238","longitude":-122.18988,"id":"abwohn2fheuf","state":"CA"},"type":"Feature","geometry":{"type":"Point","coordinates":[-122.18988,37.771856]}},{"properties":{"city":"Oakland","school name":"East Oakland Leadership Academy High","latitude":37.771856,"zip code":"94605","street":"2607 Seminary Ave.","phone":"(510) 562-5238","longitude":-122.18988,"id":"abwohmu441vl","state":"CA"},"type":"Feature","geometry":{"type":"Point","coordinates":[-122.18988,37.771856]}},{"properties":{"city":"Oakland","school name":"East Oakland Pride Elementary","latitude":37.759054,"zip code":"94621-2123","street":"8000 Birch St.","phone":"(510) 636-8217","longitude":-122.17448,"id":"abwohn0zaihw","state":"CA"},"type":"Feature","geometry":{"type":"Point","coordinates":[-122.17448,37.759054]}},{"properties":{"city":"Oakland","school name":"East Oakland School of the Arts","latitude":37.75887,"zip code":"94605","street":"8601 MacArthur Blvd.","phone":"(510) 639-1466","longitude":-122.1625,"id":"abwohmwij7me","state":"CA"},"type":"Feature","geometry":{"type":"Point","coordinates":[-122.1625,37.75887]}},{"properties":{"city":"Hayward","school name":"Eden Area ROP","latitude":37.634526,"zip code":"94545","street":"26316 Hesperian Blvd.","phone":"(510) 293-2900","longitude":-122.09878,"id":"abwohmnit3qy","state":"CA"},"type":"Feature","geometry":{"type":"Point","coordinates":[-122.09878,37.634526]}},{"properties":{"city":"Hayward","school name":"Eden Gardens Elementary","latitude":37.638096,"zip code":"94545-2925","street":"2184 Thayer Ave.","phone":"(510) 723-3820","longitude":-122.10721,"id":"abwohmo0kky8","state":"CA"},"type":"Feature","geometry":{"type":"Point","coordinates":[-122.10721,37.638096]}},{"properties":{"city":"San Lorenzo","school name":"Edendale Middle","latitude":37.695235,"zip code":"94580-1116","street":"16160 Ashland Ave.","phone":"(510) 317-5100","longitude":-122.11728,"id":"abwohmtbqcqr","state":"CA"},"type":"Feature","geometry":{"type":"Point","coordinates":[-122.11728,37.695235]}},{"properties":{"city":"Alameda","school name":"Edison Elementary","latitude":37.764438,"zip code":"94501-1610","street":"2700 Buena Vista Ave.","phone":"(510) 748-4002","longitude":-122.23476,"id":"abwohmnaqeef","state":"CA"},"type":"Feature","geometry":{"type":"Point","coordinates":[-122.23476,37.764438]}},{"properties":{"city":"Oakland","school name":"Edna Brewer Middle","latitude":37.803585,"zip code":"94610-2820","street":"3748 13th Ave.","phone":"(510) 531-6600","longitude":-122.22914,"id":"abwohmx2p2u4","state":"CA"},"type":"Feature","geometry":{"type":"Point","coordinates":[-122.22914,37.803585]}},{"properties":{"city":"Oakland","school name":"Edward Shands Adult","latitude":null,"zip code":"94605-2370","street":"2455 Church St.","phone":"(510) 273-2300","longitude":null,"id":"abwohn1ev0lk","state":"CA"},"type":"Feature","geometry":null},{"properties":{"city":"Hayward","school name":"Eldridge Elementary","latitude":37.636861,"zip code":"94544-3729","street":"26825 Eldridge Ave.","phone":"(510) 723-3825","longitude":-122.0853,"id":"abwohmoyszle","state":"CA"},"type":"Feature","geometry":{"type":"Point","coordinates":[-122.0853,37.636861]}},{"properties":{"city":"Dublin","school name":"Eleanor Murray Fallon","latitude":37.714869,"zip code":"94568","street":"3601 Kohnen Way","phone":"(925) 875-9376","longitude":-121.8642,"id":"abwohmzox438","state":"CA"},"type":"Feature","geometry":{"type":"Point","coordinates":[-121.8642,37.714869]}},{"properties":{"city":"Oakland","school name":"Elmhurst Community Prep","latitude":37.746392,"zip code":"94603-2702","street":"1800 98th Ave.","phone":"(510) 639-2888","longitude":-122.16611,"id":"abwohmwedb0i","state":"CA"},"type":"Feature","geometry":{"type":"Point","coordinates":[-122.16611,37.746392]}},{"properties":{"city":"Berkeley","school name":"Emerson Elementary","latitude":37.861516,"zip code":"94705-1309","street":"2800 Forest Ave.","phone":"(510) 644-6890","longitude":-122.25111,"id":"abwohmy3oiku","state":"CA"},"type":"Feature","geometry":{"type":"Point","coordinates":[-122.25111,37.861516]}},{"properties":{"city":"Oakland","school name":"Emerson Elementary","latitude":37.834615,"zip code":"94609-2208","street":"4803 Lawton Ave.","phone":"(510) 654-7373","longitude":-122.25727,"id":"abwohmwm8t13","state":"CA"},"type":"Feature","geometry":{"type":"Point","coordinates":[-122.25727,37.834615]}},{"properties":{"city":"Emeryville","school name":"Emery Secondary","latitude":37.835665,"zip code":"94608-2908","street":"1100 47th St.","phone":"(510) 601-4963","longitude":-122.28124,"id":"abwohn0pat86","state":"CA"},"type":"Feature","geometry":{"type":"Point","coordinates":[-122.28124,37.835665]}},{"properties":{"city":"Emeryville","school name":"Emeryville Preschool Students","latitude":null,"zip code":"94608","street":"4727 San Pablo Ave.","phone":"(510) 601-4000","longitude":null,"id":"abwohmx4xb03","state":"CA"},"type":"Feature","geometry":null},{"properties":{"city":"Livermore","school name":"Emma C. Smith Elementary","latitude":37.667169,"zip code":"94550-5249","street":"391 Ontario Dr.","phone":"(925) 606-4750","longitude":-121.79637,"id":"abwohn209th0","state":"CA"},"type":"Feature","geometry":{"type":"Point","coordinates":[-121.79637,37.667169]}},{"properties":{"city":"Alameda","school name":"Encinal High","latitude":37.773638,"zip code":"94501-3278","street":"210 Central Ave.","phone":"(510) 748-4023","longitude":-122.29025,"id":"abwohmv5jzu4","state":"CA"},"type":"Feature","geometry":{"type":"Point","coordinates":[-122.29025,37.773638]}},{"properties":{"city":"Oakland","school name":"EnCompass Academy Elementary","latitude":37.752836,"zip code":"94621-2455","street":"1025 81st Ave.","phone":"(510) 879-0207","longitude":-122.18604,"id":"abwohmymbtuv","state":"CA"},"type":"Feature","geometry":{"type":"Point","coordinates":[-122.18604,37.752836]}},{"properties":{"city":"Oakland","school name":"Envision Academy for Arts &amp; Technology","latitude":37.804504,"zip code":"94612-3355","street":"1515 Webster St.","phone":"(510) 596-8901","longitude":-122.26812,"id":"abwohn323wxi","state":"CA"},"type":"Feature","geometry":{"type":"Point","coordinates":[-122.26812,37.804504]}},{"properties":{"city":"Oakland","school name":"Esperanza Elementary","latitude":37.737513,"zip code":"94603-3133","street":"10315 E St.","phone":"(510) 639-3367","longitude":-122.17353,"id":"abwohmvmsait","state":"CA"},"type":"Feature","geometry":{"type":"Point","coordinates":[-122.17353,37.737513]}},{"properties":{"city":"Pleasanton","school name":"Fairlands Elementary","latitude":37.692591,"zip code":"94588-4199","street":"4151 West Las Positas Blvd.","phone":"(925) 426-4210","longitude":-121.87434,"id":"abwohmrrkk1i","state":"CA"},"type":"Feature","geometry":{"type":"Point","coordinates":[-121.87434,37.692591]}},{"properties":{"city":"Pleasanton","school name":"Fairlands Elementary","latitude":null,"zip code":"94566-4199","street":"4151 W. Las Positas","phone":null,"longitude":null,"id":"abwohmtoirc6","state":"CA"},"type":"Feature","geometry":null},{"properties":{"city":"Hayward","school name":"Fairview Elementary","latitude":37.680342,"zip code":"94541-4519","street":"23515 Maud Ave.","phone":"(510) 723-3830","longitude":-122.05306,"id":"abwohmsf4ouh","state":"CA"},"type":"Feature","geometry":{"type":"Point","coordinates":[-122.05306,37.680342]}},{"properties":{"city":"Hayward","school name":"Faith Ringgold School of Arts and Science","latitude":37.676238,"zip code":"94541","street":"1570 Ward St.","phone":"(510) 889-7399","longitude":-122.07394,"id":"abwohmqjra7b","state":"CA"},"type":"Feature","geometry":{"type":"Point","coordinates":[-122.07394,37.676238]}},{"properties":{"city":"Dublin","school name":"Fallon Elementary","latitude":null,"zip code":"94566","street":"7425 Larkdale Ave.","phone":null,"longitude":null,"id":"abwohmq0gn6t","state":"CA"},"type":"Feature","geometry":null},{"properties":{"city":"Newark","school name":"FAME Public Charter","latitude":37.521612,"zip code":"94560-5359","street":"39899 Balentine Dr., Ste. 335","phone":"(510) 687-9111","longitude":-121.9927,"id":"abwohmoc1eme","state":"CA"},"type":"Feature","geometry":{"type":"Point","coordinates":[-121.9927,37.521612]}},{"properties":{"city":"Oakland","school name":"Far West","latitude":37.836725,"zip code":"94618-1418","street":"5263 Broadway Terr.","phone":"(510) 654-7116","longitude":-122.24902,"id":"abwohn141cqa","state":"CA"},"type":"Feature","geometry":{"type":"Point","coordinates":[-122.24902,37.836725]}},{"properties":{"city":"Pleasanton","school name":"Foothill High","latitude":37.672086,"zip code":"94588-9799","street":"4375 Foothill Rd.","phone":"(925) 461-6600","longitude":-121.91796,"id":"abwohmpurp9j","state":"CA"},"type":"Feature","geometry":{"type":"Point","coordinates":[-121.91796,37.672086]}},{"properties":{"city":"Pleasanton","school name":"Foothill High","latitude":null,"zip code":"94566-9799","street":"4375 Foothill Rd.","phone":null,"longitude":null,"id":"abwohn0cv814","state":"CA"},"type":"Feature","geometry":null},{"properties":{"city":"Fremont","school name":"Forest Park Elementary","latitude":37.561188,"zip code":"94555-2917","street":"34400 Maybird Cir.","phone":"(510) 713-0141","longitude":-122.05189,"id":"abwohmz4cs04","state":"CA"},"type":"Feature","geometry":{"type":"Point","coordinates":[-122.05189,37.561188]}},{"properties":{"city":"Alameda","school name":"Frank Otis Elementary","latitude":37.754042,"zip code":"94501-5544","street":"3010 Fillmore St.","phone":"(510) 748-4013","longitude":-122.23798,"id":"abwohms4xz5f","state":"CA"},"type":"Feature","geometry":{"type":"Point","coordinates":[-122.23798,37.754042]}},{"properties":{"city":"Alameda","school name":"Franklin Elementary","latitude":37.769011,"zip code":"94501-4039","street":"1433 San Antonio Ave.","phone":"(510) 748-4004","longitude":-122.26162,"id":"abwohmuwk3aj","state":"CA"},"type":"Feature","geometry":{"type":"Point","coordinates":[-122.26162,37.769011]}},{"properties":{"city":"Oakland","school name":"Franklin Elementary","latitude":37.793522,"zip code":"94606-3013","street":"915 Foothill Blvd.","phone":"(510) 874-3354","longitude":-122.24873,"id":"abwohmph1co0","state":"CA"},"type":"Feature","geometry":{"type":"Point","coordinates":[-122.24873,37.793522]}},{"properties":{"city":"Berkeley","school name":"Franklin Parent Nursery","latitude":null,"zip code":"94703","street":"1460 Eighth St.","phone":null,"longitude":null,"id":"abwohmpbt7tf","state":"CA"},"type":"Feature","geometry":null},{"properties":{"city":"Fremont","school name":"Fred E. Weibel Elementary","latitude":37.507335,"zip code":"94539-6631","street":"45135 South Grimmer Blvd.","phone":"(510) 651-6958","longitude":-121.92837,"id":"abwohmnr949t","state":"CA"},"type":"Feature","geometry":{"type":"Point","coordinates":[-121.92837,37.507335]}},{"properties":{"city":"Oakland","school name":"Fred T. Korematsu Discovery Academy","latitude":37.737513,"zip code":"94603-3133","street":"10315 E St.","phone":"(510) 639-3377","longitude":-122.17353,"id":"abwohmq3asix","state":"CA"},"type":"Feature","geometry":{"type":"Point","coordinates":[-122.17353,37.737513]}},{"properties":{"city":"Dublin","school name":"Frederiksen Elementary","latitude":37.714807,"zip code":"94568-1746","street":"7243 Tamarack Dr.","phone":"(925) 828-1037","longitude":-121.92212,"id":"abwohn0bnhdq","state":"CA"},"type":"Feature","geometry":{"type":"Point","coordinates":[-121.92212,37.714807]}},{"properties":{"city":"Dublin","school name":"Frederiksen Elementary","latitude":null,"zip code":"94568","street":"7243 Tamarack Dr.","phone":null,"longitude":null,"id":"abwohn07shgb","state":"CA"},"type":"Feature","geometry":null},{"properties":{"city":"Fremont","school name":"Fremont Adult","latitude":null,"zip code":"94538-1124","street":"4700 Calaveras Ave.","phone":"(510) 793-6465","longitude":null,"id":"abwohmtx10p2","state":"CA"},"type":"Feature","geometry":null},{"properties":{"city":"Oakland","school name":"Frick Middle","latitude":37.771488,"zip code":"94605-2027","street":"2845 64th Ave.","phone":"(510) 729-7736","longitude":-122.18348,"id":"abwohmuwdjoa","state":"CA"},"type":"Feature","geometry":{"type":"Point","coordinates":[-122.18348,37.771488]}},{"properties":{"city":"Oakland","school name":"Fruitvale Elementary","latitude":37.796237,"zip code":"94602-2899","street":"3200 Boston Ave.","phone":"(510) 535-2840","longitude":-122.2141,"id":"abwohmq1khcc","state":"CA"},"type":"Feature","geometry":{"type":"Point","coordinates":[-122.2141,37.796237]}},{"properties":{"city":"Oakland","school name":"Futures Elementary","latitude":37.761449,"zip code":"94621-3501","street":"6701 International Blvd.","phone":"(510) 636-0520","longitude":-122.19187,"id":"abwohmtd241o","state":"CA"},"type":"Feature","geometry":{"type":"Point","coordinates":[-122.19187,37.761449]}},{"properties":{"city":"Fremont","school name":"G. M. Walters Junior High","latitude":37.537278,"zip code":"94538-1912","street":"39600 Logan Dr.","phone":"(510) 656-7211","longitude":-121.98588,"id":"abwohmpec4ro","state":"CA"},"type":"Feature","geometry":{"type":"Point","coordinates":[-121.98588,37.537278]}},{"properties":{"city":"Oakland","school name":"Garfield Elementary","latitude":37.786696,"zip code":"94606-4710","street":"1640 22nd Ave.","phone":"(510) 535-2857","longitude":-122.23581,"id":"abwohmsf6rdh","state":"CA"},"type":"Feature","geometry":{"type":"Point","coordinates":[-122.23581,37.786696]}},{"properties":{"city":"San Leandro","school name":"Garfield Elementary","latitude":37.704336,"zip code":"94577-3159","street":"13050 Aurora Dr.","phone":"(510) 618-4300","longitude":-122.18527,"id":"abwohmyze0v7","state":"CA"},"type":"Feature","geometry":{"type":"Point","coordinates":[-122.18527,37.704336]}},{"properties":{"city":"Oakland","school name":"Gateway to College at Laney College","latitude":37.797166,"zip code":"94607","street":"900 Fallon St.","phone":"(510) 464-3592","longitude":-122.2638,"id":"abwohn1r44wq","state":"CA"},"type":"Feature","geometry":{"type":"Point","coordinates":[-122.2638,37.797166]}},{"properties":{"city":"Fremont","school name":"Glankler (Donald G.) (Oh)","latitude":null,"zip code":"94538","street":"39201 Sundale Dr.","phone":null,"longitude":null,"id":"abwohmtgvyqy","state":"CA"},"type":"Feature","geometry":null},{"properties":{"city":"Hayward","school name":"Glassbrook Elementary","latitude":37.640912,"zip code":"94544-3614","street":"975 Schafer Rd.","phone":"(510) 723-3835","longitude":-122.08084,"id":"abwohn2yiqr4","state":"CA"},"type":"Feature","geometry":{"type":"Point","coordinates":[-122.08084,37.640912]}},{"properties":{"city":"Fremont","school name":"Glenmoor Elementary","latitude":37.545714,"zip code":"94536-6784","street":"4620 Mattos Dr.","phone":"(510) 797-0740","longitude":-122.0049,"id":"abwohmoxkgg7","state":"CA"},"type":"Feature","geometry":{"type":"Point","coordinates":[-122.0049,37.545714]}},{"properties":{"city":"Oakland","school name":"Glenview Elementary","latitude":37.805636,"zip code":"94602-1739","street":"4215 La Cresta Ave.","phone":"(510) 531-6677","longitude":-122.21916,"id":"abwohmoy8kmj","state":"CA"},"type":"Feature","geometry":{"type":"Point","coordinates":[-122.21916,37.805636]}},{"properties":{"city":"Oakland","school name":"Global Family","latitude":37.779331,"zip code":"94601-4203","street":"2035 40th Ave.","phone":"(510) 879-1280","longitude":-122.21323,"id":"abwohmomkyyg","state":"CA"},"type":"Feature","geometry":{"type":"Point","coordinates":[-122.21323,37.779331]}},{"properties":{"city":"Hayward","school name":"Golden Oak Montessori of Hayward","latitude":37.662457,"zip code":"94542","street":"951 Palisade St.","phone":"(510) 931-7866","longitude":-122.07425,"id":"abwohmp0wp49","state":"CA"},"type":"Feature","geometry":{"type":"Point","coordinates":[-122.07425,37.662457]}},{"properties":{"city":"Livermore","school name":"Granada High","latitude":37.675207,"zip code":"94550-4066","street":"400 Wall St.","phone":"(925) 606-4800","longitude":-121.7878,"id":"abwohmoqcci9","state":"CA"},"type":"Feature","geometry":{"type":"Point","coordinates":[-121.7878,37.675207]}},{"properties":{"city":"San Lorenzo","school name":"Grant Elementary","latitude":37.681988,"zip code":"94580-1403","street":"879 Grant Ave.","phone":"(510) 317-3700","longitude":-122.13612,"id":"abwohn2vzdu5","state":"CA"},"type":"Feature","geometry":{"type":"Point","coordinates":[-122.13612,37.681988]}},{"properties":{"city":"Oakland","school name":"Grass Valley Elementary","latitude":37.753031,"zip code":"94605-5607","street":"4720 Dunkirk Ave.","phone":"(510) 636-4653","longitude":-122.12586,"id":"abwohmtxa62w","state":"CA"},"type":"Feature","geometry":{"type":"Point","coordinates":[-122.12586,37.753031]}},{"properties":{"city":"Oakland","school name":"Greenleaf Elementary","latitude":37.764368,"zip code":"94621-3832","street":"6328 East 17th St.","phone":"(510) 636-1400","longitude":-122.19487,"id":"abwohn2cp3ds","state":"CA"},"type":"Feature","geometry":{"type":"Point","coordinates":[-122.19487,37.764368]}},{"properties":{"city":"Union City","school name":"Guy Jr. Emanuele Elementary","latitude":37.602017,"zip code":"94587","street":"100 Decoto Rd.","phone":"(510) 471-2461","longitude":-122.01595,"id":"abwohmvflx4x","state":"CA"},"type":"Feature","geometry":{"type":"Point","coordinates":[-122.01595,37.602017]}},{"properties":{"city":"Newark","school name":"H. A. Snow Elementary","latitude":37.542911,"zip code":"94560-1121","street":"6580 Mirabeau Dr.","phone":"(510) 818-3900","longitude":-122.05048,"id":"abwohn1uoanw","state":"CA"},"type":"Feature","geometry":{"type":"Point","coordinates":[-122.05048,37.542911]}},{"properties":{"city":"Hayward","school name":"Harder Elementary","latitude":37.651517,"zip code":"94544-2951","street":"495 Wyeth Rd.","phone":"(510) 723-3840","longitude":-122.0724,"id":"abwohmwkij3k","state":"CA"},"type":"Feature","geometry":{"type":"Point","coordinates":[-122.0724,37.651517]}},{"properties":{"city":"Dublin","school name":"Harold William Kolb","latitude":null,"zip code":"94568","street":"3150 Palermo Way","phone":"(925) 833-4720","longitude":null,"id":"abwohmx5yx42","state":"CA"},"type":"Feature","geometry":null},{"properties":{"city":"Pleasanton","school name":"Harvest Park Intermediate","latitude":null,"zip code":"94566-5399","street":"4900 Valley Ave.","phone":null,"longitude":null,"id":"abwohn02l4ps","state":"CA"},"type":"Feature","geometry":null},{"properties":{"city":"Pleasanton","school name":"Harvest Park Middle","latitude":37.675495,"zip code":"94566-5399","street":"4900 Valley Ave.","phone":"(925) 426-4444","longitude":-121.88318,"id":"abwohmwbbzud","state":"CA"},"type":"Feature","geometry":{"type":"Point","coordinates":[-121.88318,37.675495]}},{"properties":{"city":"Pleasanton","school name":"Harvest Park Preschool Center","latitude":null,"zip code":"94566-5399","street":"4900 Valley Ave.","phone":"(925) 462-3325","longitude":null,"id":"abwohmuvu5sv","state":"CA"},"type":"Feature","geometry":null},{"properties":{"city":"Fremont","school name":"Harvey Green Elementary","latitude":37.518138,"zip code":"94538-4131","street":"42875 Gatewood St.","phone":"(510) 656-6438","longitude":-121.95807,"id":"abwohmqjp1lb","state":"CA"},"type":"Feature","geometry":{"type":"Point","coordinates":[-121.95807,37.518138]}},{"properties":{"city":"Piedmont","school name":"Havens Elementary","latitude":37.825895,"zip code":"94611","street":"323 Highland Ave.","phone":"(510) 594-2699","longitude":-122.23382,"id":"abwohmo2t6zn","state":"CA"},"type":"Feature","geometry":{"type":"Point","coordinates":[-122.23382,37.825895]}},{"properties":{"city":"Hayward","school name":"Hayward Adult","latitude":null,"zip code":"94540-0001","street":"22100 Princeton St.","phone":"(510) 293-8595","longitude":null,"id":"abwohmypy85m","state":"CA"},"type":"Feature","geometry":null},{"properties":{"city":"Hayward","school name":"Hayward High","latitude":37.671061,"zip code":"94541-5314","street":"1633 East Ave.","phone":"(510) 723-3170","longitude":-122.07022,"id":"abwohmvxc5vi","state":"CA"},"type":"Feature","geometry":{"type":"Point","coordinates":[-122.07022,37.671061]}},{"properties":{"city":"Hayward","school name":"Helen Turner Children's Center","latitude":null,"zip code":"94541","street":"23640 Reed Way","phone":null,"longitude":null,"id":"abwohmogpet7","state":"CA"},"type":"Feature","geometry":null},{"properties":{"city":"Alameda","school name":"Henry Haight Elementary","latitude":37.769708,"zip code":"94501-2720","street":"2025 Santa Clara Ave.","phone":"(510) 748-4005","longitude":-122.25081,"id":"abwohmz00l4r","state":"CA"},"type":"Feature","geometry":{"type":"Point","coordinates":[-122.25081,37.769708]}},{"properties":{"city":"Pleasanton","school name":"Henry P. Mohr Elementary","latitude":37.691952,"zip code":"94588-8377","street":"3300 Dennis Dr.","phone":"(925) 426-4256","longitude":-121.86038,"id":"abwohmxut0k8","state":"CA"},"type":"Feature","geometry":{"type":"Point","coordinates":[-121.86038,37.691952]}},{"properties":{"city":"San Lorenzo","school name":"Hesperian Elementary","latitude":37.694042,"zip code":"94580-1046","street":"620 Drew St.","phone":"(510) 317-5200","longitude":-122.1253,"id":"abwohn2p06li","state":"CA"},"type":"Feature","geometry":{"type":"Point","coordinates":[-122.1253,37.694042]}},{"properties":{"city":"Oakland","school name":"Hillcrest Elementary","latitude":37.840414,"zip code":"94618-2230","street":"30 Marguerite Dr.","phone":"(510) 654-6590","longitude":-122.23287,"id":"abwohmp7qb7t","state":"CA"},"type":"Feature","geometry":{"type":"Point","coordinates":[-122.23287,37.840414]}},{"properties":{"city":"Oakland","school name":"Hillside Academy","latitude":37.759671,"zip code":"94605","street":"2369 84th Ave.","phone":"(510) 879-0131","longitude":-122.16671,"id":"abwohmqlj7lg","state":"CA"},"type":"Feature","geometry":{"type":"Point","coordinates":[-122.16671,37.759671]}},{"properties":{"city":"San Leandro","school name":"Hillside Elementary","latitude":37.701803,"zip code":"94578-2122","street":"15980 Marcella St.","phone":"(510) 317-5300","longitude":-122.11704,"id":"abwohmqpz9p1","state":"CA"},"type":"Feature","geometry":{"type":"Point","coordinates":[-122.11704,37.701803]}},{"properties":{"city":"Hayward","school name":"Hillview Crest Elementary","latitude":37.614368,"zip code":"94544-7662","street":"31410 Wheelon Ave.","phone":"(510) 471-5720","longitude":-122.03507,"id":"abwohmt2sz8f","state":"CA"},"type":"Feature","geometry":{"type":"Point","coordinates":[-122.03507,37.614368]}},{"properties":{"city":"Oakland","school name":"Home and Hospital Program","latitude":0.0,"zip code":"94608-4536","street":"2850 West St.","phone":"(510) 879-2715","longitude":0.0,"id":"abwohmpo54ee","state":"CA"},"type":"Feature","geometry":{"type":"Point","coordinates":[0.0,0.0]}},{"properties":{"city":"Oakland","school name":"Hoover Elementary","latitude":37.823289,"zip code":"94608-4318","street":"890 Brockhurst St.","phone":"(510) 879-1700","longitude":-122.27431,"id":"abwohmtmk4fk","state":"CA"},"type":"Feature","geometry":{"type":"Point","coordinates":[-122.27431,37.823289]}},{"properties":{"city":"Oakland","school name":"Horace Mann Elementary","latitude":37.773521,"zip code":"94601-5422","street":"5222 Ygnacio Ave.","phone":"(510) 879-1360","longitude":-122.20245,"id":"abwohmo5v2jo","state":"CA"},"type":"Feature","geometry":{"type":"Point","coordinates":[-122.20245,37.773521]}},{"properties":{"city":"Oakland","school name":"Howard Elementary","latitude":37.762146,"zip code":"94605-4197","street":"8755 Fontaine St.","phone":"(510) 639-3244","longitude":-122.15132,"id":"abwohmzprxij","state":"CA"},"type":"Feature","geometry":{"type":"Point","coordinates":[-122.15132,37.762146]}},{"properties":{"city":"Hayward","school name":"Impact Academy of Arts &amp; Technology","latitude":37.77598,"zip code":"94545-3451","street":"2560 Darwin St.","phone":"(510) 300-1560","longitude":-122.39304,"id":"abwohmttfqhp","state":"CA"},"type":"Feature","geometry":{"type":"Point","coordinates":[-122.39304,37.77598]}},{"properties":{"city":"Castro Valley","school name":"Independent Elementary","latitude":37.699633,"zip code":"94552-4826","street":"21201 Independent School Rd.","phone":"(510) 537-9558","longitude":-122.05099,"id":"abwohmr6rqot","state":"CA"},"type":"Feature","geometry":{"type":"Point","coordinates":[-122.05099,37.699633]}},{"properties":{"city":"Oakland","school name":"Independent Study, Sojourner Truth","latitude":37.766461,"zip code":"94605","street":"8251 Fontaine St.","phone":"(510) 729-4308","longitude":-122.15449,"id":"abwohmulbkk1","state":"CA"},"type":"Feature","geometry":{"type":"Point","coordinates":[-122.15449,37.766461]}},{"properties":{"city":"Oakland","school name":"Infant and Preschool Program","latitude":null,"zip code":"94606-2212","street":"1025 Second Ave.","phone":"(510) 879-2715","longitude":null,"id":"abwohmq49ymd","state":"CA"},"type":"Feature","geometry":null},{"properties":{"city":"Oakland","school name":"International Community","latitude":37.779681,"zip code":"94601-1543","street":"2825 International Blvd.","phone":"(510) 532-5400","longitude":-122.23088,"id":"abwohn03w0vi","state":"CA"},"type":"Feature","geometry":{"type":"Point","coordinates":[-122.23088,37.779681]}},{"properties":{"city":"Fremont","school name":"Irvington High","latitude":37.522624,"zip code":"94538-3353","street":"41800 Blacow Rd.","phone":"(510) 656-5711","longitude":-121.96902,"id":"abwohn0pgxpz","state":"CA"},"type":"Feature","geometry":{"type":"Point","coordinates":[-121.96902,37.522624]}},{"properties":{"city":"Alameda","school name":"Island High (Continuation)","latitude":37.786893,"zip code":"94501","street":"1900 Third St.","phone":"(510) 748-4024","longitude":-122.28588,"id":"abwohmqga1an","state":"CA"},"type":"Feature","geometry":{"type":"Point","coordinates":[-122.28588,37.786893]}},{"properties":{"city":"Fremont","school name":"J. Haley Durham Elementary","latitude":37.542049,"zip code":"94538-3520","street":"40292 Leslie St.","phone":"(510) 657-7080","longitude":-121.9669,"id":"abwohmqkuzqg","state":"CA"},"type":"Feature","geometry":{"type":"Point","coordinates":[-121.9669,37.542049]}},{"properties":{"city":"Livermore","school name":"Jackson Avenue Elementary","latitude":37.68492,"zip code":"94550-3434","street":"554 Jackson Ave.","phone":"(925) 606-4717","longitude":-121.74228,"id":"abwohmrln2sz","state":"CA"},"type":"Feature","geometry":{"type":"Point","coordinates":[-121.74228,37.68492]}},{"properties":{"city":"Newark","school name":"James A. Graham Elementary","latitude":37.538482,"zip code":"94560-2318","street":"36270 Cherry St.","phone":"(510) 818-3300","longitude":-122.04242,"id":"abwohmpzo4z1","state":"CA"},"type":"Feature","geometry":{"type":"Point","coordinates":[-122.04242,37.538482]}},{"properties":{"city":"Dublin","school name":"James Dougherty Elementary","latitude":37.710385,"zip code":"94568-3164","street":"5301 Hibernia Dr.","phone":"(925) 803-4444","longitude":-121.88515,"id":"abwohmu71mvs","state":"CA"},"type":"Feature","geometry":{"type":"Point","coordinates":[-121.88515,37.710385]}},{"properties":{"city":"Newark","school name":"James L. Bunker Elementary","latitude":37.52923,"zip code":"94560-4536","street":"6071 Smith Ave.","phone":"(510) 818-3100","longitude":-122.01505,"id":"abwohmt6elqa","state":"CA"},"type":"Feature","geometry":{"type":"Point","coordinates":[-122.01505,37.52923]}},{"properties":{"city":"Fremont","school name":"James Leitch Elementary","latitude":37.486492,"zip code":"94539-7005","street":"47100 Fernald St.","phone":"(510) 657-6100","longitude":-121.92332,"id":"abwohmzxjeoc","state":"CA"},"type":"Feature","geometry":{"type":"Point","coordinates":[-121.92332,37.486492]}},{"properties":{"city":"Union City","school name":"James Logan High","latitude":37.592497,"zip code":"94587-3321","street":"1800 H St.","phone":"(510) 471-2520","longitude":-122.02607,"id":"abwohmywvzj9","state":"CA"},"type":"Feature","geometry":{"type":"Point","coordinates":[-122.02607,37.592497]}},{"properties":{"city":"Berkeley","school name":"Jefferson Elementary","latitude":37.878945,"zip code":"94702-1217","street":"1400 Ada St.","phone":"(510) 644-6298","longitude":-122.28523,"id":"abwohmvb1r6i","state":"CA"},"type":"Feature","geometry":{"type":"Point","coordinates":[-122.28523,37.878945]}},{"properties":{"city":"San Leandro","school name":"Jefferson Elementary","latitude":37.71242,"zip code":"94578-1727","street":"14300 Bancroft Ave.","phone":"(510) 618-4310","longitude":-122.13594,"id":"abwohn3jshd4","state":"CA"},"type":"Feature","geometry":{"type":"Point","coordinates":[-122.13594,37.71242]}},{"properties":{"city":"Castro Valley","school name":"Jensen Ranch Elementary","latitude":37.712412,"zip code":"94552","street":"20001 Carson Ln.","phone":"(510) 537-6365","longitude":-122.03106,"id":"abwohmq7niyl","state":"CA"},"type":"Feature","geometry":{"type":"Point","coordinates":[-122.03106,37.712412]}},{"properties":{"city":"Oakland","school name":"Joaquin Miller Elementary","latitude":37.818528,"zip code":"94611-3001","street":"5525 Ascot Dr.","phone":"(510) 531-6688","longitude":-122.20174,"id":"abwohmth3si2","state":"CA"},"type":"Feature","geometry":{"type":"Point","coordinates":[-122.20174,37.818528]}},{"properties":{"city":"Livermore","school name":"Joe Michell","latitude":37.669594,"zip code":"94550-5414","street":"1001 Elaine Ave.","phone":"(925) 606-4738","longitude":-121.78351,"id":"abwohmvk6cq5","state":"CA"},"type":"Feature","geometry":{"type":"Point","coordinates":[-121.78351,37.669594]}},{"properties":{"city":"Fremont","school name":"John Blacow Elementary","latitude":37.528078,"zip code":"94538-3314","street":"40404 Sundale Dr.","phone":"(510) 656-5121","longitude":-121.97607,"id":"abwohmpphkvi","state":"CA"},"type":"Feature","geometry":{"type":"Point","coordinates":[-121.97607,37.528078]}},{"properties":{"city":"Newark","school name":"John F. Kennedy Elementary","latitude":37.551646,"zip code":"94560-1312","street":"35430 Blackburn Dr.","phone":"(510) 818-3400","longitude":-122.04246,"id":"abwohn28p6d7","state":"CA"},"type":"Feature","geometry":{"type":"Point","coordinates":[-122.04246,37.551646]}},{"properties":{"city":"Fremont","school name":"John F. Kennedy High","latitude":37.528418,"zip code":"94538-1913","street":"39999 Blacow Rd.","phone":"(510) 657-4070","longitude":-121.9831,"id":"abwohmykb4tx","state":"CA"},"type":"Feature","geometry":{"type":"Point","coordinates":[-121.9831,37.528418]}},{"properties":{"city":"Fremont","school name":"John G. Mattos Elementary","latitude":37.538067,"zip code":"94536-7008","street":"37944 Farwell Dr.","phone":"(510) 793-1359","longitude":-122.01174,"id":"abwohmtyjohk","state":"CA"},"type":"Feature","geometry":{"type":"Point","coordinates":[-122.01174,37.538067]}},{"properties":{"city":"Fremont","school name":"John Gomes Elementary","latitude":37.550339,"zip code":"94539-3750","street":"555 Lemos Ln.","phone":"(510) 656-3414","longitude":-121.94759,"id":"abwohn2cs8b1","state":"CA"},"type":"Feature","geometry":{"type":"Point","coordinates":[-121.94759,37.550339]}},{"properties":{"city":"Dublin","school name":"John Green Elementary","latitude":37.7181,"zip code":"94568-7550","street":"3300 Antone Way","phone":"(925) 833-4200","longitude":-121.8615,"id":"abwohmzhk6n5","state":"CA"},"type":"Feature","geometry":{"type":"Point","coordinates":[-121.8615,37.7181]}},{"properties":{"city":"Fremont","school name":"John M. Horner Junior High","latitude":37.528541,"zip code":"94538-4202","street":"41365 Chapel Way","phone":"(510) 656-4000","longitude":-121.96291,"id":"abwohmqjvyvu","state":"CA"},"type":"Feature","geometry":{"type":"Point","coordinates":[-121.96291,37.528541]}},{"properties":{"city":"Berkeley","school name":"John Muir Elementary","latitude":37.857208,"zip code":"94705-2449","street":"2955 Claremont Ave.","phone":"(510) 644-6410","longitude":-122.24596,"id":"abwohmwrpdlp","state":"CA"},"type":"Feature","geometry":{"type":"Point","coordinates":[-122.24596,37.857208]}},{"properties":{"city":"San Leandro","school name":"John Muir Middle","latitude":37.71529,"zip code":"94577-2403","street":"1444 Williams St.","phone":"(510) 618-4400","longitude":-122.1689,"id":"abwohmtu3rxz","state":"CA"},"type":"Feature","geometry":{"type":"Point","coordinates":[-122.1689,37.71529]}},{"properties":{"city":"Fremont","school name":"Joseph Azevada Elementary","latitude":37.530946,"zip code":"94538-1843","street":"39450 Royal Palm Dr.","phone":"(510) 657-3900","longitude":-121.99419,"id":"abwohn3fbcbx","state":"CA"},"type":"Feature","geometry":{"type":"Point","coordinates":[-121.99419,37.530946]}},{"properties":{"city":"Fremont","school name":"Joshua Chadbourne Elementary","latitude":37.542139,"zip code":"94539-4637","street":"801 Plymouth Ave.","phone":"(510) 656-5242","longitude":-121.93997,"id":"abwohmnjeebn","state":"CA"},"type":"Feature","geometry":{"type":"Point","coordinates":[-121.93997,37.542139]}},{"properties":{"city":"Livermore","school name":"Junction K-8","latitude":37.690154,"zip code":"94551-5903","street":"298 Junction Ave.","phone":"(925) 606-4743","longitude":-121.77054,"id":"abwohmt0ehol","state":"CA"},"type":"Feature","geometry":{"type":"Point","coordinates":[-121.77054,37.690154]}},{"properties":{"city":"San Leandro","school name":"Juvenile Court Schools","latitude":null,"zip code":"94578","street":"2400 Fairmont Dr.","phone":null,"longitude":null,"id":"abwohmty5oju","state":"CA"},"type":"Feature","geometry":null},{"properties":{"city":"Oakland","school name":"Kaiser Elementary","latitude":37.853076,"zip code":"94618-2306","street":"25 South Hill Ct.","phone":"(510) 549-4900","longitude":-122.23177,"id":"abwohmrzvbxk","state":"CA"},"type":"Feature","geometry":{"type":"Point","coordinates":[-122.23177,37.853076]}},{"properties":{"city":"Oakland","school name":"KIPP Bridge Charter","latitude":37.808753,"zip code":"94607-3230","street":"991 14th St.","phone":"(510) 879-2421","longitude":-122.28271,"id":"abwohn0irkbs","state":"CA"},"type":"Feature","geometry":{"type":"Point","coordinates":[-122.28271,37.808753]}},{"properties":{"city":"San Lorenzo","school name":"KIPP King Collegiate High","latitude":37.674271,"zip code":"94580-1315","street":"2005 Via Barrett","phone":"(510) 828-9509","longitude":-122.14983,"id":"abwohmnllne2","state":"CA"},"type":"Feature","geometry":{"type":"Point","coordinates":[-122.14983,37.674271]}},{"properties":{"city":"San Lorenzo","school name":"KIPP Summit Academy","latitude":37.674271,"zip code":"94580-1315","street":"2005 Via Barrett","phone":"(510) 258-0106","longitude":-122.14983,"id":"abwohmnodkzu","state":"CA"},"type":"Feature","geometry":{"type":"Point","coordinates":[-122.14983,37.674271]}},{"properties":{"city":"Newark","school name":"Koster/Whiteford Special Center","latitude":null,"zip code":"94560","street":"35725 Cedar Ave.","phone":null,"longitude":null,"id":"abwohmx1nmzz","state":"CA"},"type":"Feature","geometry":null},{"properties":{"city":"Oakland","school name":"La Escuelita Elementary","latitude":37.795671,"zip code":"94606-2227","street":"1100 Third Ave.","phone":"(510) 874-7762","longitude":-122.25689,"id":"abwohn17k7oe","state":"CA"},"type":"Feature","geometry":{"type":"Point","coordinates":[-122.25689,37.795671]}},{"properties":{"city":"Oakland","school name":"La Fleche (Rock) Special Center","latitude":null,"zip code":"94618","street":"6925 Chabot Rd.","phone":null,"longitude":null,"id":"abwohmtnybbr","state":"CA"},"type":"Feature","geometry":null},{"properties":{"city":"Oakland","school name":"Lafayette Elementary","latitude":37.810364,"zip code":"94607-3330","street":"1700 Market St.","phone":"(510) 879-1290","longitude":-122.27994,"id":"abwohmsims49","state":"CA"},"type":"Feature","geometry":{"type":"Point","coordinates":[-122.27994,37.810364]}},{"properties":{"city":"Oakland","school name":"Lafayette Opportunity","latitude":null,"zip code":"94607","street":"1700 Market St.","phone":null,"longitude":null,"id":"abwohn29gxht","state":"CA"},"type":"Feature","geometry":null},{"properties":{"city":"Oakland","school name":"Lakeview Elementary","latitude":37.810923,"zip code":"94610-2714","street":"746 Grand Ave.","phone":"(510) 879-1300","longitude":-122.24827,"id":"abwohmydge2s","state":"CA"},"type":"Feature","geometry":{"type":"Point","coordinates":[-122.24827,37.810923]}},{"properties":{"city":"Oakland","school name":"Laurel Elementary","latitude":37.792775,"zip code":"94619-1406","street":"3750 Brown Ave.","phone":"(510) 531-6868","longitude":-122.19636,"id":"abwohmzfmwhe","state":"CA"},"type":"Feature","geometry":{"type":"Point","coordinates":[-122.19636,37.792775]}},{"properties":{"city":"Oakland","school name":"Lazear Elementary","latitude":37.775814,"zip code":"94601-2205","street":"824 29th Ave.","phone":"(510) 535-3844","longitude":-122.23186,"id":"abwohmz95p2z","state":"CA"},"type":"Feature","geometry":{"type":"Point","coordinates":[-122.23186,37.775814]}},{"properties":{"city":"Oakland","school name":"Leadership Preparatory High","latitude":37.75887,"zip code":"94605-4037","street":"8601 MacArthur Blvd.","phone":"(510) 879-3010","longitude":-122.1625,"id":"abwohn0zjfw6","state":"CA"},"type":"Feature","geometry":{"type":"Point","coordinates":[-122.1625,37.75887]}},{"properties":{"city":"Hayward","school name":"Leadership Public Schools - Hayward","latitude":37.624181,"zip code":"94545-4600","street":"28000 Calaroga Ave.","phone":"(510) 300-1340","longitude":-122.08792,"id":"abwohmzcfown","state":"CA"},"type":"Feature","geometry":{"type":"Point","coordinates":[-122.08792,37.624181]}},{"properties":{"city":"Oakland","school name":"Learning Without Limits","latitude":37.779331,"zip code":"94601-4203","street":"2035 40th Ave.","phone":"(510) 879-1282","longitude":-122.21323,"id":"abwohmnr5uij","state":"CA"},"type":"Feature","geometry":{"type":"Point","coordinates":[-122.21323,37.779331]}},{"properties":{"city":"Berkeley","school name":"Leconte Elementary","latitude":37.857319,"zip code":"94705-1029","street":"2241 Russell St.","phone":"(510) 644-6290","longitude":-122.26231,"id":"abwohn0q1lr2","state":"CA"},"type":"Feature","geometry":{"type":"Point","coordinates":[-122.26231,37.857319]}},{"properties":{"city":"Livermore","school name":"Leo R. Croce Elementary","latitude":37.717039,"zip code":"94551-1224","street":"5650 Scenic Ave.","phone":"(925) 606-4706","longitude":-121.72833,"id":"abwohn0e9yn6","state":"CA"},"type":"Feature","geometry":{"type":"Point","coordinates":[-121.72833,37.717039]}},{"properties":{"city":"Oakland","school name":"LIFE Academy","latitude":37.784263,"zip code":"94601-3124","street":"2101 35th Ave.","phone":"(510) 534-0282","longitude":-122.21674,"id":"abwohmz3i73x","state":"CA"},"type":"Feature","geometry":{"type":"Point","coordinates":[-122.21674,37.784263]}},{"properties":{"city":"Oakland","school name":"Lighthouse Community Charter","latitude":37.737054,"zip code":"94621-1418","street":"444 Hegenberger St.","phone":"(510) 562-8801","longitude":-122.19667,"id":"abwohn0t4irf","state":"CA"},"type":"Feature","geometry":{"type":"Point","coordinates":[-122.19667,37.737054]}},{"properties":{"city":"Oakland","school name":"Lighthouse Community Charter High","latitude":37.805941,"zip code":"94621-1418","street":"444 Hegenberger Rd.","phone":"(510) 562-8225","longitude":-122.26966,"id":"abwohmp612uo","state":"CA"},"type":"Feature","geometry":{"type":"Point","coordinates":[-122.26966,37.805941]}},{"properties":{"city":"Newark","school name":"Lincoln Elementary","latitude":37.535908,"zip code":"94560-2101","street":"36111 Bettencourt St.","phone":"(510) 818-3500","longitude":-122.05193,"id":"abwohmt32kxk","state":"CA"},"type":"Feature","geometry":{"type":"Point","coordinates":[-122.05193,37.535908]}},{"properties":{"city":"Oakland","school name":"Lincoln Elementary","latitude":37.800133,"zip code":"94607-4409","street":"225 11th St.","phone":"(510) 874-3372","longitude":-122.26713,"id":"abwohmsu90y9","state":"CA"},"type":"Feature","geometry":{"type":"Point","coordinates":[-122.26713,37.800133]}},{"properties":{"city":"San Leandro","school name":"Lincoln High (Continuation)","latitude":37.7083,"zip code":"94579-1222","street":"2600 Teagarden St.","phone":"(510) 618-4460","longitude":-122.1599,"id":"abwohn31q7hf","state":"CA"},"type":"Feature","geometry":{"type":"Point","coordinates":[-122.1599,37.7083]}},{"properties":{"city":"Alameda","school name":"Lincoln Middle","latitude":37.75182,"zip code":"94501-4808","street":"1250 Fernside Blvd.","phone":"(510) 748-4018","longitude":-122.23215,"id":"abwohmtuzk8z","state":"CA"},"type":"Feature","geometry":{"type":"Point","coordinates":[-122.23215,37.75182]}},{"properties":{"city":"Fremont","school name":"Linda Vista Elementary","latitude":null,"zip code":"94538","street":"2650 Bruce Dr.","phone":null,"longitude":null,"id":"abwohmya37fm","state":"CA"},"type":"Feature","geometry":null},{"properties":{"city":"Livermore","school name":"Livermore Adult","latitude":null,"zip code":"94550","street":"1401 Almond Ave.","phone":"(925) 606-4722","longitude":null,"id":"abwohmplvf34","state":"CA"},"type":"Feature","geometry":null},{"properties":{"city":"Livermore","school name":"Livermore High","latitude":37.680506,"zip code":"94550-3298","street":"600 Maple St.","phone":"(925) 606-4812","longitude":-121.76174,"id":"abwohn12134r","state":"CA"},"type":"Feature","geometry":{"type":"Point","coordinates":[-121.76174,37.680506]}},{"properties":{"city":"Livermore","school name":"Livermore Valley Charter","latitude":37.672849,"zip code":"94550-4045","street":"543 Sonoma Ave.","phone":"(925) 443-1690","longitude":-121.79396,"id":"abwohmwz2o71","state":"CA"},"type":"Feature","geometry":{"type":"Point","coordinates":[-121.79396,37.672849]}},{"properties":{"city":"Livermore","school name":"Livermore Valley Charter Preparatory High","latitude":37.672849,"zip code":"94551-1756","street":"2451 Portola Ave.","phone":"(925) 456-9000","longitude":-121.79396,"id":"abwohmnw9mmw","state":"CA"},"type":"Feature","geometry":{"type":"Point","coordinates":[-121.79396,37.672849]}},{"properties":{"city":"Berkeley","school name":"Longfellow Arts and Technology Middle","latitude":37.858715,"zip code":"94703-1817","street":"1500 Derby St.","phone":"(510) 644-6360","longitude":-122.28001,"id":"abwohn1qhcmm","state":"CA"},"type":"Feature","geometry":{"type":"Point","coordinates":[-122.28001,37.858715]}},{"properties":{"city":"Berkeley","school name":"Longfellow Parent Nursery","latitude":null,"zip code":"94705","street":"1522 Ward St.","phone":null,"longitude":null,"id":"abwohmyut4e0","state":"CA"},"type":"Feature","geometry":null},{"properties":{"city":"Hayward","school name":"Longwood Elementary","latitude":37.659077,"zip code":"94541-7151","street":"850 Longwood Ave.","phone":"(510) 723-3850","longitude":-122.11011,"id":"abwohmtd45j8","state":"CA"},"type":"Feature","geometry":{"type":"Point","coordinates":[-122.11011,37.659077]}},{"properties":{"city":"Hayward","school name":"Lorenzo Manor Elementary","latitude":37.674793,"zip code":"94541","street":"18250 Bengal St.","phone":"(510) 317-5400","longitude":-122.1182,"id":"abwohmvc5wg1","state":"CA"},"type":"Feature","geometry":{"type":"Point","coordinates":[-122.1182,37.674793]}},{"properties":{"city":"Hayward","school name":"Lorin A. Eden Elementary","latitude":37.624129,"zip code":"94545-4013","street":"27790 Portsmouth Ave.","phone":"(510) 723-3855","longitude":-122.10008,"id":"abwohmtr0wk2","state":"CA"},"type":"Feature","geometry":{"type":"Point","coordinates":[-122.10008,37.624129]}},{"properties":{"city":"Newark","school name":"Louis Milani Elementary","latitude":37.533942,"zip code":"94560-4140","street":"37490 Birch St.","phone":"(510) 818-3600","longitude":-122.02249,"id":"abwohn3rb99y","state":"CA"},"type":"Feature","geometry":{"type":"Point","coordinates":[-122.02249,37.533942]}},{"properties":{"city":"Oakland","school name":"LPS College Park","latitude":37.75887,"zip code":"94605-4037","street":"8601 MacArthur Blvd., Bldg. 100","phone":"(510) 633-0750","longitude":-122.1625,"id":"abwohmyr1jbo","state":"CA"},"type":"Feature","geometry":{"type":"Point","coordinates":[-122.1625,37.75887]}},{"properties":{"city":"Pleasanton","school name":"Lydiksen Elementary","latitude":null,"zip code":"94566","street":"7700 Highland Oaks Dr.","phone":null,"longitude":null,"id":"abwohmwkr6fr","state":"CA"},"type":"Feature","geometry":null},{"properties":{"city":"Pleasanton","school name":"Lydiksen Elementary","latitude":37.680965,"zip code":"94588-4225","street":"7700 Highland Oaks Dr.","phone":"(925) 426-4420","longitude":-121.92159,"id":"abwohmymicak","state":"CA"},"type":"Feature","geometry":{"type":"Point","coordinates":[-121.92159,37.680965]}},{"properties":{"city":"Albany","school name":"MacGregor High (Continuation)","latitude":37.893271,"zip code":"94706-1404","street":"601 San Gabriel","phone":"(510) 559-6570","longitude":-122.30274,"id":"abwohmqg3op5","state":"CA"},"type":"Feature","geometry":{"type":"Point","coordinates":[-122.30274,37.893271]}},{"properties":{"city":"San Leandro","school name":"Madison Elementary","latitude":37.695489,"zip code":"94579-1222","street":"14751 Juniper St.","phone":"(510) 895-7944","longitude":-122.16042,"id":"abwohmo77q1s","state":"CA"},"type":"Feature","geometry":{"type":"Point","coordinates":[-122.16042,37.695489]}},{"properties":{"city":"Oakland","school name":"Madison Middle","latitude":37.727751,"zip code":"94603-3520","street":"400 Capistrano Dr.","phone":"(510) 879-2150","longitude":-122.1792,"id":"abwohms7z11q","state":"CA"},"type":"Feature","geometry":{"type":"Point","coordinates":[-122.1792,37.727751]}},{"properties":{"city":"Berkeley","school name":"Malcolm X Elementary","latitude":37.852171,"zip code":"94703-2464","street":"1731 Prince St.","phone":"(510) 644-6313","longitude":-122.27373,"id":"abwohmqf19fc","state":"CA"},"type":"Feature","geometry":{"type":"Point","coordinates":[-122.27373,37.852171]}},{"properties":{"city":"Oakland","school name":"Mandela High","latitude":37.774366,"zip code":"94601","street":"4610 Foothill Blvd.","phone":"(510) 434-5233","longitude":-122.20951,"id":"abwohmpyhj66","state":"CA"},"type":"Feature","geometry":{"type":"Point","coordinates":[-122.20951,37.774366]}},{"properties":{"city":"Oakland","school name":"Manzanita Community","latitude":37.792038,"zip code":"94601-1303","street":"2409 East 27th St.","phone":"(510) 879-1370","longitude":-122.22409,"id":"abwohmvj6o9u","state":"CA"},"type":"Feature","geometry":{"type":"Point","coordinates":[-122.22409,37.792038]}},{"properties":{"city":"Oakland","school name":"Manzanita SEED","latitude":37.792038,"zip code":"94601-1303","street":"2409 East 27th St.","phone":"(510) 535-2822","longitude":-122.22409,"id":"abwohn2m09ta","state":"CA"},"type":"Feature","geometry":{"type":"Point","coordinates":[-122.22409,37.792038]}},{"properties":{"city":"Albany","school name":"Marin Elementary","latitude":37.888562,"zip code":"94706-2341","street":"1001 Santa Fe Ave.","phone":"(510) 559-4700","longitude":-122.28821,"id":"abwohmz2s497","state":"CA"},"type":"Feature","geometry":{"type":"Point","coordinates":[-122.28821,37.888562]}},{"properties":{"city":"San Leandro","school name":"Marina Center for Career Training","latitude":null,"zip code":"94579","street":"15225 Wicks Blvd.","phone":null,"longitude":null,"id":"abwohmpql5y8","state":"CA"},"type":"Feature","geometry":null},{"properties":{"city":"Oakland","school name":"Markham Elementary","latitude":37.765472,"zip code":"94605-2380","street":"7220 Krause Ave.","phone":"(510) 639-3202","longitude":-122.17863,"id":"abwohn0nutjr","state":"CA"},"type":"Feature","geometry":{"type":"Point","coordinates":[-122.17863,37.765472]}},{"properties":{"city":"Oakland","school name":"Marshall Elementary","latitude":37.744437,"zip code":"94605-5353","street":"3400 Malcolm Ave.","phone":"(510) 639-3275","longitude":-122.13925,"id":"abwohn1zdxwb","state":"CA"},"type":"Feature","geometry":{"type":"Point","coordinates":[-122.13925,37.744437]}},{"properties":{"city":"Castro Valley","school name":"Marshall Elementary","latitude":37.697906,"zip code":"94546-4656","street":"20111 Marshall St.","phone":"(510) 537-2431","longitude":-122.06669,"id":"abwohmujkvv6","state":"CA"},"type":"Feature","geometry":{"type":"Point","coordinates":[-122.06669,37.697906]}},{"properties":{"city":"Berkeley","school name":"Martin Luther King Middle","latitude":37.881085,"zip code":"94703-1048","street":"1781 Rose St.","phone":"(510) 644-6280","longitude":-122.277,"id":"abwohn2qheau","state":"CA"},"type":"Feature","geometry":{"type":"Point","coordinates":[-122.277,37.881085]}},{"properties":{"city":"Oakland","school name":"Martin Luther King, Jr. Elementary","latitude":37.806427,"zip code":"94607-3106","street":"960 Tenth St.","phone":"(510) 874-3381","longitude":-122.28273,"id":"abwohmnfcl0c","state":"CA"},"type":"Feature","geometry":{"type":"Point","coordinates":[-122.28273,37.806427]}},{"properties":{"city":"Hayward","school name":"Martin Luther King, Jr. Middle","latitude":37.634609,"zip code":"94545","street":"26890 Holly Hill Ave.","phone":"(510) 293-8528","longitude":-122.09258,"id":"abwohmrug55i","state":"CA"},"type":"Feature","geometry":{"type":"Point","coordinates":[-122.09258,37.634609]}},{"properties":{"city":"Livermore","school name":"Marylin Avenue Elementary","latitude":37.684911,"zip code":"94551-6514","street":"800 Marylin Ave.","phone":"(925) 606-4724","longitude":-121.78603,"id":"abwohmusx6hu","state":"CA"},"type":"Feature","geometry":{"type":"Point","coordinates":[-121.78603,37.684911]}},{"properties":{"city":"Oakland","school name":"Maxwell Park International Academy","latitude":37.779633,"zip code":"94619-2515","street":"4730 Fleming Ave.","phone":"(510) 879-1390","longitude":-122.19713,"id":"abwohmofw27k","state":"CA"},"type":"Feature","geometry":{"type":"Point","coordinates":[-122.19713,37.779633]}},{"properties":{"city":"Oakland","school name":"McClymonds High","latitude":37.817852,"zip code":"94607-3415","street":"2607 Myrtle St.","phone":"(510) 879-3031","longitude":-122.2786,"id":"abwohmyj6ade","state":"CA"},"type":"Feature","geometry":{"type":"Point","coordinates":[-122.2786,37.817852]}},{"properties":{"city":"San Leandro","school name":"McKinley Elementary","latitude":37.718854,"zip code":"94577-6025","street":"2150 East 14th St.","phone":"(510) 618-4320","longitude":-122.1475,"id":"abwohmnyv8ll","state":"CA"},"type":"Feature","geometry":{"type":"Point","coordinates":[-122.1475,37.718854]}},{"properties":{"city":"Oakland","school name":"Media College Preparatory","latitude":37.774366,"zip code":"94601-4618","street":"4610 Foothill Blvd.","phone":"(510) 434-5257","longitude":-122.20951,"id":"abwohmvdd8hs","state":"CA"},"type":"Feature","geometry":{"type":"Point","coordinates":[-122.20951,37.774366]}},{"properties":{"city":"Oakland","school name":"Melrose Leadership Academy","latitude":37.778422,"zip code":"94619","street":"5328 Brann St.","phone":"(510) 535-3832","longitude":-122.18952,"id":"abwohmxg04y8","state":"CA"},"type":"Feature","geometry":{"type":"Point","coordinates":[-122.18952,37.778422]}},{"properties":{"city":"Oakland","school name":"MetWest High","latitude":37.79521,"zip code":"94606-2302","street":"314 East 10th St., Huerta Hall","phone":"(510) 451-5902","longitude":-122.2581,"id":"abwohn0pfu8b","state":"CA"},"type":"Feature","geometry":{"type":"Point","coordinates":[-122.2581,37.79521]}},{"properties":{"city":"Piedmont","school name":"Millennium High Alternative","latitude":37.822489,"zip code":"94611-4029","street":"800 Magnolia Ave.","phone":"(510) 594-2703","longitude":-122.2332,"id":"abwohmvm8h89","state":"CA"},"type":"Feature","geometry":{"type":"Point","coordinates":[-122.2332,37.822489]}},{"properties":{"city":"Fremont","school name":"Mission San Jose Elementary","latitude":37.528231,"zip code":"94539-5885","street":"43545 Bryant St.","phone":"(510) 656-1200","longitude":-121.9218,"id":"abwohmrbe9sh","state":"CA"},"type":"Feature","geometry":{"type":"Point","coordinates":[-121.9218,37.528231]}},{"properties":{"city":"Fremont","school name":"Mission San Jose High","latitude":37.54502,"zip code":"94539-4799","street":"41717 Palm Ave.","phone":"(510) 657-3600","longitude":-121.93191,"id":"abwohmnnwobm","state":"CA"},"type":"Feature","geometry":{"type":"Point","coordinates":[-121.93191,37.54502]}},{"properties":{"city":"Fremont","school name":"Mission Valley Elementary","latitude":37.535765,"zip code":"94539-4562","street":"41700 Denise St.","phone":"(510) 656-2000","longitude":-121.94743,"id":"abwohn2hlp60","state":"CA"},"type":"Feature","geometry":{"type":"Point","coordinates":[-121.94743,37.535765]}},{"properties":{"city":"Fremont","school name":"Mission Valley ROCP","latitude":37.527978,"zip code":"94538","street":"5019 Stevenson Blvd.","phone":"(510) 657-1865","longitude":-121.98345,"id":"abwohn02z8au","state":"CA"},"type":"Feature","geometry":{"type":"Point","coordinates":[-121.98345,37.527978]}},{"properties":{"city":"San Leandro","school name":"Monroe Elementary","latitude":37.698139,"zip code":"94578-4116","street":"3750 Monterey Blvd.","phone":"(510) 618-4340","longitude":-122.14623,"id":"abwohmtbj3bf","state":"CA"},"type":"Feature","geometry":{"type":"Point","coordinates":[-122.14623,37.698139]}},{"properties":{"city":"Oakland","school name":"Montclair Elementary","latitude":37.83111,"zip code":"94611-2259","street":"1757 Mountain Blvd.","phone":"(510) 339-6100","longitude":-122.21278,"id":"abwohmxbqfkd","state":"CA"},"type":"Feature","geometry":{"type":"Point","coordinates":[-122.21278,37.83111]}},{"properties":{"city":"Oakland","school name":"Montera Middle","latitude":37.818767,"zip code":"94611-3001","street":"5555 Ascot Dr.","phone":"(510) 531-6070","longitude":-122.20157,"id":"abwohn2ya19n","state":"CA"},"type":"Feature","geometry":{"type":"Point","coordinates":[-122.20157,37.818767]}},{"properties":{"city":"Fremont","school name":"Motta (Ronald) Special Center","latitude":null,"zip code":"94538","street":"40950 Chapel Way","phone":null,"longitude":null,"id":"abwohmzy0jk8","state":"CA"},"type":"Feature","geometry":null},{"properties":{"city":"Byron","school name":"Mountain House Elementary","latitude":37.787442,"zip code":"94514-1920","street":"3950 Mountain House Rd.","phone":"(209) 835-2283","longitude":-121.57732,"id":"abwohn1zsopj","state":"CA"},"type":"Feature","geometry":{"type":"Point","coordinates":[-121.57732,37.787442]}},{"properties":{"city":"Hayward","school name":"Mt. Eden High","latitude":37.625336,"zip code":"94545-4662","street":"2300 Panama St.","phone":"(510) 723-3180","longitude":-122.09058,"id":"abwohn11m7dk","state":"CA"},"type":"Feature","geometry":{"type":"Point","coordinates":[-122.09058,37.625336]}},{"properties":{"city":"Dublin","school name":"Murray Elementary","latitude":null,"zip code":"94566","street":"8435 Davona Dr.","phone":null,"longitude":null,"id":"abwohmv0cej3","state":"CA"},"type":"Feature","geometry":null},{"properties":{"city":"Dublin","school name":"Murray Elementary","latitude":37.721408,"zip code":"94568-1107","street":"8435 Davona Dr.","phone":"(925) 828-2568","longitude":-121.93261,"id":"abwohmzxfjd6","state":"CA"},"type":"Feature","geometry":{"type":"Point","coordinates":[-121.93261,37.721408]}},{"properties":{"city":"Alameda","school name":"Nea Community Learning Center","latitude":37.776338,"zip code":"94501","street":"500 Pacific Ave.","phone":"(510) 521-7543","longitude":-122.2822,"id":"abwohmx0p96w","state":"CA"},"type":"Feature","geometry":{"type":"Point","coordinates":[-122.2822,37.776338]}},{"properties":{"city":"Oakland","school name":"Neighborhood Centers Adult Education","latitude":null,"zip code":"94606-2214","street":"750 International Blvd.","phone":"(510) 273-2300","longitude":null,"id":"abwohn0tlni8","state":"CA"},"type":"Feature","geometry":null},{"properties":{"city":"Union City","school name":"New Haven Adult","latitude":null,"zip code":"94587-3321","street":"1800 H St.","phone":"(510) 489-2185","longitude":null,"id":"abwohmwifzye","state":"CA"},"type":"Feature","geometry":null},{"properties":{"city":"Union City","school name":"New Haven Community Day","latitude":37.586165,"zip code":"94587-4714","street":"34200 Alvarado-Niles Rd.","phone":"(510) 471-1100","longitude":-122.07657,"id":"abwohmouid7w","state":"CA"},"type":"Feature","geometry":{"type":"Point","coordinates":[-122.07657,37.586165]}},{"properties":{"city":"Oakland","school name":"New Highland Academy","latitude":37.751766,"zip code":"94621-1619","street":"8521 A St.","phone":"(510) 729-7723","longitude":-122.17935,"id":"abwohn2sa1sf","state":"CA"},"type":"Feature","geometry":{"type":"Point","coordinates":[-122.17935,37.751766]}},{"properties":{"city":"Newark","school name":"Newark Adult","latitude":null,"zip code":"94560-1848","street":"35777 Cedar Blvd.","phone":"(510) 818-3702","longitude":null,"id":"abwohmv3yev3","state":"CA"},"type":"Feature","geometry":null},{"properties":{"city":"Newark","school name":"Newark Junior High","latitude":null,"zip code":"94560","street":"6201 Lafayette Ave.","phone":null,"longitude":null,"id":"abwohmsu530u","state":"CA"},"type":"Feature","geometry":null},{"properties":{"city":"Newark","school name":"Newark Junior High","latitude":37.542953,"zip code":"94560-2432","street":"6201 Lafayette Ave.","phone":"(510) 818-3000","longitude":-122.03683,"id":"abwohmxiykio","state":"CA"},"type":"Feature","geometry":{"type":"Point","coordinates":[-122.03683,37.542953]}},{"properties":{"city":"Newark","school name":"Newark Memorial High","latitude":37.522118,"zip code":"94560-5007","street":"39375 Cedar Blvd.","phone":"(510) 818-4300","longitude":-122.00175,"id":"abwohn0yo7cp","state":"CA"},"type":"Feature","geometry":{"type":"Point","coordinates":[-122.00175,37.522118]}},{"properties":{"city":"Dublin","school name":"Nielsen Elementary","latitude":null,"zip code":"94568","street":"7500 Amarillo Dr.","phone":null,"longitude":null,"id":"abwohmom4h6v","state":"CA"},"type":"Feature","geometry":null},{"properties":{"city":"Fremont","school name":"Niles Elementary","latitude":37.576003,"zip code":"94536-2835","street":"37141 Second St.","phone":"(510) 793-1141","longitude":-121.98478,"id":"abwohn1sx6l7","state":"CA"},"type":"Feature","geometry":{"type":"Point","coordinates":[-121.98478,37.576003]}},{"properties":{"city":"Oakland","school name":"North Oakland Community Charter","latitude":37.832812,"zip code":"94608-3621","street":"1000 42nd St.","phone":"(510) 655-0540","longitude":-122.27624,"id":"abwohmvmwx0e","state":"CA"},"type":"Feature","geometry":{"type":"Point","coordinates":[-122.27624,37.832812]}},{"properties":{"city":"Fremont","school name":"O. N. Hirsch Elementary","latitude":37.52823,"zip code":"94538-4202","street":"41399 Chapel Way","phone":"(510) 657-3537","longitude":-121.96287,"id":"abwohmq3jl4s","state":"CA"},"type":"Feature","geometry":{"type":"Point","coordinates":[-121.96287,37.52823]}},{"properties":{"city":"Oakland","school name":"Oakland Adult and Career Education","latitude":null,"zip code":"94607","street":"2607 Myrtle St.","phone":"(510) 879-3036","longitude":null,"id":"abwohmpz51fc","state":"CA"},"type":"Feature","geometry":null},{"properties":{"city":"Oakland","school name":"Oakland Charter Academy","latitude":37.778206,"zip code":"94601-1404","street":"3001 International Blvd.","phone":"(510) 532-6751","longitude":-122.22802,"id":"abwohn29rajt","state":"CA"},"type":"Feature","geometry":{"type":"Point","coordinates":[-122.22802,37.778206]}},{"properties":{"city":"Oakland","school name":"Oakland Charter High","latitude":37.800186,"zip code":"94607","street":"345 12th St.","phone":"(510) 893-8700","longitude":-122.26566,"id":"abwohmpemvb2","state":"CA"},"type":"Feature","geometry":{"type":"Point","coordinates":[-122.26566,37.800186]}},{"properties":{"city":"Oakland","school name":"Oakland Community Day Middle","latitude":37.788448,"zip code":"94619","street":"4917 Mountain Blvd.","phone":"(510) 879-8450","longitude":-122.178,"id":"abwohmug12da","state":"CA"},"type":"Feature","geometry":{"type":"Point","coordinates":[-122.178,37.788448]}},{"properties":{"city":"Oakland","school name":"Oakland High","latitude":37.805315,"zip code":"94610-3930","street":"1023 MacArthur Blvd.","phone":"(510) 879-3040","longitude":-122.23651,"id":"abwohmxwifsv","state":"CA"},"type":"Feature","geometry":{"type":"Point","coordinates":[-122.23651,37.805315]}},{"properties":{"city":"Oakland","school name":"Oakland International High","latitude":37.833537,"zip code":"94609-2140","street":"4521 Webster St.","phone":"(510) 879-2142","longitude":-122.26015,"id":"abwohn07tjwx","state":"CA"},"type":"Feature","geometry":{"type":"Point","coordinates":[-122.26015,37.833537]}},{"properties":{"city":"Oakland","school name":"Oakland Military Institute, College Preparatory Academy","latitude":37.829387,"zip code":"94608-3822","street":"3877 Lusk St.","phone":"(510) 594-3900","longitude":-122.27231,"id":"abwohn0jvvtz","state":"CA"},"type":"Feature","geometry":{"type":"Point","coordinates":[-122.27231,37.829387]}},{"properties":{"city":"Oakland","school name":"Oakland School for the Arts","latitude":37.807922,"zip code":"94612","street":"530 18th St.","phone":"(510) 873-8800","longitude":-122.27232,"id":"abwohn31b1jh","state":"CA"},"type":"Feature","geometry":{"type":"Point","coordinates":[-122.27232,37.807922]}},{"properties":{"city":"Oakland","school name":"Oakland Technical High","latitude":37.832211,"zip code":"94611-4612","street":"4351 Broadway","phone":"(510) 879-3050","longitude":-122.25534,"id":"abwohmpymi7a","state":"CA"},"type":"Feature","geometry":{"type":"Point","coordinates":[-122.25534,37.832211]}},{"properties":{"city":"Oakland","school name":"Oakland Unity High","latitude":37.773689,"zip code":"94605-1544","street":"6038 Brann St.","phone":"(510) 635-7170","longitude":-122.18551,"id":"abwohn0xaf7z","state":"CA"},"type":"Feature","geometry":{"type":"Point","coordinates":[-122.18551,37.773689]}},{"properties":{"city":"Albany","school name":"Ocean View Elementary","latitude":37.887542,"zip code":"94706","street":"1000 Jackson St.","phone":"(510) 558-4800","longitude":-122.30089,"id":"abwohmvi9ndm","state":"CA"},"type":"Feature","geometry":{"type":"Point","coordinates":[-122.30089,37.887542]}},{"properties":{"city":"Fremont","school name":"Oliveira Elementary","latitude":37.560406,"zip code":"94536-4799","street":"4180 Alder Ave.","phone":"(510) 797-1135","longitude":-122.01774,"id":"abwohn0h1gar","state":"CA"},"type":"Feature","geometry":{"type":"Point","coordinates":[-122.01774,37.560406]}},{"properties":{"city":"Berkeley","school name":"Oxford Elementary","latitude":37.887816,"zip code":"94707-2624","street":"1130 Oxford St.","phone":"(510) 644-6300","longitude":-122.26825,"id":"abwohn2lnrid","state":"CA"},"type":"Feature","geometry":{"type":"Point","coordinates":[-122.26825,37.887816]}},{"properties":{"city":"Hayward","school name":"Palma Ceia Elementary","latitude":37.627205,"zip code":"94545-4723","street":"27679 Melbourne Ave.","phone":"(510) 723-3870","longitude":-122.08522,"id":"abwohn0bqxe9","state":"CA"},"type":"Feature","geometry":{"type":"Point","coordinates":[-122.08522,37.627205]}},{"properties":{"city":"Castro Valley","school name":"Palomares Elementary","latitude":37.693535,"zip code":"94552-9708","street":"6395 Palo Verde Rd.","phone":"(510) 582-4207","longitude":-122.02618,"id":"abwohmvnbb4c","state":"CA"},"type":"Feature","geometry":{"type":"Point","coordinates":[-122.02618,37.693535]}},{"properties":{"city":"Hayward","school name":"Park Elementary","latitude":37.652906,"zip code":"94540","street":"411 Larchmont St.","phone":"(510) 293-8515","longitude":-122.09405,"id":"abwohmpmu0t2","state":"CA"},"type":"Feature","geometry":{"type":"Point","coordinates":[-122.09405,37.652906]}},{"properties":{"city":"Oakland","school name":"Parker Elementary","latitude":37.765654,"zip code":"94605-3311","street":"7929 Ney Ave.","phone":"(510) 879-1440","longitude":-122.16557,"id":"abwohmzueo5z","state":"CA"},"type":"Feature","geometry":{"type":"Point","coordinates":[-122.16557,37.765654]}},{"properties":{"city":"Fremont","school name":"Parkmont Elementary","latitude":37.560207,"zip code":"94536-5246","street":"2601 Parkside Dr.","phone":"(510) 793-7492","longitude":-121.98468,"id":"abwohmx3zn6b","state":"CA"},"type":"Feature","geometry":{"type":"Point","coordinates":[-121.98468,37.560207]}},{"properties":{"city":"Fremont","school name":"Patterson Elementary","latitude":37.562269,"zip code":"94536-5499","street":"35521 Cabrillo Dr.","phone":"(510) 793-0420","longitude":-122.03083,"id":"abwohn1mynna","state":"CA"},"type":"Feature","geometry":{"type":"Point","coordinates":[-122.03083,37.562269]}},{"properties":{"city":"Hayward","school name":"Peixoto Childrens Center","latitude":null,"zip code":"94544","street":"29150 Ruus Rd.","phone":null,"longitude":null,"id":"abwohmzlqe4q","state":"CA"},"type":"Feature","geometry":null},{"properties":{"city":"Oakland","school name":"Peralta Elementary","latitude":37.849567,"zip code":"94609","street":"460 63rd St.","phone":"(510) 879-1450","longitude":-122.25894,"id":"abwohn3eg3dy","state":"CA"},"type":"Feature","geometry":{"type":"Point","coordinates":[-122.25894,37.849567]}},{"properties":{"city":"Pleasanton","school name":"Phoebe Apperson Hearst Elementary","latitude":37.652429,"zip code":"94566-8005","street":"5301 Case Ave.","phone":"(925) 426-3772","longitude":-121.8843,"id":"abwohmrv3lzp","state":"CA"},"type":"Feature","geometry":{"type":"Point","coordinates":[-121.8843,37.652429]}},{"properties":{"city":"Livermore","school name":"Phoenix High (Continuation)","latitude":37.678927,"zip code":"94550-4549","street":"2253 Fifth St.","phone":"(925) 606-4709","longitude":-121.76675,"id":"abwohmocq709","state":"CA"},"type":"Feature","geometry":{"type":"Point","coordinates":[-121.76675,37.678927]}},{"properties":{"city":"Piedmont","school name":"Piedmont Adult Education","latitude":null,"zip code":"94611-4029","street":"800 Magnolia Ave.","phone":"(510) 594-2855","longitude":null,"id":"abwohmqwt2hw","state":"CA"},"type":"Feature","geometry":null},{"properties":{"city":"Oakland","school name":"Piedmont Avenue Elementary","latitude":37.829089,"zip code":"94611-4716","street":"4314 Piedmont Ave.","phone":"(510) 654-7377","longitude":-122.24882,"id":"abwohmwcgtai","state":"CA"},"type":"Feature","geometry":{"type":"Point","coordinates":[-122.24882,37.829089]}},{"properties":{"city":"Piedmont","school name":"Piedmont High","latitude":37.823691,"zip code":"94611-4029","street":"800 Magnolia Ave.","phone":"(510) 594-2626","longitude":-122.23293,"id":"abwohmy0nx82","state":"CA"},"type":"Feature","geometry":{"type":"Point","coordinates":[-122.23293,37.823691]}},{"properties":{"city":"Piedmont","school name":"Piedmont Middle","latitude":37.823147,"zip code":"94611-4047","street":"740 Magnolia Ave.","phone":"(510) 594-2668","longitude":-122.23357,"id":"abwohmopo4z7","state":"CA"},"type":"Feature","geometry":{"type":"Point","coordinates":[-122.23357,37.823147]}},{"properties":{"city":"Piedmont","school name":"Piedmont Preschool","latitude":null,"zip code":"94611-4047","street":"760 Magnolia Ave.","phone":"(510) 594-2733","longitude":null,"id":"abwohmtsercf","state":"CA"},"type":"Feature","geometry":null},{"properties":{"city":"Union City","school name":"Pioneer Elementary","latitude":37.57205,"zip code":"94587-5500","street":"32737 Bel Aire St.","phone":"(510) 487-4530","longitude":-122.07168,"id":"abwohmolr2w2","state":"CA"},"type":"Feature","geometry":{"type":"Point","coordinates":[-122.07168,37.57205]}},{"properties":{"city":"Pleasanton","school name":"Pleasanton Middle","latitude":37.656952,"zip code":"94566-1171","street":"5001 Case Ave.","phone":"(925) 426-4390","longitude":-121.88153,"id":"abwohn2dpxov","state":"CA"},"type":"Feature","geometry":{"type":"Point","coordinates":[-121.88153,37.656952]}},{"properties":{"city":"Pleasanton","school name":"Pleasanton Unified Alternative","latitude":null,"zip code":"94566","street":"Ten Neal St.","phone":null,"longitude":null,"id":"abwohmstb1wk","state":"CA"},"type":"Feature","geometry":null},{"properties":{"city":"Oakland","school name":"Preparatory Literary Academy of Cultural Excellence","latitude":37.808471,"zip code":"94607-1320","street":"920 Campbell St.","phone":"(510) 874-3332","longitude":-122.29806,"id":"abwohmptszsm","state":"CA"},"type":"Feature","geometry":{"type":"Point","coordinates":[-122.29806,37.808471]}},{"properties":{"city":"Castro Valley","school name":"Proctor Elementary","latitude":37.716739,"zip code":"94546-1434","street":"17520 Redwood Rd.","phone":"(510) 537-0630","longitude":-122.0737,"id":"abwohmxjfg97","state":"CA"},"type":"Feature","geometry":{"type":"Point","coordinates":[-122.0737,37.716739]}},{"properties":{"city":"Oakland","school name":"Ralph J. Bunche High","latitude":37.813173,"zip code":"94607-2223","street":"1240 18th St.","phone":"(510) 874-3300","longitude":-122.28785,"id":"abwohmp1lbne","state":"CA"},"type":"Feature","geometry":{"type":"Point","coordinates":[-122.28785,37.813173]}},{"properties":{"city":"Livermore","school name":"Rancho Las Positas Elementary","latitude":37.68898,"zip code":"94551-1853","street":"401 East Jack London Blvd.","phone":"(925) 606-4748","longitude":-121.80427,"id":"abwohmw3rc8j","state":"CA"},"type":"Feature","geometry":{"type":"Point","coordinates":[-121.80427,37.68898]}},{"properties":{"city":"Oakland","school name":"Reach Academy","latitude":37.746497,"zip code":"94603","street":"9860 Sunnyside St.","phone":"(510) 729-7775","longitude":-122.16185,"id":"abwohmvdk2tn","state":"CA"},"type":"Feature","geometry":{"type":"Point","coordinates":[-122.16185,37.746497]}},{"properties":{"city":"Berkeley","school name":"REALM High","latitude":null,"zip code":"94710","street":"2023 Eighth St.","phone":"(510) 809-9800","longitude":null,"id":"abwohmyzghl1","state":"CA"},"type":"Feature","geometry":null},{"properties":{"city":"Berkeley","school name":"REALM Middle","latitude":null,"zip code":"94710","street":"2023 Eighth St.","phone":"(510) 809-9800","longitude":null,"id":"abwohmpu9xrp","state":"CA"},"type":"Feature","geometry":null},{"properties":{"city":"Castro Valley","school name":"Redwood Continuation High","latitude":37.712771,"zip code":"94546-0146","street":"18400 Clifton Way","phone":"(510) 537-3193","longitude":-122.09304,"id":"abwohmnjwjfg","state":"CA"},"type":"Feature","geometry":{"type":"Point","coordinates":[-122.09304,37.712771]}},{"properties":{"city":"Oakland","school name":"Redwood Heights Elementary","latitude":37.797054,"zip code":"94619-1614","street":"4401 39th Ave.","phone":"(510) 531-6644","longitude":-122.18624,"id":"abwohmoibd3u","state":"CA"},"type":"Feature","geometry":{"type":"Point","coordinates":[-122.18624,37.797054]}},{"properties":{"city":"Oakland","school name":"Reems (Ernestine C.) Academy of Technology and Art","latitude":37.760978,"zip code":"94605-3553","street":"8425 MacArthur Blvd.","phone":"(510) 729-6635","longitude":-122.16344,"id":"abwohmo7jqcb","state":"CA"},"type":"Feature","geometry":{"type":"Point","coordinates":[-122.16344,37.760978]}},{"properties":{"city":"Oakland","school name":"Rise Community","latitude":37.751766,"zip code":"94621","street":"8521 A St.","phone":"(510) 729-7732","longitude":-122.17935,"id":"abwohmwbxby8","state":"CA"},"type":"Feature","geometry":{"type":"Point","coordinates":[-122.17935,37.751766]}},{"properties":{"city":"Fremont","school name":"Robertson High (Continuation)","latitude":37.519559,"zip code":"94538-4028","street":"4455 Seneca Park Ave.","phone":"(510) 657-9155","longitude":-121.96391,"id":"abwohmuyqu4v","state":"CA"},"type":"Feature","geometry":{"type":"Point","coordinates":[-121.96391,37.519559]}},{"properties":{"city":"San Leandro","school name":"Roosevelt Elementary","latitude":37.736408,"zip code":"94577-2125","street":"951 Dowling Blvd.","phone":"(510) 618-4350","longitude":-122.14676,"id":"abwohn3s25lc","state":"CA"},"type":"Feature","geometry":{"type":"Point","coordinates":[-122.14676,37.736408]}},{"properties":{"city":"Oakland","school name":"Roosevelt Middle","latitude":37.78971,"zip code":"94606-4170","street":"1926 19th Ave.","phone":"(510) 879-2120","longitude":-122.23796,"id":"abwohmz9svqd","state":"CA"},"type":"Feature","geometry":{"type":"Point","coordinates":[-122.23796,37.78971]}},{"properties":{"city":"Oakland","school name":"ROOTS International Academy","latitude":37.762001,"zip code":"94621-3506","street":"1390 66th Ave.","phone":"(510) 639-3226","longitude":-122.19339,"id":"abwohmzjh3zv","state":"CA"},"type":"Feature","geometry":{"type":"Point","coordinates":[-122.19339,37.762001]}},{"properties":{"city":"Berkeley","school name":"Rosa Parks Environmental Science Magnet","latitude":37.865671,"zip code":"94710","street":"920 Allston Way","phone":"(510) 644-8812","longitude":-122.29472,"id":"abwohmn9r15m","state":"CA"},"type":"Feature","geometry":{"type":"Point","coordinates":[-122.29472,37.865671]}},{"properties":{"city":"Castro Valley","school name":"Roy A. Johnson High","latitude":37.707756,"zip code":"94546-4704","street":"4430 Alma Ave.","phone":"(510) 537-3000","longitude":-122.07164,"id":"abwohmwobd79","state":"CA"},"type":"Feature","geometry":{"type":"Point","coordinates":[-122.07164,37.707756]}},{"properties":{"city":"Hayward","school name":"Royal Sunset (Continuation)","latitude":37.669316,"zip code":"94541-4712","street":"20450 Royal Ave.","phone":"(510) 317-4400","longitude":-122.11418,"id":"abwohmvquaza","state":"CA"},"type":"Feature","geometry":{"type":"Point","coordinates":[-122.11418,37.669316]}},{"properties":{"city":"Alameda","school name":"Ruby Bridges Elementary","latitude":37.781807,"zip code":"94501","street":"351 Jack London Ave.","phone":"(510) 748-4006","longitude":-122.28614,"id":"abwohmvca35l","state":"CA"},"type":"Feature","geometry":{"type":"Point","coordinates":[-122.28614,37.781807]}},{"properties":{"city":"Oakland","school name":"Rudsdale Continuation","latitude":37.759364,"zip code":"94621","street":"1180 70th Ave.","phone":"(510) 636-7992","longitude":-122.19094,"id":"abwohmzoaao2","state":"CA"},"type":"Feature","geometry":{"type":"Point","coordinates":[-122.19094,37.759364]}},{"properties":{"city":"Hayward","school name":"Ruus Elementary","latitude":37.62721,"zip code":"94540-5639","street":"28027 Dickens Ave.","phone":"(510) 723-3885","longitude":-122.07387,"id":"abwohmy25t1z","state":"CA"},"type":"Feature","geometry":{"type":"Point","coordinates":[-122.07387,37.62721]}},{"properties":{"city":"San Leandro","school name":"San Leandro Adult","latitude":null,"zip code":"94577-6108","street":"2255 Bancroft Ave.","phone":"(510) 618-4420","longitude":null,"id":"abwohn1nefhq","state":"CA"},"type":"Feature","geometry":null},{"properties":{"city":"San Leandro","school name":"San Leandro High","latitude":37.718635,"zip code":"94577-6108","street":"2200 Bancroft Ave.","phone":"(510) 618-4600","longitude":-122.14084,"id":"abwohmugjk5v","state":"CA"},"type":"Feature","geometry":{"type":"Point","coordinates":[-122.14084,37.718635]}},{"properties":{"city":"San Lorenzo","school name":"San Lorenzo Adult","latitude":null,"zip code":"94580-2906","street":"820 Bockman Rd.","phone":"(510) 317-4200","longitude":null,"id":"abwohmzrjsun","state":"CA"},"type":"Feature","geometry":null},{"properties":{"city":"San Lorenzo","school name":"San Lorenzo High","latitude":37.688598,"zip code":"94580-1732","street":"50 East Lewelling Blvd.","phone":"(510) 317-3000","longitude":-122.12295,"id":"abwohmz15lkr","state":"CA"},"type":"Feature","geometry":{"type":"Point","coordinates":[-122.12295,37.688598]}},{"properties":{"city":"Oakland","school name":"Sankofa Academy","latitude":37.847155,"zip code":"94609","street":"581 61st St.","phone":"(510) 654-7787","longitude":-122.26444,"id":"abwohmw3ozji","state":"CA"},"type":"Feature","geometry":{"type":"Point","coordinates":[-122.26444,37.847155]}},{"properties":{"city":"Oakland","school name":"Santa Fe Elementary","latitude":37.838596,"zip code":"94608-3142","street":"915 54th St.","phone":"(510) 654-7372","longitude":-122.27564,"id":"abwohmspc0bq","state":"CA"},"type":"Feature","geometry":{"type":"Point","coordinates":[-122.27564,37.838596]}},{"properties":{"city":"Hayward","school name":"Schafer Park Elementary","latitude":37.642929,"zip code":"94544-3159","street":"26268 Flamingo Ave.","phone":"(510) 723-3895","longitude":-122.08737,"id":"abwohn316xo2","state":"CA"},"type":"Feature","geometry":{"type":"Point","coordinates":[-122.08737,37.642929]}},{"properties":{"city":"Dublin","school name":"School for School-Age Mothers","latitude":null,"zip code":"94568","street":"8151 Village Pkwy.","phone":null,"longitude":null,"id":"abwohn0it3rr","state":"CA"},"type":"Feature","geometry":null},{"properties":{"city":"Union City","school name":"Searles Elementary","latitude":37.59608,"zip code":"94587-3322","street":"33629 15th St.","phone":"(510) 471-2772","longitude":-122.02715,"id":"abwohmug0t5h","state":"CA"},"type":"Feature","geometry":{"type":"Point","coordinates":[-122.02715,37.59608]}},{"properties":{"city":"Oakland","school name":"Sequoia Elementary","latitude":37.802327,"zip code":"94602-2468","street":"3730 Lincoln Ave.","phone":"(510) 531-6696","longitude":-122.21145,"id":"abwohmtsi2i2","state":"CA"},"type":"Feature","geometry":{"type":"Point","coordinates":[-122.21145,37.802327]}},{"properties":{"city":"Oakland","school name":"Skyline High","latitude":37.79872,"zip code":"94619-2425","street":"12250 Skyline Blvd.","phone":"(510) 879-3060","longitude":-122.16086,"id":"abwohmq929dt","state":"CA"},"type":"Feature","geometry":{"type":"Point","coordinates":[-122.16086,37.79872]}},{"properties":{"city":"Oakland","school name":"Sobrante Park Elementary","latitude":37.727925,"zip code":"94603-3565","street":"470 El Paseo Dr.","phone":"(510) 636-7917","longitude":-122.17642,"id":"abwohmsq38um","state":"CA"},"type":"Feature","geometry":{"type":"Point","coordinates":[-122.17642,37.727925]}},{"properties":{"city":"Hayward","school name":"Southgate Elementary","latitude":37.639071,"zip code":"94545-3121","street":"26601 Calaroga Ave.","phone":"(510) 723-3905","longitude":-122.09444,"id":"abwohmnytot6","state":"CA"},"type":"Feature","geometry":{"type":"Point","coordinates":[-122.09444,37.639071]}},{"properties":{"city":"Livermore","school name":"Special Education Preschool","latitude":null,"zip code":"94551","street":"5650 Senic Ave.","phone":"(925) 606-3227","longitude":null,"id":"abwohn08rewb","state":"CA"},"type":"Feature","geometry":null},{"properties":{"city":"Castro Valley","school name":"Special Education-Preschool-Laurel","latitude":null,"zip code":"94546","street":"2652 Vergil Ct.","phone":"(510) 293-8599","longitude":null,"id":"abwohmppmp5c","state":"CA"},"type":"Feature","geometry":null},{"properties":{"city":"Castro Valley","school name":"Stanton Elementary","latitude":37.700622,"zip code":"94546-4016","street":"2644 Somerset Ave.","phone":"(510) 727-9192","longitude":-122.09389,"id":"abwohmzwsfnm","state":"CA"},"type":"Feature","geometry":{"type":"Point","coordinates":[-122.09389,37.700622]}},{"properties":{"city":"Fremont","school name":"Steven Millard Elementary","latitude":37.520092,"zip code":"94538-3262","street":"5200 Valpey Park Dr.","phone":"(510) 657-0344","longitude":-121.97397,"id":"abwohmrlnlfo","state":"CA"},"type":"Feature","geometry":{"type":"Point","coordinates":[-121.97397,37.520092]}},{"properties":{"city":"Hayward","school name":"Stonebrae Elementary","latitude":37.654755,"zip code":"94542","street":"28761 Hayward Blvd.","phone":"(510) 723-3910","longitude":-122.02046,"id":"abwohmtf6sy2","state":"CA"},"type":"Feature","geometry":{"type":"Point","coordinates":[-122.02046,37.654755]}},{"properties":{"city":"Oakland","school name":"Street Academy (Alternative)","latitude":37.817462,"zip code":"94609-3510","street":"417 29th St.","phone":"(510) 874-3630","longitude":-122.26559,"id":"abwohn057q7s","state":"CA"},"type":"Feature","geometry":{"type":"Point","coordinates":[-122.26559,37.817462]}},{"properties":{"city":"Castro Valley","school name":"Strobridge Elementary","latitude":37.687491,"zip code":"94546-6805","street":"21400 Bedford Dr.","phone":"(510) 723-3915","longitude":-122.0875,"id":"abwohmocal1s","state":"CA"},"type":"Feature","geometry":{"type":"Point","coordinates":[-122.0875,37.687491]}},{"properties":{"city":"Castro Valley","school name":"Strobridge Elementary","latitude":null,"zip code":"94546","street":"21400 Bedford Dr.","phone":null,"longitude":null,"id":"abwohn0inc67","state":"CA"},"type":"Feature","geometry":null},{"properties":{"city":"Hayward","school name":"Strobridge High","latitude":null,"zip code":"94540","street":"21400 Bedford, Castro Valley","phone":null,"longitude":null,"id":"abwohmu910af","state":"CA"},"type":"Feature","geometry":null},{"properties":{"city":"Sunol","school name":"Sunol Glen Elementary","latitude":37.59295,"zip code":"94586","street":"11601 Main St.","phone":"(925) 862-2026","longitude":-121.88485,"id":"abwohn3eq4y7","state":"CA"},"type":"Feature","geometry":{"type":"Point","coordinates":[-121.88485,37.59295]}},{"properties":{"city":"Sunol","school name":"Sunol Glen Elementary","latitude":null,"zip code":"94586","street":"Main &amp; Bond Sts.","phone":null,"longitude":null,"id":"abwohmxtmb00","state":"CA"},"type":"Feature","geometry":null},{"properties":{"city":"Livermore","school name":"Sunset Elementary","latitude":37.662598,"zip code":"94550","street":"1671 Frankfurt Way","phone":"(925) 606-5230","longitude":-121.77472,"id":"abwohmp4j38g","state":"CA"},"type":"Feature","geometry":{"type":"Point","coordinates":[-121.77472,37.662598]}},{"properties":{"city":"Hayward","school name":"Tennyson Elementary (Sed)","latitude":null,"zip code":"94544","street":"680 West Tennyson Rd.","phone":null,"longitude":null,"id":"abwohmzt1llx","state":"CA"},"type":"Feature","geometry":null},{"properties":{"city":"Hayward","school name":"Tennyson High","latitude":37.641815,"zip code":"94544-4099","street":"27035 Whitman Rd.","phone":"(510) 723-3190","longitude":-122.06826,"id":"abwohn0z4e6i","state":"CA"},"type":"Feature","geometry":{"type":"Point","coordinates":[-122.06826,37.641815]}},{"properties":{"city":"Oakland","school name":"Think College Now","latitude":37.779681,"zip code":"94601","street":"2825 International Blvd.","phone":"(510) 532-5500","longitude":-122.23088,"id":"abwohn203u78","state":"CA"},"type":"Feature","geometry":{"type":"Point","coordinates":[-122.23088,37.779681]}},{"properties":{"city":"Pleasanton","school name":"Thomas S. Hart Middle","latitude":37.685423,"zip code":"94588-8520","street":"4433 Willow Rd.","phone":"(925) 426-3102","longitude":-121.89832,"id":"abwohn08i4ox","state":"CA"},"type":"Feature","geometry":{"type":"Point","coordinates":[-121.89832,37.685423]}},{"properties":{"city":"Oakland","school name":"Thornhill Elementary","latitude":37.836193,"zip code":"94611-2147","street":"5880 Thornhill Dr.","phone":"(510) 339-6800","longitude":-122.21156,"id":"abwohmzs4so8","state":"CA"},"type":"Feature","geometry":{"type":"Point","coordinates":[-122.21156,37.836193]}},{"properties":{"city":"Fremont","school name":"Thornton Junior High","latitude":37.557109,"zip code":"94536-4897","street":"4357 Thornton Ave.","phone":"(510) 793-9090","longitude":-122.01451,"id":"abwohn1vj3yi","state":"CA"},"type":"Feature","geometry":{"type":"Point","coordinates":[-122.01451,37.557109]}},{"properties":{"city":"Berkeley","school name":"Thousand Oaks Elementary","latitude":37.893098,"zip code":"94707","street":"840 Colusa Ave.","phone":"(510) 644-6368","longitude":-122.28037,"id":"abwohmsx2v8x","state":"CA"},"type":"Feature","geometry":{"type":"Point","coordinates":[-122.28037,37.893098]}},{"properties":{"city":"Union City","school name":"Tom Kitayama Elementary","latitude":37.601464,"zip code":"94587","street":"1959 Sunsprite Dr.","phone":"(510) 475-3982","longitude":-122.04983,"id":"abwohmw22ou2","state":"CA"},"type":"Feature","geometry":{"type":"Point","coordinates":[-122.04983,37.601464]}},{"properties":{"city":"Fremont","school name":"Tom Maloney Elementary","latitude":37.546667,"zip code":"94536-6899","street":"38700 Logan Dr.","phone":"(510) 797-4426","longitude":-121.99725,"id":"abwohmtudoxl","state":"CA"},"type":"Feature","geometry":{"type":"Point","coordinates":[-121.99725,37.546667]}},{"properties":{"city":"Hayward","school name":"Treeview Elementary","latitude":37.624176,"zip code":"94544-7458","street":"30565 Treeview St.","phone":"(510) 723-3925","longitude":-122.03654,"id":"abwohmsqylzu","state":"CA"},"type":"Feature","geometry":{"type":"Point","coordinates":[-122.03654,37.624176]}},{"properties":{"city":"Livermore","school name":"Tri-Valley ROP","latitude":37.699839,"zip code":"94551-9699","street":"2600 Kitty Hawk Rd., Ste. 117","phone":"(925) 455-4800","longitude":-121.81263,"id":"abwohmvr375b","state":"CA"},"type":"Feature","geometry":{"type":"Point","coordinates":[-121.81263,37.699839]}},{"properties":{"city":"Hayward","school name":"Tyrrell Elementary","latitude":37.637384,"zip code":"94540-0001","street":"27000 Tyrrell Ave.","phone":"(510) 723-3935","longitude":-122.07546,"id":"abwohn2wnhq7","state":"CA"},"type":"Feature","geometry":{"type":"Point","coordinates":[-122.07546,37.637384]}},{"properties":{"city":"Berkeley","school name":"UC Child Study Parent Nursery","latitude":null,"zip code":"94705","street":"2425 Atherton","phone":null,"longitude":null,"id":"abwohn36wuz9","state":"CA"},"type":"Feature","geometry":null},{"properties":{"city":"Oakland","school name":"United for Success Academy","latitude":37.784263,"zip code":"94601-3124","street":"2101 35th Ave.","phone":"(510) 879-1494","longitude":-122.21674,"id":"abwohmy81w7m","state":"CA"},"type":"Feature","geometry":{"type":"Point","coordinates":[-122.21674,37.784263]}},{"properties":{"city":"Hayward","school name":"Urban Montessori Charter","latitude":null,"zip code":"94544-1136","street":"313 West Winton Ave.","phone":"(415) 637-2785","longitude":null,"id":"abwohmyty9s4","state":"CA"},"type":"Feature","geometry":null},{"properties":{"city":"Oakland","school name":"Urban Promise Academy","latitude":37.782347,"zip code":"94601","street":"3031 East 18th St.","phone":"(510) 436-3636","longitude":-122.22486,"id":"abwohmtxwpos","state":"CA"},"type":"Feature","geometry":{"type":"Point","coordinates":[-122.22486,37.782347]}},{"properties":{"city":"Fremont","school name":"Vallejo Mill Elementary","latitude":37.574513,"zip code":"94536-1899","street":"38569 Canyon Heights Dr.","phone":"(510) 793-1441","longitude":-121.95988,"id":"abwohn0a9gpe","state":"CA"},"type":"Feature","geometry":{"type":"Point","coordinates":[-121.95988,37.574513]}},{"properties":{"city":"Dublin","school name":"Valley High","latitude":null,"zip code":"94568-3075","street":"7001 Brighton Dr.","phone":null,"longitude":null,"id":"abwohn0cb785","state":"CA"},"type":"Feature","geometry":null},{"properties":{"city":"Dublin","school name":"Valley High (Continuation)","latitude":37.709136,"zip code":"94568-2100","street":"6901 York Dr.","phone":"(925) 829-4322","longitude":-121.9212,"id":"abwohn1qcsy6","state":"CA"},"type":"Feature","geometry":{"type":"Point","coordinates":[-121.9212,37.709136]}},{"properties":{"city":"Pleasanton","school name":"Valley View Elementary","latitude":null,"zip code":"94566-7198","street":"480 Adams Way","phone":null,"longitude":null,"id":"abwohmuoc5yc","state":"CA"},"type":"Feature","geometry":null},{"properties":{"city":"Pleasanton","school name":"Valley View Elementary","latitude":37.65951,"zip code":"94566-7198","street":"480 Adams Way","phone":"(925) 426-4230","longitude":-121.86362,"id":"abwohmwy3jfx","state":"CA"},"type":"Feature","geometry":{"type":"Point","coordinates":[-121.86362,37.65951]}},{"properties":{"city":"Castro Valley","school name":"Vannoy Elementary","latitude":37.706604,"zip code":"94546-0146","street":"5100 Vannoy","phone":"(510) 537-1832","longitude":-122.05868,"id":"abwohmop4hjc","state":"CA"},"type":"Feature","geometry":{"type":"Point","coordinates":[-122.05868,37.706604]}},{"properties":{"city":"Pleasanton","school name":"Village High","latitude":37.65516,"zip code":"94566-7449","street":"4645 Bernal Ave.","phone":"(925) 426-4260","longitude":-121.87515,"id":"abwohmqjjbum","state":"CA"},"type":"Feature","geometry":{"type":"Point","coordinates":[-121.87515,37.65516]}},{"properties":{"city":"Pleasanton","school name":"Village High","latitude":null,"zip code":"94566-8399","street":"4750 First St.","phone":null,"longitude":null,"id":"abwohn24cww2","state":"CA"},"type":"Feature","geometry":null},{"properties":{"city":"Oakland","school name":"Vincent Academy","latitude":null,"zip code":"94607","street":"1911 Union St.","phone":"(510) 548-5276","longitude":null,"id":"abwohmwuriji","state":"CA"},"type":"Feature","geometry":null},{"properties":{"city":"Livermore","school name":"Vineyard Alternative","latitude":37.677169,"zip code":"94550","street":"1401 Almond Ave.","phone":"(925) 606-4756","longitude":-121.73984,"id":"abwohmvkvih3","state":"CA"},"type":"Feature","geometry":{"type":"Point","coordinates":[-121.73984,37.677169]}},{"properties":{"city":"Pleasanton","school name":"Vintage Hills Elementary","latitude":null,"zip code":"94566-7299","street":"1125 Concord St.","phone":null,"longitude":null,"id":"abwohmq77eqp","state":"CA"},"type":"Feature","geometry":null},{"properties":{"city":"Pleasanton","school name":"Vintage Hills Elementary","latitude":37.655696,"zip code":"94566-7236","street":"1125 Concord St.","phone":"(925) 426-4240","longitude":-121.85484,"id":"abwohmtlmbpp","state":"CA"},"type":"Feature","geometry":{"type":"Point","coordinates":[-121.85484,37.655696]}},{"properties":{"city":"Fremont","school name":"Vista Alternative","latitude":37.519559,"zip code":"94538-4028","street":"4455 Seneca Park Ave.","phone":"(510) 657-7028","longitude":-121.96391,"id":"abwohmz64le7","state":"CA"},"type":"Feature","geometry":{"type":"Point","coordinates":[-121.96391,37.519559]}},{"properties":{"city":"Pleasanton","school name":"Walnut Grove Elementary","latitude":null,"zip code":"94566-5499","street":"1999 Harvest Rd.","phone":null,"longitude":null,"id":"abwohmovpofh","state":"CA"},"type":"Feature","geometry":null},{"properties":{"city":"Pleasanton","school name":"Walnut Grove Elementary","latitude":37.673291,"zip code":"94566-5499","street":"1999 Harvest Rd.","phone":"(925) 426-4250","longitude":-121.88537,"id":"abwohmyfpess","state":"CA"},"type":"Feature","geometry":{"type":"Point","coordinates":[-121.88537,37.673291]}},{"properties":{"city":"Fremont","school name":"Warm Springs Elementary","latitude":37.482858,"zip code":"94539-7458","street":"47370 Warm Springs Blvd.","phone":"(510) 656-1611","longitude":-121.92537,"id":"abwohmneqhki","state":"CA"},"type":"Feature","geometry":{"type":"Point","coordinates":[-121.92537,37.482858]}},{"properties":{"city":"Fremont","school name":"Warwick Elementary","latitude":37.577208,"zip code":"94555-2499","street":"3375 Warwick Rd.","phone":"(510) 793-8660","longitude":-122.0319,"id":"abwohmrqtfai","state":"CA"},"type":"Feature","geometry":{"type":"Point","coordinates":[-122.0319,37.577208]}},{"properties":{"city":"Berkeley","school name":"Washington Elementary","latitude":37.866965,"zip code":"94704-1412","street":"2300 Martin Luther King Jr. Way","phone":"(510) 644-6310","longitude":-122.27253,"id":"abwohn2zp6hq","state":"CA"},"type":"Feature","geometry":{"type":"Point","coordinates":[-122.27253,37.866965]}},{"properties":{"city":"San Leandro","school name":"Washington Elementary","latitude":37.732401,"zip code":"94577-2804","street":"250 Dutton Ave.","phone":"(510) 618-4360","longitude":-122.15675,"id":"abwohmwwv1a7","state":"CA"},"type":"Feature","geometry":{"type":"Point","coordinates":[-122.15675,37.732401]}},{"properties":{"city":"Alameda","school name":"Washington Elementary","latitude":37.77232,"zip code":"94501-3411","street":"825 Taylor Ave.","phone":"(510) 748-4007","longitude":-122.2722,"id":"abwohmr5r7ht","state":"CA"},"type":"Feature","geometry":{"type":"Point","coordinates":[-122.2722,37.77232]}},{"properties":{"city":"Fremont","school name":"Washington High","latitude":37.552054,"zip code":"94536-6031","street":"38442 Fremont Blvd.","phone":"(510) 505-7300","longitude":-121.99486,"id":"abwohmpbutnm","state":"CA"},"type":"Feature","geometry":{"type":"Point","coordinates":[-121.99486,37.552054]}},{"properties":{"city":"San Leandro","school name":"Washington Manor Middle","latitude":37.687779,"zip code":"94579-1633","street":"1170 Fargo Ave.","phone":"(510) 317-5500","longitude":-122.1491,"id":"abwohn11t47p","state":"CA"},"type":"Feature","geometry":{"type":"Point","coordinates":[-122.1491,37.687779]}},{"properties":{"city":"Dublin","school name":"Wells Intermediate","latitude":null,"zip code":"94568","street":"6800 Penn Dr.","phone":null,"longitude":null,"id":"abwohmukr14q","state":"CA"},"type":"Feature","geometry":null},{"properties":{"city":"Dublin","school name":"Wells Middle","latitude":37.710503,"zip code":"94568-2118","street":"6800 Penn Dr.","phone":"(925) 828-6227","longitude":-121.91869,"id":"abwohmwh1atm","state":"CA"},"type":"Feature","geometry":{"type":"Point","coordinates":[-121.91869,37.710503]}},{"properties":{"city":"Oakland","school name":"West Oakland Middle","latitude":37.808753,"zip code":"94607-3230","street":"991 14th St.","phone":"(510) 879-2093","longitude":-122.28271,"id":"abwohmvv984v","state":"CA"},"type":"Feature","geometry":{"type":"Point","coordinates":[-122.28271,37.808753]}},{"properties":{"city":"Oakland","school name":"Westlake Middle","latitude":37.81471,"zip code":"94612-3813","street":"2629 Harrison St.","phone":"(510) 879-2130","longitude":-122.26109,"id":"abwohn0uvafb","state":"CA"},"type":"Feature","geometry":{"type":"Point","coordinates":[-122.26109,37.81471]}},{"properties":{"city":"Newark","school name":"Whiteford (June) School","latitude":null,"zip code":"94560","street":"35725 Cedar Blvd.","phone":null,"longitude":null,"id":"abwohn35rw4h","state":"CA"},"type":"Feature","geometry":null},{"properties":{"city":"Newark","school name":"Whiteford (June) Special Education Preschool","latitude":null,"zip code":"94560","street":"35725 Cedar Blvd.","phone":"(510) 818-3231","longitude":null,"id":"abwohmro9u8u","state":"CA"},"type":"Feature","geometry":null},{"properties":{"city":"Piedmont","school name":"Wildwood Elementary","latitude":37.819683,"zip code":"94611-3817","street":"301 Wildwood Ave","phone":"(510) 594-2780","longitude":-122.23492,"id":"abwohmp2g89b","state":"CA"},"type":"Feature","geometry":{"type":"Point","coordinates":[-122.23492,37.819683]}},{"properties":{"city":"Alameda","school name":"Will C. Wood Middle","latitude":37.763044,"zip code":"94501-5941","street":"420 Grand St.","phone":"(510) 748-4015","longitude":-122.26195,"id":"abwohmux3uj3","state":"CA"},"type":"Feature","geometry":{"type":"Point","coordinates":[-122.26195,37.763044]}},{"properties":{"city":"Berkeley","school name":"Willard Middle","latitude":37.859636,"zip code":"94705-1209","street":"2425 Stuart St.","phone":"(510) 644-6330","longitude":-122.25862,"id":"abwohms4yxey","state":"CA"},"type":"Feature","geometry":{"type":"Point","coordinates":[-122.25862,37.859636]}},{"properties":{"city":"Alameda","school name":"William G. Paden Elementary","latitude":37.771594,"zip code":"94501-3615","street":"444 Central Ave.","phone":"(510) 748-4014","longitude":-122.28446,"id":"abwohmu85k8v","state":"CA"},"type":"Feature","geometry":{"type":"Point","coordinates":[-122.28446,37.771594]}},{"properties":{"city":"Fremont","school name":"William Hopkins Junior High","latitude":37.547032,"zip code":"94539-3803","street":"600 Driscoll Rd.","phone":"(510) 656-3500","longitude":-121.94245,"id":"abwohn1eqh2k","state":"CA"},"type":"Feature","geometry":{"type":"Point","coordinates":[-121.94245,37.547032]}},{"properties":{"city":"Livermore","school name":"William Mendenhall Middle","latitude":37.664622,"zip code":"94550-6215","street":"1701 El Padro Dr.","phone":"(925) 606-4731","longitude":-121.79331,"id":"abwohn044727","state":"CA"},"type":"Feature","geometry":{"type":"Point","coordinates":[-121.79331,37.664622]}},{"properties":{"city":"San Leandro","school name":"Wilson Elementary","latitude":37.716009,"zip code":"94577-2401","street":"1300 Williams St.","phone":"(510) 618-4370","longitude":-122.16624,"id":"abwohmnrm7ok","state":"CA"},"type":"Feature","geometry":{"type":"Point","coordinates":[-122.16624,37.716009]}},{"properties":{"city":"Hayward","school name":"Winton Middle","latitude":37.660371,"zip code":"94540-5000","street":"119 Winton Ave.","phone":"(510) 723-3140","longitude":-122.09097,"id":"abwohn1qbvax","state":"CA"},"type":"Feature","geometry":{"type":"Point","coordinates":[-122.09097,37.660371]}},{"properties":{"city":"Oakland","school name":"World Academy","latitude":37.782379,"zip code":"94601-2455","street":"1700 28th Ave.","phone":"(510) 904-6400","longitude":-122.22607,"id":"abwohmyn81gr","state":"CA"},"type":"Feature","geometry":{"type":"Point","coordinates":[-122.22607,37.782379]}},{"properties":{"city":"Oakland","school name":"Young Adult Program","latitude":0.0,"zip code":"94608-4536","street":"2850 West St.","phone":"(510) 879-2715","longitude":0.0,"id":"abwohmo0cu1i","state":"CA"},"type":"Feature","geometry":{"type":"Point","coordinates":[0.0,0.0]}},{"properties":{"city":"Oakland","school name":"Yu Ming Charter","latitude":null,"zip code":"94607","street":"321 Tenth St.","phone":"(415) 999-7180","longitude":null,"id":"abwohmq8h4f2","state":"CA"},"type":"Feature","geometry":null},{"properties":{"city":"Oakland","school name":null,"latitude":37.65325,"zip code":"94606-2212","street":"1025 Second Ave.","phone":"(510) 879-8582","longitude":-122.25951,"id":"abwohn2imnqw","state":"CA"},"type":"Feature","geometry":{"type":"Point","coordinates":[-122.25951,37.65325]}},{"properties":{"city":"Pleasanton","school name":null,"latitude":37.51449,"zip code":"94566-7498","street":"4665 Bernal Ave.","phone":"(925) 462-5500","longitude":-121.89287,"id":"abwohmtha5pw","state":"CA"},"type":"Feature","geometry":{"type":"Point","coordinates":[-121.89287,37.51449]}},{"properties":{"city":"Pleasanton","school name":null,"latitude":null,"zip code":"94566","street":"4665 Bernal Ave.","phone":null,"longitude":null,"id":"abwohmufh8ax","state":"CA"},"type":"Feature","geometry":null},{"properties":{"city":"San Leandro","school name":null,"latitude":37.55254,"zip code":"94579-1222","street":"14735 Juniper St.","phone":"(510) 667-3500","longitude":-122.16016,"id":"abwohmpmvzgk","state":"CA"},"type":"Feature","geometry":{"type":"Point","coordinates":[-122.16016,37.55254]}},{"properties":{"city":"Sunol","school name":null,"latitude":null,"zip code":"94586","street":"Main and Bond Sts.","phone":null,"longitude":null,"id":"abwohmqg8wsv","state":"CA"},"type":"Feature","geometry":null},{"properties":{"city":"Sunol","school name":null,"latitude":37.4506299,"zip code":"94586-9519","street":"11601 Main St.","phone":"(925) 862-2026","longitude":-121.88543,"id":"abwohmsfo7ek","state":"CA"},"type":"Feature","geometry":{"type":"Point","coordinates":[-121.88543,37.4506299]}},{"properties":{"city":"Hayward","school name":null,"latitude":37.51521,"zip code":"94544-1136","street":"313 West Winton Ave.","phone":"(510) 887-0152","longitude":-122.09705,"id":"abwohmnvgyy7","state":"CA"},"type":"Feature","geometry":{"type":"Point","coordinates":[-122.09705,37.51521]}},{"properties":{"city":"Fremont","school name":null,"latitude":37.41986,"zip code":"94536-4365","street":"500 Walnut Ave.","phone":"(510) 794-3800","longitude":-121.96568,"id":"abwohmunkivc","state":"CA"},"type":"Feature","geometry":{"type":"Point","coordinates":[-121.96568,37.41986]}},{"properties":{"city":"Alameda","school name":null,"latitude":37.6225299,"zip code":"94501-4450","street":"2200 Central Ave.","phone":"(510) 337-7000","longitude":-122.24714,"id":"abwohmrvr1wf","state":"CA"},"type":"Feature","geometry":{"type":"Point","coordinates":[-122.24714,37.6225299]}},{"properties":{"city":"Pleasanton","school name":null,"latitude":null,"zip code":"94566","street":"4665 Bernal Ave.","phone":null,"longitude":null,"id":"abwohmpfncdw","state":"CA"},"type":"Feature","geometry":null},{"properties":{"city":"Castro Valley","school name":null,"latitude":37.5644199,"zip code":"94546-0146","street":"4400 Alma Ave.","phone":"(510) 537-3000","longitude":-122.07141,"id":"abwohmnkxy0l","state":"CA"},"type":"Feature","geometry":{"type":"Point","coordinates":[-122.07141,37.5644199]}},{"properties":{"city":"Livermore","school name":null,"latitude":37.54567,"zip code":"94551-1899","street":"685 East Jack London Blvd.","phone":"(925) 606-3200","longitude":-121.79022,"id":"abwohmrr4tek","state":"CA"},"type":"Feature","geometry":{"type":"Point","coordinates":[-121.79022,37.54567]}},{"properties":{"city":"Berkeley","school name":null,"latitude":37.72666,"zip code":"94704-1109","street":"2134 Martin Luther King, Jr. Way","phone":"(510) 644-6206","longitude":-122.27329,"id":"abwohn0t46en","state":"CA"},"type":"Feature","geometry":{"type":"Point","coordinates":[-122.27329,37.72666]}},{"properties":{"city":"Livermore","school name":null,"latitude":null,"zip code":"94551","street":"2451 Portola Ave.","phone":"(925) 443-1690","longitude":null,"id":"abwohmzorrbq","state":"CA"},"type":"Feature","geometry":null},{"properties":{"city":"Livermore","school name":null,"latitude":null,"zip code":"94551-1756","street":"2451 Portola Ave.","phone":"(408) 761-2228","longitude":null,"id":"abwohmp531py","state":"CA"},"type":"Feature","geometry":null},{"properties":{"city":"Fremont","school name":null,"latitude":37.41646,"zip code":"94538-2308","street":"39350 Gallaudet Dr.","phone":"(510) 794-3666","longitude":-121.96595,"id":"abwohmz1k2gy","state":"CA"},"type":"Feature","geometry":{"type":"Point","coordinates":[-121.96595,37.41646]}},{"properties":{"city":"Byron","school name":null,"latitude":37.6445999,"zip code":"94514-1920","street":"3950 Mountain House Rd.","phone":"(209) 835-2283","longitude":-121.57719,"id":"abwohmxc2k80","state":"CA"},"type":"Feature","geometry":{"type":"Point","coordinates":[-121.57719,37.6445999]}},{"properties":{"city":"Union City","school name":null,"latitude":37.44523,"zip code":"94587-4402","street":"34200 Alvarado-Niles Rd.","phone":"(510) 471-1100","longitude":-122.0252,"id":"abwohn3pep36","state":"CA"},"type":"Feature","geometry":{"type":"Point","coordinates":[-122.0252,37.44523]}},{"properties":{"city":"Albany","school name":null,"latitude":37.74689,"zip code":"94706-2213","street":"1051 Monroe St.","phone":"(510) 558-3750","longitude":-122.29515,"id":"abwohmv5t53m","state":"CA"},"type":"Feature","geometry":{"type":"Point","coordinates":[-122.29515,37.74689]}},{"properties":{"city":"Piedmont","school name":null,"latitude":37.67983,"zip code":"94611-4047","street":"760 Magnolia Ave.","phone":"(510) 594-2600","longitude":-122.23372,"id":"abwohms05fcf","state":"CA"},"type":"Feature","geometry":{"type":"Point","coordinates":[-122.23372,37.67983]}},{"properties":{"city":"San Lorenzo","school name":null,"latitude":37.5457499,"zip code":"94580-1641","street":"15510 Usher St.","phone":"(510) 317-4600","longitude":-122.12869,"id":"abwohmxwl974","state":"CA"},"type":"Feature","geometry":{"type":"Point","coordinates":[-122.12869,37.5457499]}},{"properties":{"city":"Hayward","school name":null,"latitude":null,"zip code":"94545","street":"26316 Hesperian Blvd.","phone":null,"longitude":null,"id":"abwohmy6o5s4","state":"CA"},"type":"Feature","geometry":null},{"properties":{"city":"Emeryville","school name":null,"latitude":37.69259,"zip code":"94608-3035","street":"4727 San Pablo Ave.","phone":"(510) 601-4000","longitude":-122.28189,"id":"abwohmw5g037","state":"CA"},"type":"Feature","geometry":{"type":"Point","coordinates":[-122.28189,37.69259]}},{"properties":{"city":"Livermore","school name":null,"latitude":null,"zip code":"94550","street":"543 Sonoma Ave.","phone":null,"longitude":null,"id":"abwohn1ssy5l","state":"CA"},"type":"Feature","geometry":null},{"properties":{"city":"Fremont","school name":null,"latitude":37.36692,"zip code":"94537-5008","street":"4210 Technology Dr.","phone":"(510) 657-2350","longitude":-121.95456,"id":"abwohmyz5lwx","state":"CA"},"type":"Feature","geometry":{"type":"Point","coordinates":[-121.95456,37.36692]}},{"properties":{"city":"Hayward","school name":null,"latitude":37.51397,"zip code":"94544-1301","street":"24411 Amador St.","phone":"(510) 784-2600","longitude":-122.09325,"id":"abwohmwhv9j9","state":"CA"},"type":"Feature","geometry":{"type":"Point","coordinates":[-122.09325,37.51397]}},{"properties":{"city":"Dublin","school name":null,"latitude":null,"zip code":"94568","street":"7416 Brighton Dr.","phone":null,"longitude":null,"id":"abwohmr8pfu5","state":"CA"},"type":"Feature","geometry":null},{"properties":{"city":"Newark","school name":null,"latitude":37.39956,"zip code":"94560-0385","street":"5715 Musick Ave.","phone":"(510) 818-4112","longitude":-122.03161,"id":"abwohmv1zo81","state":"CA"},"type":"Feature","geometry":{"type":"Point","coordinates":[-122.03161,37.39956]}},{"properties":{"city":"Fremont","school name":null,"latitude":null,"zip code":"94538","street":"5019 Stevenson Blvd","phone":"(510) 657-1865","longitude":null,"id":"abwohmzpk4hk","state":"CA"},"type":"Feature","geometry":null},{"properties":{"city":"Oakland","school name":null,"latitude":null,"zip code":"94606","street":"1025 Second Ave.","phone":"(510) 337-7093","longitude":null,"id":"abwohmrfgnsk","state":"CA"},"type":"Feature","geometry":null},{"properties":{"city":"Dublin","school name":null,"latitude":37.57294,"zip code":"94568-1500","street":"7471 Larkdale Ave.","phone":"(925) 828-2551","longitude":-121.92855,"id":"abwohmrvdd24","state":"CA"},"type":"Feature","geometry":{"type":"Point","coordinates":[-121.92855,37.57294]}}],"is_temporal":false,"author":{"url":"","metadata":null,"contact_name":null,"contact_address":null,"source":null,"contact_phone":null},"source":"","pagination":{"sort":null,"start":0,"total":496,"limit":1000000},"state":"complete","tags":"","published":"2014-08-16T22:14:41-04:00","id":316665}