{"type":"FeatureCollection","data_type":"Dataset","url_type":null,"permissions":[{"permissions":{"download":true,"view":true},"group_id":"everyone"}],"classification":null,"title":"Dec2010 gun","count":66,"stream_id":317697,"contributor":{"url":"http://geocommons.com/users/60950","name":"justmanc"},"data_attributes":null,"calculation_params":null,"icon_link":null,"link":"http://geocommons.com/overlays/317697.json","extent":[-78.9069,35.9818,-78.9069,35.9818],"geometry_types":["point"],"unique_name":null,"name":"Dec2010 gun","feature_count":66,"description":"","next_feature":null,"is_raster":false,"short_classification":"Y","stats":{"date":{"max":"2010/12/31 00:00:00 -0500","variance":648760706685.314,"mean":"2010/12/16 00:21:49 -0500","stdev":805456.831050128,"min":"2010/12/01 00:00:00 -0500","median":"2010/12/16 00:00:00 -0500"},"id_no":{"max":10040963,"variance":887302.832634033,"mean":10039451.7575758,"stdev":941.967532685725,"min":10037873,"median":10039530}},"features":[{"properties":{"city":"Durham","category":"Robbery","date":{"end_time":"2010/12/02 00:00:00 -0500","original":"Dec 1 2010","granularity":"day","time":"2010/12/01 00:00:00 -0500"},"type":"Robbery","geo_score":0.714,"id_no":10037873,"id":"abzzoc6eulpl","geo_precision":"city","location":"1815 FRONT ST","state":"NC"},"type":"Feature","geometry":{"type":"Point","coordinates":[-78.906933,35.981803]}},{"properties":{"city":"Durham","category":"Robbery","date":{"end_time":"2010/12/02 00:00:00 -0500","original":"Dec 1 2010","granularity":"day","time":"2010/12/01 00:00:00 -0500"},"type":"Robbery","geo_score":0.714,"id_no":10037880,"id":"abzzoc2e6s8q","geo_precision":"city","location":"2000 AVONDALE DR","state":"NC"},"type":"Feature","geometry":{"type":"Point","coordinates":[-78.906933,35.981803]}},{"properties":{"city":"Durham","category":"Robbery","date":{"end_time":"2010/12/02 00:00:00 -0500","original":"Dec 1 2010","granularity":"day","time":"2010/12/01 00:00:00 -0500"},"type":"Robbery","geo_score":0.714,"id_no":10037876,"id":"abzzoc3u1wik","geo_precision":"city","location":"1299 ROSEWOOD ST/E LAWSON ST","state":"NC"},"type":"Feature","geometry":{"type":"Point","coordinates":[-78.906933,35.981803]}},{"properties":{"city":"Durham","category":"Aggravated Assault","date":{"end_time":"2010/12/02 00:00:00 -0500","original":"Dec 1 2010","granularity":"day","time":"2010/12/01 00:00:00 -0500"},"type":"Assault Offenses","geo_score":0.714,"id_no":10037902,"id":"abzzobsjvebc","geo_precision":"city","location":"702 CARPENTER FLETCHER RD","state":"NC"},"type":"Feature","geometry":{"type":"Point","coordinates":[-78.906933,35.981803]}},{"properties":{"city":"Durham","category":"Robbery","date":{"end_time":"2010/12/02 00:00:00 -0500","original":"Dec 1 2010","granularity":"day","time":"2010/12/01 00:00:00 -0500"},"type":"Robbery","geo_score":0.714,"id_no":10037901,"id":"abzzoc8jgn0z","geo_precision":"city","location":"2920 CHAPEL HILL RD","state":"NC"},"type":"Feature","geometry":{"type":"Point","coordinates":[-78.906933,35.981803]}},{"properties":{"city":"Durham","category":"Aggravated Assault","date":{"end_time":"2010/12/03 00:00:00 -0500","original":"Dec 2 2010","granularity":"day","time":"2010/12/02 00:00:00 -0500"},"type":"Assault Offenses","geo_score":0.714,"id_no":10038014,"id":"abzzoc438oze","geo_precision":"city","location":"1803 MOREHEAD AVE","state":"NC"},"type":"Feature","geometry":{"type":"Point","coordinates":[-78.906933,35.981803]}},{"properties":{"city":"Durham","category":"Robbery","date":{"end_time":"2010/12/03 00:00:00 -0500","original":"Dec 2 2010","granularity":"day","time":"2010/12/02 00:00:00 -0500"},"type":"Robbery","geo_score":0.714,"id_no":10038012,"id":"abzzoc0zsbk5","geo_precision":"city","location":"3615 N ROXBORO ST","state":"NC"},"type":"Feature","geometry":{"type":"Point","coordinates":[-78.906933,35.981803]}},{"properties":{"city":"Durham","category":"Robbery","date":{"end_time":"2010/12/04 00:00:00 -0500","original":"Dec 3 2010","granularity":"day","time":"2010/12/03 00:00:00 -0500"},"type":"Robbery","geo_score":0.714,"id_no":10038086,"id":"abzzoc56s24p","geo_precision":"city","location":"1502 LAKELAND ST","state":"NC"},"type":"Feature","geometry":{"type":"Point","coordinates":[-78.906933,35.981803]}},{"properties":{"city":"Durham","category":"Robbery","date":{"end_time":"2010/12/06 00:00:00 -0500","original":"Dec 5 2010","granularity":"day","time":"2010/12/05 00:00:00 -0500"},"type":"Robbery","geo_score":0.714,"id_no":10038314,"id":"abzzoc2zkmb3","geo_precision":"city","location":"2816 ROSS RD","state":"NC"},"type":"Feature","geometry":{"type":"Point","coordinates":[-78.906933,35.981803]}},{"properties":{"city":"Durham","category":"Robbery","date":{"end_time":"2010/12/06 00:00:00 -0500","original":"Dec 5 2010","granularity":"day","time":"2010/12/05 00:00:00 -0500"},"type":"Robbery","geo_score":0.714,"id_no":10038321,"id":"abzzoc1esavv","geo_precision":"city","location":"599 N GREGSON ST/W TRINITY AVE","state":"NC"},"type":"Feature","geometry":{"type":"Point","coordinates":[-78.906933,35.981803]}},{"properties":{"city":"Durham","category":"Robbery","date":{"end_time":"2010/12/07 00:00:00 -0500","original":"Dec 6 2010","granularity":"day","time":"2010/12/06 00:00:00 -0500"},"type":"Robbery","geo_score":0.714,"id_no":10038445,"id":"abzzobx8if6k","geo_precision":"city","location":"301 W TRINITY AVE","state":"NC"},"type":"Feature","geometry":{"type":"Point","coordinates":[-78.906933,35.981803]}},{"properties":{"city":"Durham","category":"Robbery","date":{"end_time":"2010/12/07 00:00:00 -0500","original":"Dec 6 2010","granularity":"day","time":"2010/12/06 00:00:00 -0500"},"type":"Robbery","geo_score":0.714,"id_no":10038446,"id":"abzzoc190aua","geo_precision":"city","location":"600 HORTON RD","state":"NC"},"type":"Feature","geometry":{"type":"Point","coordinates":[-78.906933,35.981803]}},{"properties":{"city":"Durham","category":"Robbery","date":{"end_time":"2010/12/08 00:00:00 -0500","original":"Dec 7 2010","granularity":"day","time":"2010/12/07 00:00:00 -0500"},"type":"Robbery","geo_score":0.714,"id_no":10038542,"id":"abzzoc2gswn3","geo_precision":"city","location":"401 E LAKEWOOD AVE","state":"NC"},"type":"Feature","geometry":{"type":"Point","coordinates":[-78.906933,35.981803]}},{"properties":{"city":"Durham","category":"Robbery","date":{"end_time":"2010/12/08 00:00:00 -0500","original":"Dec 7 2010","granularity":"day","time":"2010/12/07 00:00:00 -0500"},"type":"Robbery","geo_score":0.714,"id_no":10038553,"id":"abzzobwrzbxu","geo_precision":"city","location":"115 HONEYSUCKLE LN","state":"NC"},"type":"Feature","geometry":{"type":"Point","coordinates":[-78.906933,35.981803]}},{"properties":{"city":"Durham","category":"Robbery","date":{"end_time":"2010/12/09 00:00:00 -0500","original":"Dec 8 2010","granularity":"day","time":"2010/12/08 00:00:00 -0500"},"type":"Robbery","geo_score":0.714,"id_no":10038588,"id":"abzzobugwcl0","geo_precision":"city","location":"3500 N ROXBORO RD","state":"NC"},"type":"Feature","geometry":{"type":"Point","coordinates":[-78.906933,35.981803]}},{"properties":{"city":"Durham","category":"Robbery","date":{"end_time":"2010/12/10 00:00:00 -0500","original":"Dec 9 2010","granularity":"day","time":"2010/12/09 00:00:00 -0500"},"type":"Robbery","geo_score":0.714,"id_no":10038676,"id":"abzzoc8royuk","geo_precision":"city","location":"4435 NC 55 HWY","state":"NC"},"type":"Feature","geometry":{"type":"Point","coordinates":[-78.906933,35.981803]}},{"properties":{"city":"Durham","category":"Robbery","date":{"end_time":"2010/12/10 00:00:00 -0500","original":"Dec 9 2010","granularity":"day","time":"2010/12/09 00:00:00 -0500"},"type":"Robbery","geo_score":0.714,"id_no":10038718,"id":"abzzobtp3rqs","geo_precision":"city","location":"608 HARDEE ST","state":"NC"},"type":"Feature","geometry":{"type":"Point","coordinates":[-78.906933,35.981803]}},{"properties":{"city":"Durham","category":"Robbery","date":{"end_time":"2010/12/10 00:00:00 -0500","original":"Dec 9 2010","granularity":"day","time":"2010/12/09 00:00:00 -0500"},"type":"Robbery","geo_score":0.714,"id_no":10038795,"id":"abzzobts6hnn","geo_precision":"city","location":"2500 ERWIN RD","state":"NC"},"type":"Feature","geometry":{"type":"Point","coordinates":[-78.906933,35.981803]}},{"properties":{"city":"Durham","category":"Robbery","date":{"end_time":"2010/12/10 00:00:00 -0500","original":"Dec 9 2010","granularity":"day","time":"2010/12/09 00:00:00 -0500"},"type":"Robbery","geo_score":0.714,"id_no":10038799,"id":"abzzobzge1wa","geo_precision":"city","location":"2685 DURHAM CHAPEL HILL BLVD","state":"NC"},"type":"Feature","geometry":{"type":"Point","coordinates":[-78.906933,35.981803]}},{"properties":{"city":"Durham","category":"Robbery","date":{"end_time":"2010/12/10 00:00:00 -0500","original":"Dec 9 2010","granularity":"day","time":"2010/12/09 00:00:00 -0500"},"type":"Robbery","geo_score":0.714,"id_no":10038800,"id":"abzzobumo5v3","geo_precision":"city","location":"1199 MONMOUTH AVE/N BUCHANAN BLVD","state":"NC"},"type":"Feature","geometry":{"type":"Point","coordinates":[-78.906933,35.981803]}},{"properties":{"city":"Durham","category":"Robbery","date":{"end_time":"2010/12/12 00:00:00 -0500","original":"Dec 11 2010","granularity":"day","time":"2010/12/11 00:00:00 -0500"},"type":"Robbery","geo_score":0.714,"id_no":10038912,"id":"abzzobux25ff","geo_precision":"city","location":"4835 HOPE VALLEY RD","state":"NC"},"type":"Feature","geometry":{"type":"Point","coordinates":[-78.906933,35.981803]}},{"properties":{"city":"Durham","category":"Robbery","date":{"end_time":"2010/12/12 00:00:00 -0500","original":"Dec 11 2010","granularity":"day","time":"2010/12/11 00:00:00 -0500"},"type":"Robbery","geo_score":0.714,"id_no":10038915,"id":"abzzoc349v4g","geo_precision":"city","location":"2836 CHAPEL HILL RD","state":"NC"},"type":"Feature","geometry":{"type":"Point","coordinates":[-78.906933,35.981803]}},{"properties":{"city":"Durham","category":"Aggravated Assault","date":{"end_time":"2010/12/12 00:00:00 -0500","original":"Dec 11 2010","granularity":"day","time":"2010/12/11 00:00:00 -0500"},"type":"Assault Offenses","geo_score":0.714,"id_no":10038943,"id":"abzzoc7q4aom","geo_precision":"city","location":"199 W ENTERPRISE ST/SOUTH ST","state":"NC"},"type":"Feature","geometry":{"type":"Point","coordinates":[-78.906933,35.981803]}},{"properties":{"city":"Durham","category":"Robbery","date":{"end_time":"2010/12/12 00:00:00 -0500","original":"Dec 11 2010","granularity":"day","time":"2010/12/11 00:00:00 -0500"},"type":"Robbery","geo_score":0.714,"id_no":10039012,"id":"abzzoc52ucvp","geo_precision":"city","location":"3908 TOWNSEND ST","state":"NC"},"type":"Feature","geometry":{"type":"Point","coordinates":[-78.906933,35.981803]}},{"properties":{"city":"Durham","category":"Aggravated Assault","date":{"end_time":"2010/12/13 00:00:00 -0500","original":"Dec 12 2010","granularity":"day","time":"2010/12/12 00:00:00 -0500"},"type":"Assault Offenses","geo_score":0.714,"id_no":10039021,"id":"abzzobx8fd67","geo_precision":"city","location":"2627 HILLSBOROUGH RD","state":"NC"},"type":"Feature","geometry":{"type":"Point","coordinates":[-78.906933,35.981803]}},{"properties":{"city":"Durham","category":"Robbery","date":{"end_time":"2010/12/13 00:00:00 -0500","original":"Dec 12 2010","granularity":"day","time":"2010/12/12 00:00:00 -0500"},"type":"Robbery","geo_score":0.714,"id_no":10039043,"id":"abzzoc8izwln","geo_precision":"city","location":"1517 GLENN SCHOOL RD","state":"NC"},"type":"Feature","geometry":{"type":"Point","coordinates":[-78.906933,35.981803]}},{"properties":{"city":"Durham","category":"Theft From Motor Vehicle","date":{"end_time":"2010/12/14 00:00:00 -0500","original":"Dec 13 2010","granularity":"day","time":"2010/12/13 00:00:00 -0500"},"type":"Larceny/Theft Offenses","geo_score":0.714,"id_no":10039159,"id":"abzzobvbpzn6","geo_precision":"city","location":"1220 RED ASH CIR","state":"NC"},"type":"Feature","geometry":{"type":"Point","coordinates":[-78.906933,35.981803]}},{"properties":{"city":"Durham","category":"Robbery","date":{"end_time":"2010/12/14 00:00:00 -0500","original":"Dec 13 2010","granularity":"day","time":"2010/12/13 00:00:00 -0500"},"type":"Robbery","geo_score":0.714,"id_no":10039194,"id":"abzzobxyrj2l","geo_precision":"city","location":"213 N BRIGGS AVE","state":"NC"},"type":"Feature","geometry":{"type":"Point","coordinates":[-78.906933,35.981803]}},{"properties":{"city":"Durham","category":"Robbery","date":{"end_time":"2010/12/14 00:00:00 -0500","original":"Dec 13 2010","granularity":"day","time":"2010/12/13 00:00:00 -0500"},"type":"Robbery","geo_score":0.714,"id_no":10039202,"id":"abzzoc4gvyth","geo_precision":"city","location":"4001 MERIWETHER DR","state":"NC"},"type":"Feature","geometry":{"type":"Point","coordinates":[-78.906933,35.981803]}},{"properties":{"city":"Durham","category":"Robbery","date":{"end_time":"2010/12/16 00:00:00 -0500","original":"Dec 15 2010","granularity":"day","time":"2010/12/15 00:00:00 -0500"},"type":"Robbery","geo_score":0.714,"id_no":10039335,"id":"abzzoc7nkdgu","geo_precision":"city","location":"3600 N DUKE ST","state":"NC"},"type":"Feature","geometry":{"type":"Point","coordinates":[-78.906933,35.981803]}},{"properties":{"city":"Durham","category":"Robbery","date":{"end_time":"2010/12/16 00:00:00 -0500","original":"Dec 15 2010","granularity":"day","time":"2010/12/15 00:00:00 -0500"},"type":"Robbery","geo_score":0.714,"id_no":10039366,"id":"abzzobtqlmnn","geo_precision":"city","location":"2115 AVONDALE DR","state":"NC"},"type":"Feature","geometry":{"type":"Point","coordinates":[-78.906933,35.981803]}},{"properties":{"city":"Durham","category":"Aggravated Assault","date":{"end_time":"2010/12/16 00:00:00 -0500","original":"Dec 15 2010","granularity":"day","time":"2010/12/15 00:00:00 -0500"},"type":"Assault Offenses","geo_score":0.714,"id_no":10039401,"id":"abzzobubka3k","geo_precision":"city","location":"309 WAKE PL","state":"NC"},"type":"Feature","geometry":{"type":"Point","coordinates":[-78.906933,35.981803]}},{"properties":{"city":"Durham","category":"Aggravated Assault","date":{"end_time":"2010/12/17 00:00:00 -0500","original":"Dec 16 2010","granularity":"day","time":"2010/12/16 00:00:00 -0500"},"type":"Assault Offenses","geo_score":0.714,"id_no":10039436,"id":"abzzoc0imxol","geo_precision":"city","location":"614 MIDDLE ST","state":"NC"},"type":"Feature","geometry":{"type":"Point","coordinates":[-78.906933,35.981803]}},{"properties":{"city":"Durham","category":"Robbery","date":{"end_time":"2010/12/17 00:00:00 -0500","original":"Dec 16 2010","granularity":"day","time":"2010/12/16 00:00:00 -0500"},"type":"Robbery","geo_score":0.714,"id_no":10039530,"id":"abzzobu8kus5","geo_precision":"city","location":"4706 NC 55 HWY","state":"NC"},"type":"Feature","geometry":{"type":"Point","coordinates":[-78.906933,35.981803]}},{"properties":{"city":"Durham","category":"Robbery","date":{"end_time":"2010/12/17 00:00:00 -0500","original":"Dec 16 2010","granularity":"day","time":"2010/12/16 00:00:00 -0500"},"type":"Robbery","geo_score":0.714,"id_no":10039534,"id":"abzzobsril7j","geo_precision":"city","location":"544 LIBERTY ST","state":"NC"},"type":"Feature","geometry":{"type":"Point","coordinates":[-78.906933,35.981803]}},{"properties":{"city":"Durham","category":"Robbery","date":{"end_time":"2010/12/18 00:00:00 -0500","original":"Dec 17 2010","granularity":"day","time":"2010/12/17 00:00:00 -0500"},"type":"Robbery","geo_score":0.714,"id_no":10039649,"id":"abzzoc1tlo5g","geo_precision":"city","location":"2713 OMAH ST","state":"NC"},"type":"Feature","geometry":{"type":"Point","coordinates":[-78.906933,35.981803]}},{"properties":{"city":"Durham","category":"Robbery","date":{"end_time":"2010/12/19 00:00:00 -0500","original":"Dec 18 2010","granularity":"day","time":"2010/12/18 00:00:00 -0500"},"type":"Robbery","geo_score":0.714,"id_no":10039703,"id":"abzzoc58sj7u","geo_precision":"city","location":"1002 W CHAPEL HILL ST","state":"NC"},"type":"Feature","geometry":{"type":"Point","coordinates":[-78.906933,35.981803]}},{"properties":{"city":"Durham","category":"Robbery","date":{"end_time":"2010/12/19 00:00:00 -0500","original":"Dec 18 2010","granularity":"day","time":"2010/12/18 00:00:00 -0500"},"type":"Robbery","geo_score":0.714,"id_no":10039714,"id":"abzzobyuwokb","geo_precision":"city","location":"4640 HILLSBOROUGH RD","state":"NC"},"type":"Feature","geometry":{"type":"Point","coordinates":[-78.906933,35.981803]}},{"properties":{"city":"Durham","category":"Robbery","date":{"end_time":"2010/12/19 00:00:00 -0500","original":"Dec 18 2010","granularity":"day","time":"2010/12/18 00:00:00 -0500"},"type":"Robbery","geo_score":0.714,"id_no":10039717,"id":"abzzobudtlds","geo_precision":"city","location":"1816 HILLANDALE RD","state":"NC"},"type":"Feature","geometry":{"type":"Point","coordinates":[-78.906933,35.981803]}},{"properties":{"city":"Durham","category":"Aggravated Assault","date":{"end_time":"2010/12/20 00:00:00 -0500","original":"Dec 19 2010","granularity":"day","time":"2010/12/19 00:00:00 -0500"},"type":"Assault Offenses","geo_score":0.714,"id_no":10039737,"id":"abzzoc3lexbv","geo_precision":"city","location":"1302 JACKSON ST","state":"NC"},"type":"Feature","geometry":{"type":"Point","coordinates":[-78.906933,35.981803]}},{"properties":{"city":"Durham","category":"Forcible Rape","date":{"end_time":"2010/12/20 00:00:00 -0500","original":"Dec 19 2010","granularity":"day","time":"2010/12/19 00:00:00 -0500"},"type":"Forcible Rape","geo_score":0.714,"id_no":10039767,"id":"abzzobui61ij","geo_precision":"city","location":"0 TRAIL VIEW LN","state":"NC"},"type":"Feature","geometry":{"type":"Point","coordinates":[-78.906933,35.981803]}},{"properties":{"city":"Durham","category":"Robbery","date":{"end_time":"2010/12/20 00:00:00 -0500","original":"Dec 19 2010","granularity":"day","time":"2010/12/19 00:00:00 -0500"},"type":"Robbery","geo_score":0.714,"id_no":10039780,"id":"abzzobzknha8","geo_precision":"city","location":"511 MARTHA ST","state":"NC"},"type":"Feature","geometry":{"type":"Point","coordinates":[-78.906933,35.981803]}},{"properties":{"city":"Durham","category":"Robbery","date":{"end_time":"2010/12/21 00:00:00 -0500","original":"Dec 20 2010","granularity":"day","time":"2010/12/20 00:00:00 -0500"},"type":"Robbery","geo_score":0.714,"id_no":10039900,"id":"abzzobzrw7y4","geo_precision":"city","location":"1058 W CLUB BLVD","state":"NC"},"type":"Feature","geometry":{"type":"Point","coordinates":[-78.906933,35.981803]}},{"properties":{"city":"Durham","category":"Robbery","date":{"end_time":"2010/12/21 00:00:00 -0500","original":"Dec 20 2010","granularity":"day","time":"2010/12/20 00:00:00 -0500"},"type":"Robbery","geo_score":0.714,"id_no":10039908,"id":"abzzoc3prr12","geo_precision":"city","location":"3700 FAYETTEVILLE ST","state":"NC"},"type":"Feature","geometry":{"type":"Point","coordinates":[-78.906933,35.981803]}},{"properties":{"city":"Durham","category":"Robbery","date":{"end_time":"2010/12/22 00:00:00 -0500","original":"Dec 21 2010","granularity":"day","time":"2010/12/21 00:00:00 -0500"},"type":"Robbery","geo_score":0.714,"id_no":10039913,"id":"abzzoc8q9tuw","geo_precision":"city","location":"405 E PILOT ST","state":"NC"},"type":"Feature","geometry":{"type":"Point","coordinates":[-78.906933,35.981803]}},{"properties":{"city":"Durham","category":"Robbery","date":{"end_time":"2010/12/22 00:00:00 -0500","original":"Dec 21 2010","granularity":"day","time":"2010/12/21 00:00:00 -0500"},"type":"Robbery","geo_score":0.714,"id_no":10039982,"id":"abzzoc37pm7r","geo_precision":"city","location":"3557 N ROXBORO ST","state":"NC"},"type":"Feature","geometry":{"type":"Point","coordinates":[-78.906933,35.981803]}},{"properties":{"city":"Durham","category":"Robbery","date":{"end_time":"2010/12/23 00:00:00 -0500","original":"Dec 22 2010","granularity":"day","time":"2010/12/22 00:00:00 -0500"},"type":"Robbery","geo_score":0.714,"id_no":10040034,"id":"abzzobxvty67","geo_precision":"city","location":"3446 HILLSBOROUGH RD","state":"NC"},"type":"Feature","geometry":{"type":"Point","coordinates":[-78.906933,35.981803]}},{"properties":{"city":"Durham","category":"Robbery","date":{"end_time":"2010/12/23 00:00:00 -0500","original":"Dec 22 2010","granularity":"day","time":"2010/12/22 00:00:00 -0500"},"type":"Robbery","geo_score":0.714,"id_no":10040134,"id":"abzzoc4c80b8","geo_precision":"city","location":"1925 CHAPEL HILL RD","state":"NC"},"type":"Feature","geometry":{"type":"Point","coordinates":[-78.906933,35.981803]}},{"properties":{"city":"Durham","category":"Aggravated Assault","date":{"end_time":"2010/12/23 00:00:00 -0500","original":"Dec 22 2010","granularity":"day","time":"2010/12/22 00:00:00 -0500"},"type":"Assault Offenses","geo_score":0.714,"id_no":10040136,"id":"abzzoc1632x8","geo_precision":"city","location":"418 HARDEE ST","state":"NC"},"type":"Feature","geometry":{"type":"Point","coordinates":[-78.906933,35.981803]}},{"properties":{"city":"Durham","category":"Robbery","date":{"end_time":"2010/12/24 00:00:00 -0500","original":"Dec 23 2010","granularity":"day","time":"2010/12/23 00:00:00 -0500"},"type":"Robbery","geo_score":0.714,"id_no":10040230,"id":"abzzoc0jooc4","geo_precision":"city","location":"700 S LASALLE ST","state":"NC"},"type":"Feature","geometry":{"type":"Point","coordinates":[-78.906933,35.981803]}},{"properties":{"city":"Durham","category":"Aggravated Assault","date":{"end_time":"2010/12/25 00:00:00 -0500","original":"Dec 24 2010","granularity":"day","time":"2010/12/24 00:00:00 -0500"},"type":"Assault Offenses","geo_score":0.714,"id_no":10040300,"id":"abzzoc22h1k6","geo_precision":"city","location":"5322 FAYETTEVILLE RD","state":"NC"},"type":"Feature","geometry":{"type":"Point","coordinates":[-78.906933,35.981803]}},{"properties":{"city":"Durham","category":"Aggravated Assault","date":{"end_time":"2010/12/26 00:00:00 -0500","original":"Dec 25 2010","granularity":"day","time":"2010/12/25 00:00:00 -0500"},"type":"Assault Offenses","geo_score":0.714,"id_no":10040335,"id":"abzzoc8mcta1","geo_precision":"city","location":"901 CHALK LEVEL RD","state":"NC"},"type":"Feature","geometry":{"type":"Point","coordinates":[-78.906933,35.981803]}},{"properties":{"city":"Durham","category":"Aggravated Assault","date":{"end_time":"2010/12/27 00:00:00 -0500","original":"Dec 26 2010","granularity":"day","time":"2010/12/26 00:00:00 -0500"},"type":"Assault Offenses","geo_score":0.714,"id_no":10040395,"id":"abzzoc1ldo90","geo_precision":"city","location":"2836 CHAPEL HILL RD","state":"NC"},"type":"Feature","geometry":{"type":"Point","coordinates":[-78.906933,35.981803]}},{"properties":{"city":"Durham","category":"Robbery","date":{"end_time":"2010/12/27 00:00:00 -0500","original":"Dec 26 2010","granularity":"day","time":"2010/12/26 00:00:00 -0500"},"type":"Robbery","geo_score":0.714,"id_no":10040462,"id":"abzzobsretja","geo_precision":"city","location":"2947 CHAPEL HILL RD","state":"NC"},"type":"Feature","geometry":{"type":"Point","coordinates":[-78.906933,35.981803]}},{"properties":{"city":"Durham","category":"Robbery","date":{"end_time":"2010/12/28 00:00:00 -0500","original":"Dec 27 2010","granularity":"day","time":"2010/12/27 00:00:00 -0500"},"type":"Robbery","geo_score":0.714,"id_no":10040545,"id":"abzzoc73b1yu","geo_precision":"city","location":"1130 E GEER ST","state":"NC"},"type":"Feature","geometry":{"type":"Point","coordinates":[-78.906933,35.981803]}},{"properties":{"city":"Durham","category":"Robbery","date":{"end_time":"2010/12/29 00:00:00 -0500","original":"Dec 28 2010","granularity":"day","time":"2010/12/28 00:00:00 -0500"},"type":"Robbery","geo_score":0.714,"id_no":10040646,"id":"abzzoc4pda3k","geo_precision":"city","location":"2000 AVONDALE DR","state":"NC"},"type":"Feature","geometry":{"type":"Point","coordinates":[-78.906933,35.981803]}},{"properties":{"city":"Durham","category":"Robbery","date":{"end_time":"2010/12/29 00:00:00 -0500","original":"Dec 28 2010","granularity":"day","time":"2010/12/28 00:00:00 -0500"},"type":"Robbery","geo_score":0.714,"id_no":10040645,"id":"abzzoc17k8wy","geo_precision":"city","location":"403 PRICE AVE","state":"NC"},"type":"Feature","geometry":{"type":"Point","coordinates":[-78.906933,35.981803]}},{"properties":{"city":"Durham","category":"Aggravated Assault","date":{"end_time":"2010/12/30 00:00:00 -0500","original":"Dec 29 2010","granularity":"day","time":"2010/12/29 00:00:00 -0500"},"type":"Assault Offenses","geo_score":0.714,"id_no":10040729,"id":"abzzobspn5nb","geo_precision":"city","location":"1505 GUNTER ST","state":"NC"},"type":"Feature","geometry":{"type":"Point","coordinates":[-78.906933,35.981803]}},{"properties":{"city":"Durham","category":"Robbery","date":{"end_time":"2010/12/30 00:00:00 -0500","original":"Dec 29 2010","granularity":"day","time":"2010/12/29 00:00:00 -0500"},"type":"Robbery","geo_score":0.714,"id_no":10040730,"id":"abzzobxngitj","geo_precision":"city","location":"225 OLD OXFORD RD","state":"NC"},"type":"Feature","geometry":{"type":"Point","coordinates":[-78.906933,35.981803]}},{"properties":{"city":"Durham","category":"Robbery","date":{"end_time":"2010/12/31 00:00:00 -0500","original":"Dec 30 2010","granularity":"day","time":"2010/12/30 00:00:00 -0500"},"type":"Robbery","geo_score":0.714,"id_no":10040839,"id":"abzzoc4tcg45","geo_precision":"city","location":"4904 NC 55 HWY","state":"NC"},"type":"Feature","geometry":{"type":"Point","coordinates":[-78.906933,35.981803]}},{"properties":{"city":"Durham","category":"Robbery","date":{"end_time":"2010/12/31 00:00:00 -0500","original":"Dec 30 2010","granularity":"day","time":"2010/12/30 00:00:00 -0500"},"type":"Robbery","geo_score":0.714,"id_no":10040870,"id":"abzzobwqft9a","geo_precision":"city","location":"2920 CHAPEL HILL RD","state":"NC"},"type":"Feature","geometry":{"type":"Point","coordinates":[-78.906933,35.981803]}},{"properties":{"city":"Durham","category":"Robbery","date":{"end_time":"2011/01/01 00:00:00 -0500","original":"Dec 31 2010","granularity":"day","time":"2010/12/31 00:00:00 -0500"},"type":"Robbery","geo_score":0.714,"id_no":10040874,"id":"abzzoc7ehobs","geo_precision":"city","location":"614 E KNOX ST","state":"NC"},"type":"Feature","geometry":{"type":"Point","coordinates":[-78.906933,35.981803]}},{"properties":{"city":"Durham","category":"Robbery","date":{"end_time":"2011/01/01 00:00:00 -0500","original":"Dec 31 2010","granularity":"day","time":"2010/12/31 00:00:00 -0500"},"type":"Robbery","geo_score":0.714,"id_no":10040876,"id":"abzzoc6ak9z7","geo_precision":"city","location":"1917 FIDELITY DR","state":"NC"},"type":"Feature","geometry":{"type":"Point","coordinates":[-78.906933,35.981803]}},{"properties":{"city":"Durham","category":"Robbery","date":{"end_time":"2011/01/01 00:00:00 -0500","original":"Dec 31 2010","granularity":"day","time":"2010/12/31 00:00:00 -0500"},"type":"Robbery","geo_score":0.714,"id_no":10040877,"id":"abzzoc8rijmb","geo_precision":"city","location":"4604 N ROXBORO ST","state":"NC"},"type":"Feature","geometry":{"type":"Point","coordinates":[-78.906933,35.981803]}},{"properties":{"city":"Durham","category":"Robbery","date":{"end_time":"2011/01/01 00:00:00 -0500","original":"Dec 31 2010","granularity":"day","time":"2010/12/31 00:00:00 -0500"},"type":"Robbery","geo_score":0.714,"id_no":10040882,"id":"abzzoc6kpm2n","geo_precision":"city","location":"1699 MOREHEAD AVE/CHAPEL HILL RD","state":"NC"},"type":"Feature","geometry":{"type":"Point","coordinates":[-78.906933,35.981803]}},{"properties":{"city":"Durham","category":"Aggravated Assault","date":{"end_time":"2011/01/01 00:00:00 -0500","original":"Dec 31 2010","granularity":"day","time":"2010/12/31 00:00:00 -0500"},"type":"Assault Offenses","geo_score":0.714,"id_no":10040963,"id":"abzzoc8e4xpe","geo_precision":"city","location":"650 HARDEE ST","state":"NC"},"type":"Feature","geometry":{"type":"Point","coordinates":[-78.906933,35.981803]}}],"is_temporal":true,"author":{"url":"","metadata":"","contact_name":"","contact_address":"","source":"","contact_phone":""},"source":"","pagination":{"sort":null,"start":0,"total":66,"limit":1000000},"state":"complete","tags":"","published":"2014-08-16T23:32:40-04:00","id":317697}