{"type":"FeatureCollection","data_type":"Dataset","url_type":null,"permissions":[{"permissions":{"download":true,"view":true},"group_id":"everyone"}],"classification":null,"title":"Schools with 50% or higher Free or Reduced rates in Maine","count":310,"stream_id":317992,"contributor":{"url":"http://geocommons.com/users/51009","name":"sculver"},"data_attributes":null,"calculation_params":null,"icon_link":null,"link":"http://geocommons.com/overlays/317992.json","extent":[-70.8997,43.4245,-66.9878,47.2458],"geometry_types":["point"],"unique_name":null,"name":"Schools with 50% or higher Free or Reduced rates in Maine","feature_count":310,"description":"","next_feature":null,"is_raster":false,"short_classification":"Y","stats":{"number of students":{"max":1301,"variance":34637.4978703414,"mean":255.977419354839,"stdev":186.111519982889,"min":9,"median":221}},"features":[{"properties":{"school name":"Auburn Middle School","county":"Androscoggin","district":"Auburn School Department","geo_score":0.967,"50%-60% free or reduced lunch":"53%","60%-75% free or reduced lunch":null,"id":"ac0nkzmvo9s6","address":"38 Falcon Road, Auburn, ME, 04210","75% and above":null,"geo_precision":"range","number of students":554},"type":"Feature","geometry":{"type":"Point","coordinates":[-70.248578,44.090199]}},{"properties":{"school name":"Park Avenue Elementary School","county":"Androscoggin","district":"Auburn School Department","geo_score":1.0,"50%-60% free or reduced lunch":"60%","60%-75% free or reduced lunch":null,"id":"ac0nkznt1974","address":"161 Park Avenue, Auburn, ME, 04210","75% and above":null,"geo_precision":"range","number of students":365},"type":"Feature","geometry":{"type":"Point","coordinates":[-70.245204,44.094934]}},{"properties":{"school name":"Sherwood Heights Elementary School","county":"Androscoggin","district":"Auburn School Department","geo_score":1.0,"50%-60% free or reduced lunch":"59%","60%-75% free or reduced lunch":null,"id":"ac0nkzpa3wh3","address":"32 Sherwood Drive, Auburn, ME, 04210","75% and above":null,"geo_precision":"range","number of students":411},"type":"Feature","geometry":{"type":"Point","coordinates":[-70.22753,44.077326]}},{"properties":{"school name":"Walton School","county":"Androscoggin","district":"Auburn School Department","geo_score":1.0,"50%-60% free or reduced lunch":null,"60%-75% free or reduced lunch":"69%","id":"ac0nl01b8je7","address":"92 Mary Carroll Street, Auburn, ME, 04210","75% and above":null,"geo_precision":"range","number of students":304},"type":"Feature","geometry":{"type":"Point","coordinates":[-70.219229,44.081202]}},{"properties":{"school name":"Washburn School","county":"Androscoggin","district":"Auburn School Department","geo_score":0.805,"50%-60% free or reduced lunch":null,"60%-75% free or reduced lunch":null,"id":"ac0nkzug4xpv","address":"1359 Main Street, Washburn, ME, 04786","75% and above":"78%","geo_precision":"street","number of students":265},"type":"Feature","geometry":{"type":"Point","coordinates":[-68.156039,46.783853]}},{"properties":{"school name":"Farwell Elementary School","county":"Androscoggin","district":"Lewiston School Department","geo_score":0.87,"50%-60% free or reduced lunch":null,"60%-75% free or reduced lunch":"69%","id":"ac0nkzvqdzg2","address":"84 Farwell Street Ste 110, Lewiston, ME, 04240","75% and above":null,"geo_precision":"range","number of students":354},"type":"Feature","geometry":{"type":"Point","coordinates":[-70.191611,44.096611]}},{"properties":{"school name":"Governor James B Longley Elem. School","county":"Androscoggin","district":"Lewiston School Department","geo_score":1.0,"50%-60% free or reduced lunch":null,"60%-75% free or reduced lunch":null,"id":"ac0nkzozl4hm","address":"145 Birch Street, Lewiston, ME, 04240","75% and above":"99%","geo_precision":"range","number of students":346},"type":"Feature","geometry":{"type":"Point","coordinates":[-70.204168,44.095525]}},{"properties":{"school name":"Lewiston High School","county":"Androscoggin","district":"Lewiston School Department","geo_score":0.89,"50%-60% free or reduced lunch":"59%","60%-75% free or reduced lunch":null,"id":"ac0nkzto8l84","address":"156 East Avenue, Lewiston, ME, 04240","75% and above":null,"geo_precision":"range","number of students":1301},"type":"Feature","geometry":{"type":"Point","coordinates":[-70.198618,44.095583]}},{"properties":{"school name":"Lewiston Middle School","county":"Androscoggin","district":"Lewiston School Department","geo_score":1.0,"50%-60% free or reduced lunch":null,"60%-75% free or reduced lunch":"66%","id":"ac0nkzsufp0l","address":"75 Central Avenue, Lewiston, ME, 04240","75% and above":null,"geo_precision":"range","number of students":698},"type":"Feature","geometry":{"type":"Point","coordinates":[-70.202973,44.102933]}},{"properties":{"school name":"Martel School","county":"Androscoggin","district":"Lewiston School Department","geo_score":1.0,"50%-60% free or reduced lunch":null,"60%-75% free or reduced lunch":"68%","id":"ac0nkzxdksey","address":"800 Lisbon Street, Lewiston, ME, 04240","75% and above":null,"geo_precision":"range","number of students":301},"type":"Feature","geometry":{"type":"Point","coordinates":[-70.205504,44.085522]}},{"properties":{"school name":"Montello School","county":"Androscoggin","district":"Lewiston School Department","geo_score":0.89,"50%-60% free or reduced lunch":null,"60%-75% free or reduced lunch":"73%","id":"ac0nkzm3etse","address":"407 East Avenue, Lewiston, ME, 04240","75% and above":null,"geo_precision":"range","number of students":712},"type":"Feature","geometry":{"type":"Point","coordinates":[-70.188811,44.106584]}},{"properties":{"school name":"Raymond A Geiger Elementary School","county":"Androscoggin","district":"Lewiston School Department","geo_score":1.0,"50%-60% free or reduced lunch":"60%","60%-75% free or reduced lunch":null,"id":"ac0nkzlwe68q","address":"604 College Street, Lewiston, ME, 04240","75% and above":null,"geo_precision":"range","number of students":721},"type":"Feature","geometry":{"type":"Point","coordinates":[-70.191515,44.121431]}},{"properties":{"school name":"Thomas J Mcmahon Elem School","county":"Androscoggin","district":"Lewiston School Department","geo_score":1.0,"50%-60% free or reduced lunch":"56%","60%-75% free or reduced lunch":null,"id":"ac0nkzv2h2ld","address":"151 North Temple Street, Lewiston, ME, 04240","75% and above":null,"geo_precision":"range","number of students":544},"type":"Feature","geometry":{"type":"Point","coordinates":[-70.162417,44.107551]}},{"properties":{"school name":"Lisbon Community School","county":"Androscoggin","district":"Lisbon School Department","geo_score":0.732,"50%-60% free or reduced lunch":"52%","60%-75% free or reduced lunch":null,"id":"ac0nl01rse2u","address":"33 Mill Street, Lisbon, ME, 04250","75% and above":null,"geo_precision":"street","number of students":634},"type":"Feature","geometry":{"type":"Point","coordinates":[-70.092364,44.021228]}},{"properties":{"school name":"Phillip W Sugg Middle School","county":"Androscoggin","district":"Lisbon School Department","geo_score":0.617,"50%-60% free or reduced lunch":"50%","60%-75% free or reduced lunch":null,"id":"ac0nkzyeu20z","address":"4 Sugg Drive, Lisbon Falls, ME, 04252","75% and above":null,"geo_precision":"zip","number of students":280},"type":"Feature","geometry":{"type":"Point","coordinates":[-70.068046,44.032476]}},{"properties":{"school name":"Sabattus Central School","county":"Androscoggin","district":"Rsu 04","geo_score":1.0,"50%-60% free or reduced lunch":"54%","60%-75% free or reduced lunch":null,"id":"ac0nl014t3jf","address":"40 Ball Park Road, Sabattus, ME, 04280","75% and above":null,"geo_precision":"range","number of students":361},"type":"Feature","geometry":{"type":"Point","coordinates":[-70.101753,44.109624]}},{"properties":{"school name":"Sabattus Primary School","county":"Androscoggin","district":"Rsu 04","geo_score":0.65,"50%-60% free or reduced lunch":"50%","60%-75% free or reduced lunch":null,"id":"ac0nl015uv0m","address":"36 No Name Pond Road, Sabattus, ME, 04280","75% and above":null,"geo_precision":"street","number of students":181},"type":"Feature","geometry":{"type":"Point","coordinates":[-70.080514,44.154669]}},{"properties":{"school name":"Elm Street School-Mechanic Falls","county":"Androscoggin","district":"Rsu 16","geo_score":1.0,"50%-60% free or reduced lunch":"50%","60%-75% free or reduced lunch":null,"id":"ac0nl01a40ks","address":"129 Elm Street, Mechanic Falls, ME, 04256","75% and above":null,"geo_precision":"range","number of students":276},"type":"Feature","geometry":{"type":"Point","coordinates":[-70.384984,44.10473]}},{"properties":{"school name":"Livermore Elementary School","county":"Androscoggin","district":"Rsu 73","geo_score":1.0,"50%-60% free or reduced lunch":null,"60%-75% free or reduced lunch":"64%","id":"ac0nkzryvknn","address":"107 Gibbs Mill Road, Livermore, ME, 04253","75% and above":null,"geo_precision":"range","number of students":476},"type":"Feature","geometry":{"type":"Point","coordinates":[-70.201897,44.440357]}},{"properties":{"school name":"Spruce Mt Hs South (Livermore Falls Hs)","county":"Androscoggin","district":"Rsu 73","geo_score":0.902,"50%-60% free or reduced lunch":"60%","60%-75% free or reduced lunch":null,"id":"ac0nkzxqty9r","address":"25 Cedar Street, Livermore Falls, ME, 04254","75% and above":null,"geo_precision":"street","number of students":309},"type":"Feature","geometry":{"type":"Point","coordinates":[-70.182965,44.469652]}},{"properties":{"school name":"Dawn F Barnes Elementary School","county":"Aroostook","district":"Caswell School Department","geo_score":0.805,"50%-60% free or reduced lunch":null,"60%-75% free or reduced lunch":null,"id":"ac0nl00uhlc2","address":"1025 Van Buren Road, Limestone, ME, 04750","75% and above":"76%","geo_precision":"street","number of students":42},"type":"Feature","geometry":{"type":"Point","coordinates":[-67.825431,46.903417]}},{"properties":{"school name":"Connor Consolidated School","county":"Aroostook","district":"Connor Consolidated School","geo_score":0.786,"50%-60% free or reduced lunch":null,"60%-75% free or reduced lunch":"69%","id":"ac0nkzynq5oy","address":"1581 Van Buren Road Connor Twp, ME, 04736","75% and above":null,"geo_precision":"range","number of students":42},"type":"Feature","geometry":{"type":"Point","coordinates":[-68.027386,46.995936]}},{"properties":{"school name":"Easton Elementary School","county":"Aroostook","district":"Easton School Department","geo_score":1.0,"50%-60% free or reduced lunch":null,"60%-75% free or reduced lunch":"74%","id":"ac0nkzqbf1kp","address":"33 Bangor Road, Easton, ME, 04740","75% and above":null,"geo_precision":"range","number of students":105},"type":"Feature","geometry":{"type":"Point","coordinates":[-67.899189,46.641633]}},{"properties":{"school name":"Easton Junior-Senior High School","county":"Aroostook","district":"Easton School Department","geo_score":1.0,"50%-60% free or reduced lunch":null,"60%-75% free or reduced lunch":"62%","id":"ac0nkzsaj6sl","address":"173 Center Road, Easton, ME, 04740","75% and above":null,"geo_precision":"range","number of students":105},"type":"Feature","geometry":{"type":"Point","coordinates":[-67.905715,46.641822]}},{"properties":{"school name":"Eagle Lake Elem/Jr High School","county":"Aroostook","district":"Msad 27","geo_score":0.61,"50%-60% free or reduced lunch":null,"60%-75% free or reduced lunch":"62%","id":"ac0nkzyzruwe","address":"24 School Street, Eagel Lake, ME, 04739","75% and above":null,"geo_precision":"range","number of students":87},"type":"Feature","geometry":{"type":"Point","coordinates":[-68.020732,46.681925]}},{"properties":{"school name":"St Francis Elementary School","county":"Aroostook","district":"Msad 27","geo_score":0.805,"50%-60% free or reduced lunch":null,"60%-75% free or reduced lunch":"63%","id":"ac0nkzncm381","address":"857 Main Street, Saint Francis, ME, 04774","75% and above":null,"geo_precision":"range","number of students":56},"type":"Feature","geometry":{"type":"Point","coordinates":[-68.313245,47.24321]}},{"properties":{"school name":"New Sweden Consolidated School","county":"Aroostook","district":"New Sweden School Department","geo_score":0.819,"50%-60% free or reduced lunch":"53%","60%-75% free or reduced lunch":null,"id":"ac0nl00a044s","address":"113 Westmanland Road, New Sweden, ME, 04762","75% and above":null,"geo_precision":"street","number of students":73},"type":"Feature","geometry":{"type":"Point","coordinates":[-68.139708,46.941601]}},{"properties":{"school name":"Houlton Elementary School","county":"Aroostook","district":"Rsu/Msad29","geo_score":0.756,"50%-60% free or reduced lunch":null,"60%-75% free or reduced lunch":"65%","id":"ac0nkztgdx3h","address":"60 South Street, Houlton, ME, 04730","75% and above":null,"geo_precision":"street","number of students":410},"type":"Feature","geometry":{"type":"Point","coordinates":[-67.846707,46.112527]}},{"properties":{"school name":"Houlton Junior High School","county":"Aroostook","district":"Rsu/Msad29","geo_score":0.693,"50%-60% free or reduced lunch":"54%","60%-75% free or reduced lunch":null,"id":"ac0nl00c6r3m","address":"7 Bird Street, Houton, ME, 04730","75% and above":null,"geo_precision":"range","number of students":199},"type":"Feature","geometry":{"type":"Point","coordinates":[-67.826879,46.127936]}},{"properties":{"school name":"Houlton Southside School","county":"Aroostook","district":"Rsu/Msad29","geo_score":0.732,"50%-60% free or reduced lunch":"56%","60%-75% free or reduced lunch":null,"id":"ac0nkzo6kbhz","address":"65 South Street, Houlton, ME, 04730","75% and above":null,"geo_precision":"street","number of students":284},"type":"Feature","geometry":{"type":"Point","coordinates":[-67.846707,46.11173]}},{"properties":{"school name":"Wellington School","county":"Aroostook","district":"Rsu/Msad29","geo_score":0.61,"50%-60% free or reduced lunch":null,"60%-75% free or reduced lunch":"71%","id":"ac0nkzyqhsj2","address":"11 Rr 1, Monticello, ME, 04760","75% and above":null,"geo_precision":"range","number of students":63},"type":"Feature","geometry":{"type":"Point","coordinates":[-68.033456,46.968901]}},{"properties":{"school name":"Ashland District School","county":"Aroostook","district":"Rsu/Msad 32","geo_score":0.821,"50%-60% free or reduced lunch":null,"60%-75% free or reduced lunch":"64%","id":"ac0nkzmyp3nz","address":"1 Oak Street, Ashland, ME, 04732","75% and above":null,"geo_precision":"street","number of students":326},"type":"Feature","geometry":{"type":"Point","coordinates":[-68.398872,46.629394]}},{"properties":{"school name":"Hilltop Elementary School","county":"Aroostook","district":"Rsu 39","geo_score":0.691,"50%-60% free or reduced lunch":"57%","60%-75% free or reduced lunch":null,"id":"ac0nl01jpt7k","address":"19 Marshall Avenue, Caribou, ME, 04736","75% and above":null,"geo_precision":"street","number of students":302},"type":"Feature","geometry":{"type":"Point","coordinates":[-68.015436,46.845895]}},{"properties":{"school name":"Limestone Community School","county":"Aroostook","district":"Rsu 39","geo_score":0.585,"50%-60% free or reduced lunch":null,"60%-75% free or reduced lunch":"68%","id":"ac0nl00snycy","address":"93 High Street, Limestone, ME, 04750","75% and above":null,"geo_precision":"range","number of students":271},"type":"Feature","geometry":{"type":"Point","coordinates":[-67.793077,46.111068]}},{"properties":{"school name":"Central Aroostook Jr-Sr HS","county":"Aroostook","district":"Rsu 42/Msad 42","geo_score":1.0,"50%-60% free or reduced lunch":"53%","60%-75% free or reduced lunch":null,"id":"ac0nkzs2jsxs","address":"26 Pleasant Street, Mars Hill, ME, 04758","75% and above":null,"geo_precision":"range","number of students":207},"type":"Feature","geometry":{"type":"Point","coordinates":[-67.861614,46.514852]}},{"properties":{"school name":"Washburn Dsitrict Elem School","county":"Aroostook","district":"Rsu45 /Msad 45","geo_score":0.606,"50%-60% free or reduced lunch":null,"60%-75% free or reduced lunch":"61%","id":"ac0nkzrqyexq","address":"33 School Street, Washburn, ME, 04786","75% and above":null,"geo_precision":"zip","number of students":269},"type":"Feature","geometry":{"type":"Point","coordinates":[-68.105233,46.793032]}},{"properties":{"school name":"Washburn District High School","county":"Aroostook","district":"Rsu45 /Msad 45","geo_score":0.805,"50%-60% free or reduced lunch":"51%","60%-75% free or reduced lunch":null,"id":"ac0nl01z4cwf","address":"1359 Main Street, Washburn, ME, 04786","75% and above":null,"geo_precision":"street","number of students":106},"type":"Feature","geometry":{"type":"Point","coordinates":[-68.156039,46.783853]}},{"properties":{"school name":"Mill Pond School","county":"Aroostook","district":"Rsu 70/ Msad 70","geo_score":0.465,"50%-60% free or reduced lunch":null,"60%-75% free or reduced lunch":"66%","id":"ac0nkzzs0i83","address":"175 Hodgdon Mills Road, Houlton, ME, 04730","75% and above":null,"geo_precision":"street","number of students":360},"type":"Feature","geometry":{"type":"Point","coordinates":[-68.581026,47.238164]}},{"properties":{"school name":"Sad 70 Hodgdon High School","county":"Aroostook","district":"Rsu 70/ Msad 70","geo_score":0.465,"50%-60% free or reduced lunch":"54%","60%-75% free or reduced lunch":null,"id":"ac0nkzym3ldq","address":"175 Hodgdon Mills Road, Houlton, ME, 04730","75% and above":null,"geo_precision":"street","number of students":158},"type":"Feature","geometry":{"type":"Point","coordinates":[-68.581026,47.238164]}},{"properties":{"school name":"Eva Hoyt Zippel School","county":"Aroostook","district":"Rsu 79/Msad 01","geo_score":0.557,"50%-60% free or reduced lunch":"57%","60%-75% free or reduced lunch":null,"id":"ac0nkzv5or7b","address":"42 Griffin Street, Presque Isle, ME, 04769","75% and above":null,"geo_precision":"street","number of students":345},"type":"Feature","geometry":{"type":"Point","coordinates":[-67.940998,46.778431]}},{"properties":{"school name":"Pine Street Elementary School","county":"Aroostook","district":"Rsu 79/Msad 01","geo_score":1.0,"50%-60% free or reduced lunch":null,"60%-75% free or reduced lunch":"62%","id":"ac0nkzq42qu3","address":"50 Pine Street, Presque Isle, ME, 04769","75% and above":null,"geo_precision":"range","number of students":304},"type":"Feature","geometry":{"type":"Point","coordinates":[-68.009018,46.672809]}},{"properties":{"school name":"Presque Isle Middle School","county":"Aroostook","district":"Rsu 79/Msad 01","geo_score":0.935,"50%-60% free or reduced lunch":"51%","60%-75% free or reduced lunch":null,"id":"ac0nkzzgzpsv","address":"569 Skyway Street, Presque Isle, ME, 04769","75% and above":null,"geo_precision":"range","number of students":434},"type":"Feature","geometry":{"type":"Point","coordinates":[-68.035247,46.699375]}},{"properties":{"school name":"Fort Fairfield Elementary School","county":"Aroostook","district":"Rsu 86/Msad 20","geo_score":0.808,"50%-60% free or reduced lunch":null,"60%-75% free or reduced lunch":"70%","id":"ac0nkzwgbfl8","address":"76 Brunswick Avenue, For Fairfield, ME, 04742","75% and above":null,"geo_precision":"street","number of students":273},"type":"Feature","geometry":{"type":"Point","coordinates":[-67.836885,46.765806]}},{"properties":{"school name":"Fort Fairfield Middle/High School","county":"Aroostook","district":"Rsu 86/Msad 20","geo_score":0.575,"50%-60% free or reduced lunch":"58%","60%-75% free or reduced lunch":null,"id":"ac0nkzv0bzmz","address":"28 High School Drive, Fort Fairfield, ME, 04742","75% and above":null,"geo_precision":"range","number of students":304},"type":"Feature","geometry":{"type":"Point","coordinates":[-67.804436,46.110698]}},{"properties":{"school name":"Van Buren District Secondary School","county":"Aroostook","district":"Rsu 88/Msad 24","geo_score":1.0,"50%-60% free or reduced lunch":"50%","60%-75% free or reduced lunch":null,"id":"ac0nkzrvaewj","address":"169 Main Street, Van Buren, ME, 04785","75% and above":null,"geo_precision":"range","number of students":104},"type":"Feature","geometry":{"type":"Point","coordinates":[-67.935354,47.156999]}},{"properties":{"school name":"Van Buren Elementary School","county":"Aroostook","district":"Rsu 88/Msad 24","geo_score":0.608,"50%-60% free or reduced lunch":null,"60%-75% free or reduced lunch":"62%","id":"ac0nkzmnprl6","address":"110 School Drive, Van Buren, ME, 04785","75% and above":null,"geo_precision":"zip","number of students":215},"type":"Feature","geometry":{"type":"Point","coordinates":[-68.042433,46.986075]}},{"properties":{"school name":"So Aroostook Csd School","county":"Aroostook","district":"Rsu 50","geo_score":0.497,"50%-60% free or reduced lunch":null,"60%-75% free or reduced lunch":"70%","id":"ac0nkztlcv8m","address":"922 Dyer Brook Road, Dyer Brook, ME, 04747","75% and above":null,"geo_precision":"street","number of students":393},"type":"Feature","geometry":{"type":"Point","coordinates":[-68.320155,47.24583]}},{"properties":{"school name":"Arthur R. Gould Sch--Lycdc","county":"Cumberland","district":"Arthur R. Gould Sch--Lcydc","geo_score":1.0,"50%-60% free or reduced lunch":null,"60%-75% free or reduced lunch":null,"id":"ac0nkzq855s4","address":"675 Westbrook Street, South Portland, ME, 04106","75% and above":"90%","geo_precision":"range","number of students":120},"type":"Feature","geometry":{"type":"Point","coordinates":[-70.312226,43.637697]}},{"properties":{"school name":"Governor Baxter School for the Deaf","county":"Cumberland","district":"Me Educational Ctr For the Deaf","geo_score":0.618,"50%-60% free or reduced lunch":null,"60%-75% free or reduced lunch":"68%","id":"ac0nkzvjj435","address":"1 MacKworth Idland, Falmouth, ME, 04105","75% and above":null,"geo_precision":"zip","number of students":66},"type":"Feature","geometry":{"type":"Point","coordinates":[-70.336162,43.781468]}},{"properties":{"school name":"Deering High School","county":"Cumberland","district":"Portland Public Schools","geo_score":1.0,"50%-60% free or reduced lunch":"51%","60%-75% free or reduced lunch":null,"id":"ac0nkzy3vm5o","address":"370 Stevens Avenue, Portland, ME, 04103","75% and above":null,"geo_precision":"range","number of students":928},"type":"Feature","geometry":{"type":"Point","coordinates":[-70.295125,43.671371]}},{"properties":{"school name":"East End Community School","county":"Cumberland","district":"Portland Public Schools","geo_score":0.854,"50%-60% free or reduced lunch":null,"60%-75% free or reduced lunch":null,"id":"ac0nkzok68mf","address":"195 North Street, Portland, ME, 04101","75% and above":"79%","geo_precision":"range","number of students":440},"type":"Feature","geometry":{"type":"Point","coordinates":[-70.254497,43.671606]}},{"properties":{"school name":"Howard C Reiche Community School","county":"Cumberland","district":"Portland Public Schools","geo_score":0.605,"50%-60% free or reduced lunch":null,"60%-75% free or reduced lunch":"72%","id":"ac0nkzlsc35m","address":"166 Brackett Street, Portland, ME, 04102","75% and above":null,"geo_precision":"zip","number of students":336},"type":"Feature","geometry":{"type":"Point","coordinates":[-70.44338,43.74275]}},{"properties":{"school name":"King Middle School","county":"Cumberland","district":"Portland Public Schools","geo_score":1.0,"50%-60% free or reduced lunch":"54%","60%-75% free or reduced lunch":null,"id":"ac0nkzuz1ia1","address":"92 Deering Avenue, Portland, ME, 04102","75% and above":null,"geo_precision":"range","number of students":538},"type":"Feature","geometry":{"type":"Point","coordinates":[-70.274335,43.657843]}},{"properties":{"school name":"Lincoln Middle School","county":"Cumberland","district":"Portland Public Schools","geo_score":1.0,"50%-60% free or reduced lunch":"53%","60%-75% free or reduced lunch":null,"id":"ac0nkzpwjfjj","address":"522 Stevens Avenue, Portland, ME, 04103","75% and above":null,"geo_precision":"range","number of students":470},"type":"Feature","geometry":{"type":"Point","coordinates":[-70.294861,43.675793]}},{"properties":{"school name":"Lyman Moore Middle School","county":"Cumberland","district":"Portland Public Schools","geo_score":1.0,"50%-60% free or reduced lunch":"55%","60%-75% free or reduced lunch":null,"id":"ac0nkzxwjcud","address":"171 Auburn Street, Portland, ME, 04103","75% and above":null,"geo_precision":"range","number of students":504},"type":"Feature","geometry":{"type":"Point","coordinates":[-70.288961,43.701727]}},{"properties":{"school name":"Ocean Avenue School","county":"Cumberland","district":"Portland Public Schools","geo_score":1.0,"50%-60% free or reduced lunch":"54%","60%-75% free or reduced lunch":null,"id":"ac0nkzwgxt81","address":"150 Ocean Avenue, Portland, ME, 04103","75% and above":null,"geo_precision":"range","number of students":431},"type":"Feature","geometry":{"type":"Point","coordinates":[-70.281915,43.676423]}},{"properties":{"school name":"Portland High School","county":"Cumberland","district":"Portland Public Schools","geo_score":1.0,"50%-60% free or reduced lunch":"55%","60%-75% free or reduced lunch":null,"id":"ac0nkzr6f5hy","address":"284 Cumberland Avenue, Portland, ME, 04101","75% and above":null,"geo_precision":"range","number of students":924},"type":"Feature","geometry":{"type":"Point","coordinates":[-70.259058,43.659352]}},{"properties":{"school name":"Presumpscot School","county":"Cumberland","district":"Portland Public Schools","geo_score":1.0,"50%-60% free or reduced lunch":null,"60%-75% free or reduced lunch":"75%","id":"ac0nkzzu5vzi","address":"69 Presumpscot Street, Portland, ME, 04103","75% and above":null,"geo_precision":"range","number of students":271},"type":"Feature","geometry":{"type":"Point","coordinates":[-70.260516,43.683627]}},{"properties":{"school name":"Riverton School","county":"Cumberland","district":"Portland Public Schools","geo_score":0.805,"50%-60% free or reduced lunch":null,"60%-75% free or reduced lunch":null,"id":"ac0nl01e7l75","address":"1600 Forest Avenue, Portland, ME, 04101","75% and above":"81%","geo_precision":"street","number of students":407},"type":"Feature","geometry":{"type":"Point","coordinates":[-70.284269,43.670704]}},{"properties":{"school name":"Harrison Elementary","county":"Cumberland","district":"Rsu 17/ Msad 17","geo_score":1.0,"50%-60% free or reduced lunch":null,"60%-75% free or reduced lunch":"73%","id":"ac0nkzp9tkeq","address":"309 Naples Road, Harrison, ME, 04040","75% and above":null,"geo_precision":"range","number of students":221},"type":"Feature","geometry":{"type":"Point","coordinates":[-70.675099,44.088167]}},{"properties":{"school name":"Baldwin Consolidated School","county":"Cumberland","district":"Rsu 55/ Msad 55","geo_score":1.0,"50%-60% free or reduced lunch":"56%","60%-75% free or reduced lunch":null,"id":"ac0nkzzf8xhz","address":"West Baldwin, ME, 04091","75% and above":null,"geo_precision":"zip","number of students":81},"type":"Feature","geometry":{"type":"Point","coordinates":[-70.470703,44.408078]}},{"properties":{"school name":"Sebago Elementary School","county":"Cumberland","district":"Rsu 61/Msad 61","geo_score":0.805,"50%-60% free or reduced lunch":"53%","60%-75% free or reduced lunch":null,"id":"ac0nkzo3kpez","address":"283 Sebago Road, Sebago, ME, 04029","75% and above":null,"geo_precision":"street","number of students":89},"type":"Feature","geometry":{"type":"Point","coordinates":[-70.632469,43.882661]}},{"properties":{"school name":"Stevens Brook School","county":"Cumberland","district":"Rsu 61/Msad 61","geo_score":0.494,"50%-60% free or reduced lunch":null,"60%-75% free or reduced lunch":"62%","id":"ac0nkzpjq1h9","address":"14 Frances Bell Lane, Bridgton, ME, 04009","75% and above":null,"geo_precision":"street","number of students":304},"type":"Feature","geometry":{"type":"Point","coordinates":[-70.899684,43.447503]}},{"properties":{"school name":"James Otis Kaler Elem School","county":"Cumberland","district":"South Portland School Department","geo_score":0.947,"50%-60% free or reduced lunch":"55%","60%-75% free or reduced lunch":null,"id":"ac0nkzpho9pp","address":"165 Kelsey Street, South portland, ME, 04106","75% and above":null,"geo_precision":"range","number of students":181},"type":"Feature","geometry":{"type":"Point","coordinates":[-70.267462,43.628795]}},{"properties":{"school name":"Waldo T Skillin Elementary School","county":"Cumberland","district":"South Portland School Department","geo_score":1.0,"50%-60% free or reduced lunch":"54%","60%-75% free or reduced lunch":null,"id":"ac0nkzs6iqil","address":"180 Wescott Road, South Portland, ME, 04106","75% and above":null,"geo_precision":"range","number of students":421},"type":"Feature","geometry":{"type":"Point","coordinates":[-70.306728,43.625879]}},{"properties":{"school name":"Fred C Wescott School","county":"Cumberland","district":"Westbrook School Department","geo_score":0.902,"50%-60% free or reduced lunch":"52%","60%-75% free or reduced lunch":null,"id":"ac0nkzsb34ol","address":"426 Bridge Street, Westbrook, ME, 04092","75% and above":null,"geo_precision":"range","number of students":564},"type":"Feature","geometry":{"type":"Point","coordinates":[-70.359169,43.68998]}},{"properties":{"school name":"Oxford-Cumberland Canal School","county":"Cumberland","district":"Westbrook School Department","geo_score":1.0,"50%-60% free or reduced lunch":null,"60%-75% free or reduced lunch":"61%","id":"ac0nkzpqbosr","address":"102 Glenwood Avenue, Westbrook, ME, 04092","75% and above":null,"geo_precision":"range","number of students":218},"type":"Feature","geometry":{"type":"Point","coordinates":[-70.35624,43.669493]}},{"properties":{"school name":"Prides Corner School","county":"Cumberland","district":"Westbrook School Department","geo_score":1.0,"50%-60% free or reduced lunch":"50%","60%-75% free or reduced lunch":null,"id":"ac0nkzzp9z6e","address":"375 Pride Street, Westbrook, ME, 04092","75% and above":null,"geo_precision":"range","number of students":335},"type":"Feature","geometry":{"type":"Point","coordinates":[-70.334294,43.712982]}},{"properties":{"school name":"Saccarappa School","county":"Cumberland","district":"Westbrook School Department","geo_score":1.0,"50%-60% free or reduced lunch":null,"60%-75% free or reduced lunch":"62%","id":"ac0nkzqgsx69","address":"110 Huntress Avenue, Westbrook, ME, 04092","75% and above":null,"geo_precision":"range","number of students":290},"type":"Feature","geometry":{"type":"Point","coordinates":[-70.37621,43.673]}},{"properties":{"school name":"Academy Hill School","county":"Franklin","district":"Rsu 09/ Msad 09","geo_score":0.806,"50%-60% free or reduced lunch":null,"60%-75% free or reduced lunch":"61%","id":"ac0nkzyz7icg","address":"585 Depot Street, Wilton, ME, 04294","75% and above":null,"geo_precision":"street","number of students":201},"type":"Feature","geometry":{"type":"Point","coordinates":[-70.199778,44.58331]}},{"properties":{"school name":"Cape Cod Elem School","county":"Franklin","district":"Rsu 09/ Msad 09","geo_score":1.0,"50%-60% free or reduced lunch":"54%","60%-75% free or reduced lunch":null,"id":"ac0nkzrgkhgi","address":"516 Cape Cod Hill Road, New Sharon, ME, 04955","75% and above":null,"geo_precision":"range","number of students":210},"type":"Feature","geometry":{"type":"Point","coordinates":[-70.035147,44.611841]}},{"properties":{"school name":"Gerald D Cushing School","county":"Franklin","district":"Rsu 09/ Msad 09","geo_score":0.806,"50%-60% free or reduced lunch":null,"60%-75% free or reduced lunch":"60%","id":"ac0nkzwt4tqj","address":"585 Depot Street, Wilton, ME, 04294","75% and above":null,"geo_precision":"street","number of students":165},"type":"Feature","geometry":{"type":"Point","coordinates":[-70.199778,44.58331]}},{"properties":{"school name":"W G Mallett School","county":"Franklin","district":"Rsu 09/ Msad 09","geo_score":0.807,"50%-60% free or reduced lunch":"54%","60%-75% free or reduced lunch":null,"id":"ac0nkzz3p7e8","address":"113 Quebec Street, Farmington, ME, 04938","75% and above":null,"geo_precision":"street","number of students":404},"type":"Feature","geometry":{"type":"Point","coordinates":[-70.14372,44.668893]}},{"properties":{"school name":"Kingfield Elementary School","county":"Franklin","district":"Rsu 58/ Msad 58","geo_score":0.539,"50%-60% free or reduced lunch":"53%","60%-75% free or reduced lunch":null,"id":"ac0nl00ke2e4","address":"102 Salem Road, Kingfield, ME, 04947","75% and above":null,"geo_precision":"street","number of students":137},"type":"Feature","geometry":{"type":"Point","coordinates":[-69.652577,44.541995]}},{"properties":{"school name":"Mt Abram Regional High School","county":"Franklin","district":"Rsu 58/ Msad 58","geo_score":0.537,"50%-60% free or reduced lunch":"55%","60%-75% free or reduced lunch":null,"id":"ac0nkzugf5eh","address":"1513 Salem Road, Strong, ME, 04983","75% and above":null,"geo_precision":"street","number of students":239},"type":"Feature","geometry":{"type":"Point","coordinates":[-69.652577,44.541995]}},{"properties":{"school name":"Phillips Elementary School","county":"Franklin","district":"Rsu 58/ Msad 58","geo_score":0.491,"50%-60% free or reduced lunch":null,"60%-75% free or reduced lunch":null,"id":"ac0nkzr6ta8w","address":"1401 Rangeley Road, Phillips, ME, 04966","75% and above":"77%","geo_precision":"street","number of students":155},"type":"Feature","geometry":{"type":"Point","coordinates":[-70.529724,45.082592]}},{"properties":{"school name":"Strong Elementary School","county":"Franklin","district":"Rsu 58/ Msad 58","geo_score":0.807,"50%-60% free or reduced lunch":null,"60%-75% free or reduced lunch":"62%","id":"ac0nkzxkgels","address":"110 North Main Street, Strong, ME, 04983","75% and above":null,"geo_precision":"street","number of students":181},"type":"Feature","geometry":{"type":"Point","coordinates":[-70.220598,44.807179]}},{"properties":{"school name":"Jay Elementary School","county":"Franklin","district":"Rsu 73","geo_score":1.0,"50%-60% free or reduced lunch":"54%","60%-75% free or reduced lunch":null,"id":"ac0nkzt3i9l9","address":"12 Tiger Drive, Jay ME, 04239","75% and above":null,"geo_precision":"range","number of students":327},"type":"Feature","geometry":{"type":"Point","coordinates":[-70.20252,44.49427]}},{"properties":{"school name":"Spruce Mountain HS North Campus","county":"Franklin","district":"Rsu 73","geo_score":1.0,"50%-60% free or reduced lunch":"54%","60%-75% free or reduced lunch":null,"id":"ac0nkzw3oexh","address":"33 Community Drive, Jay, ME, 04239","75% and above":null,"geo_precision":"range","number of students":242},"type":"Feature","geometry":{"type":"Point","coordinates":[-70.201024,44.494406]}},{"properties":{"school name":"Spruce Mountain Middle","county":"Franklin","district":"Rsu 73","geo_score":1.0,"50%-60% free or reduced lunch":"58%","60%-75% free or reduced lunch":null,"id":"ac0nkzxy3fs9","address":"23 Community Drive, Jay, ME, 04239","75% and above":null,"geo_precision":"range","number of students":359},"type":"Feature","geometry":{"type":"Point","coordinates":[-70.201485,44.494316]}},{"properties":{"school name":"Airline Community School","county":"Hancock","district":"Airline Csd","geo_score":0.878,"50%-60% free or reduced lunch":"57%","60%-75% free or reduced lunch":null,"id":"ac0nkzqeprw1","address":"26 Great Pond Road, Aurora, ME, 04408","75% and above":null,"geo_precision":"street","number of students":42},"type":"Feature","geometry":{"type":"Point","coordinates":[-68.296309,44.872485]}},{"properties":{"school name":"Deer Isle-Stonington Elementary School","county":"Hancock","district":"Deer Isle-Stonington Csd","geo_score":0.604,"50%-60% free or reduced lunch":"58%","60%-75% free or reduced lunch":null,"id":"ac0nl0029sgv","address":"249 North Deer Isle Road, Deer Isle, ME, 04627","75% and above":null,"geo_precision":"zip","number of students":207},"type":"Feature","geometry":{"type":"Point","coordinates":[-68.711691,44.213503]}},{"properties":{"school name":"Kids Peace New England","county":"Hancock","district":"Kids Peace New England","geo_score":0.898,"50%-60% free or reduced lunch":null,"60%-75% free or reduced lunch":null,"id":"ac0nkzysiwnt","address":"Route 180 P.O. Box 787, Ellsworth, ME, 04605","75% and above":"89%","geo_precision":"zip","number of students":37},"type":"Feature","geometry":{"type":"Point","coordinates":[-68.524469,44.615352]}},{"properties":{"school name":"Swans Island Elementary School","county":"Hancock","district":"Msad 76","geo_score":0.908,"50%-60% free or reduced lunch":"50%","60%-75% free or reduced lunch":null,"id":"ac0nkzohslm0","address":"P.O. Box 13, Swans Island, ME, 04685","75% and above":null,"geo_precision":"zip","number of students":34},"type":"Feature","geometry":{"type":"Point","coordinates":[-68.396479,44.213118]}},{"properties":{"school name":"Beech Hill School- Otis","county":"Hancock","district":"Otis School Department","geo_score":0.619,"50%-60% free or reduced lunch":"55%","60%-75% free or reduced lunch":null,"id":"ac0nkzzohemo","address":"105 Otis Road, Ellsworth, ME, 04605","75% and above":null,"geo_precision":"zip","number of students":77},"type":"Feature","geometry":{"type":"Point","coordinates":[-68.524469,44.615352]}},{"properties":{"school name":"Cave Hill School","county":"Hancock","district":"Rsu 24","geo_score":0.805,"50%-60% free or reduced lunch":null,"60%-75% free or reduced lunch":"66%","id":"ac0nkzxff8zs","address":"1205 Eastbrook Road, Franklin, ME, 04634","75% and above":null,"geo_precision":"street","number of students":95},"type":"Feature","geometry":{"type":"Point","coordinates":[-68.270536,44.630905]}},{"properties":{"school name":"Ellsworth Elementary-Middle School","county":"Hancock","district":"Rsu 24","geo_score":0.851,"50%-60% free or reduced lunch":"51%","60%-75% free or reduced lunch":null,"id":"ac0nl007hmvx","address":"20 Forrest Avenue, Ellsworth, ME, 04605","75% and above":null,"geo_precision":"range","number of students":830},"type":"Feature","geometry":{"type":"Point","coordinates":[-68.43335,44.551251]}},{"properties":{"school name":"Hancock Grammar School","county":"Hancock","district":"Rsu 24","geo_score":0.89,"50%-60% free or reduced lunch":null,"60%-75% free or reduced lunch":"60%","id":"ac0nkztyj743","address":"Rte 1 P.O. Box 37, Hancock, ME, 04640","75% and above":null,"geo_precision":"zip","number of students":217},"type":"Feature","geometry":{"type":"Point","coordinates":[-68.230848,44.469523]}},{"properties":{"school name":"Lamoine Consolidated School","county":"Hancock","district":"Rsu 24","geo_score":0.688,"50%-60% free or reduced lunch":"50%","60%-75% free or reduced lunch":null,"id":"ac0nkztnhbl8","address":"58 Lamoine Beach Road, Aylett, ME, 04605","75% and above":null,"geo_precision":"range","number of students":118},"type":"Feature","geometry":{"type":"Point","coordinates":[-68.344799,44.478372]}},{"properties":{"school name":"Mountain View School","county":"Hancock","district":"Rsu 24","geo_score":0.454,"50%-60% free or reduced lunch":null,"60%-75% free or reduced lunch":"73%","id":"ac0nkzxf7bw4","address":"542 Beroute Gray Road, Sullivan, ME, 04664","75% and above":null,"geo_precision":"street","number of students":264},"type":"Feature","geometry":{"type":"Point","coordinates":[-68.101445,44.397379]}},{"properties":{"school name":"Peninsula Csd School","county":"Hancock","district":"Rsu 24","geo_score":0.616,"50%-60% free or reduced lunch":null,"60%-75% free or reduced lunch":"64%","id":"ac0nkzx0a97i","address":"22 School Street, Winter Harbor, ME, 04693","75% and above":null,"geo_precision":"zip","number of students":208},"type":"Feature","geometry":{"type":"Point","coordinates":[-68.074964,44.387188]}},{"properties":{"school name":"Sumner Memorial high School","county":"Hancock","district":"Rsu 24","geo_score":0.61,"50%-60% free or reduced lunch":null,"60%-75% free or reduced lunch":"61%","id":"ac0nkzqtjgf7","address":"2456 US Highway 1, Sullivan, ME, 04664","75% and above":null,"geo_precision":"street","number of students":236},"type":"Feature","geometry":{"type":"Point","coordinates":[-68.440102,44.539155]}},{"properties":{"school name":"Bucksport Middle School","county":"Hancock","district":"Rsu 25","geo_score":0.732,"50%-60% free or reduced lunch":"53%","60%-75% free or reduced lunch":null,"id":"ac0nkzrhccpy","address":"100 Miles Lane, Bucksport, ME, 04416","75% and above":null,"geo_precision":"range","number of students":307},"type":"Feature","geometry":{"type":"Point","coordinates":[-69.059705,44.710564]}},{"properties":{"school name":"G Herbert Jewett School","county":"Hancock","district":"Rsu 25","geo_score":1.0,"50%-60% free or reduced lunch":null,"60%-75% free or reduced lunch":null,"id":"ac0nkzpzvx6x","address":"102 Broadway, Bucksport, ME, 04416","75% and above":"82%","geo_precision":"range","number of students":176},"type":"Feature","geometry":{"type":"Point","coordinates":[-68.782043,44.575845]}},{"properties":{"school name":"Miles Lane School","county":"Hancock","district":"Rsu 25","geo_score":0.732,"50%-60% free or reduced lunch":"52%","60%-75% free or reduced lunch":null,"id":"ac0nkzmsk23k","address":"52 Miles Lane, Bucksport, ME, 04416","75% and above":null,"geo_precision":"range","number of students":293},"type":"Feature","geometry":{"type":"Point","coordinates":[-69.063225,44.712389]}},{"properties":{"school name":"Sedgwick Elementary School","county":"Hancock","district":"Sedgwick School Department","geo_score":0.399,"50%-60% free or reduced lunch":null,"60%-75% free or reduced lunch":"64%","id":"ac0nkzya4udp","address":"272 Snows Cove Road, Sedgwick, ME, 04676","75% and above":null,"geo_precision":"street","number of students":87},"type":"Feature","geometry":{"type":"Point","coordinates":[-68.278964,44.460416]}},{"properties":{"school name":"Trenton Elementary School","county":"Hancock","district":"Tranton School Department","geo_score":0.603,"50%-60% free or reduced lunch":"60%","60%-75% free or reduced lunch":null,"id":"ac0nkzrx0c41","address":"51 School Road, Tenton, ME, 04605","75% and above":null,"geo_precision":"zip","number of students":102},"type":"Feature","geometry":{"type":"Point","coordinates":[-68.392798,44.605631]}},{"properties":{"school name":"Farrington School","county":"Kennebec","district":"Augusta Public Schools","geo_score":1.0,"50%-60% free or reduced lunch":null,"60%-75% free or reduced lunch":"66%","id":"ac0nl014bdtj","address":"249 Eastern Avenue, Augusta, ME, 04330","75% and above":null,"geo_precision":"range","number of students":386},"type":"Feature","geometry":{"type":"Point","coordinates":[-69.748632,44.306111]}},{"properties":{"school name":"Lillian Parks Hussey School","county":"Kennebec","district":"Augusta Public Schools","geo_score":1.0,"50%-60% free or reduced lunch":"53%","60%-75% free or reduced lunch":null,"id":"ac0nkzm0x4a9","address":"12 Gedney Street, Augusta, ME, 04330","75% and above":null,"geo_precision":"range","number of students":203},"type":"Feature","geometry":{"type":"Point","coordinates":[-69.762692,44.321077]}},{"properties":{"school name":"Lincoln School","county":"Kennebec","district":"Augusta Public Schools","geo_score":0.829,"50%-60% free or reduced lunch":null,"60%-75% free or reduced lunch":"65%","id":"ac0nkzvo5scn","address":"30 Lincoln Street, Augusta, ME, 04330","75% and above":null,"geo_precision":"street","number of students":286},"type":"Feature","geometry":{"type":"Point","coordinates":[-69.784452,44.312501]}},{"properties":{"school name":"Sylvio J Gilbert School","county":"Kennebec","district":"Augusta Public Schools","geo_score":1.0,"50%-60% free or reduced lunch":null,"60%-75% free or reduced lunch":"67%","id":"ac0nkzt1oz5d","address":"Sunset Avenue, Augusta, ME, 04330","75% and above":null,"geo_precision":"street","number of students":398},"type":"Feature","geometry":{"type":"Point","coordinates":[-69.780638,44.332971]}},{"properties":{"school name":"Carrie Ricker Middle School","county":"Kennebec","district":"Rsu 04","geo_score":0.612,"50%-60% free or reduced lunch":"50%","60%-75% free or reduced lunch":null,"id":"ac0nl00lvlsk","address":"573 Richmond Road, Litchfield, ME, 04350","75% and above":null,"geo_precision":"zip","number of students":300},"type":"Feature","geometry":{"type":"Point","coordinates":[-69.930049,44.150629]}},{"properties":{"school name":"Libby-Tozier School","county":"Kennebec","district":"Rsu 04","geo_score":0.552,"50%-60% free or reduced lunch":"56%","60%-75% free or reduced lunch":null,"id":"ac0nkzrmft7e","address":"466 Academy Road, Litchfield, ME, 04350","75% and above":null,"geo_precision":"street","number of students":194},"type":"Feature","geometry":{"type":"Point","coordinates":[-69.795824,44.285537]}},{"properties":{"school name":"Gardiner Regional Middle School","county":"Kennebec","district":"Rsu 11/ Msad 11","geo_score":1.0,"50%-60% free or reduced lunch":"53%","60%-75% free or reduced lunch":null,"id":"ac0nkzudpvev","address":"161 Cobbossee Avenue, Gardiner, ME, 04345","75% and above":null,"geo_precision":"range","number of students":478},"type":"Feature","geometry":{"type":"Point","coordinates":[-69.807214,44.213649]}},{"properties":{"school name":"Laura E Richards School","county":"Kennebec","district":"Rsu 11/ Msad 11","geo_score":1.0,"50%-60% free or reduced lunch":null,"60%-75% free or reduced lunch":"60%","id":"ac0nl01q39va","address":"279 Brunswick Avenue, Gardiner, ME, 04345","75% and above":null,"geo_precision":"range","number of students":193},"type":"Feature","geometry":{"type":"Point","coordinates":[-69.780202,44.219214]}},{"properties":{"school name":"River View Community School","county":"Kennebec","district":"Rsu 11/ Msad 11","geo_score":0.927,"50%-60% free or reduced lunch":"58%","60%-75% free or reduced lunch":null,"id":"ac0nkzzcg8e0","address":"815 River Road, South Gardiner, ME, 04359","75% and above":null,"geo_precision":"range","number of students":190},"type":"Feature","geometry":{"type":"Point","coordinates":[-69.769864,44.166634]}},{"properties":{"school name":"Teresa C Hamlin Elem School","county":"Kennebec","district":"Rsu 11/ Msad 11","geo_score":0.606,"50%-60% free or reduced lunch":"57%","60%-75% free or reduced lunch":null,"id":"ac0nkzxwydf8","address":"17 School Street, Randolph, ME, 04346","75% and above":null,"geo_precision":"zip","number of students":91},"type":"Feature","geometry":{"type":"Point","coordinates":[-69.724135,44.269959]}},{"properties":{"school name":"Windsor Elementary School","county":"Kennebec","district":"Rsu Sheepscot Valley Regional School Unit","geo_score":0.61,"50%-60% free or reduced lunch":"51%","60%-75% free or reduced lunch":null,"id":"ac0nl007bcob","address":"366 Ridge Road, Windsor, ME, 04363","75% and above":null,"geo_precision":"street","number of students":273},"type":"Feature","geometry":{"type":"Point","coordinates":[-69.552042,44.125758]}},{"properties":{"school name":"Ralph M Atwood Primary School","county":"Kennebec","district":"Rsu 18","geo_score":1.0,"50%-60% free or reduced lunch":"57%","60%-75% free or reduced lunch":null,"id":"ac0nkzlpzygr","address":"19 Heath Street, Oakland, ME, 04963","75% and above":null,"geo_precision":"range","number of students":247},"type":"Feature","geometry":{"type":"Point","coordinates":[-69.720389,44.548066]}},{"properties":{"school name":"Williams Elementary School","county":"Kennebec","district":"Rsu 18","geo_score":1.0,"50%-60% free or reduced lunch":"54%","60%-75% free or reduced lunch":null,"id":"ac0nl00j90qj","address":"55 Pleasant Street, Oakland, ME, 04963","75% and above":null,"geo_precision":"range","number of students":233},"type":"Feature","geometry":{"type":"Point","coordinates":[-69.715841,44.54959]}},{"properties":{"school name":"Albion Elementary School","county":"Kennebec","district":"Rsu 49/Msad 49","geo_score":0.602,"50%-60% free or reduced lunch":null,"60%-75% free or reduced lunch":"72%","id":"ac0nl00q41fl","address":"20 School Street, Albion, ME, 04910","75% and above":null,"geo_precision":"zip","number of students":141},"type":"Feature","geometry":{"type":"Point","coordinates":[-69.639976,44.530366]}},{"properties":{"school name":"Benton Elementary School","county":"Kennebec","district":"Rsu 49/Msad 49","geo_score":0.737,"50%-60% free or reduced lunch":null,"60%-75% free or reduced lunch":"67%","id":"ac0nkzw9gb74","address":"68 School Drive, Benton, ME, 04901","75% and above":null,"geo_precision":"street","number of students":635},"type":"Feature","geometry":{"type":"Point","coordinates":[-69.619334,44.556678]}},{"properties":{"school name":"Clinton Elementary School","county":"Kennebec","district":"Rsu 49/Msad 49","geo_score":1.0,"50%-60% free or reduced lunch":null,"60%-75% free or reduced lunch":"66%","id":"ac0nkzynzdx3","address":"75 Morrison Avenue, Clinton, ME, 04927","75% and above":null,"geo_precision":"range","number of students":285},"type":"Feature","geometry":{"type":"Point","coordinates":[-69.502004,44.640889]}},{"properties":{"school name":"Vassalboro Community School","county":"Kennebec","district":"Vassalboror School District","geo_score":0.578,"50%-60% free or reduced lunch":"52%","60%-75% free or reduced lunch":null,"id":"ac0nkzxp8ddh","address":"1116 Webber Pond Road, Vassalboro, ME, 04989","75% and above":null,"geo_precision":"range","number of students":431},"type":"Feature","geometry":{"type":"Point","coordinates":[-70.309752,45.055492]}},{"properties":{"school name":"Albert S Hall School","county":"Kennebec","district":"Waterville Public Schools","geo_score":1.0,"50%-60% free or reduced lunch":null,"60%-75% free or reduced lunch":"67%","id":"ac0nkznnscn8","address":"27 Pleasant Street, Waterville, ME, 04901","75% and above":null,"geo_precision":"range","number of students":245},"type":"Feature","geometry":{"type":"Point","coordinates":[-69.635854,44.55054]}},{"properties":{"school name":"George J Mitchell School","county":"Kennebec","district":"Waterville Public Schools","geo_score":1.0,"50%-60% free or reduced lunch":null,"60%-75% free or reduced lunch":"71%","id":"ac0nkzznzrrg","address":"58 Drummond Avenue, Waterville, ME, 04901","75% and above":null,"geo_precision":"range","number of students":541},"type":"Feature","geometry":{"type":"Point","coordinates":[-69.627805,44.569692]}},{"properties":{"school name":"Waterville Junior High School","county":"Kennebec","district":"Waterville Public Schools","geo_score":0.941,"50%-60% free or reduced lunch":null,"60%-75% free or reduced lunch":"61%","id":"ac0nkzrii8k2","address":"120 West River Road, Waterville, ME, 04901","75% and above":null,"geo_precision":"range","number of students":417},"type":"Feature","geometry":{"type":"Point","coordinates":[-69.654642,44.533849]}},{"properties":{"school name":"Winslow Elementary School","county":"Kennebec","district":"Winslow Schools","geo_score":0.807,"50%-60% free or reduced lunch":"53%","60%-75% free or reduced lunch":null,"id":"ac0nkzq6zwk6","address":"285 Benton Avenue, Winslow, ME, 04901","75% and above":null,"geo_precision":"street","number of students":495},"type":"Feature","geometry":{"type":"Point","coordinates":[-69.620903,44.554097]}},{"properties":{"school name":"Vinalhaven School","county":"Knox","district":"Rsu 08/Msad 08","geo_score":0.612,"50%-60% free or reduced lunch":"55%","60%-75% free or reduced lunch":null,"id":"ac0nkzmlkn1m","address":"22 Arcola Lane, Vinalhaven, ME, 04863","75% and above":null,"geo_precision":"zip","number of students":172},"type":"Feature","geometry":{"type":"Point","coordinates":[-68.841965,44.08511]}},{"properties":{"school name":"Cushing Community School","county":"Knox","district":"Rsu 13","geo_score":0.878,"50%-60% free or reduced lunch":"55%","60%-75% free or reduced lunch":null,"id":"ac0nkzokkunl","address":"54 Cross Road, Cushing, ME, 04563","75% and above":null,"geo_precision":"range","number of students":73},"type":"Feature","geometry":{"type":"Point","coordinates":[-69.250256,44.020824]}},{"properties":{"school name":"Laura Libby School","county":"Knox","district":"Rsu 13","geo_score":0.902,"50%-60% free or reduced lunch":"57%","60%-75% free or reduced lunch":null,"id":"ac0nkzs56yhu","address":"13 Valley Street, Thomaston, ME, 04861","75% and above":null,"geo_precision":"street","number of students":164},"type":"Feature","geometry":{"type":"Point","coordinates":[-69.186713,44.080981]}},{"properties":{"school name":"Georges Valley high School","county":"Knox","district":"Rsu 13","geo_score":0.811,"50%-60% free or reduced lunch":"52%","60%-75% free or reduced lunch":null,"id":"ac0nl00nlbd0","address":"47 Valley Street, Thomaston, ME, 04861","75% and above":null,"geo_precision":"street","number of students":347},"type":"Feature","geometry":{"type":"Point","coordinates":[-69.189145,44.080092]}},{"properties":{"school name":"Rockland District Middle School","county":"Knox","district":"Rsu 13","geo_score":0.878,"50%-60% free or reduced lunch":"56%","60%-75% free or reduced lunch":"66%","id":"ac0nkzwe4mic","address":"30 Broadway, Rockland, ME, 04841","75% and above":null,"geo_precision":"range","number of students":209},"type":"Feature","geometry":{"type":"Point","coordinates":[-69.116013,44.096399]}},{"properties":{"school name":"South School","county":"Knox","district":"Rsu 13","geo_score":1.0,"50%-60% free or reduced lunch":null,"60%-75% free or reduced lunch":null,"id":"ac0nkzpbarr9","address":"100 Holmes Street, Rockland, ME, 04841","75% and above":null,"geo_precision":"range","number of students":288},"type":"Feature","geometry":{"type":"Point","coordinates":[-69.11641,44.096774]}},{"properties":{"school name":"St George School","county":"Knox","district":"Rsu 13","geo_score":0.805,"50%-60% free or reduced lunch":"57%","60%-75% free or reduced lunch":null,"id":"ac0nkzt6tety","address":"65 Main Street, Tenants Harbor, ME, 04860","75% and above":null,"geo_precision":"range","number of students":195},"type":"Feature","geometry":{"type":"Point","coordinates":[-69.180281,44.079395]}},{"properties":{"school name":"Friendship Village School","county":"Knox","district":"Rsu 40/Msad 40","geo_score":0.618,"50%-60% free or reduced lunch":"55%","60%-75% free or reduced lunch":"61%","id":"ac0nkzxhtj1s","address":"23 School Street, Friendship, ME, 04547","75% and above":null,"geo_precision":"zip","number of students":104},"type":"Feature","geometry":{"type":"Point","coordinates":[-69.296436,44.008693]}},{"properties":{"school name":"Prescott Memorial","county":"Knox","district":"Rsu 40/Msad 40","geo_score":1.0,"50%-60% free or reduced lunch":null,"60%-75% free or reduced lunch":null,"id":"ac0nkzq5ldqd","address":"100 Waldoboro Rd, Washington, ME, 04574","75% and above":null,"geo_precision":"range","number of students":105},"type":"Feature","geometry":{"type":"Point","coordinates":[-69.371043,44.271087]}},{"properties":{"school name":"Union Elementary","county":"Knox","district":"Rsu 40/Msad 40","geo_score":0.878,"50%-60% free or reduced lunch":"57%","60%-75% free or reduced lunch":null,"id":"ac0nkznh2iir","address":"1070 Heald Hwy, Union, ME, 04862","75% and above":null,"geo_precision":"range","number of students":121},"type":"Feature","geometry":{"type":"Point","coordinates":[-69.252908,44.212056]}},{"properties":{"school name":"Warren Community School","county":"Knox","district":"Rsu 40/Msad 40","geo_score":1.0,"50%-60% free or reduced lunch":"58%","60%-75% free or reduced lunch":null,"id":"ac0nkzx7wdhw","address":"117 Eastern Road, Warren, ME, 04864","75% and above":null,"geo_precision":"range","number of students":349},"type":"Feature","geometry":{"type":"Point","coordinates":[-69.239801,44.127499]}},{"properties":{"school name":"Jefferson Village School","county":"Lincoln","district":"Aos 93 Central Lincoln County School System","geo_score":1.0,"50%-60% free or reduced lunch":"53%","60%-75% free or reduced lunch":null,"id":"ac0nkzwlxmcj","address":"48 Washington Road, Jefferson, ME, 04348","75% and above":null,"geo_precision":"range","number of students":186},"type":"Feature","geometry":{"type":"Point","coordinates":[-69.454046,44.205059]}},{"properties":{"school name":"Edgecomb Eddy School","county":"Lincoln","district":"Edgecomb School Department","geo_score":0.951,"50%-60% free or reduced lunch":"56%","60%-75% free or reduced lunch":null,"id":"ac0nkzqdy2w8","address":"157 Boothbay Road, Edgecomb, ME, 04556","75% and above":null,"geo_precision":"range","number of students":97},"type":"Feature","geometry":{"type":"Point","coordinates":[-69.632234,43.999735]}},{"properties":{"school name":"Dresden Elementary School","county":"Lincoln","district":"Rsu 02 Kennebec Intra-District","geo_score":1.0,"50%-60% free or reduced lunch":"52%","60%-75% free or reduced lunch":null,"id":"ac0nkzv0gg5g","address":"86 Cedar Grove Rd, Dresden, ME, 04342","75% and above":null,"geo_precision":"range","number of students":84},"type":"Feature","geometry":{"type":"Point","coordinates":[-69.744272,44.127794]}},{"properties":{"school name":"Somerville Elementary","county":"Lincoln","district":"Rsu 12 Sheepscot Valley Regional","geo_score":0.723,"50%-60% free or reduced lunch":null,"60%-75% free or reduced lunch":null,"id":"ac0nkzomrjuc","address":"665 Pathricktown Road, Somerville, ME, 04348","75% and above":"78%","geo_precision":"range","number of students":23},"type":"Feature","geometry":{"type":"Point","coordinates":[-69.505888,44.291477]}},{"properties":{"school name":"Whitefield Elementary School","county":"Lincoln","district":"Rsu 12 Sheepscot Valley Regional","geo_score":1.0,"50%-60% free or reduced lunch":"52%","60%-75% free or reduced lunch":null,"id":"ac0nkzoe4mr2","address":"164 Grand Army Rd, Whitefield, ME, 04353","75% and above":null,"geo_precision":"range","number of students":189},"type":"Feature","geometry":{"type":"Point","coordinates":[-69.60128,44.222657]}},{"properties":{"school name":"Wiscasset High School","county":"Lincoln","district":"Rsu 12 Sheepscot Valley Regional","geo_score":1.0,"50%-60% free or reduced lunch":"52%","60%-75% free or reduced lunch":null,"id":"ac0nkzp5794w","address":"272 Gardiner Rd, Wiscasset, ME, 04578","75% and above":null,"geo_precision":"range","number of students":209},"type":"Feature","geometry":{"type":"Point","coordinates":[-69.669928,44.02336]}},{"properties":{"school name":"Wiscasset Middle School","county":"Lincoln","district":"Rsu 12 Sheepscot Valley Regional","geo_score":0.878,"50%-60% free or reduced lunch":"54%","60%-75% free or reduced lunch":null,"id":"ac0nkzyhszn1","address":"83 Federal Street, Wiscasset, ME, 04578","75% and above":null,"geo_precision":"range","number of students":173},"type":"Feature","geometry":{"type":"Point","coordinates":[-69.656197,44.019548]}},{"properties":{"school name":"Wiscasset Primary School","county":"Lincoln","district":"Rsu 12 Sheepscot Valley Regional","geo_score":1.0,"50%-60% free or reduced lunch":"52%","60%-75% free or reduced lunch":null,"id":"ac0nl00flenp","address":"146 Gardiner Road, Wiscasset, ME, 04578","75% and above":null,"geo_precision":"range","number of students":221},"type":"Feature","geometry":{"type":"Point","coordinates":[-69.670052,44.023623]}},{"properties":{"school name":"Medomak Valley high School","county":"Lincoln","district":"Rsu 40/Msad 40","geo_score":1.0,"50%-60% free or reduced lunch":"51%","60%-75% free or reduced lunch":null,"id":"ac0nkzrl3grb","address":"320 Manktown Road, Waldoboro, ME, 04572","75% and above":null,"geo_precision":"range","number of students":531},"type":"Feature","geometry":{"type":"Point","coordinates":[-69.306929,44.123846]}},{"properties":{"school name":"Miller School","county":"Lincoln","district":"Rsu 40/Msad 40","geo_score":0.89,"50%-60% free or reduced lunch":null,"60%-75% free or reduced lunch":"66%","id":"ac0nkzwi9hun","address":"145 Kalers Corner Road, Waldoboro, ME, 04572","75% and above":null,"geo_precision":"range","number of students":322},"type":"Feature","geometry":{"type":"Point","coordinates":[-69.383632,44.100451]}},{"properties":{"school name":"Buckfield Jr-Sr High School","county":"Oxford","district":"Rsu 10 Western Foothills","geo_score":1.0,"50%-60% free or reduced lunch":null,"60%-75% free or reduced lunch":"64%","id":"ac0nkzr3r740","address":"160 Morrill Street, Buckfield, ME, 04220","75% and above":null,"geo_precision":"range","number of students":287},"type":"Feature","geometry":{"type":"Point","coordinates":[-70.360746,44.292834]}},{"properties":{"school name":"Dirigo Elementary School","county":"Oxford","district":"Rsu 10 Western Foothills","geo_score":0.805,"50%-60% free or reduced lunch":null,"60%-75% free or reduced lunch":"64%","id":"ac0nkzwynu7o","address":"117 Auburn Road, Peru, ME, 04290","75% and above":null,"geo_precision":"street","number of students":373},"type":"Feature","geometry":{"type":"Point","coordinates":[-70.404731,44.506078]}},{"properties":{"school name":"Hartford-Summer Elementary School","county":"Oxford","district":"Rsu 10 Western Foothills","geo_score":1.0,"50%-60% free or reduced lunch":null,"60%-75% free or reduced lunch":"65%","id":"ac0nl00ptxg1","address":"145 Main Street, Sumner, ME, 04292","75% and above":null,"geo_precision":"range","number of students":310},"type":"Feature","geometry":{"type":"Point","coordinates":[-70.381577,44.358048]}},{"properties":{"school name":"Meroby Elementary School","county":"Oxford","district":"Rsu 10 Western Foothills","geo_score":1.0,"50%-60% free or reduced lunch":null,"60%-75% free or reduced lunch":"75%","id":"ac0nkzsdroqy","address":"21 Cross Street, Mexico, ME, 04257","75% and above":null,"geo_precision":"range","number of students":299},"type":"Feature","geometry":{"type":"Point","coordinates":[-70.532971,44.556242]}},{"properties":{"school name":"Mountain Valley High School","county":"Oxford","district":"Rsu 10 Western Foothills","geo_score":0.603,"50%-60% free or reduced lunch":null,"60%-75% free or reduced lunch":"66%","id":"ac0nkzoyvs9i","address":"799 Hancock Street, Rumford, ME, 04276","75% and above":null,"geo_precision":"zip","number of students":409},"type":"Feature","geometry":{"type":"Point","coordinates":[-70.638174,44.523556]}},{"properties":{"school name":"Mountain Valley Middle School","county":"Oxford","district":"Rsu 10 Western Foothills","geo_score":0.601,"50%-60% free or reduced lunch":null,"60%-75% free or reduced lunch":"72%","id":"ac0nkzti0z8v","address":"58 Highland Terrace, Mexico, ME, 04257","75% and above":null,"geo_precision":"zip","number of students":306},"type":"Feature","geometry":{"type":"Point","coordinates":[-70.516131,44.570265]}},{"properties":{"school name":"Rumford Elementary","county":"Oxford","district":"Rsu 10 Western Foothills","geo_score":0.878,"50%-60% free or reduced lunch":null,"60%-75% free or reduced lunch":"78%","id":"ac0nkzqjlxdd","address":"121 Lincoln Avenue, Rumford, ME, 04276","75% and above":null,"geo_precision":"range","number of students":284},"type":"Feature","geometry":{"type":"Point","coordinates":[-70.552983,44.55346]}},{"properties":{"school name":"TW Kelly Dirigo Middle School","county":"Oxford","district":"Rsu 10 Western Foothills","geo_score":0.677,"50%-60% free or reduced lunch":"57%","60%-75% free or reduced lunch":null,"id":"ac0nl013aa2x","address":"45 Middle School Street, Dixfield, ME, 04224","75% and above":null,"geo_precision":"range","number of students":218},"type":"Feature","geometry":{"type":"Point","coordinates":[-70.218288,44.101392]}},{"properties":{"school name":"Agnes Gray School","county":"Oxford","district":"Rsu/Msad 17","geo_score":1.0,"50%-60% free or reduced lunch":null,"60%-75% free or reduced lunch":"72%","id":"ac0nl015tq85","address":"170 Main Street, West Paris, ME, 04289","75% and above":null,"geo_precision":"range","number of students":95},"type":"Feature","geometry":{"type":"Point","coordinates":[-70.568417,44.326792]}},{"properties":{"school name":"Guy E Rowe School","county":"Oxford","district":"Rsu/Msad 17","geo_score":1.0,"50%-60% free or reduced lunch":null,"60%-75% free or reduced lunch":"70%","id":"ac0nkzrj5ai9","address":"219 Main Street, Norway, ME, 04268","75% and above":null,"geo_precision":"range","number of students":441},"type":"Feature","geometry":{"type":"Point","coordinates":[-70.543662,44.213969]}},{"properties":{"school name":"Otisfield Community School","county":"Oxford","district":"Rsu/Msad 17","geo_score":0.976,"50%-60% free or reduced lunch":"54%","60%-75% free or reduced lunch":null,"id":"ac0nkzpswt0v","address":"416 Powhattan Road, Oxford, ME, 04270","75% and above":null,"geo_precision":"range","number of students":80},"type":"Feature","geometry":{"type":"Point","coordinates":[-70.518729,44.048436]}},{"properties":{"school name":"Oxford Elementary School","county":"Oxford","district":"Rsu/Msad 17","geo_score":1.0,"50%-60% free or reduced lunch":null,"60%-75% free or reduced lunch":"74%","id":"ac0nkzzn2xwk","address":"79 Pleasant Street, Oxford, ME, 04270","75% and above":null,"geo_precision":"range","number of students":398},"type":"Feature","geometry":{"type":"Point","coordinates":[-70.494875,44.133416]}},{"properties":{"school name":"Oxford Hills Comprehensive HS","county":"Oxford","district":"Rsu/Msad 17","geo_score":0.688,"50%-60% free or reduced lunch":"54%","60%-75% free or reduced lunch":null,"id":"ac0nkzwnwhhg","address":"256 Main Street, South Paris, ME, 04281","75% and above":null,"geo_precision":"street","number of students":1060},"type":"Feature","geometry":{"type":"Point","coordinates":[-70.525506,44.213522]}},{"properties":{"school name":"Oxford Hills Middle School","county":"Oxford","district":"Rsu/Msad 17","geo_score":0.878,"50%-60% free or reduced lunch":null,"60%-75% free or reduced lunch":"65%","id":"ac0nkzwoogrp","address":"100 Pine Street, South Paris, ME, 04281","75% and above":null,"geo_precision":"street","number of students":536},"type":"Feature","geometry":{"type":"Point","coordinates":[-70.513824,44.219538]}},{"properties":{"school name":"Paris Elementary School","county":"Oxford","district":"Rsu/Msad 17","geo_score":0.878,"50%-60% free or reduced lunch":null,"60%-75% free or reduced lunch":"67%","id":"ac0nkzzqpw2m","address":"4 Hathaway Road, South Paris, ME, 04281","75% and above":null,"geo_precision":"street","number of students":465},"type":"Feature","geometry":{"type":"Point","coordinates":[-70.525601,44.247737]}},{"properties":{"school name":"Waterford Memorial School","county":"Oxford","district":"Rsu/Msad 17","geo_score":1.0,"50%-60% free or reduced lunch":null,"60%-75% free or reduced lunch":"68%","id":"ac0nkzmic13c","address":"148 Valley Road, Waterford, ME, 04088","75% and above":null,"geo_precision":"range","number of students":76},"type":"Feature","geometry":{"type":"Point","coordinates":[-70.720341,44.187225]}},{"properties":{"school name":"Sacopee Valley high School","county":"Oxford","district":"Rsu 55/Msad 55","geo_score":0.973,"50%-60% free or reduced lunch":"55%","60%-75% free or reduced lunch":null,"id":"ac0nl000necd","address":"115 So Hiram Road, Hiram, ME, 04041","75% and above":null,"geo_precision":"range","number of students":398},"type":"Feature","geometry":{"type":"Point","coordinates":[-70.870297,43.811737]}},{"properties":{"school name":"Sacopee Valley Middle School","county":"Oxford","district":"Rsu 55/Msad 55","geo_score":1.0,"50%-60% free or reduced lunch":"59%","60%-75% free or reduced lunch":null,"id":"ac0nkzryy8g0","address":"137 South Hiram Road, Hiram, ME, 04041","75% and above":null,"geo_precision":"range","number of students":359},"type":"Feature","geometry":{"type":"Point","coordinates":[-70.868253,43.811409]}},{"properties":{"school name":"South Hiram Elementary School","county":"Oxford","district":"Rsu 55/Msad 55","geo_score":0.973,"50%-60% free or reduced lunch":null,"60%-75% free or reduced lunch":"69%","id":"ac0nkzynvrmb","address":"213 So Hiram Road, Hiram, ME, 04041","75% and above":null,"geo_precision":"range","number of students":207},"type":"Feature","geometry":{"type":"Point","coordinates":[-70.861306,43.810285]}},{"properties":{"school name":"Tech-Region 9","county":"Oxford","district":"Rumford Region 9","geo_score":0.406,"50%-60% free or reduced lunch":null,"60%-75% free or reduced lunch":"64%","id":"ac0nl01reqwf","address":"377 Region Road, Mexico, ME, 04257","75% and above":null,"geo_precision":"street","number of students":154},"type":"Feature","geometry":{"type":"Point","coordinates":[-70.183724,44.132495]}},{"properties":{"school name":"Andover Elementary School","county":"Oxford","district":"Rsu 44/Msad 44","geo_score":0.878,"50%-60% free or reduced lunch":null,"60%-75% free or reduced lunch":"64%","id":"ac0nkzxh0tiv","address":"85 Pine Street, Andover, ME, 04216","75% and above":null,"geo_precision":"range","number of students":33},"type":"Feature","geometry":{"type":"Point","coordinates":[-70.754709,44.633697]}},{"properties":{"school name":"Crescent Park School","county":"Oxford","district":"Rsu 44/Msad 44","geo_score":0.731,"50%-60% free or reduced lunch":"50%","60%-75% free or reduced lunch":null,"id":"ac0nkzwvth7z","address":"19 Crescent Lane, Bethel, ME, 04217","75% and above":null,"geo_precision":"street","number of students":270},"type":"Feature","geometry":{"type":"Point","coordinates":[-70.784436,44.403445]}},{"properties":{"school name":"Telstar Middle School","county":"Oxford","district":"Rsu 44/Msad 44","geo_score":0.982,"50%-60% free or reduced lunch":"58%","60%-75% free or reduced lunch":null,"id":"ac0nkzrg438n","address":"284 Walkers Mills Road, Bethel, ME, 04217","75% and above":null,"geo_precision":"range","number of students":201},"type":"Feature","geometry":{"type":"Point","coordinates":[-70.77367,44.416908]}},{"properties":{"school name":"Woodstock School","county":"Oxford","district":"Rsu 44/Msad 44","geo_score":1.0,"50%-60% free or reduced lunch":null,"60%-75% free or reduced lunch":"64%","id":"ac0nkzr65zjv","address":"224 Rumford Ave, Bryant Pond, ME, 04219","75% and above":null,"geo_precision":"range","number of students":81},"type":"Feature","geometry":{"type":"Point","coordinates":[-70.638886,44.405676]}},{"properties":{"school name":"New Suncook School","county":"Penobscot","district":"Rsu 72/Msad 72","geo_score":0.817,"50%-60% free or reduced lunch":null,"60%-75% free or reduced lunch":"60%","id":"ac0nkztiyny7","address":"95 Main Street, Lovell, ME, 04051","75% and above":null,"geo_precision":"street","number of students":192},"type":"Feature","geometry":{"type":"Point","coordinates":[-70.892333,44.179531]}},{"properties":{"school name":"Downeast School","county":"Penobscot","district":"Bangor School Department","geo_score":1.0,"50%-60% free or reduced lunch":null,"60%-75% free or reduced lunch":null,"id":"ac0nkzvssx06","address":"100 Moosehead Blvd, Bangor, ME, 04401","75% and above":"92%","geo_precision":"range","number of students":339},"type":"Feature","geometry":{"type":"Point","coordinates":[-68.81777,44.841702]}},{"properties":{"school name":"Fairmount School","county":"Penobscot","district":"Bangor School Department","geo_score":0.916,"50%-60% free or reduced lunch":null,"60%-75% free or reduced lunch":"66%","id":"ac0nkzlp4u3o","address":"58 Thirteenth Street, Bangor, ME, 04401","75% and above":null,"geo_precision":"range","number of students":296},"type":"Feature","geometry":{"type":"Point","coordinates":[-68.790611,44.80235]}},{"properties":{"school name":"James F. Doughty School","county":"Penobscot","district":"Bangor School Department","geo_score":0.902,"50%-60% free or reduced lunch":null,"60%-75% free or reduced lunch":"64%","id":"ac0nkzmhsg2u","address":"143 Fifth St, Bangor, ME, 04401","75% and above":null,"geo_precision":"range","number of students":379},"type":"Feature","geometry":{"type":"Point","coordinates":[-68.782455,44.797907]}},{"properties":{"school name":"Vine Street School","county":"Penobscot","district":"Bangor School Department","geo_score":1.0,"50%-60% free or reduced lunch":null,"60%-75% free or reduced lunch":"68%","id":"ac0nkzq4wt8y","address":"66 Vine Street, Bangor, ME, 04401","75% and above":null,"geo_precision":"range","number of students":248},"type":"Feature","geometry":{"type":"Point","coordinates":[-68.783251,44.794662]}},{"properties":{"school name":"Opal Myrick Elementary School","county":"Penobscot","district":"East Millinocket School Department","geo_score":0.844,"50%-60% free or reduced lunch":null,"60%-75% free or reduced lunch":"68%","id":"ac0nkzoy41q0","address":"6 1/2 Beech Street, East Millinocket, ME, 04430","75% and above":null,"geo_precision":"range","number of students":142},"type":"Feature","geometry":{"type":"Point","coordinates":[-68.574058,45.629115]}},{"properties":{"school name":"Schenck High School","county":"Penobscot","district":"East Millinocket School Department","geo_score":0.854,"50%-60% free or reduced lunch":"58%","60%-75% free or reduced lunch":null,"id":"ac0nkzq06vkv","address":"45 North Street, East Millinocket, ME, 04430","75% and above":null,"geo_precision":"range","number of students":156},"type":"Feature","geometry":{"type":"Point","coordinates":[-68.574934,45.632504]}},{"properties":{"school name":"Helen S Dunn Elementary School","county":"Penobscot","district":"Greenbush Schoool Department","geo_score":0.537,"50%-60% free or reduced lunch":null,"60%-75% free or reduced lunch":"67%","id":"ac0nkzwo6du6","address":"129 Military Road, Greenbush, ME, 04467","75% and above":null,"geo_precision":"street","number of students":152},"type":"Feature","geometry":{"type":"Point","coordinates":[-69.186615,44.925471]}},{"properties":{"school name":"Indian Island School","county":"Penobscot","district":"Indian Island","geo_score":0.612,"50%-60% free or reduced lunch":null,"60%-75% free or reduced lunch":null,"id":"ac0nkznmxwcx","address":"10 Wabanaki Way, Old Town, ME, 04468","75% and above":"86%","geo_precision":"zip","number of students":122},"type":"Feature","geometry":{"type":"Point","coordinates":[-68.780036,44.98479]}},{"properties":{"school name":"Peter Dana School","county":"Penobscot","district":"Indian Township","geo_score":1.0,"50%-60% free or reduced lunch":null,"60%-75% free or reduced lunch":null,"id":"ac0nkzx1qjd5","address":"Peter Dana Point, Princeton, ME, 04668","75% and above":"85%","geo_precision":"zip","number of students":137},"type":"Feature","geometry":{"type":"Point","coordinates":[-67.575432,45.209229]}},{"properties":{"school name":"Kingman Elementary School","county":"Penobscot","district":"Kingman School","geo_score":0.805,"50%-60% free or reduced lunch":null,"60%-75% free or reduced lunch":null,"id":"ac0nkzz0sjpy","address":"25 Park Street, Kingman, ME, 04451","75% and above":"89%","geo_precision":"range","number of students":9},"type":"Feature","geometry":{"type":"Point","coordinates":[-68.576559,45.626955]}},{"properties":{"school name":"Medway Middle School","county":"Penobscot","district":"Medway School Department","geo_score":0.659,"50%-60% free or reduced lunch":null,"60%-75% free or reduced lunch":"61%","id":"ac0nkzuh79n6","address":"25 Middle School Drive, Medway, ME, 04460","75% and above":null,"geo_precision":"range","number of students":136},"type":"Feature","geometry":{"type":"Point","coordinates":[-68.647105,44.935798]}},{"properties":{"school name":"Dr Lewis S Libby School","county":"Penobscot","district":"Milford School Department","geo_score":0.604,"50%-60% free or reduced lunch":null,"60%-75% free or reduced lunch":"63%","id":"ac0nkznsv0df","address":"13 School Street, Milford, ME, 04461","75% and above":null,"geo_precision":"zip","number of students":337},"type":"Feature","geometry":{"type":"Point","coordinates":[-68.595946,45.0542]}},{"properties":{"school name":"Granite Street School","county":"Penobscot","district":"Millinocket School Department","geo_score":1.0,"50%-60% free or reduced lunch":null,"60%-75% free or reduced lunch":"69%","id":"ac0nkzqcspmm","address":"191 Granite Street, Millinocket, ME, 04462","75% and above":null,"geo_precision":"range","number of students":279},"type":"Feature","geometry":{"type":"Point","coordinates":[-68.70544,45.651986]}},{"properties":{"school name":"Millinocket Middle School","county":"Penobscot","district":"Millinocket School Department","geo_score":1.0,"50%-60% free or reduced lunch":null,"60%-75% free or reduced lunch":"60%","id":"ac0nkzyl5cwr","address":"199 State Street, Millinocket, ME, 04462","75% and above":null,"geo_precision":"range","number of students":68},"type":"Feature","geometry":{"type":"Point","coordinates":[-68.706294,45.658798]}},{"properties":{"school name":"Stearns High School","county":"Penobscot","district":"Millinocket School Department","geo_score":1.0,"50%-60% free or reduced lunch":"57%","60%-75% free or reduced lunch":null,"id":"ac0nkzr53z6w","address":"199 State Street, Millinocket, ME, 04462","75% and above":null,"geo_precision":"range","number of students":208},"type":"Feature","geometry":{"type":"Point","coordinates":[-68.706294,45.658798]}},{"properties":{"school name":"Mountain View Youth Dev Center","county":"Penobscot","district":"Mountain View Youth Dev Center","geo_score":0.878,"50%-60% free or reduced lunch":null,"60%-75% free or reduced lunch":null,"id":"ac0nl01fjh92","address":"1182 Dover Road, Charleston, ME, 04422","75% and above":"86%","geo_precision":"range","number of students":83},"type":"Feature","geometry":{"type":"Point","coordinates":[-69.099852,45.099168]}},{"properties":{"school name":"Ridge View Community School","county":"Penobscot","district":"Msad 46","geo_score":0.865,"50%-60% free or reduced lunch":null,"60%-75% free or reduced lunch":"68%","id":"ac0nkztdg87n","address":"175 Fern Road Ste 3, Dexter, ME, 04930","75% and above":null,"geo_precision":"range","number of students":715},"type":"Feature","geometry":{"type":"Point","coordinates":[-69.271053,45.011141]}},{"properties":{"school name":"Corinna Elementary School","county":"Penobscot","district":"Rsu 19","geo_score":0.61,"50%-60% free or reduced lunch":null,"60%-75% free or reduced lunch":"65%","id":"ac0nkzmjtn7i","address":"42 Stetson Road, Corinna, ME, 04928","75% and above":null,"geo_precision":"zip","number of students":158},"type":"Feature","geometry":{"type":"Point","coordinates":[-69.246713,44.951451]}},{"properties":{"school name":"Etna-Dixmont School","county":"Penobscot","district":"Rsu 19","geo_score":0.603,"50%-60% free or reduced lunch":"57%","60%-75% free or reduced lunch":null,"id":"ac0nkzra6fmu","address":"2100 Dixmont Road, Etna, ME, 04434","75% and above":null,"geo_precision":"zip","number of students":242},"type":"Feature","geometry":{"type":"Point","coordinates":[-69.105878,44.786735]}},{"properties":{"school name":"Newport Elementary School","county":"Penobscot","district":"Rsu 19","geo_score":0.878,"50%-60% free or reduced lunch":"56%","60%-75% free or reduced lunch":null,"id":"ac0nkzmrcc3a","address":"142 Elm Street, Newport, ME, 04953","75% and above":null,"geo_precision":"range","number of students":310},"type":"Feature","geometry":{"type":"Point","coordinates":[-69.241576,44.824217]}},{"properties":{"school name":"Nokomis Regional High School","county":"Penobscot","district":"Rsu 19","geo_score":0.805,"50%-60% free or reduced lunch":"54%","60%-75% free or reduced lunch":null,"id":"ac0nkztoy1i7","address":"266 Williams Road, Newport, ME, 04953","75% and above":null,"geo_precision":"street","number of students":719},"type":"Feature","geometry":{"type":"Point","coordinates":[-69.296386,44.88961]}},{"properties":{"school name":"Sebasticook Valley Middle School","county":"Penobscot","district":"Rsu 19","geo_score":0.805,"50%-60% free or reduced lunch":null,"60%-75% free or reduced lunch":"60%","id":"ac0nkzt4fi3j","address":"337 Williams Road, Newport, ME, 04953","75% and above":null,"geo_precision":"street","number of students":338},"type":"Feature","geometry":{"type":"Point","coordinates":[-69.295082,44.885021]}},{"properties":{"school name":"Edith A Lombard School (New)","county":"Penobscot","district":"Rsu 30/Msad 30","geo_score":0.805,"50%-60% free or reduced lunch":null,"60%-75% free or reduced lunch":"73%","id":"ac0nkzwrj1ll","address":"883 Main Street, Springfield, ME, 04487","75% and above":null,"geo_precision":"range","number of students":15},"type":"Feature","geometry":{"type":"Point","coordinates":[-68.644822,44.905505]}},{"properties":{"school name":"Lee/Winn School","county":"Penobscot","district":"Rsu 30/Msad 30","geo_score":0.598,"50%-60% free or reduced lunch":null,"60%-75% free or reduced lunch":null,"id":"ac0nkzt7xhns","address":"1009 Route 168, Winn, ME, 04495","75% and above":"80%","geo_precision":"zip","number of students":90},"type":"Feature","geometry":{"type":"Point","coordinates":[-68.647416,45.519867]}},{"properties":{"school name":"Mt Jefferson Jr High School","county":"Penobscot","district":"Rsu 30/Msad 30","geo_score":0.596,"50%-60% free or reduced lunch":null,"60%-75% free or reduced lunch":null,"id":"ac0nl008fi3n","address":"61 Winn Road, Lee, ME, 04455","75% and above":"76%","geo_precision":"zip","number of students":86},"type":"Feature","geometry":{"type":"Point","coordinates":[-68.306409,45.425894]}},{"properties":{"school name":"Enfield Station Elementary School","county":"Penobscot","district":"Rsu 31/Msad 31","geo_score":0.614,"50%-60% free or reduced lunch":null,"60%-75% free or reduced lunch":"64%","id":"ac0nkzy5zzm8","address":"561 Hammett Road, West Enfield, ME, 04493","75% and above":null,"geo_precision":"zip","number of students":275},"type":"Feature","geometry":{"type":"Point","coordinates":[-68.647416,45.519867]}},{"properties":{"school name":"Hichborn Middle School","county":"Penobscot","district":"Rsu 31/Msad 31","geo_score":1.0,"50%-60% free or reduced lunch":"56%","60%-75% free or reduced lunch":null,"id":"ac0nkzppjpge","address":"23 Cross Street, Howland, ME, 04448","75% and above":null,"geo_precision":"range","number of students":128},"type":"Feature","geometry":{"type":"Point","coordinates":[-68.660992,45.24575]}},{"properties":{"school name":"Penobscot Valley High School","county":"Penobscot","district":"Rsu 31/Msad 31","geo_score":1.0,"50%-60% free or reduced lunch":"57%","60%-75% free or reduced lunch":null,"id":"ac0nl01si66x","address":"23 Cross Street, Howland, ME, 04448","75% and above":null,"geo_precision":"range","number of students":174},"type":"Feature","geometry":{"type":"Point","coordinates":[-68.660992,45.24575]}},{"properties":{"school name":"Alton Elementary","county":"Penobscot","district":"Rsu 34 Old Town/Alton/ Bradley","geo_score":0.878,"50%-60% free or reduced lunch":"52%","60%-75% free or reduced lunch":null,"id":"ac0nkzt6pfl3","address":"22 Argyle Road, Old Town, ME, 04468","75% and above":null,"geo_precision":"range","number of students":46},"type":"Feature","geometry":{"type":"Point","coordinates":[-68.733778,45.04539]}},{"properties":{"school name":"Leonard Middle School","county":"Penobscot","district":"Rsu 34 Old Town/Alton/ Bradley","geo_score":1.0,"50%-60% free or reduced lunch":"52%","60%-75% free or reduced lunch":null,"id":"ac0nkzr97xcg","address":"156 Oak Street, Old Town, ME, 04468","75% and above":null,"geo_precision":"range","number of students":309},"type":"Feature","geometry":{"type":"Point","coordinates":[-68.653696,44.932369]}},{"properties":{"school name":"Old Town Elementary School","county":"Penobscot","district":"Rsu 34 Old Town/Alton/ Bradley","geo_score":0.854,"50%-60% free or reduced lunch":"57%","60%-75% free or reduced lunch":null,"id":"ac0nkzzswx10","address":"576 Stillwater Avenue, Old Town, ME, 04468","75% and above":null,"geo_precision":"street","number of students":545},"type":"Feature","geometry":{"type":"Point","coordinates":[-68.670179,44.92484]}},{"properties":{"school name":"Marion C Cook School","county":"Penobscot","district":"Rsu 41/ Msad 41","geo_score":0.746,"50%-60% free or reduced lunch":null,"60%-75% free or reduced lunch":"71%","id":"ac0nkzrxqg5s","address":"22 Howland Road, Lagrange, ME, 04453","75% and above":null,"geo_precision":"range","number of students":41},"type":"Feature","geometry":{"type":"Point","coordinates":[-68.652517,44.93805]}},{"properties":{"school name":"Bradford Elementary School","county":"Penobscot","district":"Rsu 64/Msad 64","geo_score":0.805,"50%-60% free or reduced lunch":null,"60%-75% free or reduced lunch":"69%","id":"ac0nkzy4nmj4","address":"641 Main Road, Bradford, ME, 04410","75% and above":null,"geo_precision":"range","number of students":93},"type":"Feature","geometry":{"type":"Point","coordinates":[-68.641848,45.218154]}},{"properties":{"school name":"Central Middle School","county":"Penobscot","district":"Rsu 64/Msad 64","geo_score":1.0,"50%-60% free or reduced lunch":"52%","60%-75% free or reduced lunch":null,"id":"ac0nkzsmjthb","address":"416 Main Street, Corinth, ME, 04427","75% and above":null,"geo_precision":"range","number of students":303},"type":"Feature","geometry":{"type":"Point","coordinates":[-69.020192,44.996698]}},{"properties":{"school name":"Hudson Elementary School","county":"Penobscot","district":"Rsu 64/Msad 64","geo_score":0.878,"50%-60% free or reduced lunch":null,"60%-75% free or reduced lunch":"63%","id":"ac0nkzmwm9cs","address":"2150 Hudson Road, Hudson, ME, 04449","75% and above":null,"geo_precision":"range","number of students":54},"type":"Feature","geometry":{"type":"Point","coordinates":[-68.854461,44.955298]}},{"properties":{"school name":"Kenduskeag Elementary School","county":"Penobscot","district":"Rsu 64/Msad 64","geo_score":0.795,"50%-60% free or reduced lunch":null,"60%-75% free or reduced lunch":"62%","id":"ac0nkzqklfja","address":"4067 Brdway, Kenduckeag, ME, 04450","75% and above":null,"geo_precision":"range","number of students":131},"type":"Feature","geometry":{"type":"Point","coordinates":[-68.931616,44.920767]}},{"properties":{"school name":"Morison Memorial School","county":"Penobscot","district":"Rsu 64/Msad 64","geo_score":1.0,"50%-60% free or reduced lunch":"56%","60%-75% free or reduced lunch":null,"id":"ac0nkzwzsl99","address":"386 Main Street, Corinth, ME, 04427","75% and above":null,"geo_precision":"range","number of students":222},"type":"Feature","geometry":{"type":"Point","coordinates":[-69.022394,45.001557]}},{"properties":{"school name":"Stetson Elementary School","county":"Penobscot","district":"Rsu 64/Msad 64","geo_score":0.555,"50%-60% free or reduced lunch":"59%","60%-75% free or reduced lunch":null,"id":"ac0nkzu927m0","address":"394 Village Road, Stetson, ME, 04488","75% and above":null,"geo_precision":"street","number of students":44},"type":"Feature","geometry":{"type":"Point","coordinates":[-68.528864,45.61002]}},{"properties":{"school name":"Ella P Burr School","county":"Penobscot","district":"Rsu 67","geo_score":0.659,"50%-60% free or reduced lunch":null,"60%-75% free or reduced lunch":"68%","id":"ac0nkzsgtgo7","address":"23 Ella P Burr St, Lincoln, ME, 04457","75% and above":null,"geo_precision":"range","number of students":419},"type":"Feature","geometry":{"type":"Point","coordinates":[-68.768426,44.789416]}},{"properties":{"school name":"Mattanawcook Jr","county":"Penobscot","district":"Rsu 67","geo_score":0.615,"50%-60% free or reduced lunch":null,"60%-75% free or reduced lunch":"61%","id":"ac0nkzt8ayoz","address":"45 School Street, Lincoln, ME, 04457","75% and above":null,"geo_precision":"zip","number of students":368},"type":"Feature","geometry":{"type":"Point","coordinates":[-68.581693,45.3345]}},{"properties":{"school name":"Carmel Elementary School","county":"Penobscot","district":"Rsu 87/Msad 23","geo_score":0.602,"50%-60% free or reduced lunch":"51%","60%-75% free or reduced lunch":null,"id":"ac0nkzrzas9q","address":"50 Plymouth Road, Carmel, ME, 04419","75% and above":null,"geo_precision":"zip","number of students":215},"type":"Feature","geometry":{"type":"Point","coordinates":[-68.940624,44.808062]}},{"properties":{"school name":"Suzanne M Smith Elementary School","county":"Penobscot","district":"Rsu 87/Msad 23","geo_score":1.0,"50%-60% free or reduced lunch":"53%","60%-75% free or reduced lunch":null,"id":"ac0nkzz29gbo","address":"169 South Levant Road, Levant, ME, 04456","75% and above":null,"geo_precision":"range","number of students":250},"type":"Feature","geometry":{"type":"Point","coordinates":[-68.995378,44.86023]}},{"properties":{"school name":"Katahdin Elementary School","county":"Penobscot","district":"Rsu 50","geo_score":0.611,"50%-60% free or reduced lunch":null,"60%-75% free or reduced lunch":"69%","id":"ac0nkzx8viwf","address":"805 Station Road, Stacyville, ME, 04777","75% and above":null,"geo_precision":"street","number of students":226},"type":"Feature","geometry":{"type":"Point","coordinates":[-67.910522,46.669571]}},{"properties":{"school name":"Katahdin Middle/High School","county":"Penobscot","district":"Rsu 50","geo_score":0.611,"50%-60% free or reduced lunch":"56%","60%-75% free or reduced lunch":null,"id":"ac0nkztszyq9","address":"800 Station Road, Stacyville, ME, 04777","75% and above":null,"geo_precision":"street","number of students":185},"type":"Feature","geometry":{"type":"Point","coordinates":[-67.910522,46.669571]}},{"properties":{"school name":"Greenville Middle/High School","county":"Piscataquis","district":"Greenville School Department","geo_score":0.805,"50%-60% free or reduced lunch":"52%","60%-75% free or reduced lunch":null,"id":"ac0nkzqbyjif","address":"130 Pritham Ave, Greenville, ME, 04441","75% and above":null,"geo_precision":"street","number of students":134},"type":"Feature","geometry":{"type":"Point","coordinates":[-69.606472,45.459677]}},{"properties":{"school name":"Nickerson Elementary School","county":"Piscataquis","district":"Greenville School Department","geo_score":0.805,"50%-60% free or reduced lunch":"56%","60%-75% free or reduced lunch":null,"id":"ac0nkzps43kx","address":"140 Pritham Ave, Greenville, ME, 04441","75% and above":null,"geo_precision":"street","number of students":103},"type":"Feature","geometry":{"type":"Point","coordinates":[-69.606472,45.459677]}},{"properties":{"school name":"Brownville Elementary School","county":"Piscataquis","district":"Rsu 41/Msad 41","geo_score":0.6,"50%-60% free or reduced lunch":null,"60%-75% free or reduced lunch":null,"id":"ac0nkzpyenrg","address":"774 Main Road, Brownville, ME, 04414","75% and above":"77%","geo_precision":"street","number of students":112},"type":"Feature","geometry":{"type":"Point","coordinates":[-69.02811,45.299122]}},{"properties":{"school name":"Milo Elementary School","county":"Piscataquis","district":"Rsu 41/Msad 41","geo_score":1.0,"50%-60% free or reduced lunch":null,"60%-75% free or reduced lunch":null,"id":"ac0nl01i2ijv","address":"18 Belmont Street, Milo, ME, 04463","75% and above":"81%","geo_precision":"range","number of students":228},"type":"Feature","geometry":{"type":"Point","coordinates":[-68.980404,45.251366]}},{"properties":{"school name":"Penquis Valley High School","county":"Piscataquis","district":"Rsu 41/Msad 41","geo_score":0.597,"50%-60% free or reduced lunch":null,"60%-75% free or reduced lunch":"67%","id":"ac0nkznniw5s","address":"48 Penquis Drive, Milo, ME, 04463","75% and above":null,"geo_precision":"zip","number of students":352},"type":"Feature","geometry":{"type":"Point","coordinates":[-68.975988,45.244612]}},{"properties":{"school name":"Se Do Mo Cha Elementary School","county":"Piscataquis","district":"Rsu 68/Msad 68","geo_score":0.837,"50%-60% free or reduced lunch":"53%","60%-75% free or reduced lunch":null,"id":"ac0nkzwmg8ib","address":"63 Harrison Avenue, Dover-Foxcroft, ME, 04426","75% and above":null,"geo_precision":"street","number of students":331},"type":"Feature","geometry":{"type":"Point","coordinates":[-69.228364,45.193718]}},{"properties":{"school name":"Piscataquis Community Elementary School","county":"Piscataquis","district":"Rsu 80/Msad 4","geo_score":0.429,"50%-60% free or reduced lunch":null,"60%-75% free or reduced lunch":"71%","id":"ac0nkzrkyziv","address":"25 Campus Dr Drop 1, Guilford, ME, 04443","75% and above":null,"geo_precision":"street","number of students":362},"type":"Feature","geometry":{"type":"Point","coordinates":[-68.784198,44.570904]}},{"properties":{"school name":"Piscataquis Community Secondary School","county":"Piscataquis","district":"Rsu 80/Msad 4","geo_score":0.613,"50%-60% free or reduced lunch":null,"60%-75% free or reduced lunch":"60%","id":"ac0nkzsodazn","address":"9 Campus Drive, Guilford, ME, 04443","75% and above":null,"geo_precision":"zip","number of students":339},"type":"Feature","geometry":{"type":"Point","coordinates":[-69.420882,45.234774]}},{"properties":{"school name":"Bath Middle School","county":"Sagadahoc","district":"Rsu 01- Lower Kennebec Rsu","geo_score":1.0,"50%-60% free or reduced lunch":"51%","60%-75% free or reduced lunch":null,"id":"ac0nkzsl3ue4","address":"6 Old Brunswick Road, Bath, ME, 04530","75% and above":null,"geo_precision":"range","number of students":393},"type":"Feature","geometry":{"type":"Point","coordinates":[-69.829209,43.919883]}},{"properties":{"school name":"Dike-Newell School","county":"Sagadahoc","district":"Rsu 01- Lower Kennebec Rsu","geo_score":0.607,"50%-60% free or reduced lunch":null,"60%-75% free or reduced lunch":"61%","id":"ac0nkzxefr2g","address":"3 Wright Drive, Bath, ME, 04530","75% and above":null,"geo_precision":"zip","number of students":319},"type":"Feature","geometry":{"type":"Point","coordinates":[-69.81588,43.934801]}},{"properties":{"school name":"Fisher-Mitchell School","county":"Sagadahoc","district":"Rsu 01- Lower Kennebec Rsu","geo_score":0.439,"50%-60% free or reduced lunch":null,"60%-75% free or reduced lunch":"68%","id":"ac0nkzqfwyzb","address":"597 High St, Bath, ME, 04530","75% and above":null,"geo_precision":"street","number of students":226},"type":"Feature","geometry":{"type":"Point","coordinates":[-69.446232,43.969969]}},{"properties":{"school name":"Marcia Buker School","county":"Sagadahoc","district":"Rsu 02 Kennebec Intra-District","geo_score":0.61,"50%-60% free or reduced lunch":"54%","60%-75% free or reduced lunch":null,"id":"ac0nl004oxpn","address":"28 High Street, Richmond, ME, 04357","75% and above":null,"geo_precision":"zip","number of students":271},"type":"Feature","geometry":{"type":"Point","coordinates":[-69.890604,44.103408]}},{"properties":{"school name":"Harmony Elementary","county":"Somerset","district":"Harmony School Department","geo_score":0.844,"50%-60% free or reduced lunch":"57%","60%-75% free or reduced lunch":null,"id":"ac0nkzt0mt1n","address":"Main Street 100, Harmony, ME, 04942","75% and above":null,"geo_precision":"street","number of students":103},"type":"Feature","geometry":{"type":"Point","coordinates":[-69.546917,44.974427]}},{"properties":{"school name":"Hartland Consolidated School","county":"Somerset","district":"Rsu 19","geo_score":1.0,"50%-60% free or reduced lunch":null,"60%-75% free or reduced lunch":null,"id":"ac0nkzovvr7a","address":"62 Elm Street, Hartland, ME, 04943","75% and above":"78%","geo_precision":"range","number of students":167},"type":"Feature","geometry":{"type":"Point","coordinates":[-69.445687,44.880641]}},{"properties":{"school name":"Somerset Valley Middle School","county":"Somerset","district":"Rsu 19","geo_score":0.829,"50%-60% free or reduced lunch":null,"60%-75% free or reduced lunch":"68%","id":"ac0nkzshhl75","address":"45 Blake Street, Hartland, ME, 04943","75% and above":null,"geo_precision":"street","number of students":260},"type":"Feature","geometry":{"type":"Point","coordinates":[-69.445362,44.885458]}},{"properties":{"school name":"St Albans Consolidated","county":"Somerset","district":"Rsu 19","geo_score":0.533,"50%-60% free or reduced lunch":null,"60%-75% free or reduced lunch":"67%","id":"ac0nkzvr4bsm","address":"1298 Hartland Road, St.Albans, ME, 04971","75% and above":null,"geo_precision":"street","number of students":126},"type":"Feature","geometry":{"type":"Point","coordinates":[-69.442115,44.885017]}},{"properties":{"school name":"Fairfield Primary School","county":"Somerset","district":"Rsu 49/Msad 49","geo_score":0.345,"50%-60% free or reduced lunch":null,"60%-75% free or reduced lunch":"66%","id":"ac0nkzp0eta2","address":"63 High Street, Fairfield, ME, 04937","75% and above":null,"geo_precision":"street","number of students":184},"type":"Feature","geometry":{"type":"Point","coordinates":[-68.960608,44.430602]}},{"properties":{"school name":"Lawrence High School","county":"Somerset","district":"Rsu 49/Msad 49","geo_score":0.62,"50%-60% free or reduced lunch":"51%","60%-75% free or reduced lunch":null,"id":"ac0nl00veb6x","address":"9 School Street, Fairfield, ME, 04937","75% and above":null,"geo_precision":"zip","number of students":728},"type":"Feature","geometry":{"type":"Point","coordinates":[-69.675882,44.649509]}},{"properties":{"school name":"Lawrence Jr High School","county":"Somerset","district":"Rsu 49/Msad 49","geo_score":0.62,"50%-60% free or reduced lunch":"54%","60%-75% free or reduced lunch":null,"id":"ac0nkzu4pkn9","address":"7 School Street, Fairfield, ME, 04937","75% and above":null,"geo_precision":"zip","number of students":359},"type":"Feature","geometry":{"type":"Point","coordinates":[-69.675882,44.649509]}},{"properties":{"school name":"Manson Park School","county":"Somerset","district":"Rsu 53/Msad 53","geo_score":0.806,"50%-60% free or reduced lunch":null,"60%-75% free or reduced lunch":"66%","id":"ac0nkzw3xjtl","address":"179 Lancey Street, Pittsfield, ME, 04967","75% and above":null,"geo_precision":"street","number of students":124},"type":"Feature","geometry":{"type":"Point","coordinates":[-69.383982,44.778015]}},{"properties":{"school name":"Vickery School","county":"Somerset","district":"Rsu 53/Msad 53","geo_score":0.61,"50%-60% free or reduced lunch":"56%","60%-75% free or reduced lunch":null,"id":"ac0nkznhfq53","address":"170 School Street, Pittsfield, ME, 04967","75% and above":null,"geo_precision":"zip","number of students":283},"type":"Feature","geometry":{"type":"Point","coordinates":[-69.387705,44.760948]}},{"properties":{"school name":"Warsaw Middle School","county":"Somerset","district":"Rsu 53/Msad 53","geo_score":0.61,"50%-60% free or reduced lunch":"54%","60%-75% free or reduced lunch":null,"id":"ac0nkzrxatz8","address":"167 School Street, Pittsfield, ME, 04967","75% and above":null,"geo_precision":"zip","number of students":332},"type":"Feature","geometry":{"type":"Point","coordinates":[-69.387705,44.760948]}},{"properties":{"school name":"Bloomfield Elementary School","county":"Somerset","district":"Rsu 54/Msad 54","geo_score":1.0,"50%-60% free or reduced lunch":null,"60%-75% free or reduced lunch":"66%","id":"ac0nkzp950pw","address":"196 West Front Street, Skowhegan, ME, 04976","75% and above":null,"geo_precision":"range","number of students":372},"type":"Feature","geometry":{"type":"Point","coordinates":[-69.728202,44.757427]}},{"properties":{"school name":"Canaan Elementary School","county":"Somerset","district":"Rsu 54/Msad 54","geo_score":0.708,"50%-60% free or reduced lunch":null,"60%-75% free or reduced lunch":"68%","id":"ac0nkzolunkq","address":"178 Main Street, Canaan, ME, 04924","75% and above":null,"geo_precision":"street","number of students":269},"type":"Feature","geometry":{"type":"Point","coordinates":[-70.203775,44.610594]}},{"properties":{"school name":"Margaret Chase Smith Sch.-Skowhegan","county":"Somerset","district":"Rsu 54/Msad 54","geo_score":1.0,"50%-60% free or reduced lunch":null,"60%-75% free or reduced lunch":"68%","id":"ac0nkzutae1r","address":"40 Heselton Street, Skowhegan, ME ,04976","75% and above":null,"geo_precision":"range","number of students":277},"type":"Feature","geometry":{"type":"Point","coordinates":[-69.716115,44.770495]}},{"properties":{"school name":"Mill Stream Elementary School","county":"Somerset","district":"Rsu 54/Msad 54","geo_score":1.0,"50%-60% free or reduced lunch":null,"60%-75% free or reduced lunch":"63%","id":"ac0nkzv3kcvx","address":"26 Mercer Road, Norridgewock, ME, 04957","75% and above":null,"geo_precision":"range","number of students":405},"type":"Feature","geometry":{"type":"Point","coordinates":[-69.798932,44.71264]}},{"properties":{"school name":"North Elementary School","county":"Somerset","district":"Rsu 54/Msad 54","geo_score":1.0,"50%-60% free or reduced lunch":null,"60%-75% free or reduced lunch":"67%","id":"ac0nkzm6p7b4","address":"33 Jewett Street, Skowhegan, ME, 04976","75% and above":null,"geo_precision":"range","number of students":136},"type":"Feature","geometry":{"type":"Point","coordinates":[-69.721207,44.777086]}},{"properties":{"school name":"Skowhegan Area High School","county":"Somerset","district":"Rsu 54/Msad 54","geo_score":0.725,"50%-60% free or reduced lunch":"54%","60%-75% free or reduced lunch":null,"id":"ac0nkzpplezp","address":"61 Academy Circle, Skowhegan, ME, 04976","75% and above":null,"geo_precision":"range","number of students":836},"type":"Feature","geometry":{"type":"Point","coordinates":[-69.444491,44.884223]}},{"properties":{"school name":"Skohegan Area Middle School","county":"Somerset","district":"Rsu 54/Msad 54","geo_score":0.486,"50%-60% free or reduced lunch":null,"60%-75% free or reduced lunch":"63%","id":"ac0nkzyr00m0","address":"155 Academy Cricle, Skowhegan, ME, 04976","75% and above":null,"geo_precision":"street","number of students":412},"type":"Feature","geometry":{"type":"Point","coordinates":[-69.444491,44.884223]}},{"properties":{"school name":"Madison Elementary","county":"Somerset","district":"Rsu 59/Msad 59","geo_score":0.604,"50%-60% free or reduced lunch":null,"60%-75% free or reduced lunch":"69%","id":"ac0nkzo7zy0w","address":"43 Learners Lane, Madison, ME, 04950","75% and above":null,"geo_precision":"zip","number of students":248},"type":"Feature","geometry":{"type":"Point","coordinates":[-69.805662,44.786404]}},{"properties":{"school name":"Madison Junior High School","county":"Somerset","district":"Rsu 59/Msad 59","geo_score":1.0,"50%-60% free or reduced lunch":null,"60%-75% free or reduced lunch":"62%","id":"ac0nkzq9uxc7","address":"205 Main Street, Madison, ME, 04950","75% and above":null,"geo_precision":"range","number of students":232},"type":"Feature","geometry":{"type":"Point","coordinates":[-69.87459,44.798306]}},{"properties":{"school name":"Carrabec Community School","county":"Somerset","district":"Rsu 74/Msad 74","geo_score":0.75,"50%-60% free or reduced lunch":null,"60%-75% free or reduced lunch":"70%","id":"ac0nl00jpj2m","address":"56 North Main Street, Anson, ME, 04911","75% and above":null,"geo_precision":"street","number of students":283},"type":"Feature","geometry":{"type":"Point","coordinates":[-69.884542,44.798093]}},{"properties":{"school name":"Carrabec High School","county":"Somerset","district":"Rsu 74/Msad 74","geo_score":0.805,"50%-60% free or reduced lunch":"57%","60%-75% free or reduced lunch":null,"id":"ac0nkznry1oo","address":"160 North Main Street, North Anson, ME, 04958","75% and above":null,"geo_precision":"range","number of students":244},"type":"Feature","geometry":{"type":"Point","coordinates":[-69.861978,44.961254]}},{"properties":{"school name":"Garret Schenck School","county":"Somerset","district":"Rsu 74/Msad 74","geo_score":0.67,"50%-60% free or reduced lunch":null,"60%-75% free or reduced lunch":null,"id":"ac0nkzscqh5s","address":"19 Ken Taylor Street, Anson, ME, 04911","75% and above":"76%","geo_precision":"range","number of students":87},"type":"Feature","geometry":{"type":"Point","coordinates":[-69.967568,44.648998]}},{"properties":{"school name":"Solon Elementary School","county":"Somerset","district":"Rsu 74/Msad 74","geo_score":1.0,"50%-60% free or reduced lunch":null,"60%-75% free or reduced lunch":"73%","id":"ac0nkzo3thoa","address":"76 South Main Street, Solon, ME, 04979","75% and above":null,"geo_precision":"range","number of students":108},"type":"Feature","geometry":{"type":"Point","coordinates":[-69.854857,44.946363]}},{"properties":{"school name":"Moscow Elementary","county":"Somerset","district":"Rsu 83/Msad 13","geo_score":0.892,"50%-60% free or reduced lunch":null,"60%-75% free or reduced lunch":"65%","id":"ac0nkzvvyxwo","address":"P.O. Box 649 Bingham, ME, 04920","75% and above":null,"geo_precision":"zip","number of students":74},"type":"Feature","geometry":{"type":"Point","coordinates":[-69.909773,45.575731]}},{"properties":{"school name":"Quimby Middle School","county":"Somerset","district":"Rsu 83/Msad 13","geo_score":0.805,"50%-60% free or reduced lunch":null,"60%-75% free or reduced lunch":"66%","id":"ac0nkzpr9v9v","address":"263 Main Street, Bingham, ME, 04920","75% and above":null,"geo_precision":"range","number of students":74},"type":"Feature","geometry":{"type":"Point","coordinates":[-69.408813,44.831934]}},{"properties":{"school name":"Upper Kennebec Valley Senior Hs","county":"Somerset","district":"Rsu 83/Msad 13","geo_score":0.561,"50%-60% free or reduced lunch":null,"60%-75% free or reduced lunch":"66%","id":"ac0nkznhvch9","address":"110 Meadow Street, Bingham, ME, 04920","75% and above":null,"geo_precision":"street","number of students":73},"type":"Feature","geometry":{"type":"Point","coordinates":[-69.681012,44.56034]}},{"properties":{"school name":"Monroe Elementary School","county":"Waldo","district":"Rsu 03/Msad 03","geo_score":1.0,"50%-60% free or reduced lunch":null,"60%-75% free or reduced lunch":null,"id":"ac0nkzu7w94x","address":"36 West Main Street, Monroe, ME, 04951","75% and above":"81%","geo_precision":"range","number of students":62},"type":"Feature","geometry":{"type":"Point","coordinates":[-69.035713,44.612258]}},{"properties":{"school name":"Morse Memorial School","county":"Waldo","district":"Rsu 03/Msad 03","geo_score":0.605,"50%-60% free or reduced lunch":null,"60%-75% free or reduced lunch":"71%","id":"ac0nkzo1bwhy","address":"27 School Street, Brooks, ME, 04921","75% and above":null,"geo_precision":"zip","number of students":119},"type":"Feature","geometry":{"type":"Point","coordinates":[-69.188374,44.497573]}},{"properties":{"school name":"Mt View Elementary School","county":"Waldo","district":"Rsu 03/Msad 03","geo_score":0.762,"50%-60% free or reduced lunch":null,"60%-75% free or reduced lunch":"72%","id":"ac0nkzmd423d","address":"573 Mount View Road, Thorndike, ME, 04986","75% and above":null,"geo_precision":"street","number of students":264},"type":"Feature","geometry":{"type":"Point","coordinates":[-69.267741,44.550231]}},{"properties":{"school name":"Mt View High School","county":"Waldo","district":"Rsu 03/Msad 03","geo_score":0.762,"50%-60% free or reduced lunch":null,"60%-75% free or reduced lunch":"64%","id":"ac0nkzvkizz8","address":"577 Mount View Road, Thorndike, ME, 04986","75% and above":null,"geo_precision":"street","number of students":447},"type":"Feature","geometry":{"type":"Point","coordinates":[-69.267741,44.550231]}},{"properties":{"school name":"Mt View Jr High School","county":"Waldo","district":"Rsu 03/Msad 03","geo_score":0.762,"50%-60% free or reduced lunch":null,"60%-75% free or reduced lunch":"70%","id":"ac0nkznq209h","address":"575 Mount View Road, Thorndike, ME, 04986","75% and above":null,"geo_precision":"street","number of students":347},"type":"Feature","geometry":{"type":"Point","coordinates":[-69.267741,44.550231]}},{"properties":{"school name":"Troy Central School","county":"Waldo","district":"Rsu 03/Msad 03","geo_score":0.615,"50%-60% free or reduced lunch":null,"60%-75% free or reduced lunch":null,"id":"ac0nkzol3v2w","address":"733 Bangor Road, Troy, ME, 04987","75% and above":"78%","geo_precision":"street","number of students":81},"type":"Feature","geometry":{"type":"Point","coordinates":[-69.514371,44.621635]}},{"properties":{"school name":"Unity Elementary School","county":"Waldo","district":"Rsu 03/Msad 03","geo_score":0.6,"50%-60% free or reduced lunch":null,"60%-75% free or reduced lunch":null,"id":"ac0nkzr5vpc6","address":"84 School Street, Unity, ME, 04988","75% and above":"85%","geo_precision":"zip","number of students":53},"type":"Feature","geometry":{"type":"Point","coordinates":[-69.357191,44.601175]}},{"properties":{"school name":"Walker Memorial School","county":"Waldo","district":"Rsu 03/Msad 03","geo_score":0.805,"50%-60% free or reduced lunch":null,"60%-75% free or reduced lunch":"69%","id":"ac0nkzxx6dxy","address":"33 West Main Street, Liberty, ME, 04949","75% and above":null,"geo_precision":"range","number of students":102},"type":"Feature","geometry":{"type":"Point","coordinates":[-68.928086,44.456963]}},{"properties":{"school name":"Ames Elementary School","county":"Waldo","district":"Rsu 20","geo_score":0.685,"50%-60% free or reduced lunch":null,"60%-75% free or reduced lunch":"63%","id":"ac0nkzoyy7je","address":"165 New England Road, Searsmont, ME, 04973","75% and above":null,"geo_precision":"street","number of students":110},"type":"Feature","geometry":{"type":"Point","coordinates":[-69.221812,44.397054]}},{"properties":{"school name":"Belfast Area High School","county":"Waldo","district":"Rsu 20","geo_score":1.0,"50%-60% free or reduced lunch":"51%","60%-75% free or reduced lunch":null,"id":"ac0nkzplxih9","address":"98 Waldo Ave, Belfast, ME, 04915","75% and above":null,"geo_precision":"range","number of students":596},"type":"Feature","geometry":{"type":"Point","coordinates":[-69.018029,44.431332]}},{"properties":{"school name":"Captain Albert W. Stevens School","county":"Waldo","district":"Rsu 20","geo_score":0.604,"50%-60% free or reduced lunch":"55%","60%-75% free or reduced lunch":null,"id":"ac0nkzvl1ts5","address":"31 Elementary Ave, Belfast, ME, 04915","75% and above":null,"geo_precision":"zip","number of students":297},"type":"Feature","geometry":{"type":"Point","coordinates":[-69.053925,44.448686]}},{"properties":{"school name":"East Belfast School","county":"Waldo","district":"Rsu 20","geo_score":0.805,"50%-60% free or reduced lunch":null,"60%-75% free or reduced lunch":"65%","id":"ac0nl010mptt","address":"14 Swan Lake Ave, Belfast, ME, 04915","75% and above":null,"geo_precision":"street","number of students":134},"type":"Feature","geometry":{"type":"Point","coordinates":[-69.001328,44.440891]}},{"properties":{"school name":"Edna Drinkwater School","county":"Waldo","district":"Rsu 20","geo_score":1.0,"50%-60% free or reduced lunch":"52%","60%-75% free or reduced lunch":null,"id":"ac0nkzuy597v","address":"56 Bayside Road, Lincolnville, ME, 04849","75% and above":null,"geo_precision":"range","number of students":101},"type":"Feature","geometry":{"type":"Point","coordinates":[-68.97696,44.381956]}},{"properties":{"school name":"Frankfort Elementary School","county":"Waldo","district":"Rsu 20","geo_score":1.0,"50%-60% free or reduced lunch":null,"60%-75% free or reduced lunch":"69%","id":"ac0nkzsq2fus","address":"112 North Searsport Road, Frankfort, ME, 04438","75% and above":null,"geo_precision":"range","number of students":81},"type":"Feature","geometry":{"type":"Point","coordinates":[-68.934042,44.610211]}},{"properties":{"school name":"Kermit S Nickerson School","county":"Waldo","district":"Rsu 20","geo_score":0.613,"50%-60% free or reduced lunch":null,"60%-75% free or reduced lunch":null,"id":"ac0nkzz8uc71","address":"18 Townhouse Road, Swanville, ME, 04915","75% and above":"87%","geo_precision":"street","number of students":84},"type":"Feature","geometry":{"type":"Point","coordinates":[-69.337773,44.518912]}},{"properties":{"school name":"Searsport District High School","county":"Waldo","district":"Rsu 20","geo_score":1.0,"50%-60% free or reduced lunch":null,"60%-75% free or reduced lunch":"64%","id":"ac0nkzpv8w9k","address":"24 Mortland Road, Searsport, ME, 04974","75% and above":null,"geo_precision":"range","number of students":182},"type":"Feature","geometry":{"type":"Point","coordinates":[-68.925556,44.484]}},{"properties":{"school name":"Searsport District Middle School","county":"Waldo","district":"Rsu 20","geo_score":1.0,"50%-60% free or reduced lunch":null,"60%-75% free or reduced lunch":"69%","id":"ac0nkzo0wncp","address":"26 Mortland Road, Searsport, ME, 04974","75% and above":null,"geo_precision":"range","number of students":166},"type":"Feature","geometry":{"type":"Point","coordinates":[-68.925545,44.483988]}},{"properties":{"school name":"Searsport Elementary","county":"Waldo","district":"Rsu 20","geo_score":1.0,"50%-60% free or reduced lunch":null,"60%-75% free or reduced lunch":"63%","id":"ac0nkzrf9gbl","address":"30 Mortland Road, Searsport, ME, 04974","75% and above":null,"geo_precision":"range","number of students":201},"type":"Feature","geometry":{"type":"Point","coordinates":[-68.925523,44.483964]}},{"properties":{"school name":"Stocksprings Elementary School","county":"Waldo","district":"Rsu 20","geo_score":0.805,"50%-60% free or reduced lunch":null,"60%-75% free or reduced lunch":"68%","id":"ac0nkzlmfjw2","address":"113 Church Street, Stockton Springs, ME, 04981","75% and above":null,"geo_precision":"range","number of students":62},"type":"Feature","geometry":{"type":"Point","coordinates":[-69.722099,44.542534]}},{"properties":{"school name":"Troy A Howard Middle School","county":"Waldo","district":"Rsu 20","geo_score":0.878,"50%-60% free or reduced lunch":"55%","60%-75% free or reduced lunch":null,"id":"ac0nkzpu1jri","address":"173 Lincolnville Avenue, Belfast, ME, 04915","75% and above":null,"geo_precision":"range","number of students":400},"type":"Feature","geometry":{"type":"Point","coordinates":[-69.016713,44.420194]}},{"properties":{"school name":"Alexander Elementary","county":"Washington","district":"Akexander School Department","geo_score":0.602,"50%-60% free or reduced lunch":null,"60%-75% free or reduced lunch":"65%","id":"ac0nkzxlkqak","address":"1430 Airline Road, Alexander, ME, 04694","75% and above":null,"geo_precision":"range","number of students":52},"type":"Feature","geometry":{"type":"Point","coordinates":[-67.498226,45.087677]}},{"properties":{"school name":"Woodland Elementary School","county":"Washington","district":"Bayville School Department","geo_score":0.561,"50%-60% free or reduced lunch":null,"60%-75% free or reduced lunch":"69%","id":"ac0nkzuf7ty6","address":"23 Fourth Ave, Baileyville, ME, 04694","75% and above":null,"geo_precision":"range","number of students":145},"type":"Feature","geometry":{"type":"Point","coordinates":[-68.428414,44.548317]}},{"properties":{"school name":"Beals Elementary School","county":"Washington","district":"Beals School Department","geo_score":0.878,"50%-60% free or reduced lunch":null,"60%-75% free or reduced lunch":"68%","id":"ac0nkzoefqu2","address":"24 Mill Pond Road, Beals, ME, 04611","75% and above":null,"geo_precision":"range","number of students":50},"type":"Feature","geometry":{"type":"Point","coordinates":[-67.617558,44.516657]}},{"properties":{"school name":"Calais Elementary School","county":"Washington","district":"Calais School Department","geo_score":1.0,"50%-60% free or reduced lunch":null,"60%-75% free or reduced lunch":"73%","id":"ac0nkzydfylo","address":"53 Garfield Street, Calais, ME, 04619","75% and above":null,"geo_precision":"range","number of students":27},"type":"Feature","geometry":{"type":"Point","coordinates":[-67.28224,45.179896]}},{"properties":{"school name":"Charlotte Elementary School","county":"Washington","district":"Charlotte School Department","geo_score":0.807,"50%-60% free or reduced lunch":"52%","60%-75% free or reduced lunch":null,"id":"ac0nkzzj4skz","address":"1006 Ayers Junction Road, Pembroke, ME, 04666","75% and above":null,"geo_precision":"street","number of students":42},"type":"Feature","geometry":{"type":"Point","coordinates":[-67.287011,45.012581]}},{"properties":{"school name":"East Range I I School","county":"Washington","district":"East Range Csd","geo_score":0.608,"50%-60% free or reduced lunch":null,"60%-75% free or reduced lunch":null,"id":"ac0nkzvs8azh","address":"187 School Street, Topsfield, ME, 04490","75% and above":"84%","geo_precision":"zip","number of students":37},"type":"Feature","geometry":{"type":"Point","coordinates":[-67.495548,45.002969]}},{"properties":{"school name":"Elm Street School-East Machias","county":"Washington","district":"East Machias School Department","geo_score":0.906,"50%-60% free or reduced lunch":null,"60%-75% free or reduced lunch":"63%","id":"ac0nkzsm3kxk","address":"P.O. Box 229, East Machias, ME, 04630","75% and above":null,"geo_precision":"zip","number of students":189},"type":"Feature","geometry":{"type":"Point","coordinates":[-67.46247,44.70746]}},{"properties":{"school name":"Eastport Elementary School","county":"Washington","district":"Eastport School Department","geo_score":0.607,"50%-60% free or reduced lunch":null,"60%-75% free or reduced lunch":"62%","id":"ac0nkzvw91fu","address":"100 High Street, Eastport, ME, 04631","75% and above":null,"geo_precision":"zip","number of students":79},"type":"Feature","geometry":{"type":"Point","coordinates":[-67.136853,45.036287]}},{"properties":{"school name":"Shead High School","county":"Washington","district":"Eastport School Department","geo_score":0.608,"50%-60% free or reduced lunch":null,"60%-75% free or reduced lunch":"72%","id":"ac0nl00c16a6","address":"89 High Street, Eastport, ME, 04631","75% and above":null,"geo_precision":"zip","number of students":116},"type":"Feature","geometry":{"type":"Point","coordinates":[-67.136853,45.036287]}},{"properties":{"school name":"Jonesport Elementary School","county":"Washington","district":"Jonesport School Department","geo_score":0.611,"50%-60% free or reduced lunch":null,"60%-75% free or reduced lunch":"68%","id":"ac0nkzy86j7z","address":"139 Snare Creek Lane, Jonesport, ME, 04649","75% and above":null,"geo_precision":"zip","number of students":122},"type":"Feature","geometry":{"type":"Point","coordinates":[-67.621105,44.528968]}},{"properties":{"school name":"Jonesboro Elementary School","county":"Washington","district":"Jonesboro School Department","geo_score":0.61,"50%-60% free or reduced lunch":null,"60%-75% free or reduced lunch":null,"id":"ac0nkzr2s9nm","address":"57 School Road, Jonesboro, ME, 04648","75% and above":"87%","geo_precision":"zip","number of students":53},"type":"Feature","geometry":{"type":"Point","coordinates":[-67.495548,45.002969]}},{"properties":{"school name":"Fort O'Brien School","county":"Washington","district":"Machiasport School Department","geo_score":0.501,"50%-60% free or reduced lunch":null,"60%-75% free or reduced lunch":null,"id":"ac0nkzx2y21c","address":"492 Port Road, Machiasport, ME, 04655","75% and above":"78%","geo_precision":"street","number of students":55},"type":"Feature","geometry":{"type":"Point","coordinates":[-68.14723,46.885405]}},{"properties":{"school name":"Jonesport-Beals High School","county":"Washington","district":"Moosabec Csd","geo_score":0.611,"50%-60% free or reduced lunch":"57%","60%-75% free or reduced lunch":null,"id":"ac0nkzshw5mt","address":"180 Snare Creek Lane, Jonesport, ME, 04649","75% and above":null,"geo_precision":"zip","number of students":58},"type":"Feature","geometry":{"type":"Point","coordinates":[-67.621105,44.528968]}},{"properties":{"school name":"Rose M Gaffney School","county":"Washington","district":"Machias School Department","geo_score":0.89,"50%-60% free or reduced lunch":"56%","60%-75% free or reduced lunch":null,"id":"ac0nkzlq3yd5","address":"99 Court Street, Machias, ME, 04654","75% and above":null,"geo_precision":"range","number of students":344},"type":"Feature","geometry":{"type":"Point","coordinates":[-67.465648,44.713852]}},{"properties":{"school name":"Pembroke Elementary School","county":"Washington","district":"Pembroke School Department","geo_score":0.399,"50%-60% free or reduced lunch":null,"60%-75% free or reduced lunch":"67%","id":"ac0nkzwhy42s","address":"36 US Route 1, Pembroke, ME, 04666","75% and above":null,"geo_precision":"street","number of students":102},"type":"Feature","geometry":{"type":"Point","coordinates":[-67.561893,44.662555]}},{"properties":{"school name":"Perry Elementary School","county":"Washington","district":"Perry School Department","geo_score":0.512,"50%-60% free or reduced lunch":"55%","60%-75% free or reduced lunch":null,"id":"ac0nkzp9lpbm","address":"1587 U. South Route 1, Perry, ME, 04667","75% and above":null,"geo_precision":"street","number of students":100},"type":"Feature","geometry":{"type":"Point","coordinates":[-67.561893,44.662555]}},{"properties":{"school name":"Beatrice Rafferty School","county":"Washington","district":"Pleasant Point","geo_score":0.902,"50%-60% free or reduced lunch":null,"60%-75% free or reduced lunch":null,"id":"ac0nkzwlw7qk","address":"22 Bayview Drive, Perry, ME, 04667","75% and above":"86%","geo_precision":"street","number of students":114},"type":"Feature","geometry":{"type":"Point","coordinates":[-67.040565,44.956917]}},{"properties":{"school name":"Princeton Elementary School","county":"Washington","district":"Princeton School Department","geo_score":0.684,"50%-60% free or reduced lunch":null,"60%-75% free or reduced lunch":"64%","id":"ac0nkzxbm8z5","address":"289 Main Street, Princeton, ME, 04668","75% and above":null,"geo_precision":"street","number of students":115},"type":"Feature","geometry":{"type":"Point","coordinates":[-67.576248,45.224909]}},{"properties":{"school name":"Robbinston Grade School","county":"Washington","district":"Robbinston School Department","geo_score":0.39,"50%-60% free or reduced lunch":null,"60%-75% free or reduced lunch":"60%","id":"ac0nkztlnwu1","address":"904 US Route 1, Robbinston, ME, 04671","75% and above":null,"geo_precision":"street","number of students":48},"type":"Feature","geometry":{"type":"Point","coordinates":[-67.561893,44.662555]}},{"properties":{"school name":"Ella Lewis School","county":"Washington","district":"Rsu 24","geo_score":0.725,"50%-60% free or reduced lunch":null,"60%-75% free or reduced lunch":"74%","id":"ac0nkzqs526g","address":"15 Old Village Road, Steuben, ME, 04680","75% and above":null,"geo_precision":"street","number of students":98},"type":"Feature","geometry":{"type":"Point","coordinates":[-67.96873,44.508655]}},{"properties":{"school name":"Cherryfield Elementary","county":"Washington","district":"Rsu 37/Msad 37","geo_score":0.612,"50%-60% free or reduced lunch":null,"60%-75% free or reduced lunch":"66%","id":"ac0nkzvxi7ew","address":"85 School Street, Cherryfield, ME, 04622","75% and above":null,"geo_precision":"zip","number of students":105},"type":"Feature","geometry":{"type":"Point","coordinates":[-67.923248,44.603258]}},{"properties":{"school name":"Daniel W Merritt School","county":"Washington","district":"Rsu 37/Msad 37","geo_score":0.398,"50%-60% free or reduced lunch":null,"60%-75% free or reduced lunch":null,"id":"ac0nkznlafbw","address":"518 Indian River Road, Addison, ME, 04606","75% and above":"75%","geo_precision":"street","number of students":148},"type":"Feature","geometry":{"type":"Point","coordinates":[-67.044401,44.958024]}},{"properties":{"school name":"Harrington Elementary School","county":"Washington","district":"Rsu 37/Msad 37","geo_score":0.616,"50%-60% free or reduced lunch":null,"60%-75% free or reduced lunch":null,"id":"ac0nkzqllhnu","address":"1227 US Hwy 1a, Harrington, ME, 04643","75% and above":"75%","geo_precision":"street","number of students":164},"type":"Feature","geometry":{"type":"Point","coordinates":[-68.555922,44.644479]}},{"properties":{"school name":"Milbridge Elementary School","county":"Washington","district":"Rsu 37/Msad 37","geo_score":1.0,"50%-60% free or reduced lunch":null,"60%-75% free or reduced lunch":null,"id":"ac0nkzq8doa2","address":"Milbridge, ME, 04658","75% and above":"77%","geo_precision":"zip","number of students":105},"type":"Feature","geometry":{"type":"Point","coordinates":[-67.495548,45.002969]}},{"properties":{"school name":"Narraguagus High School","county":"Washington","district":"Rsu 37/Msad 37","geo_score":0.61,"50%-60% free or reduced lunch":"53%","60%-75% free or reduced lunch":null,"id":"ac0nkzuir2rg","address":"1611 Main Street, Harrington, ME, 04643","75% and above":null,"geo_precision":"street","number of students":221},"type":"Feature","geometry":{"type":"Point","coordinates":[-68.335244,44.341801]}},{"properties":{"school name":"East Grand School","county":"Washington","district":"Rsu 84/ Msad 14","geo_score":0.808,"50%-60% free or reduced lunch":null,"60%-75% free or reduced lunch":null,"id":"ac0nkzvoxbef","address":"31 Houlton Road, Danforth, ME, 04424","75% and above":"85%","geo_precision":"street","number of students":158},"type":"Feature","geometry":{"type":"Point","coordinates":[-67.861288,45.669038]}},{"properties":{"school name":"Lubec Consolidated School","county":"Washington","district":"Rsu 85/Msad 19","geo_score":0.668,"50%-60% free or reduced lunch":null,"60%-75% free or reduced lunch":null,"id":"ac0nkzr50r4o","address":"44 South Street, Lubec, ME, 04652","75% and above":"92%","geo_precision":"street","number of students":93},"type":"Feature","geometry":{"type":"Point","coordinates":[-66.987766,44.856317]}},{"properties":{"school name":"Vanceboro Elementary School","county":"Washington","district":"Vanceboro School Department","geo_score":0.634,"50%-60% free or reduced lunch":null,"60%-75% free or reduced lunch":null,"id":"ac0nkzwsqpex","address":"1 High Street, Vanceboro, ME, 04491","75% and above":"86%","geo_precision":"range","number of students":14},"type":"Feature","geometry":{"type":"Point","coordinates":[-68.705575,44.844325]}},{"properties":{"school name":"Wesley Elementary School","county":"Washington","district":"Wesley School Department","geo_score":0.602,"50%-60% free or reduced lunch":null,"60%-75% free or reduced lunch":null,"id":"ac0nkzump6cm","address":"13 Whining Pines, Wesley, ME, 04686","75% and above":"100%","geo_precision":"zip","number of students":10},"type":"Feature","geometry":{"type":"Point","coordinates":[-67.495548,45.002969]}},{"properties":{"school name":"Acton Elementary School","county":"York","district":"Acton School Department","geo_score":0.902,"50%-60% free or reduced lunch":"53%","60%-75% free or reduced lunch":null,"id":"ac0nl00b4zcx","address":"700 Milton Mills Road, Acton, ME, 04001","75% and above":null,"geo_precision":"street","number of students":219},"type":"Feature","geometry":{"type":"Point","coordinates":[-70.896243,43.506394]}},{"properties":{"school name":"Biddeford Intermediate School","county":"York","district":"Biddeford School Department","geo_score":1.0,"50%-60% free or reduced lunch":"53%","60%-75% free or reduced lunch":null,"id":"ac0nkzqqja1n","address":"335 Hill Street, Biddeford, ME, 04005","75% and above":null,"geo_precision":"range","number of students":388},"type":"Feature","geometry":{"type":"Point","coordinates":[-70.4775,43.467626]}},{"properties":{"school name":"Biddeford Middle Schoool","county":"York","district":"Biddeford School Department","geo_score":0.61,"50%-60% free or reduced lunch":"50%","60%-75% free or reduced lunch":null,"id":"ac0nkzyi3dgf","address":"25 Tiger Drive, Biddeford, ME, 04005","75% and above":null,"geo_precision":"zip","number of students":614},"type":"Feature","geometry":{"type":"Point","coordinates":[-70.651859,43.532376]}},{"properties":{"school name":"Biddeford Primary School","county":"York","district":"Biddeford School Department","geo_score":1.0,"50%-60% free or reduced lunch":null,"60%-75% free or reduced lunch":"61%","id":"ac0nkzr6qefk","address":"320 Hill Street, Biddeford, ME, 04005","75% and above":null,"geo_precision":"range","number of students":580},"type":"Feature","geometry":{"type":"Point","coordinates":[-70.477641,43.467686]}},{"properties":{"school name":"John F Kennedy Memorial School","county":"York","district":"Biddeford School Department","geo_score":0.875,"50%-60% free or reduced lunch":null,"60%-75% free or reduced lunch":"64%","id":"ac0nkzn93ghb","address":"64 West Street, Biddeford, ME, 04005","75% and above":null,"geo_precision":"range","number of students":221},"type":"Feature","geometry":{"type":"Point","coordinates":[-70.463184,43.47848]}},{"properties":{"school name":"H B Emery Jr Memorial School","county":"York","district":"Rsu 06/Msad 06","geo_score":0.683,"50%-60% free or reduced lunch":null,"60%-75% free or reduced lunch":"66%","id":"ac0nkzm7z678","address":"908 Cape Road, Limington, ME, 04049","75% and above":null,"geo_precision":"range","number of students":191},"type":"Feature","geometry":{"type":"Point","coordinates":[-70.64975,43.645812]}},{"properties":{"school name":"Governor John Fairfield School","county":"York","district":"Rsu 23 Old Orchard/Dayton/Saco","geo_score":1.0,"50%-60% free or reduced lunch":"56%","60%-75% free or reduced lunch":null,"id":"ac0nkzvuktx6","address":"75 Beach Street, Saco, ME, 04072","75% and above":null,"geo_precision":"range","number of students":300},"type":"Feature","geometry":{"type":"Point","coordinates":[-70.439498,43.499656]}},{"properties":{"school name":"Cornish Elementary School","county":"York","district":"Rsu 55/Msad 55","geo_score":0.455,"50%-60% free or reduced lunch":null,"60%-75% free or reduced lunch":"66%","id":"ac0nkzoh8k0w","address":"17 School Street, Cornish, ME, 04020","75% and above":null,"geo_precision":"range","number of students":91},"type":"Feature","geometry":{"type":"Point","coordinates":[-70.654974,44.076286]}},{"properties":{"school name":"Line Elementary","county":"York","district":"Rsu 57/Msad 57","geo_score":0.807,"50%-60% free or reduced lunch":"55%","60%-75% free or reduced lunch":null,"id":"ac0nkzyk0x0x","address":"818 Water Street, West Newfield, ME, 04095","75% and above":null,"geo_precision":"street","number of students":298},"type":"Feature","geometry":{"type":"Point","coordinates":[-70.847737,43.64842]}},{"properties":{"school name":"Carl J Lamb School","county":"York","district":"Sanford School Department","geo_score":0.611,"50%-60% free or reduced lunch":null,"60%-75% free or reduced lunch":"63%","id":"ac0nkzwbewwi","address":"233 Shaws  Ridge Road, Springvale, ME, 04083","75% and above":null,"geo_precision":"street","number of students":574},"type":"Feature","geometry":{"type":"Point","coordinates":[-70.771879,43.458117]}},{"properties":{"school name":"Emerson School","county":"York","district":"Sanford School Department","geo_score":1.0,"50%-60% free or reduced lunch":null,"60%-75% free or reduced lunch":null,"id":"ac0nkzs0h8og","address":"975 Main Street, Sanford, ME, 04073","75% and above":"88%","geo_precision":"range","number of students":136},"type":"Feature","geometry":{"type":"Point","coordinates":[-70.772296,43.434971]}},{"properties":{"school name":"Lafayette School","county":"York","district":"Sanford School Department","geo_score":1.0,"50%-60% free or reduced lunch":null,"60%-75% free or reduced lunch":null,"id":"ac0nkzmy05gc","address":"69 Brook Street, Sanford, ME, 04073","75% and above":"78%","geo_precision":"range","number of students":95},"type":"Feature","geometry":{"type":"Point","coordinates":[-70.770911,43.444102]}},{"properties":{"school name":"Margaret Chase Smith Sch.-Sanford","county":"York","district":"Sanford School Department","geo_score":0.973,"50%-60% free or reduced lunch":"55%","60%-75% free or reduced lunch":null,"id":"ac0nkzrc9klz","address":"248 Twombly Road, Sanford, ME, 04073","75% and above":null,"geo_precision":"range","number of students":399},"type":"Feature","geometry":{"type":"Point","coordinates":[-70.77758,43.424551]}},{"properties":{"school name":"Sanford Jr High School","county":"York","district":"Sanford School Department","geo_score":0.878,"50%-60% free or reduced lunch":"59%","60%-75% free or reduced lunch":null,"id":"ac0nkzsfxab1","address":"708 Main Street, Sanford, ME, 04073","75% and above":null,"geo_precision":"range","number of students":487},"type":"Feature","geometry":{"type":"Point","coordinates":[-70.787503,43.44889]}},{"properties":{"school name":"Willard School","county":"York","district":"Sanford School Department","geo_score":0.722,"50%-60% free or reduced lunch":null,"60%-75% free or reduced lunch":"68%","id":"ac0nkzq3jhlu","address":"668 Main Street, Sanford, ME, 04073","75% and above":null,"geo_precision":"street","number of students":474},"type":"Feature","geometry":{"type":"Point","coordinates":[-70.788727,43.452953]}}],"is_temporal":false,"author":{"url":"","metadata":"","contact_name":"","contact_address":"","source":"","contact_phone":""},"source":"","pagination":{"sort":null,"start":0,"total":310,"limit":1000000},"state":"complete","tags":"","published":"2014-08-16T23:55:47-04:00","id":317992}