{"type":"FeatureCollection","data_type":"Dataset","url_type":null,"permissions":[{"permissions":{"download":true,"view":true},"group_id":"everyone"}],"classification":null,"title":"Philadelphia Veterinarians","count":53,"stream_id":319594,"contributor":{"url":"http://geocommons.com/users/61369","name":"rekreisler"},"data_attributes":null,"calculation_params":null,"icon_link":null,"link":"http://geocommons.com/overlays/319594.json","extent":[-75.2336,39.9185,-74.9864,40.1303],"geometry_types":["point"],"unique_name":null,"name":"Philadelphia Veterinarians","feature_count":53,"description":"","next_feature":null,"is_raster":false,"short_classification":"Y","stats":{},"features":[{"properties":{"city":"Philadelphia","zip":"19119","geo_score":0.902,"hospital name":"All Pets House Call","phone":"215-843-1780","id":"ac4b5w1gb8fo","address":"6712 Lincoln Drive","geo_precision":"range"},"type":"Feature","geometry":{"type":"Point","coordinates":[-75.192194,40.047506]}},{"properties":{"city":"Philadelphia","zip":"19124","geo_score":0.902,"hospital name":"Animal &amp; Bird Clinic","phone":"215-533-3726","id":"ac4b5w1kp4ek","address":"5542 Torresdale Avenue","geo_precision":"range"},"type":"Feature","geometry":{"type":"Point","coordinates":[-75.063442,40.015571]}},{"properties":{"city":"Philadelphia","zip":"19148","geo_score":0.902,"hospital name":"Animal &amp; Bird Clinic","phone":"215-336-7727","id":"ac4b5w197hyu","address":"1602 East Passyunk Avenue","geo_precision":"range"},"type":"Feature","geometry":{"type":"Point","coordinates":[-75.164901,39.928813]}},{"properties":{"city":"Philadelphia","zip":"19147","geo_score":0.837,"hospital name":"Animal Medical Clinic","phone":"215-463-1160","id":"ac4b5w58fiea","address":"1401 South 13th Street","geo_precision":"range"},"type":"Feature","geometry":{"type":"Point","coordinates":[-75.165799,39.932215]}},{"properties":{"city":"Philadelphia","zip":"19145","geo_score":0.902,"hospital name":"Banfield at PetSmart","phone":"215-952-0785","id":"ac4b5vz9qu9y","address":"2360 Oregon Avenue","geo_precision":"range"},"type":"Feature","geometry":{"type":"Point","coordinates":[-75.185563,39.918512]}},{"properties":{"city":"Philadelphia","zip":"19116","geo_score":0.902,"hospital name":"Banfield at PetSmart","phone":"215-698-8320","id":"ac4b5w8i87m0","address":"11000 Roosevelt BLVD","geo_precision":"range"},"type":"Feature","geometry":{"type":"Point","coordinates":[-75.007969,40.100671]}},{"properties":{"city":"Philadelphia","zip":"19115","geo_score":0.902,"hospital name":"Boulevard Animal Hospital","phone":"215-969-1050","id":"ac4b5w9bo3k1","address":"1913 Grant Avenue","geo_precision":"range"},"type":"Feature","geometry":{"type":"Point","coordinates":[-75.033941,40.083716]}},{"properties":{"city":"Philadelphia","zip":"19136","geo_score":0.902,"hospital name":"Bree's Animal Hospital","phone":"215-338-3219","id":"ac4b5w61pt55","address":"7436 Frankford Avenue","geo_precision":"range"},"type":"Feature","geometry":{"type":"Point","coordinates":[-75.036998,40.038243]}},{"properties":{"city":"Philadelphia","zip":"19141","geo_score":0.902,"hospital name":"Broad Street Animal Hospital","phone":"215-424-2470","id":"ac4b5w41zvgz","address":"5905 North Broad Street","geo_precision":"range"},"type":"Feature","geometry":{"type":"Point","coordinates":[-75.143483,40.044352]}},{"properties":{"city":"Philadelphia","zip":"19127","geo_score":0.902,"hospital name":"Caring for Cats","phone":"215-509-6060","id":"ac4b5w1m3dbk","address":"100 Leverington Avenue","geo_precision":"range"},"type":"Feature","geometry":{"type":"Point","coordinates":[-75.229674,40.029453]}},{"properties":{"city":"Philadelphia","zip":"19149","geo_score":0.902,"hospital name":"Castor Animal Clinic","phone":"215-722-4100","id":"ac4b5w6wrg3g","address":"6737 Castor Avenue","geo_precision":"range"},"type":"Feature","geometry":{"type":"Point","coordinates":[-75.073526,40.043286]}},{"properties":{"city":"Philadelphia","zip":"19130","geo_score":0.837,"hospital name":"The Cat Doctor","phone":"215-561-7668","id":"ac4b5vz79pcc","address":"535 North 22nd Street","geo_precision":"range"},"type":"Feature","geometry":{"type":"Point","coordinates":[-75.174304,39.964295]}},{"properties":{"city":"Philadelphia","zip":"19146","geo_score":0.756,"hospital name":"Cat Vet of South Street","phone":"215-545-2287","id":"ac4b5vwmh4cc","address":"2210 South Street","geo_precision":"range"},"type":"Feature","geometry":{"type":"Point","coordinates":[-75.179357,39.945292]}},{"properties":{"city":"Philadelphia","zip":"19144","geo_score":0.902,"hospital name":"Chelwayne Animal Hospital","phone":"215-843-5952","id":"ac4b5w4jcpz2","address":"5524 Wayne Avenue","geo_precision":"range"},"type":"Feature","geometry":{"type":"Point","coordinates":[-75.178871,40.031612]}},{"properties":{"city":"Philadelphia","zip":"19126","geo_score":0.683,"hospital name":"Cheltenham Animal Hospital","phone":"215-927-2630","id":"ac4b5w471n9b","address":"1728 West Cheltenham Avenue","geo_precision":"range"},"type":"Feature","geometry":{"type":"Point","coordinates":[-75.145441,40.066901]}},{"properties":{"city":"Philadelphia","zip":"19118","geo_score":0.902,"hospital name":"Chestnut Hill Cat Clinic","phone":"215-247-9560","id":"ac4b5w703k85","address":"8220 Germantown Avenue","geo_precision":"range"},"type":"Feature","geometry":{"type":"Point","coordinates":[-75.203243,40.073737]}},{"properties":{"city":"Philadelphia","zip":"19114","geo_score":0.902,"hospital name":"Compassion Vet Clinic","phone":"215-699-1727","id":"ac4b5w7poj86","address":"9324 State Road","geo_precision":"range"},"type":"Feature","geometry":{"type":"Point","coordinates":[-74.991287,40.047878]}},{"properties":{"city":"Philadelphia","zip":"19111","geo_score":0.902,"hospital name":"Cottman Animal Hospital","phone":"215-745-9030","id":"ac4b5wa4m7dq","address":"1012 Cottman Avenue","geo_precision":"range"},"type":"Feature","geometry":{"type":"Point","coordinates":[-75.083225,40.061022]}},{"properties":{"city":"Philadelphia","zip":"19114","geo_score":0.902,"hospital name":"Delair Vet Clinic","phone":"215-632-4350","id":"ac4b5w2k55qy","address":"9324 State Road","geo_precision":"range"},"type":"Feature","geometry":{"type":"Point","coordinates":[-74.991287,40.047878]}},{"properties":{"city":"Philadelphia","zip":"19142","geo_score":0.902,"hospital name":"Elmwood Central Animal Hospital","phone":"215-724-8808","id":"ac4b5w3p3ig6","address":"6206 Elmwood Avenue","geo_precision":"range"},"type":"Feature","geometry":{"type":"Point","coordinates":[-75.226715,39.924673]}},{"properties":{"city":"Philadelphia","zip":"19130","geo_score":0.902,"hospital name":"Fairmount Animal Hospital","phone":"215-684-1439","id":"ac4b5vy8asdm","address":"2315 Fairmount Avenue","geo_precision":"range"},"type":"Feature","geometry":{"type":"Point","coordinates":[-75.176835,39.967443]}},{"properties":{"city":"Philadelphia","zip":"19124","geo_score":0.902,"hospital name":"Frankford Animal Clinic","phone":"215-289-1146","id":"ac4b5w1pug0t","address":"4829 Leiper Street","geo_precision":"range"},"type":"Feature","geometry":{"type":"Point","coordinates":[-75.083883,40.020358]}},{"properties":{"city":"Philadelphia","zip":"19119","geo_score":0.902,"hospital name":"Germantown Animal Hospital","phone":"215-843-6282","id":"ac4b5w79p01x","address":"6843 Germantown Avenue","geo_precision":"range"},"type":"Feature","geometry":{"type":"Point","coordinates":[-75.187168,40.055342]}},{"properties":{"city":"Philadelphia","zip":"19144","geo_score":0.805,"hospital name":"Greene Street Animal Clinic","phone":"215-232-0831","id":"ac4b5wcqj5l3","address":"2806 West Girard Avenue","geo_precision":"range"},"type":"Feature","geometry":{"type":"Point","coordinates":[-75.183403,39.974478]}},{"properties":{"city":"Philadelphia","zip":"19130","geo_score":0.902,"hospital name":"Girard Veterinary Clinic","phone":"215-849-0111","id":"ac4b5w2i0aj5","address":"2806 W Girard Ave","geo_precision":"range"},"type":"Feature","geometry":{"type":"Point","coordinates":[-75.183403,39.974478]}},{"properties":{"city":"Philadelphia","zip":"19127","geo_score":0.902,"hospital name":"Main Street Animal Clinic","phone":"215-487-1037","id":"ac4b5vytgylj","address":"4331 Main Street","geo_precision":"range"},"type":"Feature","geometry":{"type":"Point","coordinates":[-75.222975,40.025227]}},{"properties":{"city":"Philadelphia","zip":"19149","geo_score":0.902,"hospital name":"Mayfair Animal Clinic","phone":"215-332-9070","id":"ac4b5w52w06i","address":"2900 Hellerman Street","geo_precision":"range"},"type":"Feature","geometry":{"type":"Point","coordinates":[-75.060479,40.031901]}},{"properties":{"city":"Philadelphia","zip":"19119","geo_score":0.848,"hospital name":"Mt. Airy Animal Hospital","phone":"215-248-1886","id":"ac4b5wca4z82","address":"114 E Mt Airy Ave","geo_precision":"range"},"type":"Feature","geometry":{"type":"Point","coordinates":[-75.188733,40.062195]}},{"properties":{"city":"Philadelphia","zip":"19154","geo_score":0.902,"hospital name":"NGAP","phone":"215-331-7918","id":"ac4b5vydei0x","address":"10901 Dutton Road","geo_precision":"range"},"type":"Feature","geometry":{"type":"Point","coordinates":[-74.986435,40.091743]}},{"properties":{"city":"Philadelphia","zip":"19120","geo_score":0.805,"hospital name":"Noah's Ark Animal Hospital","phone":"215-624-7766","id":"ac4b5w3k9aup","address":"7414 Frankford Avenue","geo_precision":"range"},"type":"Feature","geometry":{"type":"Point","coordinates":[-75.037314,40.038122]}},{"properties":{"city":"Philadelphia","zip":"19120","geo_score":0.902,"hospital name":"Northeast Animal Clinic","phone":"215-457-7711","id":"ac4b5w3qcaeb","address":"4956 Rising Sun Avenue","geo_precision":"range"},"type":"Feature","geometry":{"type":"Point","coordinates":[-75.121843,40.026154]}},{"properties":{"city":"Philadelphia","zip":"19135","geo_score":0.902,"hospital name":"Northeast Animal Hospital","phone":"215-624-8433","id":"ac4b5w4y9fc9","address":"6503 Frankford Avenue","geo_precision":"range"},"type":"Feature","geometry":{"type":"Point","coordinates":[-75.055643,40.029747]}},{"properties":{"city":"Philadelphia","zip":"19104","geo_score":0.902,"hospital name":"O'Neal Animal Hospital","phone":"215-386-3293","id":"ac4b5w1op6j1","address":"4424 Market Street","geo_precision":"range"},"type":"Feature","geometry":{"type":"Point","coordinates":[-75.210779,39.958157]}},{"properties":{"city":"Philadelphia","zip":"19134","geo_score":0.902,"hospital name":"PA SPCA","phone":"215-426-6300","id":"ac4b5vxikcxt","address":"350 East Erie Avenue","geo_precision":"range"},"type":"Feature","geometry":{"type":"Point","coordinates":[-75.12273,40.00706]}},{"properties":{"city":"Philadelphia","zip":"19134","geo_score":0.902,"hospital name":"Pet Health Center","phone":"215-739-6401","id":"ac4b5vzthp66","address":"3365 Frankford Avenue","geo_precision":"range"},"type":"Feature","geometry":{"type":"Point","coordinates":[-75.106615,39.994573]}},{"properties":{"city":"Philadelphia","zip":"19148","geo_score":0.902,"hospital name":"Pet Vet Clinic Passyunk","phone":"215-271-2800","id":"ac4b5wc62oaj","address":"1602 East Passyunk Avenue","geo_precision":"range"},"type":"Feature","geometry":{"type":"Point","coordinates":[-75.164901,39.928813]}},{"properties":{"city":"Philadelphia","zip":"19124","geo_score":0.848,"hospital name":"PetSmart","phone":"215-743-9602","id":"ac4b5w5i2idm","address":"4640-60 East Roosevelt Avenue","geo_precision":"range"},"type":"Feature","geometry":{"type":"Point","coordinates":[-75.099504,40.028635]}},{"properties":{"city":"Philadelphia","zip":"19142","geo_score":0.902,"hospital name":"Philadelphia Animal Hospital","phone":"215-724-5550","id":"ac4b5wclw73n","address":"6401-39 Lindbergh BLVD","geo_precision":"range"},"type":"Feature","geometry":{"type":"Point","coordinates":[-75.225453,39.919129]}},{"properties":{"city":"Philadelphia","zip":"19147","geo_score":0.902,"hospital name":"Queen Village Animal Clinic","phone":"215-925-5753","id":"ac4b5vxqfcle","address":"323 Bainbridge Street","geo_precision":"range"},"type":"Feature","geometry":{"type":"Point","coordinates":[-75.14927,39.940792]}},{"properties":{"city":"Philadelphia","zip":"19146","geo_score":0.837,"hospital name":"Radbill Animal Center","phone":"215-732-7321","id":"ac4b5w40fm36","address":"408 South 20th Street","geo_precision":"range"},"type":"Feature","geometry":{"type":"Point","coordinates":[-75.174748,39.946632]}},{"properties":{"city":"Philadelphia","zip":"19116","geo_score":0.902,"hospital name":"Radbill Animal Hospital Northeast","phone":"215-969-8950","id":"ac4b5vzgav6p","address":"11900 Bustleton Avenue","geo_precision":"range"},"type":"Feature","geometry":{"type":"Point","coordinates":[-75.017315,40.119934]}},{"properties":{"city":"Philadelphia","zip":"19152","geo_score":0.902,"hospital name":"Rhawnhurst Animal Hospital","phone":"215-333-8888","id":"ac4b5w5ee2v8","address":"7905 Bustleton Avenue","geo_precision":"range"},"type":"Feature","geometry":{"type":"Point","coordinates":[-75.052808,40.057585]}},{"properties":{"city":"Philadelphia","zip":"19103","geo_score":0.902,"hospital name":"Rittenhouse Animal Hospital","phone":"215-732-9909","id":"ac4b5vx8yacs","address":"1618 Pine Street","geo_precision":"range"},"type":"Feature","geometry":{"type":"Point","coordinates":[-75.169291,39.946015]}},{"properties":{"city":"Philadelphia","zip":"19128","geo_score":0.902,"hospital name":"Roxborough Animal Hospital","phone":"215-482-3037","id":"ac4b5w4sourh","address":"6712 Ridge Avenue","geo_precision":"range"},"type":"Feature","geometry":{"type":"Point","coordinates":[-75.224942,40.040677]}},{"properties":{"city":"Philadelphia","zip":"19145","geo_score":0.902,"hospital name":"Simmons Animal Hospital","phone":"215-468-2814","id":"ac4b5w6a1m4u","address":"1500 Wolf St","geo_precision":"range"},"type":"Feature","geometry":{"type":"Point","coordinates":[-75.172457,39.922179]}},{"properties":{"city":"Philadelphia","zip":"19147","geo_score":0.829,"hospital name":"Society Hill Animal Hospital","phone":"215-627-5955","id":"ac4b5vwf9fi0","address":"501 South 2nd Street","geo_precision":"range"},"type":"Feature","geometry":{"type":"Point","coordinates":[-75.145674,39.941755]}},{"properties":{"city":"Philadelphia","zip":"19116","geo_score":0.902,"hospital name":"Somerton Animal Hospital","phone":"215-673-1417","id":"ac4b5w15r5y6","address":"13400 Philmont Avenue","geo_precision":"range"},"type":"Feature","geometry":{"type":"Point","coordinates":[-75.017444,40.130314]}},{"properties":{"city":"Philadelphia","zip":"19136","geo_score":0.902,"hospital name":"Terry Animal Hospital","phone":"215-624-6095","id":"ac4b5w18ixrg","address":"3606 Welsh Road","geo_precision":"range"},"type":"Feature","geometry":{"type":"Point","coordinates":[-75.025715,40.04235]}},{"properties":{"city":"Philadelphia","zip":"19103","geo_score":0.837,"hospital name":"VCA Cat Hospital of Philadelphia","phone":"215-567-6446","id":"ac4b5w1rt3qz","address":"226 South 20th Street","geo_precision":"range"},"type":"Feature","geometry":{"type":"Point","coordinates":[-75.174124,39.949525]}},{"properties":{"city":"Philadelphia","zip":"19154","geo_score":0.488,"hospital name":"VCA Knightswood Animal Hospital","phone":"215-632-2525","id":"ac4b5w1zudiq","address":"12121 Knights Rd","geo_precision":"zip"},"type":"Feature","geometry":{"type":"Point","coordinates":[-75.018265,40.084017]}},{"properties":{"city":"Philadelphia","zip":"19128","geo_score":0.902,"hospital name":"Wissahickon Creek Animal Hospital","phone":"215-483-0660","id":"ac4b5w1xphe6","address":"7376 Ridge Avenue","geo_precision":"range"},"type":"Feature","geometry":{"type":"Point","coordinates":[-75.233615,40.046205]}},{"properties":{"city":"Philadelphia","zip":"19135","geo_score":0.902,"hospital name":"World Wide Animal Hospital","phone":"215-331-2300","id":"ac4b5w2l5jkf","address":"6801 Frankford Avenue","geo_precision":"range"},"type":"Feature","geometry":{"type":"Point","coordinates":[-75.04991,40.03261]}},{"properties":{"city":"Philadelphia","zip":"19138","geo_score":0.902,"hospital name":"Wyncote Animal Hospital","phone":"215-224-2764","id":"ac4b5w6irqfd","address":"6701 Wyncote Avenue","geo_precision":"range"},"type":"Feature","geometry":{"type":"Point","coordinates":[-75.150922,40.057359]}}],"is_temporal":false,"author":{"url":"","metadata":"","contact_name":"","contact_address":"","source":"","contact_phone":""},"source":"","pagination":{"sort":null,"start":0,"total":53,"limit":1000000},"state":"complete","tags":"","published":"2013-02-10T17:00:00Z","id":319594}