{"type":"FeatureCollection","data_type":"Dataset","url_type":null,"permissions":[{"permissions":{"download":true,"view":true},"group_id":"everyone"}],"classification":null,"title":"alldr","count":327,"stream_id":321275,"contributor":{"url":"http://geocommons.com/users/61684","name":"jraybin@watkins.edu"},"data_attributes":null,"calculation_params":null,"icon_link":null,"link":"http://geocommons.com/overlays/321275.json","extent":[-156.648,25.5584,-71.4798,58.2687],"geometry_types":["point"],"unique_name":null,"name":"alldr","feature_count":327,"description":"","next_feature":null,"is_raster":false,"short_classification":"Y","stats":{},"features":[{"properties":{"city":"Nolensville","zip":"37135","geo_score":0.857,"id":"ac6xr4ophrqr","geo_precision":"zip","state":"TN"},"type":"Feature","geometry":{"type":"Point","coordinates":[-86.675349,35.925201]}},{"properties":{"city":"Franklin","zip":"37069","geo_score":0.857,"id":"ac6xr4xzq7lb","geo_precision":"zip","state":"TN"},"type":"Feature","geometry":{"type":"Point","coordinates":[-86.910623,35.979553]}},{"properties":{"city":"Knoxville","zip":"37931","geo_score":0.857,"id":"ac6xr4nb9bk6","geo_precision":"zip","state":"TN"},"type":"Feature","geometry":{"type":"Point","coordinates":[-84.125653,35.976167]}},{"properties":{"city":"Brentwood","zip":"37027","geo_score":0.714,"id":"ac6xr4z483wp","geo_precision":"zip","state":"TN"},"type":"Feature","geometry":{"type":"Point","coordinates":[-86.816058,35.982981]}},{"properties":{"city":"Nashville","zip":"37206","geo_score":0.857,"id":"ac6xr4n7l0o2","geo_precision":"zip","state":"TN"},"type":"Feature","geometry":{"type":"Point","coordinates":[-86.73575,36.180143]}},{"properties":{"city":"Lebanon","zip":"37087","geo_score":0.857,"id":"ac6xr4w8w64t","geo_precision":"zip","state":"TN"},"type":"Feature","geometry":{"type":"Point","coordinates":[-86.199712,36.275608]}},{"properties":{"city":"Kansas CIty","zip":"66112","geo_score":0.714,"id":"ac6xr4nojqbd","geo_precision":"zip","state":"KS"},"type":"Feature","geometry":{"type":"Point","coordinates":[-94.765822,39.116953]}},{"properties":{"city":"Decatur","zip":"62526","geo_score":0.714,"id":"ac6xr4sg4apv","geo_precision":"zip","state":"IL"},"type":"Feature","geometry":{"type":"Point","coordinates":[-88.938244,39.858284]}},{"properties":{"city":"San Antonio","zip":"78227","geo_score":0.714,"id":"ac6xr4scpjwv","geo_precision":"zip","state":"TX"},"type":"Feature","geometry":{"type":"Point","coordinates":[-98.625548,29.401583]}},{"properties":{"city":"Madison","zip":"27025","geo_score":0.714,"id":"ac6xr4ohkblq","geo_precision":"zip","state":"NC"},"type":"Feature","geometry":{"type":"Point","coordinates":[-79.977818,36.332637]}},{"properties":{"city":"Springfield","zip":"37172","geo_score":0.714,"id":"ac6xr4yhpumg","geo_precision":"zip","state":"TN"},"type":"Feature","geometry":{"type":"Point","coordinates":[-86.888887,36.5431]}},{"properties":{"city":"Franklin","zip":"37064","geo_score":0.714,"id":"ac6xr4rk0gvi","geo_precision":"zip","state":"TN"},"type":"Feature","geometry":{"type":"Point","coordinates":[-87.079172,35.954508]}},{"properties":{"city":"Eight Mile","zip":"36613","geo_score":0.857,"id":"ac6xr51pbpu3","geo_precision":"zip","state":"AL"},"type":"Feature","geometry":{"type":"Point","coordinates":[-88.181948,30.85713]}},{"properties":{"city":"Smyrna","zip":"37167","geo_score":0.714,"id":"ac6xr50sjnvy","geo_precision":"zip","state":"TN"},"type":"Feature","geometry":{"type":"Point","coordinates":[-86.494993,36.006452]}},{"properties":{"city":"Fayetteville","zip":"37334","geo_score":0.714,"id":"ac6xr4o5jhgs","geo_precision":"zip","state":"TN"},"type":"Feature","geometry":{"type":"Point","coordinates":[-86.588607,35.09064]}},{"properties":{"city":"Nashville","zip":"37216","geo_score":0.714,"id":"ac6xr4pk3e8w","geo_precision":"zip","state":"TN"},"type":"Feature","geometry":{"type":"Point","coordinates":[-86.723997,36.204255]}},{"properties":{"city":"Nashville","zip":"37211","geo_score":0.714,"id":"ac6xr4v5apnb","geo_precision":"zip","state":"TN"},"type":"Feature","geometry":{"type":"Point","coordinates":[-82.758763,36.175103]}},{"properties":{"city":"Hendersonville","zip":"37075","geo_score":0.857,"id":"ac6xr51moaw3","geo_precision":"zip","state":"TN"},"type":"Feature","geometry":{"type":"Point","coordinates":[-86.101377,36.36894]}},{"properties":{"city":"Athens","zip":"37303","geo_score":0.714,"id":"ac6xr4z9shzn","geo_precision":"zip","state":"TN"},"type":"Feature","geometry":{"type":"Point","coordinates":[-84.559377,35.362851]}},{"properties":{"city":"Antioch","zip":"37013","geo_score":0.714,"id":"ac6xr4uq3igc","geo_precision":"zip","state":"TN"},"type":"Feature","geometry":{"type":"Point","coordinates":[-86.645598,36.036032]}},{"properties":{"city":"Lewisburg","zip":"37091","geo_score":0.714,"id":"ac6xr4zi7pg0","geo_precision":"zip","state":"TN"},"type":"Feature","geometry":{"type":"Point","coordinates":[-86.779444,35.460907]}},{"properties":{"city":"Franklin","zip":"37067","geo_score":0.714,"id":"ac6xr4pix1pl","geo_precision":"zip","state":"TN"},"type":"Feature","geometry":{"type":"Point","coordinates":[-86.765537,35.912072]}},{"properties":{"city":"Hendersonville","zip":"37075","geo_score":0.714,"id":"ac6xr4tk2o9q","geo_precision":"zip","state":"TN"},"type":"Feature","geometry":{"type":"Point","coordinates":[-86.101377,36.36894]}},{"properties":{"city":"Louisville","zip":"40245","geo_score":0.714,"id":"ac6xr4tm276p","geo_precision":"zip","state":"KY"},"type":"Feature","geometry":{"type":"Point","coordinates":[-85.475021,38.258384]}},{"properties":{"city":"Corpus Christi","zip":"78413","geo_score":0.857,"id":"ac6xr4nzmech","geo_precision":"zip","state":"TX"},"type":"Feature","geometry":{"type":"Point","coordinates":[-97.40242,27.675937]}},{"properties":{"city":"Indian Land","zip":"29707","geo_score":0.714,"id":"ac6xr531zlgl","geo_precision":"city","state":"SC"},"type":"Feature","geometry":{"type":"Point","coordinates":[-81.022816,34.775302]}},{"properties":{"city":"Normal","zip":"61761","geo_score":0.714,"id":"ac6xr4y8fej6","geo_precision":"zip","state":"IL"},"type":"Feature","geometry":{"type":"Point","coordinates":[-88.7989,40.530375]}},{"properties":{"city":"Knoxville","zip":"37923","geo_score":0.714,"id":"ac6xr4us4dsm","geo_precision":"zip","state":"TN"},"type":"Feature","geometry":{"type":"Point","coordinates":[-84.082405,35.924795]}},{"properties":{"city":"Brentwood","zip":"37027","geo_score":0.714,"id":"ac6xr4nod3y4","geo_precision":"zip","state":"TN"},"type":"Feature","geometry":{"type":"Point","coordinates":[-86.816058,35.982981]}},{"properties":{"city":"St. Louis","zip":"63116","geo_score":0.857,"id":"ac6xr4p0lf54","geo_precision":"zip","state":"MO"},"type":"Feature","geometry":{"type":"Point","coordinates":[-90.268563,38.581401]}},{"properties":{"city":"Clintondale","zip":"12515","geo_score":0.714,"id":"ac6xr534ufgl","geo_precision":"zip","state":"NY"},"type":"Feature","geometry":{"type":"Point","coordinates":[-74.072643,41.675927]}},{"properties":{"city":"Belleville","zip":"62220","geo_score":0.714,"id":"ac6xr4o29clk","geo_precision":"zip","state":"IL"},"type":"Feature","geometry":{"type":"Point","coordinates":[-89.973877,38.46435]}},{"properties":{"city":"Jonesboro","zip":"62952","geo_score":0.714,"id":"ac6xr4u3ih0n","geo_precision":"zip","state":"IL"},"type":"Feature","geometry":{"type":"Point","coordinates":[-89.266574,37.422793]}},{"properties":{"city":"Ripley","zip":"38063","geo_score":0.714,"id":"ac6xr4spzei6","geo_precision":"zip","state":"TN"},"type":"Feature","geometry":{"type":"Point","coordinates":[-89.415628,35.73841]}},{"properties":{"city":"Decatur","zip":"30034","geo_score":0.714,"id":"ac6xr523ca5o","geo_precision":"zip","state":"GA"},"type":"Feature","geometry":{"type":"Point","coordinates":[-84.251171,33.690757]}},{"properties":{"city":"Hampton","zip":"23669","geo_score":0.857,"id":"ac6xr518qi2n","geo_precision":"zip","state":"VA"},"type":"Feature","geometry":{"type":"Point","coordinates":[-76.353866,37.045715]}},{"properties":{"city":"Gordonsville","zip":"22942","geo_score":0.714,"id":"ac6xr4uiqscu","geo_precision":"zip","state":"VA"},"type":"Feature","geometry":{"type":"Point","coordinates":[-78.219726,37.970974]}},{"properties":{"city":"Amarillo","zip":"79108","geo_score":0.714,"id":"ac6xr4pixyd6","geo_precision":"zip","state":"TX"},"type":"Feature","geometry":{"type":"Point","coordinates":[-101.772258,35.293191]}},{"properties":{"city":"Hendersonville","zip":"37075","geo_score":0.714,"id":"ac6xr4wh9xpw","geo_precision":"zip","state":"TN"},"type":"Feature","geometry":{"type":"Point","coordinates":[-86.101377,36.36894]}},{"properties":{"city":"Kansas City","zip":"66109","geo_score":0.714,"id":"ac6xr4xavh3g","geo_precision":"zip","state":"KS"},"type":"Feature","geometry":{"type":"Point","coordinates":[-94.817719,39.143692]}},{"properties":{"city":"Knoxville","zip":"37922","geo_score":0.714,"id":"ac6xr5372uh5","geo_precision":"zip","state":"TN"},"type":"Feature","geometry":{"type":"Point","coordinates":[-84.165471,35.870079]}},{"properties":{"city":"Maumelle","zip":"72113","geo_score":0.714,"id":"ac6xr4y6yrft","geo_precision":"zip","state":"AR"},"type":"Feature","geometry":{"type":"Point","coordinates":[-92.390298,34.857241]}},{"properties":{"city":"Madison","zip":"37115","geo_score":0.714,"id":"ac6xr4v9jwk9","geo_precision":"zip","state":"TN"},"type":"Feature","geometry":{"type":"Point","coordinates":[-86.706296,36.259503]}},{"properties":{"city":"Grove City","zip":"43123","geo_score":0.714,"id":"ac6xr4zc31ev","geo_precision":"zip","state":"OH"},"type":"Feature","geometry":{"type":"Point","coordinates":[-83.086853,39.897563]}},{"properties":{"city":"Antioch","zip":"37013","geo_score":0.714,"id":"ac6xr4w0gp02","geo_precision":"zip","state":"TN"},"type":"Feature","geometry":{"type":"Point","coordinates":[-86.645598,36.036032]}},{"properties":{"city":"Pontotoc","zip":"38863","geo_score":0.714,"id":"ac6xr52xq9gx","geo_precision":"zip","state":"MS"},"type":"Feature","geometry":{"type":"Point","coordinates":[-89.08451,34.302327]}},{"properties":{"city":"Hermitage","zip":"37076","geo_score":0.714,"id":"ac6xr4py7k4g","geo_precision":"zip","state":"TN"},"type":"Feature","geometry":{"type":"Point","coordinates":[-86.633052,36.201444]}},{"properties":{"city":"Nashville","zip":"37211","geo_score":0.714,"id":"ac6xr4w06y5e","geo_precision":"zip","state":"TN"},"type":"Feature","geometry":{"type":"Point","coordinates":[-82.758763,36.175103]}},{"properties":{"city":"Ripley","zip":"38063","geo_score":0.714,"id":"ac6xr50h0ayx","geo_precision":"zip","state":"TN"},"type":"Feature","geometry":{"type":"Point","coordinates":[-89.415628,35.73841]}},{"properties":{"city":"Charlotte","zip":"37036","geo_score":0.714,"id":"ac6xr4q5ge11","geo_precision":"zip","state":"TN"},"type":"Feature","geometry":{"type":"Point","coordinates":[-87.188894,36.275888]}},{"properties":{"city":"Arlington","zip":"38002","geo_score":0.714,"id":"ac6xr4z18ghd","geo_precision":"zip","state":"TN"},"type":"Feature","geometry":{"type":"Point","coordinates":[-89.760638,35.321197]}},{"properties":{"city":"Millington","zip":"38053","geo_score":0.714,"id":"ac6xr4s57k8q","geo_precision":"zip","state":"TN"},"type":"Feature","geometry":{"type":"Point","coordinates":[-89.982311,35.273143]}},{"properties":{"city":"Huntsville","zip":"35803","geo_score":0.714,"id":"ac6xr4wgrx5a","geo_precision":"zip","state":"AL"},"type":"Feature","geometry":{"type":"Point","coordinates":[-86.534712,34.537036]}},{"properties":{"city":"Clarksville","zip":"37043","geo_score":0.714,"id":"ac6xr4yosqgz","geo_precision":"zip","state":"TN"},"type":"Feature","geometry":{"type":"Point","coordinates":[-87.218617,36.439772]}},{"properties":{"city":"Miami","zip":"33269","geo_score":0.714,"id":"ac6xr4uk25u3","geo_precision":"zip","state":"FL"},"type":"Feature","geometry":{"type":"Point","coordinates":[-80.458168,25.558428]}},{"properties":{"city":"Oak Lawn","zip":"60453","geo_score":0.714,"id":"ac6xr4x0ucue","geo_precision":"zip","state":"IL"},"type":"Feature","geometry":{"type":"Point","coordinates":[-87.68732,41.811929]}},{"properties":{"city":"Glen Carbon","zip":"62034","geo_score":0.714,"id":"ac6xr50ppgsm","geo_precision":"zip","state":"IL"},"type":"Feature","geometry":{"type":"Point","coordinates":[-90.023867,38.810731]}},{"properties":{"city":"Hendersonvile","zip":"37075","geo_score":0.714,"id":"ac6xr501ksf7","geo_precision":"zip","state":"TN"},"type":"Feature","geometry":{"type":"Point","coordinates":[-86.101377,36.36894]}},{"properties":{"city":"Carrollton","zip":"75006","geo_score":0.714,"id":"ac6xr4zd2rv7","geo_precision":"zip","state":"TX"},"type":"Feature","geometry":{"type":"Point","coordinates":[-96.777626,32.767268]}},{"properties":{"city":"Louisville","zip":"40216","geo_score":0.714,"id":"ac6xr4z91bbp","geo_precision":"zip","state":"KY"},"type":"Feature","geometry":{"type":"Point","coordinates":[-85.833463,38.186519]}},{"properties":{"city":"Jeffersonville","zip":"47130","geo_score":0.714,"id":"ac6xr50pgsfb","geo_precision":"zip","state":"IN"},"type":"Feature","geometry":{"type":"Point","coordinates":[-85.746074,38.34979]}},{"properties":{"city":"Nashville","zip":"37206","geo_score":0.714,"id":"ac6xr4wqt7ng","geo_precision":"zip","state":"TN"},"type":"Feature","geometry":{"type":"Point","coordinates":[-86.73575,36.180143]}},{"properties":{"city":"Portland","zip":"32712","geo_score":0.714,"id":"ac6xr4ni8bo1","geo_precision":"zip","state":"TN"},"type":"Feature","geometry":{"type":"Point","coordinates":[-81.537602,28.731322]}},{"properties":{"city":"Nashville","zip":"37204","geo_score":0.714,"id":"ac6xr4oigada","geo_precision":"zip","state":"TN"},"type":"Feature","geometry":{"type":"Point","coordinates":[-86.850099,36.119294]}},{"properties":{"city":"Nashville","zip":"37013","geo_score":0.714,"id":"ac6xr4yvcp14","geo_precision":"zip","state":"TN"},"type":"Feature","geometry":{"type":"Point","coordinates":[-86.645598,36.036032]}},{"properties":{"city":"Riverton","zip":"82501","geo_score":0.857,"id":"ac6xr4tzw065","geo_precision":"zip","state":"WY"},"type":"Feature","geometry":{"type":"Point","coordinates":[-108.181482,42.760518]}},{"properties":{"city":"Panama City","zip":null,"geo_score":0.571,"id":"ac6xr4wb8ryq","geo_precision":"city","state":"Panama"},"type":"Feature","geometry":{"type":"Point","coordinates":[-84.93687,31.593502]}},{"properties":{"city":"Nashville","zip":"37211","geo_score":0.857,"id":"ac6xr4q1pzyj","geo_precision":"zip","state":"TN"},"type":"Feature","geometry":{"type":"Point","coordinates":[-82.758763,36.175103]}},{"properties":{"city":"Nashville","zip":"37205","geo_score":0.714,"id":"ac6xr4s2a3au","geo_precision":"zip","state":"TN"},"type":"Feature","geometry":{"type":"Point","coordinates":[-86.887223,36.117836]}},{"properties":{"city":"Cookeville","zip":"38506","geo_score":0.857,"id":"ac6xr4t0x1mn","geo_precision":"zip","state":"TN"},"type":"Feature","geometry":{"type":"Point","coordinates":[-85.469451,36.182723]}},{"properties":{"city":"Smyrna","zip":"37167","geo_score":0.714,"id":"ac6xr4qsgfve","geo_precision":"zip","state":"TN"},"type":"Feature","geometry":{"type":"Point","coordinates":[-86.494993,36.006452]}},{"properties":{"city":"Knoxville","zip":"37923","geo_score":0.714,"id":"ac6xr52jsbl4","geo_precision":"zip","state":"TN"},"type":"Feature","geometry":{"type":"Point","coordinates":[-84.082405,35.924795]}},{"properties":{"city":"Ravenna","zip":"44266","geo_score":0.857,"id":"ac6xr4x9ssiy","geo_precision":"zip","state":"OH"},"type":"Feature","geometry":{"type":"Point","coordinates":[-81.197323,41.13589]}},{"properties":{"city":"Ethridge","zip":"38456","geo_score":0.714,"id":"ac6xr4o6a1v8","geo_precision":"zip","state":"TN"},"type":"Feature","geometry":{"type":"Point","coordinates":[-87.350572,35.300635]}},{"properties":{"city":"Hendersonville","zip":"37075","geo_score":0.714,"id":"ac6xr4tmujnw","geo_precision":"zip","state":"TN"},"type":"Feature","geometry":{"type":"Point","coordinates":[-86.101377,36.36894]}},{"properties":{"city":"Steele","zip":"63877","geo_score":0.714,"id":"ac6xr4sopy3c","geo_precision":"zip","state":"MO"},"type":"Feature","geometry":{"type":"Point","coordinates":[-89.914809,36.016182]}},{"properties":{"city":"Lafayette","zip":"47905","geo_score":0.714,"id":"ac6xr4r2yqkz","geo_precision":"zip","state":"IN"},"type":"Feature","geometry":{"type":"Point","coordinates":[-86.756396,40.419758]}},{"properties":{"city":"Nashville","zip":"37201","geo_score":0.714,"id":"ac6xr4tda76m","geo_precision":"zip","state":"TN"},"type":"Feature","geometry":{"type":"Point","coordinates":[-86.784474,36.171152]}},{"properties":{"city":"Springfield","zip":"37172","geo_score":0.714,"id":"ac6xr4tgsl6x","geo_precision":"zip","state":"TN"},"type":"Feature","geometry":{"type":"Point","coordinates":[-86.888887,36.5431]}},{"properties":{"city":"Lincoln","zip":"68516","geo_score":0.714,"id":"ac6xr4ppcqm7","geo_precision":"zip","state":"NE"},"type":"Feature","geometry":{"type":"Point","coordinates":[-96.661769,40.777556]}},{"properties":{"city":"Charlotte","zip":"37036","geo_score":0.714,"id":"ac6xr4zafwn8","geo_precision":"zip","state":"TN"},"type":"Feature","geometry":{"type":"Point","coordinates":[-87.188894,36.275888]}},{"properties":{"city":"Dyersburg","zip":"38024","geo_score":0.714,"id":"ac6xr4pkirag","geo_precision":"zip","state":"TN"},"type":"Feature","geometry":{"type":"Point","coordinates":[-89.255626,36.032293]}},{"properties":{"city":"Erint","zip":"37061","geo_score":0.714,"id":"ac6xr4y7s8a1","geo_precision":"zip","state":"TN"},"type":"Feature","geometry":{"type":"Point","coordinates":[-87.719743,36.218668]}},{"properties":{"city":"Goodlettsville","zip":"37072","geo_score":0.857,"id":"ac6xr5011smf","geo_precision":"zip","state":"TN"},"type":"Feature","geometry":{"type":"Point","coordinates":[-86.709997,36.371161]}},{"properties":{"city":"Clarksville","zip":"37042","geo_score":0.714,"id":"ac6xr4nxo2ov","geo_precision":"zip","state":"TN"},"type":"Feature","geometry":{"type":"Point","coordinates":[-87.220839,36.506437]}},{"properties":{"city":"Herrin","zip":"62948","geo_score":0.714,"id":"ac6xr4u8t98p","geo_precision":"zip","state":"IL"},"type":"Feature","geometry":{"type":"Point","coordinates":[-89.027852,37.829494]}},{"properties":{"city":"Herrin","zip":"62948","geo_score":0.714,"id":"ac6xr5334vks","geo_precision":"zip","state":"IL"},"type":"Feature","geometry":{"type":"Point","coordinates":[-89.027852,37.829494]}},{"properties":{"city":"Detroit","zip":"48205","geo_score":0.714,"id":"ac6xr4q055c2","geo_precision":"zip","state":"MI"},"type":"Feature","geometry":{"type":"Point","coordinates":[-83.150823,42.239933]}},{"properties":{"city":"Franklin","zip":"37064","geo_score":0.857,"id":"ac6xr4s94we9","geo_precision":"zip","state":"TN"},"type":"Feature","geometry":{"type":"Point","coordinates":[-87.079172,35.954508]}},{"properties":{"city":"Brentwood","zip":"37027","geo_score":0.714,"id":"ac6xr520ssdh","geo_precision":"zip","state":"TN"},"type":"Feature","geometry":{"type":"Point","coordinates":[-86.816058,35.982981]}},{"properties":{"city":"Norwalk","zip":"06853","geo_score":0.857,"id":"ac6xr4yl05kj","geo_precision":"zip","state":"CT"},"type":"Feature","geometry":{"type":"Point","coordinates":[-73.436508,41.063986]}},{"properties":{"city":"Charlotte","zip":"28211","geo_score":0.714,"id":"ac6xr4w1hwr1","geo_precision":"zip","state":"NC"},"type":"Feature","geometry":{"type":"Point","coordinates":[-80.79076,35.169586]}},{"properties":{"city":"Madison","zip":"37115","geo_score":0.714,"id":"ac6xr4rmvjeg","geo_precision":"zip","state":"TN"},"type":"Feature","geometry":{"type":"Point","coordinates":[-86.706296,36.259503]}},{"properties":{"city":"Steele","zip":"63877","geo_score":0.714,"id":"ac6xr4wnufd6","geo_precision":"zip","state":"MO"},"type":"Feature","geometry":{"type":"Point","coordinates":[-89.914809,36.016182]}},{"properties":{"city":"Nashville","zip":"37206","geo_score":0.714,"id":"ac6xr52ok1zh","geo_precision":"zip","state":"TN"},"type":"Feature","geometry":{"type":"Point","coordinates":[-86.73575,36.180143]}},{"properties":{"city":"Antioch","zip":"37013","geo_score":0.714,"id":"ac6xr4ruwf7g","geo_precision":"zip","state":"TN"},"type":"Feature","geometry":{"type":"Point","coordinates":[-86.645598,36.036032]}},{"properties":{"city":"Beaver Falls","zip":"15010","geo_score":0.714,"id":"ac6xr4wsjfye","geo_precision":"zip","state":"PA"},"type":"Feature","geometry":{"type":"Point","coordinates":[-80.325619,40.760621]}},{"properties":{"city":"Woodland Hills","zip":"91364","geo_score":0.714,"id":"ac6xr51l7uhj","geo_precision":"zip","state":"CA"},"type":"Feature","geometry":{"type":"Point","coordinates":[-118.298662,33.786594]}},{"properties":{"city":"Murfreesboro","zip":"37130","geo_score":0.714,"id":"ac6xr51nao56","geo_precision":"zip","state":"TN"},"type":"Feature","geometry":{"type":"Point","coordinates":[-86.521382,35.90312]}},{"properties":{"city":"Nashville","zip":"37215","geo_score":0.714,"id":"ac6xr500gimt","geo_precision":"zip","state":"TN"},"type":"Feature","geometry":{"type":"Point","coordinates":[-86.885987,36.086531]}},{"properties":{"city":"Nashville","zip":"37203","geo_score":0.714,"id":"ac6xr4x3nuh4","geo_precision":"zip","state":"TN"},"type":"Feature","geometry":{"type":"Point","coordinates":[-86.791598,36.150406]}},{"properties":{"city":"Nashville","zip":"37218","geo_score":0.714,"id":"ac6xr4wwlsu3","geo_precision":"zip","state":"TN"},"type":"Feature","geometry":{"type":"Point","coordinates":[-86.89585,36.234304]}},{"properties":{"city":"Franklin","zip":"37067","geo_score":0.714,"id":"ac6xr4ua1jca","geo_precision":"zip","state":"TN"},"type":"Feature","geometry":{"type":"Point","coordinates":[-86.765537,35.912072]}},{"properties":{"city":"Brentwood","zip":"37027","geo_score":0.714,"id":"ac6xr4ss46h6","geo_precision":"zip","state":"TN"},"type":"Feature","geometry":{"type":"Point","coordinates":[-86.816058,35.982981]}},{"properties":{"city":"Nashville","zip":"37211","geo_score":0.714,"id":"ac6xr51jzpgg","geo_precision":"zip","state":"TN"},"type":"Feature","geometry":{"type":"Point","coordinates":[-82.758763,36.175103]}},{"properties":{"city":"Thompson Station","zip":"37179","geo_score":0.714,"id":"ac6xr4nlcvtt","geo_precision":"zip","state":"TN"},"type":"Feature","geometry":{"type":"Point","coordinates":[-86.983337,35.812567]}},{"properties":{"city":"Centerville","zip":"37033","geo_score":0.714,"id":"ac6xr53hbbo7","geo_precision":"zip","state":"TN"},"type":"Feature","geometry":{"type":"Point","coordinates":[-87.502405,35.750099]}},{"properties":{"city":"Hendersonville","zip":"37075","geo_score":0.714,"id":"ac6xr4yw9pw3","geo_precision":"zip","state":"TN"},"type":"Feature","geometry":{"type":"Point","coordinates":[-86.101377,36.36894]}},{"properties":{"city":"Lawrence","zip":"66044","geo_score":0.714,"id":"ac6xr4ypzi8t","geo_precision":"zip","state":"KS"},"type":"Feature","geometry":{"type":"Point","coordinates":[-95.390531,38.91167]}},{"properties":{"city":"Nashville","zip":"37215","geo_score":0.714,"id":"ac6xr4nu359z","geo_precision":"zip","state":"TN"},"type":"Feature","geometry":{"type":"Point","coordinates":[-86.885987,36.086531]}},{"properties":{"city":"Hermitage","zip":"37076","geo_score":0.714,"id":"ac6xr50m28tn","geo_precision":"zip","state":"TN"},"type":"Feature","geometry":{"type":"Point","coordinates":[-86.633052,36.201444]}},{"properties":{"city":"Nashville","zip":"37217","geo_score":0.714,"id":"ac6xr4nvfhc6","geo_precision":"zip","state":"TN"},"type":"Feature","geometry":{"type":"Point","coordinates":[-86.662914,36.107372]}},{"properties":{"city":"Brentwood","zip":"37027","geo_score":0.714,"id":"ac6xr4roga00","geo_precision":"zip","state":"TN"},"type":"Feature","geometry":{"type":"Point","coordinates":[-86.816058,35.982981]}},{"properties":{"city":"Nashville","zip":"37210","geo_score":0.714,"id":"ac6xr4t91k09","geo_precision":"zip","state":"TN"},"type":"Feature","geometry":{"type":"Point","coordinates":[-86.729947,36.137475]}},{"properties":{"city":"Gallatin","zip":"37066","geo_score":0.714,"id":"ac6xr51kd1en","geo_precision":"zip","state":"TN"},"type":"Feature","geometry":{"type":"Point","coordinates":[-86.466104,36.480322]}},{"properties":{"city":"Nashville","zip":"37211","geo_score":0.857,"id":"ac6xr51bt6rk","geo_precision":"zip","state":"TN"},"type":"Feature","geometry":{"type":"Point","coordinates":[-82.758763,36.175103]}},{"properties":{"city":"Antioch","zip":"37013","geo_score":0.857,"id":"ac6xr4mzzm4g","geo_precision":"zip","state":"TN"},"type":"Feature","geometry":{"type":"Point","coordinates":[-86.645598,36.036032]}},{"properties":{"city":"Brentwood","zip":"37027","geo_score":0.714,"id":"ac6xr4ou84wh","geo_precision":"zip","state":"TN"},"type":"Feature","geometry":{"type":"Point","coordinates":[-86.816058,35.982981]}},{"properties":{"city":"Sewanee","zip":"37375","geo_score":0.857,"id":"ac6xr4v8ifai","geo_precision":"zip","state":"TN"},"type":"Feature","geometry":{"type":"Point","coordinates":[-86.06546,35.184313]}},{"properties":{"city":"Miami","zip":"33169","geo_score":0.857,"id":"ac6xr4zsw6cj","geo_precision":"zip","state":"FL"},"type":"Feature","geometry":{"type":"Point","coordinates":[-80.201992,25.966203]}},{"properties":{"city":"Nashville","zip":"37212","geo_score":0.857,"id":"ac6xr4r93ug9","geo_precision":"zip","state":"TN"},"type":"Feature","geometry":{"type":"Point","coordinates":[-87.010281,36.027284]}},{"properties":{"city":"Clarkesville","zip":"30523","geo_score":0.857,"id":"ac6xr4r3m222","geo_precision":"zip","state":"GA"},"type":"Feature","geometry":{"type":"Point","coordinates":[-83.607119,34.626763]}},{"properties":{"city":"Cambridge Springs","zip":"16403","geo_score":0.714,"id":"ac6xr51nmftc","geo_precision":"zip","state":"PA"},"type":"Feature","geometry":{"type":"Point","coordinates":[-80.082,41.829778]}},{"properties":{"city":"Bloomsdale","zip":"63627","geo_score":0.714,"id":"ac6xr4p9aerv","geo_precision":"zip","state":"MO"},"type":"Feature","geometry":{"type":"Point","coordinates":[-90.252806,38.023217]}},{"properties":{"city":"Knoxville","zip":"37922","geo_score":0.857,"id":"ac6xr4xc3ohh","geo_precision":"zip","state":"TN"},"type":"Feature","geometry":{"type":"Point","coordinates":[-84.165471,35.870079]}},{"properties":{"city":"Oak Ridge","zip":"37830","geo_score":0.714,"id":"ac6xr4p366ay","geo_precision":"zip","state":"TN"},"type":"Feature","geometry":{"type":"Point","coordinates":[-84.202976,36.052579]}},{"properties":{"city":"Madison","zip":"37115","geo_score":0.714,"id":"ac6xr4xtxh39","geo_precision":"zip","state":"TN"},"type":"Feature","geometry":{"type":"Point","coordinates":[-86.706296,36.259503]}},{"properties":{"city":"Maryville","zip":"37801","geo_score":0.714,"id":"ac6xr50zeyv6","geo_precision":"zip","state":"TN"},"type":"Feature","geometry":{"type":"Point","coordinates":[-83.979071,35.756472]}},{"properties":{"city":"Nolensville","zip":"37135","geo_score":0.714,"id":"ac6xr5008bpx","geo_precision":"zip","state":"TN"},"type":"Feature","geometry":{"type":"Point","coordinates":[-86.675349,35.925201]}},{"properties":{"city":"Chapel Hill","zip":"37034","geo_score":0.714,"id":"ac6xr4xzrg7u","geo_precision":"zip","state":"TN"},"type":"Feature","geometry":{"type":"Point","coordinates":[-86.596662,35.673124]}},{"properties":{"city":"Memphis","zip":"38111","geo_score":0.714,"id":"ac6xr4vyv3f1","geo_precision":"zip","state":"TN"},"type":"Feature","geometry":{"type":"Point","coordinates":[-89.948119,35.10956]}},{"properties":{"city":"Franklin","zip":"37064","geo_score":0.714,"id":"ac6xr4z0b2jp","geo_precision":"zip","state":"TN"},"type":"Feature","geometry":{"type":"Point","coordinates":[-87.079172,35.954508]}},{"properties":{"city":"Suffolk","zip":"23434","geo_score":0.714,"id":"ac6xr50yxwh9","geo_precision":"zip","state":"VA"},"type":"Feature","geometry":{"type":"Point","coordinates":[-76.624675,36.78015]}},{"properties":{"city":"Gallatin","zip":"37066","geo_score":0.714,"id":"ac6xr4nz86tr","geo_precision":"zip","state":"TN"},"type":"Feature","geometry":{"type":"Point","coordinates":[-86.466104,36.480322]}},{"properties":{"city":"San Antonio","zip":"78216","geo_score":0.714,"id":"ac6xr4u8o564","geo_precision":"zip","state":"TX"},"type":"Feature","geometry":{"type":"Point","coordinates":[-98.478975,29.173285]}},{"properties":{"city":"N. Aurora","zip":"60542","geo_score":0.714,"id":"ac6xr4q9b3jb","geo_precision":"zip","state":"IL"},"type":"Feature","geometry":{"type":"Point","coordinates":[-88.335182,41.807369]}},{"properties":{"city":"La Place","zip":"70068","geo_score":0.857,"id":"ac6xr52g1apq","geo_precision":"zip","state":"LA"},"type":"Feature","geometry":{"type":"Point","coordinates":[-90.42675,30.107701]}},{"properties":{"city":"Rockdale","zip":"76567","geo_score":0.857,"id":"ac6xr4oqolx2","geo_precision":"zip","state":"TX"},"type":"Feature","geometry":{"type":"Point","coordinates":[-97.132768,30.593534]}},{"properties":{"city":"Knoxville","zip":"37917","geo_score":0.857,"id":"ac6xr4rn5s0h","geo_precision":"zip","state":"TN"},"type":"Feature","geometry":{"type":"Point","coordinates":[-83.912407,36.002027]}},{"properties":{"city":"Spring Hill","zip":"37174","geo_score":0.714,"id":"ac6xr50f68ih","geo_precision":"zip","state":"TN"},"type":"Feature","geometry":{"type":"Point","coordinates":[-86.898335,35.702291]}},{"properties":{"city":"Antioch","zip":"32013","geo_score":0.714,"id":"ac6xr4rb54qq","geo_precision":"zip","state":"TN"},"type":"Feature","geometry":{"type":"Point","coordinates":[-83.123055,30.041449]}},{"properties":{"city":"Paducah","zip":"42001","geo_score":0.714,"id":"ac6xr4yax5qx","geo_precision":"zip","state":"KY"},"type":"Feature","geometry":{"type":"Point","coordinates":[-88.507823,36.976447]}},{"properties":{"city":"Jackson","zip":"38301","geo_score":0.714,"id":"ac6xr4o1xqn3","geo_precision":"zip","state":"TN"},"type":"Feature","geometry":{"type":"Point","coordinates":[-88.829781,35.630072]}},{"properties":{"city":"Antioch","zip":"37013","geo_score":0.857,"id":"ac6xr4na26rb","geo_precision":"zip","state":"TN"},"type":"Feature","geometry":{"type":"Point","coordinates":[-86.645598,36.036032]}},{"properties":{"city":"Austin","zip":"78731","geo_score":0.857,"id":"ac6xr4y5755x","geo_precision":"zip","state":"TX"},"type":"Feature","geometry":{"type":"Point","coordinates":[-97.769769,30.345554]}},{"properties":{"city":"Chapmansboro","zip":"37035","geo_score":0.857,"id":"ac6xr51emdhq","geo_precision":"zip","state":"TN"},"type":"Feature","geometry":{"type":"Point","coordinates":[-87.156116,36.332552]}},{"properties":{"city":"Nashville","zip":"37206","geo_score":0.857,"id":"ac6xr4uygh78","geo_precision":"zip","state":"TN"},"type":"Feature","geometry":{"type":"Point","coordinates":[-86.73575,36.180143]}},{"properties":{"city":"Paducah","zip":"42001","geo_score":0.857,"id":"ac6xr4pkspsn","geo_precision":"zip","state":"KY"},"type":"Feature","geometry":{"type":"Point","coordinates":[-88.507823,36.976447]}},{"properties":{"city":"Nashville","zip":"37206","geo_score":0.714,"id":"ac6xr4xqkdnc","geo_precision":"zip","state":"TN"},"type":"Feature","geometry":{"type":"Point","coordinates":[-86.73575,36.180143]}},{"properties":{"city":"St. Louis","zip":"63119","geo_score":0.857,"id":"ac6xr4nyekea","geo_precision":"zip","state":"MO"},"type":"Feature","geometry":{"type":"Point","coordinates":[-90.348116,38.589302]}},{"properties":{"city":"Peachtree City","zip":"30269","geo_score":0.857,"id":"ac6xr52cro88","geo_precision":"zip","state":"GA"},"type":"Feature","geometry":{"type":"Point","coordinates":[-84.559373,33.417616]}},{"properties":{"city":"Concord","zip":"28027","geo_score":0.857,"id":"ac6xr4ufd582","geo_precision":"zip","state":"NC"},"type":"Feature","geometry":{"type":"Point","coordinates":[-80.658405,35.410688]}},{"properties":{"city":"Nashville","zip":"37220","geo_score":0.857,"id":"ac6xr4y3ii8c","geo_precision":"zip","state":"TN"},"type":"Feature","geometry":{"type":"Point","coordinates":[-86.782098,36.067109]}},{"properties":{"city":"Johnson City","zip":"37604","geo_score":0.857,"id":"ac6xr4z5152u","geo_precision":"zip","state":"TN"},"type":"Feature","geometry":{"type":"Point","coordinates":[-82.387422,36.308229]}},{"properties":{"city":"Decatur","zip":"35603","geo_score":0.857,"id":"ac6xr4tfmivv","geo_precision":"zip","state":"AL"},"type":"Feature","geometry":{"type":"Point","coordinates":[-86.96556,34.53832]}},{"properties":{"city":"Franklin","zip":"37064","geo_score":0.857,"id":"ac6xr4z7rt1c","geo_precision":"zip","state":"TN"},"type":"Feature","geometry":{"type":"Point","coordinates":[-87.079172,35.954508]}},{"properties":{"city":"Nashville","zip":"37206","geo_score":0.857,"id":"ac6xr4qc21vg","geo_precision":"zip","state":"TN"},"type":"Feature","geometry":{"type":"Point","coordinates":[-86.73575,36.180143]}},{"properties":{"city":"Miami","zip":"33116","geo_score":0.857,"id":"ac6xr4x2hdyv","geo_precision":"zip","state":"FL"},"type":"Feature","geometry":{"type":"Point","coordinates":[-80.193659,25.774266]}},{"properties":{"city":"Chattanooga","zip":"37421","geo_score":0.857,"id":"ac6xr4pkblj4","geo_precision":"zip","state":"TN"},"type":"Feature","geometry":{"type":"Point","coordinates":[-85.149953,35.057574]}},{"properties":{"city":"Senatobia","zip":"38668","geo_score":0.857,"id":"ac6xr4r1uc3a","geo_precision":"zip","state":"MS"},"type":"Feature","geometry":{"type":"Point","coordinates":[-89.915089,34.612047]}},{"properties":{"city":"Shelby","zip":"28150","geo_score":0.857,"id":"ac6xr4zbgfa6","geo_precision":"zip","state":"NC"},"type":"Feature","geometry":{"type":"Point","coordinates":[-81.629261,35.330961]}},{"properties":{"city":"Negaunee","zip":"49866","geo_score":0.857,"id":"ac6xr4umb8ob","geo_precision":"zip","state":"MI"},"type":"Feature","geometry":{"type":"Point","coordinates":[-87.606803,46.513546]}},{"properties":{"city":"Rockdale","zip":"76567","geo_score":0.857,"id":"ac6xr4olbfsx","geo_precision":"zip","state":"TX"},"type":"Feature","geometry":{"type":"Point","coordinates":[-97.132768,30.593534]}},{"properties":{"city":"Trussville","zip":"35173","geo_score":0.857,"id":"ac6xr4szicfc","geo_precision":"zip","state":"AL"},"type":"Feature","geometry":{"type":"Point","coordinates":[-86.613875,33.558993]}},{"properties":{"city":"Summit","zip":"07901","geo_score":0.857,"id":"ac6xr4viol6p","geo_precision":"zip","state":"NJ"},"type":"Feature","geometry":{"type":"Point","coordinates":[-74.361594,40.71275]}},{"properties":{"city":"Nashville","zip":"37221","geo_score":0.714,"id":"ac6xr4w4kryn","geo_precision":"zip","state":"TN"},"type":"Feature","geometry":{"type":"Point","coordinates":[-86.963852,36.06616]}},{"properties":{"city":"Knoxville","zip":"37938","geo_score":0.714,"id":"ac6xr4pqwlgq","geo_precision":"zip","state":"TN"},"type":"Feature","geometry":{"type":"Point","coordinates":[-83.937408,36.032026]}},{"properties":{"city":"Hudson","zip":"03051","geo_score":0.857,"id":"ac6xr4ykqqu9","geo_precision":"zip","state":"NH"},"type":"Feature","geometry":{"type":"Point","coordinates":[-71.479789,42.844254]}},{"properties":{"city":"Memphis","zip":"38125","geo_score":0.714,"id":"ac6xr4svlyci","geo_precision":"zip","state":"TN"},"type":"Feature","geometry":{"type":"Point","coordinates":[-89.782647,35.028829]}},{"properties":{"city":"Pulaski","zip":"38428","geo_score":0.714,"id":"ac6xr4rwmxw3","geo_precision":"city","state":"TN"},"type":"Feature","geometry":{"type":"Point","coordinates":[-87.015664,35.217373]}},{"properties":{"city":"Knoxville","zip":"17567","geo_score":0.714,"id":"ac6xr4nwne3j","geo_precision":"zip","state":"TN"},"type":"Feature","geometry":{"type":"Point","coordinates":[-76.116445,40.209941]}},{"properties":{"city":"Haubstadt","zip":"47639","geo_score":0.857,"id":"ac6xr4p1v7sc","geo_precision":"zip","state":"IN"},"type":"Feature","geometry":{"type":"Point","coordinates":[-87.577358,38.202701]}},{"properties":{"city":"Millington","zip":"38053","geo_score":0.857,"id":"ac6xr4u2ifsz","geo_precision":"zip","state":"TN"},"type":"Feature","geometry":{"type":"Point","coordinates":[-89.982311,35.273143]}},{"properties":{"city":"Antioch","zip":"37013","geo_score":0.857,"id":"ac6xr4rbdya1","geo_precision":"zip","state":"TN"},"type":"Feature","geometry":{"type":"Point","coordinates":[-86.645598,36.036032]}},{"properties":{"city":"Fort Smith","zip":"72901","geo_score":0.857,"id":"ac6xr4nsgf9k","geo_precision":"zip","state":"AR"},"type":"Feature","geometry":{"type":"Point","coordinates":[-94.339412,35.231245]}},{"properties":{"city":"Olive Branch","zip":"38654","geo_score":0.714,"id":"ac6xr4vrdfzt","geo_precision":"zip","state":"MS"},"type":"Feature","geometry":{"type":"Point","coordinates":[-89.768697,34.917595]}},{"properties":{"city":"Huntingdon","zip":"38344","geo_score":0.857,"id":"ac6xr4rfol0y","geo_precision":"zip","state":"TN"},"type":"Feature","geometry":{"type":"Point","coordinates":[-88.353659,36.030895]}},{"properties":{"city":"Dexter","zip":"63841","geo_score":0.857,"id":"ac6xr4r1a3nf","geo_precision":"zip","state":"MO"},"type":"Feature","geometry":{"type":"Point","coordinates":[-89.98146,36.882467]}},{"properties":{"city":"Murfressboro","zip":"37128","geo_score":0.857,"id":"ac6xr510aiqq","geo_precision":"zip","state":"TN"},"type":"Feature","geometry":{"type":"Point","coordinates":[-86.486683,35.845418]}},{"properties":{"city":"Antioch","zip":"37228","geo_score":0.857,"id":"ac6xr4ssqg1w","geo_precision":"zip","state":"TN"},"type":"Feature","geometry":{"type":"Point","coordinates":[-86.8083,36.193205]}},{"properties":{"city":"Shanghai","zip":"200120","geo_score":0.571,"id":"ac6xr4odh8fs","geo_precision":"city","state":"China"},"type":"Feature","geometry":{"type":"Point","coordinates":[-156.648418,58.268704]}},{"properties":{"city":"Antioch","zip":"37013","geo_score":0.857,"id":"ac6xr53bxy92","geo_precision":"zip","state":"TN"},"type":"Feature","geometry":{"type":"Point","coordinates":[-86.645598,36.036032]}},{"properties":{"city":"Springfield","zip":"65809","geo_score":0.857,"id":"ac6xr4r0qffk","geo_precision":"zip","state":"MO"},"type":"Feature","geometry":{"type":"Point","coordinates":[-93.21641,37.150649]}},{"properties":{"city":"Florence","zip":"35633","geo_score":0.857,"id":"ac6xr4sjvgif","geo_precision":"zip","state":"AL"},"type":"Feature","geometry":{"type":"Point","coordinates":[-87.568915,34.863419]}},{"properties":{"city":"Fayetteville","zip":"37334","geo_score":0.857,"id":"ac6xr4tcsi01","geo_precision":"zip","state":"TN"},"type":"Feature","geometry":{"type":"Point","coordinates":[-86.588607,35.09064]}},{"properties":{"city":"Nashville","zip":"37209","geo_score":0.857,"id":"ac6xr4s8dlw7","geo_precision":"zip","state":"TN"},"type":"Feature","geometry":{"type":"Point","coordinates":[-86.89995,36.142007]}},{"properties":{"city":"Parker","zip":"80134","geo_score":0.714,"id":"ac6xr4suunha","geo_precision":"zip","state":"CO"},"type":"Feature","geometry":{"type":"Point","coordinates":[-104.734419,39.455267]}},{"properties":{"city":"Franklin","zip":"37069","geo_score":0.857,"id":"ac6xr4pm0a1d","geo_precision":"zip","state":"TN"},"type":"Feature","geometry":{"type":"Point","coordinates":[-86.910623,35.979553]}},{"properties":{"city":"Chattanooga","zip":"37415","geo_score":0.857,"id":"ac6xr52rha5o","geo_precision":"zip","state":"TN"},"type":"Feature","geometry":{"type":"Point","coordinates":[-85.318292,35.083684]}},{"properties":{"city":"Nashville","zip":"37206","geo_score":0.857,"id":"ac6xr4s8utf1","geo_precision":"zip","state":"TN"},"type":"Feature","geometry":{"type":"Point","coordinates":[-86.73575,36.180143]}},{"properties":{"city":"Marietta","zip":"30066","geo_score":0.857,"id":"ac6xr4nks1uz","geo_precision":"zip","state":"GA"},"type":"Feature","geometry":{"type":"Point","coordinates":[-84.498365,34.024849]}},{"properties":{"city":"Nashville","zip":"37207","geo_score":0.857,"id":"ac6xr4rl11oe","geo_precision":"zip","state":"TN"},"type":"Feature","geometry":{"type":"Point","coordinates":[-86.784698,36.233916]}},{"properties":{"city":"Nashville","zip":"37205","geo_score":0.714,"id":"ac6xr4n9rtwl","geo_precision":"zip","state":"TN"},"type":"Feature","geometry":{"type":"Point","coordinates":[-86.887223,36.117836]}},{"properties":{"city":"Nashville","zip":"37211","geo_score":0.714,"id":"ac6xr4xnhutb","geo_precision":"zip","state":"TN"},"type":"Feature","geometry":{"type":"Point","coordinates":[-82.758763,36.175103]}},{"properties":{"city":"Old Fort","zip":"37362","geo_score":0.857,"id":"ac6xr4plg3ot","geo_precision":"zip","state":"TN"},"type":"Feature","geometry":{"type":"Point","coordinates":[-84.686881,35.009521]}},{"properties":{"city":"Knoxville","zip":"37914","geo_score":0.857,"id":"ac6xr4rslp1z","geo_precision":"zip","state":"TN"},"type":"Feature","geometry":{"type":"Point","coordinates":[-83.843516,36.040917]}},{"properties":{"city":"Abilene","zip":"79601","geo_score":0.857,"id":"ac6xr4wikme6","geo_precision":"zip","state":"TX"},"type":"Feature","geometry":{"type":"Point","coordinates":[-99.80213,32.344457]}},{"properties":{"city":"Arlington","zip":"76014","geo_score":0.857,"id":"ac6xr4zdq6ni","geo_precision":"zip","state":"TX"},"type":"Feature","geometry":{"type":"Point","coordinates":[-97.291484,32.771419]}},{"properties":{"city":"Nashville","zip":"37205","geo_score":0.714,"id":"ac6xr51jlaot","geo_precision":"zip","state":"TN"},"type":"Feature","geometry":{"type":"Point","coordinates":[-86.887223,36.117836]}},{"properties":{"city":"Old Hickory","zip":"37138","geo_score":0.857,"id":"ac6xr4rir9ci","geo_precision":"zip","state":"TN"},"type":"Feature","geometry":{"type":"Point","coordinates":[-86.633545,36.137706]}},{"properties":{"city":"Nashville","zip":"37204","geo_score":0.857,"id":"ac6xr4ziocfc","geo_precision":"zip","state":"TN"},"type":"Feature","geometry":{"type":"Point","coordinates":[-86.850099,36.119294]}},{"properties":{"city":"Madison","zip":"37115","geo_score":0.857,"id":"ac6xr4t1yc8h","geo_precision":"zip","state":"TN"},"type":"Feature","geometry":{"type":"Point","coordinates":[-86.706296,36.259503]}},{"properties":{"city":"Nashville","zip":"37203","geo_score":0.857,"id":"ac6xr4pyr4dh","geo_precision":"zip","state":"TN"},"type":"Feature","geometry":{"type":"Point","coordinates":[-86.791598,36.150406]}},{"properties":{"city":"Nashville","zip":"37209","geo_score":0.857,"id":"ac6xr4ttrplw","geo_precision":"zip","state":"TN"},"type":"Feature","geometry":{"type":"Point","coordinates":[-86.89995,36.142007]}},{"properties":{"city":"Clarksville","zip":"37042","geo_score":0.714,"id":"ac6xr4p8phbw","geo_precision":"zip","state":"TN"},"type":"Feature","geometry":{"type":"Point","coordinates":[-87.220839,36.506437]}},{"properties":{"city":"Falkner","zip":"38629","geo_score":0.857,"id":"ac6xr4yhxeo3","geo_precision":"zip","state":"MS"},"type":"Feature","geometry":{"type":"Point","coordinates":[-88.933747,34.850879]}},{"properties":{"city":"White House","zip":"37188","geo_score":0.714,"id":"ac6xr51irp97","geo_precision":"zip","state":"TN"},"type":"Feature","geometry":{"type":"Point","coordinates":[-86.689867,36.481635]}},{"properties":{"city":"Nashville","zip":"37212","geo_score":0.714,"id":"ac6xr4r5v6bh","geo_precision":"zip","state":"TN"},"type":"Feature","geometry":{"type":"Point","coordinates":[-87.010281,36.027284]}},{"properties":{"city":"Nashville","zip":"37216","geo_score":0.857,"id":"ac6xr50rxe0z","geo_precision":"zip","state":"TN"},"type":"Feature","geometry":{"type":"Point","coordinates":[-86.723997,36.204255]}},{"properties":{"city":"Sevierville","zip":"37876","geo_score":0.857,"id":"ac6xr4s6q2p5","geo_precision":"zip","state":"TN"},"type":"Feature","geometry":{"type":"Point","coordinates":[-82.133182,36.220671]}},{"properties":{"city":"Nashville","zip":"37212","geo_score":0.857,"id":"ac6xr4ti2g0q","geo_precision":"zip","state":"TN"},"type":"Feature","geometry":{"type":"Point","coordinates":[-87.010281,36.027284]}},{"properties":{"city":"Antioch","zip":"37013","geo_score":0.714,"id":"ac6xr4v7th6r","geo_precision":"zip","state":"TN"},"type":"Feature","geometry":{"type":"Point","coordinates":[-86.645598,36.036032]}},{"properties":{"city":"Kingston Springs","zip":"37082","geo_score":0.714,"id":"ac6xr4n0qxhw","geo_precision":"zip","state":"TN"},"type":"Feature","geometry":{"type":"Point","coordinates":[-87.158062,36.112837]}},{"properties":{"city":"McKenzie","zip":"38201","geo_score":0.714,"id":"ac6xr4obntnl","geo_precision":"zip","state":"TN"},"type":"Feature","geometry":{"type":"Point","coordinates":[-88.43755,36.127839]}},{"properties":{"city":"Hermitage","zip":"37076","geo_score":0.714,"id":"ac6xr4vgidoy","geo_precision":"zip","state":"TN"},"type":"Feature","geometry":{"type":"Point","coordinates":[-86.633052,36.201444]}},{"properties":{"city":"Nashville","zip":"37209","geo_score":0.714,"id":"ac6xr4xdelp4","geo_precision":"zip","state":"TN"},"type":"Feature","geometry":{"type":"Point","coordinates":[-86.89995,36.142007]}},{"properties":{"city":"Nashville","zip":"37212","geo_score":0.857,"id":"ac6xr4t31a8l","geo_precision":"zip","state":"TN"},"type":"Feature","geometry":{"type":"Point","coordinates":[-87.010281,36.027284]}},{"properties":{"city":"Nashville","zip":"37215","geo_score":0.857,"id":"ac6xr4x5bnst","geo_precision":"zip","state":"TN"},"type":"Feature","geometry":{"type":"Point","coordinates":[-86.885987,36.086531]}},{"properties":{"city":"Brentwood","zip":"37027","geo_score":0.714,"id":"ac6xr4zfskr4","geo_precision":"zip","state":"TN"},"type":"Feature","geometry":{"type":"Point","coordinates":[-86.816058,35.982981]}},{"properties":{"city":"Antioch","zip":"37013","geo_score":0.714,"id":"ac6xr4sgikl9","geo_precision":"zip","state":"TN"},"type":"Feature","geometry":{"type":"Point","coordinates":[-86.645598,36.036032]}},{"properties":{"city":"Nashville","zip":"37212","geo_score":0.714,"id":"ac6xr4nkqouh","geo_precision":"zip","state":"TN"},"type":"Feature","geometry":{"type":"Point","coordinates":[-87.010281,36.027284]}},{"properties":{"city":"Nashville","zip":"37216","geo_score":0.857,"id":"ac6xr4zbz6nx","geo_precision":"zip","state":"TN"},"type":"Feature","geometry":{"type":"Point","coordinates":[-86.723997,36.204255]}},{"properties":{"city":"Nashville","zip":"37206","geo_score":0.857,"id":"ac6xr50pv2na","geo_precision":"zip","state":"TN"},"type":"Feature","geometry":{"type":"Point","coordinates":[-86.73575,36.180143]}},{"properties":{"city":"Louisville","zip":"40272","geo_score":0.857,"id":"ac6xr4r5v61v","geo_precision":"zip","state":"KY"},"type":"Feature","geometry":{"type":"Point","coordinates":[-85.90913,38.032849]}},{"properties":{"city":"Franklin","zip":"37064","geo_score":0.857,"id":"ac6xr4tb8tpl","geo_precision":"zip","state":"TN"},"type":"Feature","geometry":{"type":"Point","coordinates":[-87.079172,35.954508]}},{"properties":{"city":"Nashville","zip":"37205","geo_score":0.857,"id":"ac6xr4yowq2j","geo_precision":"zip","state":"TN"},"type":"Feature","geometry":{"type":"Point","coordinates":[-86.887223,36.117836]}},{"properties":{"city":"Knoxville","zip":"37918","geo_score":0.857,"id":"ac6xr4tslm3h","geo_precision":"zip","state":"TN"},"type":"Feature","geometry":{"type":"Point","coordinates":[-83.771014,36.063418]}},{"properties":{"city":"Knoxville","zip":"37934","geo_score":0.857,"id":"ac6xr51vft5r","geo_precision":"zip","state":"TN"},"type":"Feature","geometry":{"type":"Point","coordinates":[-83.920739,35.960638]}},{"properties":{"city":"Morganfield","zip":"42437","geo_score":0.857,"id":"ac6xr52koh7l","geo_precision":"zip","state":"KY"},"type":"Feature","geometry":{"type":"Point","coordinates":[-87.890854,37.558379]}},{"properties":{"city":"Brentwood","zip":"37027","geo_score":0.857,"id":"ac6xr4qmkpoq","geo_precision":"zip","state":"TN"},"type":"Feature","geometry":{"type":"Point","coordinates":[-86.816058,35.982981]}},{"properties":{"city":"Monroe","zip":"24574","geo_score":0.857,"id":"ac6xr4ou83b3","geo_precision":"zip","state":"VA"},"type":"Feature","geometry":{"type":"Point","coordinates":[-79.251418,37.559861]}},{"properties":{"city":"Antioch","zip":"37013","geo_score":0.857,"id":"ac6xr4tq33r3","geo_precision":"zip","state":"TN"},"type":"Feature","geometry":{"type":"Point","coordinates":[-86.645598,36.036032]}},{"properties":{"city":"Collierville","zip":"38017","geo_score":0.857,"id":"ac6xr4xhr1eb","geo_precision":"zip","state":"TN"},"type":"Feature","geometry":{"type":"Point","coordinates":[-89.728695,35.050925]}},{"properties":{"city":"Bartlett","zip":"38133","geo_score":0.857,"id":"ac6xr501y8x5","geo_precision":"zip","state":"TN"},"type":"Feature","geometry":{"type":"Point","coordinates":[-89.791656,35.208941]}},{"properties":{"city":"Cordova","zip":"38018","geo_score":0.857,"id":"ac6xr4qbyyzd","geo_precision":"zip","state":"TN"},"type":"Feature","geometry":{"type":"Point","coordinates":[-89.900314,35.104589]}},{"properties":{"city":"Simpsonville","zip":"29680","geo_score":0.857,"id":"ac6xr4xubf0s","geo_precision":"zip","state":"SC"},"type":"Feature","geometry":{"type":"Point","coordinates":[-82.289322,34.696203]}},{"properties":{"city":"Knoxville","zip":"37931","geo_score":0.857,"id":"ac6xr50fbjuu","geo_precision":"zip","state":"TN"},"type":"Feature","geometry":{"type":"Point","coordinates":[-84.125653,35.976167]}},{"properties":{"city":"Powderly","zip":"42367","geo_score":0.857,"id":"ac6xr4r37blq","geo_precision":"zip","state":"KY"},"type":"Feature","geometry":{"type":"Point","coordinates":[-87.154898,37.242948]}},{"properties":{"city":"Abilene","zip":"79605","geo_score":0.857,"id":"ac6xr4u3ymkq","geo_precision":"zip","state":"TX"},"type":"Feature","geometry":{"type":"Point","coordinates":[-99.847035,32.373183]}},{"properties":{"city":"Franklin","zip":"37069","geo_score":0.857,"id":"ac6xr4qpt61u","geo_precision":"zip","state":"TN"},"type":"Feature","geometry":{"type":"Point","coordinates":[-86.910623,35.979553]}},{"properties":{"city":"Franklin","zip":"37069","geo_score":0.857,"id":"ac6xr521olgu","geo_precision":"zip","state":"TN"},"type":"Feature","geometry":{"type":"Point","coordinates":[-86.910623,35.979553]}},{"properties":{"city":"Goodlettsville","zip":"37072","geo_score":0.857,"id":"ac6xr524phub","geo_precision":"zip","state":"TN"},"type":"Feature","geometry":{"type":"Point","coordinates":[-86.709997,36.371161]}},{"properties":{"city":"Nashville","zip":"37214","geo_score":0.857,"id":"ac6xr537auc8","geo_precision":"zip","state":"TN"},"type":"Feature","geometry":{"type":"Point","coordinates":[-86.662146,36.174205]}},{"properties":{"city":"Knoxville","zip":"37934","geo_score":0.857,"id":"ac6xr4zw4dvd","geo_precision":"zip","state":"TN"},"type":"Feature","geometry":{"type":"Point","coordinates":[-83.920739,35.960638]}},{"properties":{"city":"Stroudsburg","zip":"18360","geo_score":0.857,"id":"ac6xr4st3xh6","geo_precision":"zip","state":"PA"},"type":"Feature","geometry":{"type":"Point","coordinates":[-75.294626,40.924538]}},{"properties":{"city":"Kerrville","zip":"78028","geo_score":0.857,"id":"ac6xr4rxyllz","geo_precision":"zip","state":"TX"},"type":"Feature","geometry":{"type":"Point","coordinates":[-99.116429,30.02299]}},{"properties":{"city":"Nashville","zip":"37203","geo_score":0.857,"id":"ac6xr52xw1ic","geo_precision":"zip","state":"TN"},"type":"Feature","geometry":{"type":"Point","coordinates":[-86.791598,36.150406]}},{"properties":{"city":"Nashville","zip":"37216","geo_score":0.857,"id":"ac6xr4nl9cto","geo_precision":"zip","state":"TN"},"type":"Feature","geometry":{"type":"Point","coordinates":[-86.723997,36.204255]}},{"properties":{"city":"Elysburg","zip":"17824","geo_score":0.857,"id":"ac6xr4qkfegc","geo_precision":"zip","state":"PA"},"type":"Feature","geometry":{"type":"Point","coordinates":[-76.444118,40.854253]}},{"properties":{"city":"Evergreen Park","zip":"60205","geo_score":0.714,"id":"ac6xr4qxsgbk","geo_precision":"city","state":"IL"},"type":"Feature","geometry":{"type":"Point","coordinates":[-87.701718,41.720589]}},{"properties":{"city":"Mckinney","zip":"78070","geo_score":0.857,"id":"ac6xr4yj77qj","geo_precision":"zip","state":"TX"},"type":"Feature","geometry":{"type":"Point","coordinates":[-98.408614,29.881355]}},{"properties":{"city":"Lexington","zip":"40513","geo_score":0.857,"id":"ac6xr4x27jfr","geo_precision":"zip","state":"KY"},"type":"Feature","geometry":{"type":"Point","coordinates":[-84.605827,38.01513]}},{"properties":{"city":"Madison","zip":"35758","geo_score":0.857,"id":"ac6xr5089twk","geo_precision":"zip","state":"AL"},"type":"Feature","geometry":{"type":"Point","coordinates":[-86.742478,34.710815]}},{"properties":{"city":"Hopkindsville","zip":"42240","geo_score":0.857,"id":"ac6xr518q1p6","geo_precision":"zip","state":"KY"},"type":"Feature","geometry":{"type":"Point","coordinates":[-87.630291,36.799214]}},{"properties":{"city":"Savannah","zip":"38372","geo_score":0.857,"id":"ac6xr4xw2ahq","geo_precision":"zip","state":"TN"},"type":"Feature","geometry":{"type":"Point","coordinates":[-88.256706,35.114806]}},{"properties":{"city":"Cunningham","zip":"37052","geo_score":0.857,"id":"ac6xr4nz1bwb","geo_precision":"zip","state":"TN"},"type":"Feature","geometry":{"type":"Point","coordinates":[-87.376496,36.398614]}},{"properties":{"city":"Cunningham","zip":"37052","geo_score":0.857,"id":"ac6xr51l5yl4","geo_precision":"zip","state":"TN"},"type":"Feature","geometry":{"type":"Point","coordinates":[-87.376496,36.398614]}},{"properties":{"city":"Nashville","zip":"37215","geo_score":0.857,"id":"ac6xr502yr74","geo_precision":"zip","state":"TN"},"type":"Feature","geometry":{"type":"Point","coordinates":[-86.885987,36.086531]}},{"properties":{"city":"Franklin","zip":"37069","geo_score":0.857,"id":"ac6xr4pj8aj6","geo_precision":"zip","state":"TN"},"type":"Feature","geometry":{"type":"Point","coordinates":[-86.910623,35.979553]}},{"properties":{"city":"Clinton","zip":"39056","geo_score":0.857,"id":"ac6xr4p5vf26","geo_precision":"zip","state":"MS"},"type":"Feature","geometry":{"type":"Point","coordinates":[-90.312371,32.370736]}},{"properties":{"city":"Brentwood","zip":"37027","geo_score":0.857,"id":"ac6xr4xqms2t","geo_precision":"zip","state":"TN"},"type":"Feature","geometry":{"type":"Point","coordinates":[-86.816058,35.982981]}},{"properties":{"city":"Nashville","zip":"37206","geo_score":0.857,"id":"ac6xr53a7lmv","geo_precision":"zip","state":"TN"},"type":"Feature","geometry":{"type":"Point","coordinates":[-86.73575,36.180143]}},{"properties":{"city":"Memphis","zip":"38128","geo_score":0.857,"id":"ac6xr4r96gsi","geo_precision":"zip","state":"TN"},"type":"Feature","geometry":{"type":"Point","coordinates":[-89.920266,35.223442]}},{"properties":{"city":"Las Vegas","zip":"89118","geo_score":0.857,"id":"ac6xr4q7ckuu","geo_precision":"zip","state":"NV"},"type":"Feature","geometry":{"type":"Point","coordinates":[-115.23083,36.018028]}},{"properties":{"city":"Miami","zip":"33186","geo_score":0.857,"id":"ac6xr4wbvda8","geo_precision":"zip","state":"Fl"},"type":"Feature","geometry":{"type":"Point","coordinates":[-80.410144,25.656462]}},{"properties":{"city":"Loveland","zip":"80537","geo_score":0.857,"id":"ac6xr52bybwo","geo_precision":"zip","state":"CO"},"type":"Feature","geometry":{"type":"Point","coordinates":[-104.950809,40.406649]}},{"properties":{"city":"Charleston","zip":"29407","geo_score":0.857,"id":"ac6xr4shdik7","geo_precision":"zip","state":"SC"},"type":"Feature","geometry":{"type":"Point","coordinates":[-80.042313,32.82962]}},{"properties":{"city":"Vancouver","zip":"98661","geo_score":0.857,"id":"ac6xr4v4hvza","geo_precision":"zip","state":"WA"},"type":"Feature","geometry":{"type":"Point","coordinates":[-122.643658,45.769989]}},{"properties":{"city":"Birmingham","zip":"35216","geo_score":0.857,"id":"ac6xr4y85qym","geo_precision":"zip","state":"AL"},"type":"Feature","geometry":{"type":"Point","coordinates":[-86.798045,33.394276]}},{"properties":{"city":"Marion","zip":"62959","geo_score":0.857,"id":"ac6xr4n9uvad","geo_precision":"zip","state":"IL"},"type":"Feature","geometry":{"type":"Point","coordinates":[-88.803953,37.763938]}},{"properties":{"city":"Smyrna","zip":"37167","geo_score":0.857,"id":"ac6xr4tazmhh","geo_precision":"zip","state":"TN"},"type":"Feature","geometry":{"type":"Point","coordinates":[-86.494993,36.006452]}},{"properties":{"city":"Olive Branch","zip":"38654","geo_score":0.857,"id":"ac6xr4owftmq","geo_precision":"zip","state":"MS"},"type":"Feature","geometry":{"type":"Point","coordinates":[-89.768697,34.917595]}},{"properties":{"city":"Hixson","zip":"37343","geo_score":0.857,"id":"ac6xr4ne8z7g","geo_precision":"zip","state":"TN"},"type":"Feature","geometry":{"type":"Point","coordinates":[-85.238291,35.147571]}},{"properties":{"city":"Nashville","zip":"37211","geo_score":0.857,"id":"ac6xr53iy7rb","geo_precision":"zip","state":"TN"},"type":"Feature","geometry":{"type":"Point","coordinates":[-82.758763,36.175103]}},{"properties":{"city":"Nashville","zip":"37210","geo_score":0.857,"id":"ac6xr4qd3t4r","geo_precision":"zip","state":"TN"},"type":"Feature","geometry":{"type":"Point","coordinates":[-86.729947,36.137475]}},{"properties":{"city":"Manchester","zip":"37355","geo_score":0.857,"id":"ac6xr4oqux5n","geo_precision":"zip","state":"TN"},"type":"Feature","geometry":{"type":"Point","coordinates":[-86.106656,35.540075]}},{"properties":{"city":"Northport","zip":"35473","geo_score":0.857,"id":"ac6xr4x7iqcy","geo_precision":"zip","state":"AL"},"type":"Feature","geometry":{"type":"Point","coordinates":[-87.537152,33.347539]}},{"properties":{"city":"Boone","zip":"28607","geo_score":0.857,"id":"ac6xr520zcaa","geo_precision":"zip","state":"NC"},"type":"Feature","geometry":{"type":"Point","coordinates":[-81.683719,36.219017]}},{"properties":{"city":"Murfreesboro","zip":"37130","geo_score":0.857,"id":"ac6xr4y2qycn","geo_precision":"zip","state":"TN"},"type":"Feature","geometry":{"type":"Point","coordinates":[-86.521382,35.90312]}},{"properties":{"city":"Castalian Springs","zip":"37031","geo_score":0.857,"id":"ac6xr4znoqn0","geo_precision":"zip","state":"TN"},"type":"Feature","geometry":{"type":"Point","coordinates":[-86.292768,36.386437]}},{"properties":{"city":"Madison","zip":"37115","geo_score":0.857,"id":"ac6xr5260quf","geo_precision":"zip","state":"TN"},"type":"Feature","geometry":{"type":"Point","coordinates":[-86.706296,36.259503]}},{"properties":{"city":"Nashville","zip":"37209","geo_score":0.857,"id":"ac6xr4wlkagr","geo_precision":"zip","state":"TN"},"type":"Feature","geometry":{"type":"Point","coordinates":[-86.89995,36.142007]}},{"properties":{"city":"Greenbriar","zip":"37073","geo_score":0.857,"id":"ac6xr4uhovxy","geo_precision":"zip","state":"TN"},"type":"Feature","geometry":{"type":"Point","coordinates":[-86.809567,36.437397]}},{"properties":{"city":"Nashville","zip":"37204","geo_score":0.857,"id":"ac6xr4v0lg5r","geo_precision":"zip","state":"TN"},"type":"Feature","geometry":{"type":"Point","coordinates":[-86.850099,36.119294]}},{"properties":{"city":"Sweetwater","zip":"37874","geo_score":0.857,"id":"ac6xr4wcde85","geo_precision":"zip","state":"TN"},"type":"Feature","geometry":{"type":"Point","coordinates":[-84.368257,35.600354]}},{"properties":{"city":"Hendersonville","zip":"37075","geo_score":0.857,"id":"ac6xr4r5w5c2","geo_precision":"zip","state":"TN"},"type":"Feature","geometry":{"type":"Point","coordinates":[-86.101377,36.36894]}},{"properties":{"city":"Chattanooga","zip":"37421","geo_score":0.857,"id":"ac6xr4valn22","geo_precision":"zip","state":"TN"},"type":"Feature","geometry":{"type":"Point","coordinates":[-85.149953,35.057574]}},{"properties":{"city":"Clarksville","zip":"37043","geo_score":0.857,"id":"ac6xr4vsf4g2","geo_precision":"zip","state":"TN"},"type":"Feature","geometry":{"type":"Point","coordinates":[-87.218617,36.439772]}},{"properties":{"city":"Mount Juliet","zip":"37122","geo_score":0.857,"id":"ac6xr4p2g9cv","geo_precision":"zip","state":"TN"},"type":"Feature","geometry":{"type":"Point","coordinates":[-86.468695,36.184603]}},{"properties":{"city":"Maryville","zip":"37801","geo_score":0.857,"id":"ac6xr4xstrqd","geo_precision":"zip","state":"TN"},"type":"Feature","geometry":{"type":"Point","coordinates":[-83.979071,35.756472]}},{"properties":{"city":"Nashville","zip":"37221","geo_score":0.857,"id":"ac6xr4y5vwsh","geo_precision":"zip","state":"TN"},"type":"Feature","geometry":{"type":"Point","coordinates":[-86.963852,36.06616]}},{"properties":{"city":"Cleveland","zip":"37312","geo_score":0.857,"id":"ac6xr4xqwmcj","geo_precision":"zip","state":"TN"},"type":"Feature","geometry":{"type":"Point","coordinates":[-84.86844,35.255097]}},{"properties":{"city":"Cadiz","zip":"42211","geo_score":0.857,"id":"ac6xr52827oz","geo_precision":"zip","state":"KY"},"type":"Feature","geometry":{"type":"Point","coordinates":[-87.70696,36.725604]}},{"properties":{"city":"Smyrna","zip":"37167","geo_score":0.857,"id":"ac6xr4t2wyem","geo_precision":"zip","state":"TN"},"type":"Feature","geometry":{"type":"Point","coordinates":[-86.494993,36.006452]}},{"properties":{"city":"Athens","zip":"35613","geo_score":0.857,"id":"ac6xr4pmqcih","geo_precision":"zip","state":"AL"},"type":"Feature","geometry":{"type":"Point","coordinates":[-86.886679,34.831704]}},{"properties":{"city":"Nashville","zip":"37209","geo_score":0.857,"id":"ac6xr51dhevi","geo_precision":"zip","state":"TN"},"type":"Feature","geometry":{"type":"Point","coordinates":[-86.89995,36.142007]}},{"properties":{"city":"Nashville","zip":"32220","geo_score":0.714,"id":"ac6xr4w1vkmx","geo_precision":"zip","state":"TN"},"type":"Feature","geometry":{"type":"Point","coordinates":[-81.895105,30.309405]}},{"properties":{"city":"Nolensville","zip":"37135","geo_score":0.857,"id":"ac6xr4tw7gzu","geo_precision":"zip","state":"TN"},"type":"Feature","geometry":{"type":"Point","coordinates":[-86.675349,35.925201]}},{"properties":{"city":"Los Angeles","zip":"90011","geo_score":0.857,"id":"ac6xr51uhezd","geo_precision":"zip","state":"CA"},"type":"Feature","geometry":{"type":"Point","coordinates":[-118.250056,33.989264]}},{"properties":{"city":"Collierville","zip":"38017","geo_score":0.857,"id":"ac6xr4ndznuk","geo_precision":"zip","state":"TN"},"type":"Feature","geometry":{"type":"Point","coordinates":[-89.728695,35.050925]}},{"properties":{"city":"Nashville","zip":"37220","geo_score":0.857,"id":"ac6xr4t08gfe","geo_precision":"zip","state":"TN"},"type":"Feature","geometry":{"type":"Point","coordinates":[-86.782098,36.067109]}},{"properties":{"city":"Columbia","zip":"65203","geo_score":0.857,"id":"ac6xr4zhuc4q","geo_precision":"zip","state":"MO"},"type":"Feature","geometry":{"type":"Point","coordinates":[-92.397824,38.88248]}},{"properties":{"city":"Franklin","zip":"37064","geo_score":0.857,"id":"ac6xr4y8laql","geo_precision":"zip","state":"TN"},"type":"Feature","geometry":{"type":"Point","coordinates":[-87.079172,35.954508]}},{"properties":{"city":"Baltimore","zip":"21215","geo_score":0.857,"id":"ac6xr4pl8u2h","geo_precision":"zip","state":"MD"},"type":"Feature","geometry":{"type":"Point","coordinates":[-76.68386,39.339551]}},{"properties":{"city":"Memphis","zip":"38116","geo_score":0.857,"id":"ac6xr535a0dg","geo_precision":"zip","state":"TN"},"type":"Feature","geometry":{"type":"Point","coordinates":[-90.01109,35.032879]}},{"properties":{"city":"Nashville","zip":"37221","geo_score":0.857,"id":"ac6xr4o5xz7q","geo_precision":"zip","state":"TN"},"type":"Feature","geometry":{"type":"Point","coordinates":[-86.963852,36.06616]}},{"properties":{"city":"Brentwood","zip":"37027","geo_score":0.857,"id":"ac6xr4solvj1","geo_precision":"zip","state":"TN"},"type":"Feature","geometry":{"type":"Point","coordinates":[-86.816058,35.982981]}},{"properties":{"city":"Franklin","zip":"37067","geo_score":0.857,"id":"ac6xr50y1u66","geo_precision":"zip","state":"TN"},"type":"Feature","geometry":{"type":"Point","coordinates":[-86.765537,35.912072]}},{"properties":{"city":"McMinnville","zip":"37110","geo_score":0.857,"id":"ac6xr51yvdm1","geo_precision":"zip","state":"TN"},"type":"Feature","geometry":{"type":"Point","coordinates":[-85.78526,35.669793]}},{"properties":{"city":"Nashville","zip":"37218","geo_score":0.857,"id":"ac6xr4st2m5l","geo_precision":"zip","state":"TN"},"type":"Feature","geometry":{"type":"Point","coordinates":[-86.89585,36.234304]}},{"properties":{"city":"Nashville","zip":"37212","geo_score":0.857,"id":"ac6xr51y44t6","geo_precision":"zip","state":"TN"},"type":"Feature","geometry":{"type":"Point","coordinates":[-87.010281,36.027284]}},{"properties":{"city":"Lenoir City","zip":"37772","geo_score":0.857,"id":"ac6xr4y0b77w","geo_precision":"zip","state":"TN"},"type":"Feature","geometry":{"type":"Point","coordinates":[-84.256679,35.787243]}},{"properties":{"city":"Shannon","zip":"38868","geo_score":0.857,"id":"ac6xr500wdab","geo_precision":"zip","state":"MS"},"type":"Feature","geometry":{"type":"Point","coordinates":[-88.736719,34.147609]}},{"properties":{"city":"Murfreesboro","zip":"37130","geo_score":0.857,"id":"ac6xr4p4lmtn","geo_precision":"zip","state":"TN"},"type":"Feature","geometry":{"type":"Point","coordinates":[-86.521382,35.90312]}},{"properties":{"city":"Nashville","zip":"37221","geo_score":0.857,"id":"ac6xr4o1w9ro","geo_precision":"zip","state":"TN"},"type":"Feature","geometry":{"type":"Point","coordinates":[-86.963852,36.06616]}},{"properties":{"city":"Hockessin","zip":"19707","geo_score":0.857,"id":"ac6xr4w7xsyy","geo_precision":"zip","state":"DE"},"type":"Feature","geometry":{"type":"Point","coordinates":[-75.680897,39.635202]}},{"properties":{"city":"Nashville","zip":"37205","geo_score":0.857,"id":"ac6xr4zmxkc8","geo_precision":"zip","state":"TN"},"type":"Feature","geometry":{"type":"Point","coordinates":[-86.887223,36.117836]}},{"properties":{"city":"Nashville","zip":"37204","geo_score":0.857,"id":"ac6xr4uuj2xj","geo_precision":"zip","state":"TN"},"type":"Feature","geometry":{"type":"Point","coordinates":[-86.850099,36.119294]}},{"properties":{"city":"Nashville","zip":"37206","geo_score":0.857,"id":"ac6xr51uxu39","geo_precision":"zip","state":"TN"},"type":"Feature","geometry":{"type":"Point","coordinates":[-86.73575,36.180143]}},{"properties":{"city":"Franklin","zip":"37069","geo_score":0.857,"id":"ac6xr4tn5n3c","geo_precision":"zip","state":"TN"},"type":"Feature","geometry":{"type":"Point","coordinates":[-86.910623,35.979553]}},{"properties":{"city":"Nashville","zip":"37215","geo_score":0.857,"id":"ac6xr52bm6yk","geo_precision":"zip","state":"TN"},"type":"Feature","geometry":{"type":"Point","coordinates":[-86.885987,36.086531]}},{"properties":{"city":"Miramar","zip":"33023","geo_score":0.857,"id":"ac6xr515fuzr","geo_precision":"zip","state":"FL"},"type":"Feature","geometry":{"type":"Point","coordinates":[-80.232271,25.987314]}},{"properties":{"city":"Nashville","zip":"37221","geo_score":0.857,"id":"ac6xr50mhtam","geo_precision":"zip","state":"TN"},"type":"Feature","geometry":{"type":"Point","coordinates":[-86.963852,36.06616]}},{"properties":{"city":"Nolensville","zip":"37135","geo_score":0.857,"id":"ac6xr4o4o4n7","geo_precision":"zip","state":"TN"},"type":"Feature","geometry":{"type":"Point","coordinates":[-86.675349,35.925201]}},{"properties":{"city":"Spring Hill","zip":"37174","geo_score":0.714,"id":"ac6xr4twgl2t","geo_precision":"zip","state":"TN"},"type":"Feature","geometry":{"type":"Point","coordinates":[-86.898335,35.702291]}},{"properties":{"city":"Mount Juliet","zip":"37122","geo_score":0.857,"id":"ac6xr4ngiwql","geo_precision":"zip","state":"TN"},"type":"Feature","geometry":{"type":"Point","coordinates":[-86.468695,36.184603]}},{"properties":{"city":"Garnet Valley","zip":"19060","geo_score":0.714,"id":"ac6xr4t5pvad","geo_precision":"city","state":"PA"},"type":"Feature","geometry":{"type":"Point","coordinates":[-79.869492,40.168127]}}],"is_temporal":false,"author":{"url":"","metadata":null,"contact_name":null,"contact_address":null,"source":null,"contact_phone":null},"source":"","pagination":{"sort":null,"start":0,"total":327,"limit":1000000},"state":"complete","tags":"","published":"2014-08-16T14:44:22-04:00","id":321275}