{"type":"FeatureCollection","data_type":"Dataset","url_type":null,"permissions":[{"permissions":{"download":true,"view":true},"group_id":"everyone"}],"classification":null,"title":"AllianceMapData 021413","count":58,"stream_id":321467,"contributor":{"url":"http://geocommons.com/users/56179","name":"brian5635"},"data_attributes":null,"calculation_params":null,"icon_link":null,"link":"http://geocommons.com/overlays/321467.json","extent":[-122.71,32.8643,-117.075,38.4147],"geometry_types":["point"],"unique_name":null,"name":"AllianceMapData 021413","feature_count":58,"description":"All CA Alliance properties","next_feature":null,"is_raster":false,"short_classification":"Y","stats":{},"features":[{"properties":{"property name":"360 Residences","city":"San Jose","zip":"95113","geo_score":0.61,"id":"ac7lo6lcr6gn","address":"360 S. Market St.","geo_precision":"street","state":"CA"},"type":"Feature","geometry":{"type":"Point","coordinates":[-121.892054,37.335466]}},{"properties":{"property name":"Abrams Park","city":"Marina","zip":"93933","geo_score":1.0,"id":"ac7lo6cj7k9c","address":"682 Wahl Court","geo_precision":"range","state":"CA"},"type":"Feature","geometry":{"type":"Point","coordinates":[-121.774954,36.670435]}},{"properties":{"property name":"Azure at Lakeville Square","city":"Petaluma","zip":"94954","geo_score":0.637,"id":"ac7lo6gezi65","address":"2620 Lakeville Hwy, STE 330","geo_precision":"street","state":"CA"},"type":"Feature","geometry":{"type":"Point","coordinates":[-122.591597,38.240394]}},{"properties":{"property name":"CEHI I","city":"Marina","zip":"93933","geo_score":1.0,"id":"ac7lo6b84b71","address":"601 Thomas Ct","geo_precision":"range","state":"CA"},"type":"Feature","geometry":{"type":"Point","coordinates":[-121.76201,36.662771]}},{"properties":{"property name":"CEHI II","city":"Marina","zip":"93933","geo_score":1.0,"id":"ac7lo6l6yvuy","address":"601 Thomas Ct","geo_precision":"range","state":"CA"},"type":"Feature","geometry":{"type":"Point","coordinates":[-121.76201,36.662771]}},{"properties":{"property name":"Cotton Wood","city":"Dublin","zip":"94568","geo_score":1.0,"id":"ac7lo6ee6vbc","address":"6500 Cotton Wood Circle","geo_precision":"range","state":"CA"},"type":"Feature","geometry":{"type":"Point","coordinates":[-121.913385,37.719941]}},{"properties":{"property name":"Crossroads","city":"Concord","zip":"94521","geo_score":1.0,"id":"ac7lo68iqv5s","address":"5378 Clayton Road","geo_precision":"range","state":"CA"},"type":"Feature","geometry":{"type":"Point","coordinates":[-121.957778,37.952195]}},{"properties":{"property name":"Frederick Park","city":"Marina","zip":"93933","geo_score":1.0,"id":"ac7lo6a1fqey","address":"601 Thomas Ct","geo_precision":"range","state":"CA"},"type":"Feature","geometry":{"type":"Point","coordinates":[-121.76201,36.662771]}},{"properties":{"property name":"Harbor Park","city":"Vallejo","zip":"94590","geo_score":1.0,"id":"ac7lo6epqfm9","address":"969 Porter Street","geo_precision":"range","state":"CA"},"type":"Feature","geometry":{"type":"Point","coordinates":[-122.241705,38.082339]}},{"properties":{"property name":"Heritage Park","city":"Sunnyvale","zip":"94086","geo_score":1.0,"id":"ac7lo6l85fg9","address":"555 East Washington Avenue","geo_precision":"range","state":"CA"},"type":"Feature","geometry":{"type":"Point","coordinates":[-122.021519,37.374348]}},{"properties":{"property name":"La Terraza","city":"San Jose","zip":"95129","geo_score":1.0,"id":"ac7lo6b0aeqb","address":"470 Saratoga Ave","geo_precision":"range","state":"CA"},"type":"Feature","geometry":{"type":"Point","coordinates":[-121.973846,37.318358]}},{"properties":{"property name":"Montessa at Whitney Ranch","city":"Rocklin","zip":"95765","geo_score":0.398,"id":"ac7lo6lelkcs","address":"1150 Whitney Ranch Parkway","geo_precision":"street","state":"CA"},"type":"Feature","geometry":{"type":"Point","coordinates":[-121.412303,38.414663]}},{"properties":{"property name":"Presidents Park","city":"Pittsburg","zip":"94565","geo_score":0.619,"id":"ac7lo6nchsxx","address":"1128 E. Leland Road","geo_precision":"street","state":"CA"},"type":"Feature","geometry":{"type":"Point","coordinates":[-121.885115,38.010749]}},{"properties":{"property name":"Preston Park","city":"Marina","zip":"93933","geo_score":1.0,"id":"ac7lo6bnshzo","address":"682 Wahl Court","geo_precision":"range","state":"CA"},"type":"Feature","geometry":{"type":"Point","coordinates":[-121.774954,36.670435]}},{"properties":{"property name":"Schoonover Park","city":"Marina","zip":"93933","geo_score":1.0,"id":"ac7lo6iyrrvo","address":"601 Thomas Ct","geo_precision":"range","state":"CA"},"type":"Feature","geometry":{"type":"Point","coordinates":[-121.76201,36.662771]}},{"properties":{"property name":"Tamarind Square","city":"Sunnyvale","zip":"94089","geo_score":0.902,"id":"ac7lo6bh75w4","address":"1160 Morse Avenue","geo_precision":"range","state":"CA"},"type":"Feature","geometry":{"type":"Point","coordinates":[-122.015649,37.402347]}},{"properties":{"property name":"The Courtyards at 65th Street","city":"Emeryville","zip":"94608","geo_score":0.916,"id":"ac7lo6n9t62a","address":"1465 65th Street","geo_precision":"range","state":"CA"},"type":"Feature","geometry":{"type":"Point","coordinates":[-122.29187,37.846646]}},{"properties":{"property name":"The Crossing at Arroyo Trails","city":"Livermore","zip":"94551","geo_score":1.0,"id":"ac7lo6nzzcan","address":"156 North Murrieta Blvd.","geo_precision":"range","state":"CA"},"type":"Feature","geometry":{"type":"Point","coordinates":[-121.790583,37.680693]}},{"properties":{"property name":"Trellis Square","city":"Sunnyvale","zip":"94087","geo_score":0.602,"id":"ac7lo6a5w47u","address":"963 E. El Camino Real","geo_precision":"street","state":"CA"},"type":"Feature","geometry":{"type":"Point","coordinates":[-122.01127,37.351941]}},{"properties":{"property name":"Vineyard Gardens","city":"Santa Rosa","zip":"95407","geo_score":1.0,"id":"ac7lo6dcf1o3","address":"240 Burt St.","geo_precision":"range","state":"CA"},"type":"Feature","geometry":{"type":"Point","coordinates":[-122.710216,38.409891]}},{"properties":{"property name":"Willowbend","city":"Sunnyvale","zip":"94086","geo_score":1.0,"id":"ac7lo6hd5l39","address":"1035 Aster Ave.","geo_precision":"range","state":"CA"},"type":"Feature","geometry":{"type":"Point","coordinates":[-122.00288,37.369089]}},{"properties":{"property name":"Amalfi","city":"Santa Monica","zip":"90401","geo_score":0.857,"id":"ac7lo6j6ld2x","address":"1519 6th St., Suite 100","geo_precision":"street","state":"CA"},"type":"Feature","geometry":{"type":"Point","coordinates":[-118.496408,34.020647]}},{"properties":{"property name":"Anacapa","city":"Santa Monica","zip":"90401","geo_score":0.857,"id":"ac7lo6i1uvw7","address":"1519 6th St., Suite 100","geo_precision":"street","state":"CA"},"type":"Feature","geometry":{"type":"Point","coordinates":[-118.496408,34.020647]}},{"properties":{"property name":"Arrezo","city":"Santa Monica","zip":"90401","geo_score":0.857,"id":"ac7lo6fzxmwf","address":"1519 6th St., Suite 100","geo_precision":"street","state":"CA"},"type":"Feature","geometry":{"type":"Point","coordinates":[-118.496408,34.020647]}},{"properties":{"property name":"Astoria at Central Park West","city":"Irvine","zip":"92612","geo_score":0.585,"id":"ac7lo6bt8oh1","address":"40 Rockefeller","geo_precision":"zip","state":"CA"},"type":"Feature","geometry":{"type":"Point","coordinates":[-117.782805,33.615525]}},{"properties":{"property name":"Biella","city":"Santa Monica","zip":"90401","geo_score":0.857,"id":"ac7lo6jf8az2","address":"1519 6th St., Suite 100","geo_precision":"street","state":"CA"},"type":"Feature","geometry":{"type":"Point","coordinates":[-118.496408,34.020647]}},{"properties":{"property name":"Broadstone Foothills","city":"Upland","zip":"91786","geo_score":0.61,"id":"ac7lo69qzjgz","address":"524 N. Central Avenue","geo_precision":"street","state":"CA"},"type":"Feature","geometry":{"type":"Point","coordinates":[-117.689617,34.095711]}},{"properties":{"property name":"Broadstone Overlook","city":"Moreno Valley","zip":"92555","geo_score":1.0,"id":"ac7lo6hfvsug","address":"12963 Moreno Beach Drive","geo_precision":"range","state":"CA"},"type":"Feature","geometry":{"type":"Point","coordinates":[-117.175303,33.932935]}},{"properties":{"property name":"Broadstone Rancho Belago","city":"Moreno Valley","zip":"92555","geo_score":0.452,"id":"ac7lo6o1yif8","address":"27525 Trail Ridge Way","geo_precision":"street","state":"CA"},"type":"Feature","geometry":{"type":"Point","coordinates":[-117.371118,33.993542]}},{"properties":{"property name":"Broadstone Rivers Edge","city":"Lake Elsinore","zip":"92530","geo_score":0.633,"id":"ac7lo6komztm","address":"2088 E. Lake Shore Drive","geo_precision":"street","state":"CA"},"type":"Feature","geometry":{"type":"Point","coordinates":[-117.320584,33.663678]}},{"properties":{"property name":"Capri","city":"Santa Monica","zip":"90401","geo_score":0.857,"id":"ac7lo6lbme3i","address":"1519 6th St., Suite 100","geo_precision":"street","state":"CA"},"type":"Feature","geometry":{"type":"Point","coordinates":[-118.496408,34.020647]}},{"properties":{"property name":"Corte Madera","city":"Camarillo","zip":"93012","geo_score":0.585,"id":"ac7lo6daghmo","address":"5240 Corte Bocina","geo_precision":"zip","state":"CA"},"type":"Feature","geometry":{"type":"Point","coordinates":[-118.974355,34.204429]}},{"properties":{"property name":"Genoa","city":"Santa Monica","zip":"90401","geo_score":0.857,"id":"ac7lo69iuski","address":"1519 6th St., Suite 100","geo_precision":"street","state":"CA"},"type":"Feature","geometry":{"type":"Point","coordinates":[-118.496408,34.020647]}},{"properties":{"property name":"Livorno","city":"Santa Monica","zip":"90401","geo_score":0.857,"id":"ac7lo6mnc76z","address":"1519 6th St., Suite 100","geo_precision":"street","state":"CA"},"type":"Feature","geometry":{"type":"Point","coordinates":[-118.496408,34.020647]}},{"properties":{"property name":"Lugano","city":"Santa Monica","zip":"90401","geo_score":0.857,"id":"ac7lo6kqm1j9","address":"1519 6th St., Suite 100","geo_precision":"street","state":"CA"},"type":"Feature","geometry":{"type":"Point","coordinates":[-118.496408,34.020647]}},{"properties":{"property name":"Mountain View Apartments","city":"San Dimas","zip":"91773","geo_score":0.607,"id":"ac7lo6fivcqy","address":"650 E. Bonita Aveue","geo_precision":"street","state":"CA"},"type":"Feature","geometry":{"type":"Point","coordinates":[-117.804873,34.106665]}},{"properties":{"property name":"Mountainside Village","city":"San Bernardino","zip":"92407","geo_score":0.805,"id":"ac7lo6e95amm","address":"1660 Kendall Dr.","geo_precision":"street","state":"CA"},"type":"Feature","geometry":{"type":"Point","coordinates":[-117.379639,34.202802]}},{"properties":{"property name":"Ocean Palisades","city":"Santa Monica","zip":"90403","geo_score":0.902,"id":"ac7lo6ikfxr3","address":"950 4th St.","geo_precision":"range","state":"CA"},"type":"Feature","geometry":{"type":"Point","coordinates":[-118.502285,34.022492]}},{"properties":{"property name":"Ocean Palms","city":"Santa Monica","zip":"90403","geo_score":0.902,"id":"ac7lo6cwc3ap","address":"950 4th St","geo_precision":"range","state":"CA"},"type":"Feature","geometry":{"type":"Point","coordinates":[-118.502285,34.022492]}},{"properties":{"property name":"Portofino","city":"Santa Monica","zip":"90401","geo_score":0.857,"id":"ac7lo6f1sgbk","address":"1519 6th St., Suite 100","geo_precision":"street","state":"CA"},"type":"Feature","geometry":{"type":"Point","coordinates":[-118.496408,34.020647]}},{"properties":{"property name":"Positano","city":"Santa Monica","zip":"90401","geo_score":0.857,"id":"ac7lo69ld4ze","address":"1519 6th St., Suite 100","geo_precision":"street","state":"CA"},"type":"Feature","geometry":{"type":"Point","coordinates":[-118.496408,34.020647]}},{"properties":{"property name":"Revello","city":"Santa Monica","zip":"90401","geo_score":0.857,"id":"ac7lo6gpkunn","address":"1519 6th St., Suite 100","geo_precision":"street","state":"CA"},"type":"Feature","geometry":{"type":"Point","coordinates":[-118.496408,34.020647]}},{"properties":{"property name":"San Remo","city":"Santa Monica","zip":"90401","geo_score":0.857,"id":"ac7lo6nil5hb","address":"1519 6th St., Suite 100","geo_precision":"street","state":"CA"},"type":"Feature","geometry":{"type":"Point","coordinates":[-118.496408,34.020647]}},{"properties":{"property name":"Sorrento","city":"Santa Monica","zip":"90401","geo_score":0.857,"id":"ac7lo6fg3q1n","address":"1519 6th St., Suite 100","geo_precision":"street","state":"CA"},"type":"Feature","geometry":{"type":"Point","coordinates":[-118.496408,34.020647]}},{"properties":{"property name":"Stella","city":"Marina del Rey","zip":"90292","geo_score":0.585,"id":"ac7lo6hbxtiu","address":"13488 Maxella Ave.","geo_precision":"zip","state":"CA"},"type":"Feature","geometry":{"type":"Point","coordinates":[-118.298662,33.786594]}},{"properties":{"property name":"Venezia","city":"Santa Monica","zip":"90401","geo_score":0.902,"id":"ac7lo69w1krm","address":"1535 6th St.","geo_precision":"range","state":"CA"},"type":"Feature","geometry":{"type":"Point","coordinates":[-118.490346,34.015561]}},{"properties":{"property name":"Ventura Colony","city":"Ventura","zip":"93003","geo_score":1.0,"id":"ac7lo6jvo5ae","address":"848 Weber Circle","geo_precision":"range","state":"CA"},"type":"Feature","geometry":{"type":"Point","coordinates":[-119.229193,34.265381]}},{"properties":{"property name":"Verona","city":"Santa Monica","zip":"90401","geo_score":0.902,"id":"ac7lo6c4ygrm","address":"1530 6th St.","geo_precision":"range","state":"CA"},"type":"Feature","geometry":{"type":"Point","coordinates":[-118.490389,34.015431]}},{"properties":{"property name":"Vista Catalina","city":"Rancho PV","zip":"90275","geo_score":0.928,"id":"ac7lo6b9ax2o","address":"6507 Ocean Crest Drive","geo_precision":"range","state":"CA"},"type":"Feature","geometry":{"type":"Point","coordinates":[-118.395298,33.764008]}},{"properties":{"property name":"Canyon Hills","city":"San Diego","zip":"92129","geo_score":1.0,"id":"ac7lo6d2og27","address":"9870 Mercy Road","geo_precision":"range","state":"CA"},"type":"Feature","geometry":{"type":"Point","coordinates":[-117.114643,32.938606]}},{"properties":{"property name":"Compass Pointe","city":"San Diego","zip":"92126","geo_score":0.813,"id":"ac7lo6gmeoke","address":"11600 Compass Point Drive North","geo_precision":"range","state":"CA"},"type":"Feature","geometry":{"type":"Point","coordinates":[-117.122959,32.927217]}},{"properties":{"property name":"Flower Fields","city":"Carlsbad","zip":"92010","geo_score":0.915,"id":"ac7lo6awuihu","address":"2666 Flower Fields Way","geo_precision":"range","state":"CA"},"type":"Feature","geometry":{"type":"Point","coordinates":[-117.32018,33.177477]}},{"properties":{"property name":"Monarch at Shadowridge","city":"Vista","zip":"92083","geo_score":0.902,"id":"ac7lo69m3k8o","address":"1850 Thibodo Road","geo_precision":"range","state":"CA"},"type":"Feature","geometry":{"type":"Point","coordinates":[-117.224539,33.16989]}},{"properties":{"property name":"Overlook at Bernardo Heights","city":"San Diego","zip":"92128","geo_score":1.0,"id":"ac7lo6ob2skc","address":"15909 Avenida Venusto","geo_precision":"range","state":"CA"},"type":"Feature","geometry":{"type":"Point","coordinates":[-117.07514,33.00147]}},{"properties":{"property name":"Regents Court","city":"San Diego","zip":"92122","geo_score":0.902,"id":"ac7lo6hihoox","address":"8465 Regents Road","geo_precision":"range","state":"CA"},"type":"Feature","geometry":{"type":"Point","coordinates":[-117.221903,32.864325]}},{"properties":{"property name":"Trieste Apartment Villas","city":"San Diego","zip":"92122","geo_score":0.973,"id":"ac7lo69gvfv1","address":"3950 Mahalia Ave.","geo_precision":"range","state":"CA"},"type":"Feature","geometry":{"type":"Point","coordinates":[-117.221169,32.869946]}},{"properties":{"property name":"Westview Village","city":"San Diego","zip":"92126","geo_score":0.878,"id":"ac7lo6etjsim","address":"11760 Westview Parkway","geo_precision":"range","state":"CA"},"type":"Feature","geometry":{"type":"Point","coordinates":[-117.12327,32.93239]}},{"properties":{"property name":"Jefferson at Carmel Mountain","city":"San Diego","zip":"92128","geo_score":1.0,"id":"ac7lo6gs8lsw","address":"11832 Stoney Peak Drive","geo_precision":"range","state":"CA"},"type":"Feature","geometry":{"type":"Point","coordinates":[-117.076193,32.978603]}}],"is_temporal":false,"author":{"url":"","metadata":"","contact_name":"","contact_address":"","source":"","contact_phone":""},"source":"","pagination":{"sort":null,"start":0,"total":58,"limit":1000000},"state":"complete","tags":"alliance,portfolio","published":"2014-08-16T14:56:57-04:00","id":321467}