{"type":"FeatureCollection","data_type":"Dataset Analysis","url_type":null,"permissions":[{"permissions":{"download":true,"view":true},"group_id":"everyone"}],"classification":null,"title":"Filtered Features of 'BackSack Locations 2.15.13' based on 'C&amp;S Wholesale location'","count":116,"stream_id":321689,"contributor":{"url":"http://geocommons.com/users/32393","name":"eoliver88"},"data_attributes":null,"calculation_params":{"input":{"min_distance":"0","unit":"miles","near_id":"321688","distance":"20","include_distance":true,"id":"321683"},"calculation":"buffer_intersect"},"icon_link":null,"link":"http://geocommons.com/overlays/321689.json","extent":[-86.2884,39.4861,-85.7463,40.018],"geometry_types":["point"],"unique_name":null,"name":"Filtered Features of 'BackSack Locations 2.15.13' based on 'C&S Wholesale location'","feature_count":116,"description":"Dataset created by filtering features of 'BackSack Locations 2.15.13' that are within a buffer of 0 to 20 miles around the features in 'C&amp;S Wholesale location'","next_feature":null,"is_raster":false,"short_classification":"Y","stats":{"geo_score":{"max":1.0,"variance":0.0201312428035982,"mean":0.899474137931035,"stdev":0.141884610876579,"min":0.329,"median":0.941},"distance":{"max":19.9935820031472,"variance":29.074697197093,"mean":10.9336858163372,"stdev":5.3920958074846,"min":0.748527493666789,"median":10.2040914760119}},"features":[{"properties":{"city":"Franklin","geo_score":1.0,"zip code":"46131","id":"ac8f7t5gfbe3","geo_precision":"range","address":"1400 Webb Court","school":"Webb Elementary","state":"IN","distance":19.6314038640238},"type":"Feature","geometry":{"type":"Point","coordinates":[-86.03419,39.486149]}},{"properties":{"city":"Franklin","geo_score":1.0,"zip code":"46131","id":"ac8f7tkozrjc","geo_precision":"range","address":"965  Grizzly Cub Drive","school":"Northwood Elementary","state":"IN","distance":19.6322876836024},"type":"Feature","geometry":{"type":"Point","coordinates":[-86.063836,39.489056]}},{"properties":{"city":"Franklin","geo_score":1.0,"zip code":"46131","id":"ac8f7tlrjc1g","geo_precision":"range","address":"1399 Upper Shelbyville Road","school":"Needham Elementary","state":"IN","distance":19.3781963924463},"type":"Feature","geometry":{"type":"Point","coordinates":[-86.038973,39.490309]}},{"properties":{"city":"Beech Grove","geo_score":0.864,"zip code":"46131","id":"ac8f7tbdp8zm","geo_precision":"range","address":"1000 Main Street","school":"Central Elementary","state":"IN","distance":19.5149560065348},"type":"Feature","geometry":{"type":"Point","coordinates":[-86.05971,39.490359]}},{"properties":{"city":"New Whiteland","geo_score":0.951,"zip code":"46184","id":"ac8f7tewjsb8","geo_precision":"range","address":"900 Sawmill Road","school":"Break-O-Day Elementary","state":"IN","distance":17.0434419263742},"type":"Feature","geometry":{"type":"Point","coordinates":[-86.101544,39.536045]}},{"properties":{"city":"Shelbyville","geo_score":0.333,"zip code":"46176","id":"ac8f7tht3oda","geo_precision":"street","address":"1111 St. Joseph Street","school":"T. A. Hendricks Elementary","state":"IN","distance":16.7920105735571},"type":"Feature","geometry":{"type":"Point","coordinates":[-86.09998,39.53938]}},{"properties":{"city":"New Whiteland","geo_score":0.829,"zip code":"46184","id":"ac8f7ti47cwj","geo_precision":"range","address":"700 Sawmill Road","school":"Sawmill Woods Elementary","state":"IN","distance":15.6848677853496},"type":"Feature","geometry":{"type":"Point","coordinates":[-86.10168,39.55667]}},{"properties":{"city":"Fairland","geo_score":1.0,"zip code":"46126","id":"ac8f7thm4lrf","geo_precision":"range","address":"4976 W 600 North","school":"Triton Central Elementary","state":"IN","distance":15.2788848479876},"type":"Feature","geometry":{"type":"Point","coordinates":[-85.873608,39.610466]}},{"properties":{"city":"Camby","geo_score":0.984,"zip code":"46113","id":"ac8f7ti0dc8m","geo_precision":"range","address":"7456 E Hadley Road","school":"North Madison Elementary","state":"IN","distance":19.9511552516583},"type":"Feature","geometry":{"type":"Point","coordinates":[-86.267893,39.611398]}},{"properties":{"city":"Greenwood","geo_score":0.604,"zip code":"46143","id":"ac8f7t5isgrg","geo_precision":"street","address":"50 E. Broadway","school":"Isom Elementary","state":"IN","distance":12.089840411755},"type":"Feature","geometry":{"type":"Point","coordinates":[-86.10632,39.6156]}},{"properties":{"city":"Greenwood","geo_score":1.0,"zip code":"46143","id":"ac8f7tf8bdld","geo_precision":"range","address":"99 Crestview Drive","school":"Northeast Elementary","state":"IN","distance":11.0367431739545},"type":"Feature","geometry":{"type":"Point","coordinates":[-86.098998,39.628999]}},{"properties":{"city":"Indianapolis","geo_score":1.0,"zip code":"46227","id":"ac8f7tedfnzk","geo_precision":"range","address":"1900 E Stop 12 Road","school":"Winchester Village Elementary","state":"IN","distance":11.3117391891608},"type":"Feature","geometry":{"type":"Point","coordinates":[-86.127786,39.642947]}},{"properties":{"city":"Indianapolis","geo_score":0.878,"zip code":"46237","id":"ac8f7tgv6pyv","geo_precision":"range","address":"4355 E Stop 11 Road","school":"Mary Bryan Elementary","state":"IN","distance":9.42110903386533},"type":"Feature","geometry":{"type":"Point","coordinates":[-86.090387,39.650957]}},{"properties":{"city":"West Newton","geo_score":0.992,"zip code":"46183","id":"ac8f7td5rkzn","geo_precision":"range","address":"7529 Mooresville Road","school":"West Newton Elementary","state":"IN","distance":19.4781488896078},"type":"Feature","geometry":{"type":"Point","coordinates":[-86.282228,39.652765]}},{"properties":{"city":"Indianapolis","geo_score":0.955,"zip code":"46227","id":"ac8f7thday0h","geo_precision":"range","address":"261 E Anniston Drive","school":"Southport Elementary","state":"IN","distance":9.91233035824528},"type":"Feature","geometry":{"type":"Point","coordinates":[-86.116367,39.659823]}},{"properties":{"city":"Indianapolis","geo_score":1.0,"zip code":"46227","id":"ac8f7tcxgvj3","geo_precision":"range","address":"1551 Southview Drive","school":"Homecroft Elementary","state":"IN","distance":10.1671838438979},"type":"Feature","geometry":{"type":"Point","coordinates":[-86.131862,39.668505]}},{"properties":{"city":"Indianapolis","geo_score":0.966,"zip code":"46259","id":"ac8f7td9mel6","geo_precision":"range","address":"8735 Indian Creek Road","school":"Kitley Elementary","state":"IN","distance":6.89227991480917},"type":"Feature","geometry":{"type":"Point","coordinates":[-86.001844,39.674403]}},{"properties":{"city":"Indianapolis","geo_score":0.878,"zip code":"46221","id":"ac8f7tk3p961","geo_precision":"range","address":"5650 Mann Road","school":"DELC Blue Academy","state":"IN","distance":16.3567964900911},"type":"Feature","geometry":{"type":"Point","coordinates":[-86.24595,39.682103]}},{"properties":{"city":"Indianapolis","geo_score":0.878,"zip code":"46221","id":"ac8f7t8hlm48","geo_precision":"range","address":"5650 Mann Road","school":"DELC Gold Academy","state":"IN","distance":16.3567964900911},"type":"Feature","geometry":{"type":"Point","coordinates":[-86.24595,39.682103]}},{"properties":{"city":"Indianapolis","geo_score":1.0,"zip code":"46237","id":"ac8f7te9nwvp","geo_precision":"range","address":"5814 South Arlington Avenue","school":"Arlington Elementary","state":"IN","distance":6.59885304768764},"type":"Feature","geometry":{"type":"Point","coordinates":[-86.063605,39.683039]}},{"properties":{"city":"Indianapolis","geo_score":1.0,"zip code":"46227","id":"ac8f7tikbtlr","geo_precision":"range","address":"5715 South Keystone Avenue","school":"Southport 6th Grade Academy","state":"IN","distance":8.91869013829946},"type":"Feature","geometry":{"type":"Point","coordinates":[-86.120469,39.683156]}},{"properties":{"city":"Indianapolis","geo_score":0.977,"zip code":"46227","id":"ac8f7t8te77c","geo_precision":"range","address":"5740 McFarland Road","school":"Clinton Young Elementary","state":"IN","distance":8.3276228126657},"type":"Feature","geometry":{"type":"Point","coordinates":[-86.111108,39.685258]}},{"properties":{"city":"Indianapolis","geo_score":1.0,"zip code":"46217","id":"ac8f7t6efqfb","geo_precision":"range","address":"5241 Brehob Road","school":"Abraham Lincoln Elementary","state":"IN","distance":11.134254552103},"type":"Feature","geometry":{"type":"Point","coordinates":[-86.166272,39.692457]}},{"properties":{"city":"Indianapolis","geo_score":1.0,"zip code":"46239","id":"ac8f7tjk7b1g","geo_precision":"range","address":"7525 E Thompson Road","school":"Thompson Crossing Elementary","state":"IN","distance":5.2393155231254},"type":"Feature","geometry":{"type":"Point","coordinates":[-86.032132,39.695621]}},{"properties":{"city":"Indianapolis","geo_score":0.675,"zip code":"46227","id":"ac8f7tfu1ruz","geo_precision":"street","address":"5225 Gray Road","school":"Jeremiah Gray-Edison","state":"IN","distance":7.53592003118148},"type":"Feature","geometry":{"type":"Point","coordinates":[-86.108093,39.699678]}},{"properties":{"city":"Indianapolis","geo_score":0.947,"zip code":"46227","id":"ac8f7tasgq32","geo_precision":"range","address":"4065 S Asbury Street","school":"IPS # 65 Raymond Brandes","state":"IN","distance":8.40275735502949},"type":"Feature","geometry":{"type":"Point","coordinates":[-86.128154,39.705155]}},{"properties":{"city":"Beech Grove","geo_score":0.935,"zip code":"46107","id":"ac8f7temo9ht","geo_precision":"range","address":"851 S 9th Avenue","school":"South Grove Intermediate School","state":"IN","distance":6.32445924205522},"type":"Feature","geometry":{"type":"Point","coordinates":[-86.091942,39.707685]}},{"properties":{"city":"Beech Grove","geo_score":1.0,"zip code":"46107","id":"ac8f7tg1sbz4","geo_precision":"range","address":"5249 Hornet Avenue","school":"Hornet Park Elementary","state":"IN","distance":5.48409980935665},"type":"Feature","geometry":{"type":"Point","coordinates":[-86.077721,39.711163]}},{"properties":{"city":"Indianapolis","geo_score":0.902,"zip code":"46225","id":"ac8f7t7y21hv","geo_precision":"range","address":"2717 South East Street","school":"Christel House Academy","state":"IN","distance":9.11238695753897},"type":"Feature","geometry":{"type":"Point","coordinates":[-86.149105,39.724678]}},{"properties":{"city":"Indianapolis","geo_score":0.958,"zip code":"46241","id":"ac8f7t6fy9oa","geo_precision":"range","address":"3820 Bradbury Avenue","school":"Stout Field Elementary","state":"IN","distance":14.0546302785901},"type":"Feature","geometry":{"type":"Point","coordinates":[-86.225823,39.731657]}},{"properties":{"city":"Indianapoli","geo_score":0.992,"zip code":"46203","id":"ac8f7tlpwlp9","geo_precision":"range","address":"2251 Sloan Avenue","school":"IPS # 114 Paul I Miller Elementary","state":"IN","distance":4.95414981296251},"type":"Feature","geometry":{"type":"Point","coordinates":[-86.087356,39.734895]}},{"properties":{"city":"Indianapolis","geo_score":0.875,"zip code":"46203","id":"ac8f7taabvg1","geo_precision":"range","address":"1410 Wade","school":"IPS # 34 Eleanor Skillen Elementary","state":"IN","distance":8.04038050945322},"type":"Feature","geometry":{"type":"Point","coordinates":[-86.13605,39.735184]}},{"properties":{"city":"Indianapolis","geo_score":1.0,"zip code":"46203","id":"ac8f7thknrgp","geo_precision":"range","address":"2020 Dawson Street","school":"IPS# 19 Frederick Douglass","state":"IN","distance":7.44933781988041},"type":"Feature","geometry":{"type":"Point","coordinates":[-86.12829,39.739123]}},{"properties":{"city":"Indianapolis","geo_score":1.0,"zip code":"46239","id":"ac8f7tct93lk","geo_precision":"range","address":"8425 East Raymond Street","school":"Liberty Park Elementary","state":"IN","distance":2.38583129173219},"type":"Feature","geometry":{"type":"Point","coordinates":[-86.011715,39.740093]}},{"properties":{"city":"Indianapolis","geo_score":0.947,"zip code":"46239","id":"ac8f7tgxhpxd","geo_precision":"range","address":"2150 Hunter Road","school":"Lowell Elementary","state":"IN","distance":2.60783434114631},"type":"Feature","geometry":{"type":"Point","coordinates":[-86.04965,39.742073]}},{"properties":{"city":"Indianapolis","geo_score":0.951,"zip code":"46241","id":"ac8f7t75l25v","geo_precision":"range","address":"1643 S Dunlap Avenue","school":"Maplewood Elementary","state":"IN","distance":15.2651590568368},"type":"Feature","geometry":{"type":"Point","coordinates":[-86.244692,39.744177]}},{"properties":{"city":"Indianapolis","geo_score":0.947,"zip code":"46203","id":"ac8f7t8xvfsr","geo_precision":"range","address":"1601 S Barth Avenue","school":"Sense Charter School","state":"IN","distance":8.18960333374943},"type":"Feature","geometry":{"type":"Point","coordinates":[-86.141105,39.744395]}},{"properties":{"city":"Indianapolis","geo_score":0.806,"zip code":"46203","id":"ac8f7tgve305","geo_precision":"street","address":"307 Lincoln Street","school":"IPS # 31 James A. Garfield","state":"IN","distance":8.33894183283692},"type":"Feature","geometry":{"type":"Point","coordinates":[-86.143755,39.745672]}},{"properties":{"city":"Indianapolis","geo_score":1.0,"zip code":"46221","id":"ac8f7tfzi56s","geo_precision":"range","address":"1450 S Reisner Street","school":"IPS # 46 Daniel Webster Elementary","state":"IN","distance":11.4691715966865},"type":"Feature","geometry":{"type":"Point","coordinates":[-86.189632,39.746642]}},{"properties":{"city":"Indianapolis","geo_score":1.0,"zip code":"46241","id":"ac8f7th7aj09","geo_precision":"range","address":"6740 W Morris Street","school":"McClelland","state":"IN","distance":17.4696340933998},"type":"Feature","geometry":{"type":"Point","coordinates":[-86.277379,39.74997]}},{"properties":{"city":"Indianapolis","geo_score":1.0,"zip code":"46203","id":"ac8f7t5fcudt","geo_precision":"range","address":"1224 Laurel Street","school":"Emmaus Lutheran School","state":"IN","distance":7.71494382682213},"type":"Feature","geometry":{"type":"Point","coordinates":[-86.135408,39.751418]}},{"properties":{"city":"Indianapolis","geo_score":0.805,"zip code":"46223","id":"ac8f7tbtcz5h","geo_precision":"range","address":"10925 East Prospect Street","school":"Creston Intermediate Academy","state":"IN","distance":3.99411731364152},"type":"Feature","geometry":{"type":"Point","coordinates":[-85.971646,39.755263]}},{"properties":{"city":"Indianapolis","geo_score":1.0,"zip code":"46239","id":"ac8f7tb1230l","geo_precision":"range","address":"10330 E Prospect Street","school":"Grassy Creek Elementary","state":"IN","distance":3.37549877273031},"type":"Feature","geometry":{"type":"Point","coordinates":[-85.981002,39.755318]}},{"properties":{"city":"Indianapolis","geo_score":0.92,"zip code":"46241","id":"ac8f7tbqgii6","geo_precision":"range","address":"502 South Auburn","school":"Rhoades Elementary","state":"IN","distance":15.1199346519256},"type":"Feature","geometry":{"type":"Point","coordinates":[-86.243984,39.75847]}},{"properties":{"city":"Indianapolis","geo_score":1.0,"zip code":"46203","id":"ac8f7tf4nfkm","geo_precision":"range","address":"1733 Spann Avenue","school":"IPS # 39 William McKinley","state":"IN","distance":7.20233794933952},"type":"Feature","geometry":{"type":"Point","coordinates":[-86.128663,39.758759]}},{"properties":{"city":"Indianapolis","geo_score":1.0,"zip code":"46201","id":"ac8f7tdmy8hl","geo_precision":"range","address":"4700 English Avenue","school":"IPS # 82 Christian Park Elementary","state":"IN","distance":4.46318251807281},"type":"Feature","geometry":{"type":"Point","coordinates":[-86.088903,39.760242]}},{"properties":{"city":"Indianapolis","geo_score":0.329,"zip code":"46239","id":"ac8f7t7osj0h","geo_precision":"street","address":"8301 E. Rawles Avenue","school":"Hawthorne Elementary","state":"IN","distance":0.748527493666789},"type":"Feature","geometry":{"type":"Point","coordinates":[-86.021043,39.762024]}},{"properties":{"city":"Indianapolis","geo_score":1.0,"zip code":"46202","id":"ac8f7tbnepxm","geo_precision":"range","address":"1250 E Market Street","school":"IPS # 14 Washington Irving Elementary School","state":"IN","distance":7.68134789612459},"type":"Feature","geometry":{"type":"Point","coordinates":[-86.136567,39.768155]}},{"properties":{"city":"Indianapolis","geo_score":0.932,"zip code":"46202","id":"ac8f7tada96q","geo_precision":"range","address":"125 N Oriental","school":"Holy Cross Central","state":"IN","distance":7.58206048837988},"type":"Feature","geometry":{"type":"Point","coordinates":[-86.135245,39.769419]}},{"properties":{"city":"Indianapolis","geo_score":1.0,"zip code":"46214","id":"ac8f7t7z9i5z","geo_precision":"range","address":"271 North Sigsbee Street","school":"Westlake Elementary","state":"IN","distance":17.318008074521},"type":"Feature","geometry":{"type":"Point","coordinates":[-86.277122,39.770147]}},{"properties":{"city":"Indianapolis","geo_score":1.0,"zip code":"46222","id":"ac8f7t5k4cy2","geo_precision":"range","address":"349 N Warman Avenue","school":"Padua Academy","state":"IN","distance":12.4784112175896},"type":"Feature","geometry":{"type":"Point","coordinates":[-86.206487,39.771448]}},{"properties":{"city":"Indianapolis","geo_score":1.0,"zip code":"46222","id":"ac8f7t7u03q8","geo_precision":"range","address":"653 north Somerset Avenue","school":"IPS # 67 Stephen Collins Foster","state":"IN","distance":13.5557656161692},"type":"Feature","geometry":{"type":"Point","coordinates":[-86.221739,39.775953]}},{"properties":{"city":"Indianapolis","geo_score":0.935,"zip code":"46201","id":"ac8f7teb5eya","geo_precision":"range","address":"3150 East 10th Street","school":"IPS # 54 Brookside Elementary","state":"IN","distance":6.01484436306184},"type":"Feature","geometry":{"type":"Point","coordinates":[-86.111337,39.781438]}},{"properties":{"city":"Indianapolis","geo_score":1.0,"zip code":"46214","id":"ac8f7td47cfc","geo_precision":"range","address":"1129 N Girls School Road","school":"Chapelwood Elementary","state":"IN","distance":18.1746842804329},"type":"Feature","geometry":{"type":"Point","coordinates":[-86.288434,39.782013]}},{"properties":{"city":"Indianapolis","geo_score":0.935,"zip code":"46229","id":"ac8f7ti9t6ej","geo_precision":"range","address":"10930 East 10th Street","school":"Eastridge Elementary","state":"IN","distance":3.55921621057914},"type":"Feature","geometry":{"type":"Point","coordinates":[-85.977566,39.782467]}},{"properties":{"city":"Indianapolis","geo_score":1.0,"zip code":"46222","id":"ac8f7tio26ze","geo_precision":"range","address":"1163 N Belmont Avenue","school":"IPS # 63 Wendell Phillips","state":"IN","distance":11.9075579200195},"type":"Feature","geometry":{"type":"Point","coordinates":[-86.196746,39.78591]}},{"properties":{"city":"Indianapolis","geo_score":1.0,"zip code":"46219","id":"ac8f7t5a7jdi","geo_precision":"range","address":"1525 North Ritter Avenue","school":"IPS Roots","state":"IN","distance":3.55351487681678},"type":"Feature","geometry":{"type":"Point","coordinates":[-86.073713,39.786148]}},{"properties":{"city":"Greenfield","geo_score":0.866,"zip code":"46140","id":"ac8f7td5ah32","geo_precision":"range","address":"140 Polk","school":"Weston Elementary","state":"IN","distance":16.6605171364282},"type":"Feature","geometry":{"type":"Point","coordinates":[-85.786631,39.787328]}},{"properties":{"city":"Indianapolis","geo_score":0.805,"zip code":"46239","id":"ac8f7t8mi9o5","geo_precision":"range","address":"1550 N Cumberland Road","school":"Brookview Elementary","state":"IN","distance":5.00726699019644},"type":"Feature","geometry":{"type":"Point","coordinates":[-85.957322,39.788056]}},{"properties":{"city":"Indinapolis","geo_score":0.927,"zip code":"46218","id":"ac8f7ti1nofe","geo_precision":"range","address":"5801 E 16th Street","school":"IPS # 88 Anna Brochhausen Elementary","state":"IN","distance":3.24585323795118},"type":"Feature","geometry":{"type":"Point","coordinates":[-86.067876,39.788944]}},{"properties":{"city":"Greenfield","geo_score":0.601,"zip code":"46140","id":"ac8f7t5y62kk","geo_precision":"street","address":"200 W. Park Avenue","school":"Harris Elementary","state":"IN","distance":17.5529521655826},"type":"Feature","geometry":{"type":"Point","coordinates":[-85.774102,39.792127]}},{"properties":{"city":"Greenfield","geo_score":0.874,"zip code":"46140","id":"ac8f7tgc5tsq","geo_precision":"range","address":"204 W Park","school":"Greenfield Intermediate School","state":"IN","distance":17.7047097219691},"type":"Feature","geometry":{"type":"Point","coordinates":[-85.771903,39.792248]}},{"properties":{"city":"Indianapolis","geo_score":1.0,"zip code":"46219","id":"ac8f7tka8v4y","geo_precision":"range","address":"1800 N Franklin Road","school":"Pleasant Run Elementary","state":"IN","distance":1.74739056115225},"type":"Feature","geometry":{"type":"Point","coordinates":[-86.025274,39.793927]}},{"properties":{"city":"Indianapolis","geo_score":0.935,"zip code":"46229","id":"ac8f7thbjqyu","geo_precision":"range","address":"9601 East 21st Street","school":"Lakeside Elementary","state":"In","distance":2.88799405841897},"type":"Feature","geometry":{"type":"Point","coordinates":[-85.995944,39.796853]}},{"properties":{"city":"Indianapolis","geo_score":0.894,"zip code":"46218","id":"ac8f7thnpm3m","geo_precision":"range","address":"2107 N Riley","school":"IPS # 58 Ralph Waldo Emerson Elementary","state":"IN","distance":4.64770719297877},"type":"Feature","geometry":{"type":"Point","coordinates":[-86.085669,39.798772]}},{"properties":{"city":"Indianapolis","geo_score":1.0,"zip code":"46218","id":"ac8f7tf3s97z","geo_precision":"range","address":"3426 Roosevelt Avenue","school":"IPS # 51 James Russell Lowell","state":"IN","distance":6.10335789022264},"type":"Feature","geometry":{"type":"Point","coordinates":[-86.108353,39.79931]}},{"properties":{"city":"Indianapolis","geo_score":1.0,"zip code":"46205","id":"ac8f7tl7ohso","geo_precision":"range","address":"2353 Columbia Avenue","school":"IPS # 56 Francis W. Parker","state":"IN","distance":8.00103821168801},"type":"Feature","geometry":{"type":"Point","coordinates":[-86.136775,39.800397]}},{"properties":{"city":"Indianapolis","geo_score":0.607,"zip code":"46218","id":"ac8f7tax7ba5","geo_precision":"street","address":"3421 N. Keystone Avenue","school":"IPS # 69 Joyce Kilmer Academy","state":"IN","distance":6.80575951335989},"type":"Feature","geometry":{"type":"Point","coordinates":[-86.118598,39.800619]}},{"properties":{"city":"Indianapolis","geo_score":0.585,"zip code":"46224","id":"ac8f7t7ve4om","geo_precision":"zip","address":"4901 Rockville Road","school":"Garden City Elementary","state":"IN","distance":16.8549858901318},"type":"Feature","geometry":{"type":"Point","coordinates":[-86.267213,39.802265]}},{"properties":{"city":"Indianapolis","geo_score":0.935,"zip code":"46208","id":"ac8f7tf2h6j5","geo_precision":"range","address":"1002 W 25th Street","school":"IPS #42 Elder Diggs","state":"IN","distance":10.9060446219469},"type":"Feature","geometry":{"type":"Point","coordinates":[-86.180034,39.802885]}},{"properties":{"city":"Greenfield","geo_score":0.991,"zip code":"46140","id":"ac8f7te1tl9b","geo_precision":"range","address":"1331 N Blue Road","school":"JB Stephens Elementary","state":"IN","distance":19.5553190268976},"type":"Feature","geometry":{"type":"Point","coordinates":[-85.746283,39.805864]}},{"properties":{"city":"Indianapolis","geo_score":0.935,"zip code":"46208","id":"ac8f7t7ddp9d","geo_precision":"range","address":"740 W 28th Street","school":"Holy Angels Catholic","state":"IN","distance":10.5117152226019},"type":"Feature","geometry":{"type":"Point","coordinates":[-86.172952,39.806536]}},{"properties":{"city":"Indianapolis","geo_score":0.784,"zip code":"46229","id":"ac8f7taeddn1","geo_precision":"street","address":"1149 StonyBrook Drive","school":"Sunny Heights Elementary","state":"IN","distance":4.84804627968446},"type":"Feature","geometry":{"type":"Point","coordinates":[-85.968329,39.80777]}},{"properties":{"city":"Indianapolis","geo_score":0.979,"zip code":"46229","id":"ac8f7t7ccfy5","geo_precision":"range","address":"11300 Stonybrook Drive","school":"Stonybrook Intermediate Academy","state":"IN","distance":4.92669812550372},"type":"Feature","geometry":{"type":"Point","coordinates":[-85.967075,39.807843]}},{"properties":{"city":"Indianapolis","geo_score":0.947,"zip code":"46219","id":"ac8f7t808yd2","geo_precision":"range","address":"2701 Devon Avenue","school":"IPS# 94 George Buck Elementary","state":"IN","distance":2.72016356590213},"type":"Feature","geometry":{"type":"Point","coordinates":[-86.022877,39.807863]}},{"properties":{"city":"Indianapolis","geo_score":0.619,"zip code":"46218","id":"ac8f7t9i30c6","geo_precision":"street","address":"5801 E. 30th St","school":"IPS # 99 Arlington Woods Elementary","state":"IN","distance":8.13083571308835},"type":"Feature","geometry":{"type":"Point","coordinates":[-86.135618,39.810694]}},{"properties":{"city":"Indianapolis","geo_score":0.74,"zip code":"46241","id":"ac8f7t69zyhr","geo_precision":"range","address":"6950 W 34th Street","school":"North Wayne Elementary","state":"IN","distance":17.9977792732825},"type":"Feature","geometry":{"type":"Point","coordinates":[-86.282502,39.816074]}},{"properties":{"city":"Indianapolis","geo_score":0.619,"zip code":"46224","id":"ac8f7tk6itq2","geo_precision":"street","address":"5002 W. 34th Street","school":"IPS # 79 Carl Wilde","state":"IN","distance":15.1374586902979},"type":"Feature","geometry":{"type":"Point","coordinates":[-86.239964,39.816665]}},{"properties":{"city":"Indianapolis","geo_score":1.0,"zip code":"46205","id":"ac8f7tk1r8en","geo_precision":"range","address":"3445 Central Avenue","school":"IPS # 48 Louis B. Russell Jr. Elementary","state":"IN","distance":9.22288360484468},"type":"Feature","geometry":{"type":"Point","coordinates":[-86.149634,39.819033]}},{"properties":{"city":"Indianapolis","geo_score":0.935,"zip code":"46226","id":"ac8f7t73qo6w","geo_precision":"range","address":"7151 E 35th Street","school":"IPS # 93 George H. Fisher Elementary","state":"IN","distance":3.68785087387267},"type":"Feature","geometry":{"type":"Point","coordinates":[-86.040187,39.820153]}},{"properties":{"city":"Indianapolis","geo_score":0.875,"zip code":"46224","id":"ac8f7t7xbx14","geo_precision":"range","address":"3651 N Kiel","school":"IPS # 96 Meradith Nicholson","state":"IN","distance":16.760844117835},"type":"Feature","geometry":{"type":"Point","coordinates":[-86.262856,39.822282]}},{"properties":{"city":"Indianapolis","geo_score":0.935,"zip code":"46218","id":"ac8f7t936bfy","geo_precision":"range","address":"4050 East 38th Street","school":"Andrew Academy","state":"IN","distance":6.43071434641025},"type":"Feature","geometry":{"type":"Point","coordinates":[-86.099518,39.825448]}},{"properties":{"city":"Indianapolis","geo_score":0.935,"zip code":"46208","id":"ac8f7th9rmyr","geo_precision":"range","address":"150 W 40th Street","school":"IPS # 43 James Whitcomb Riley","state":"IN","distance":10.2040914760119},"type":"Feature","geometry":{"type":"Point","coordinates":[-86.161182,39.828393]}},{"properties":{"city":"Indianapolis","geo_score":0.934,"zip code":"46235","id":"ac8f7t9qfxy9","geo_precision":"range","address":"3920 N Baker Drive","school":"IPS # 103 Francis Scott Key Elementary","state":"IN","distance":4.49092465520833},"type":"Feature","geometry":{"type":"Point","coordinates":[-86.000667,39.828545]}},{"properties":{"city":"Indianapolis","geo_score":1.0,"zip code":"46226","id":"ac8f7tcvd6kt","geo_precision":"range","address":"8620 Montery Road","school":"IPS # 105 Charles W. Fairbanks Elementary","state":"IN","distance":4.31815302220516},"type":"Feature","geometry":{"type":"Point","coordinates":[-86.015986,39.830465]}},{"properties":{"city":"Indianapolis","geo_score":0.935,"zip code":"46205","id":"ac8f7tiu23yd","geo_precision":"range","address":"1200 East 42nd Street","school":"Indiana School for the Deaf","state":"IN","distance":8.56091645766332},"type":"Feature","geometry":{"type":"Point","coordinates":[-86.131767,39.832886]}},{"properties":{"city":"Indianapolis","geo_score":0.935,"zip code":"46226","id":"ac8f7tj3ubtg","geo_precision":"range","address":"5050 East 42nd Street","school":"IPS # 83 Floro Torrence Elementary","state":"IN","distance":6.08177465233904},"type":"Feature","geometry":{"type":"Point","coordinates":[-86.086203,39.833022]}},{"properties":{"city":"Indianapolis","geo_score":0.935,"zip code":"46254","id":"ac8f7t67pn7z","geo_precision":"range","address":"6905 West 46th Street","school":"Eagle Creek Elementary","state":"IN","distance":18.3984189516425},"type":"Feature","geometry":{"type":"Point","coordinates":[-86.282928,39.837904]}},{"properties":{"city":"Indianapolis","geo_score":0.935,"zip code":"46235","id":"ac8f7tk0vfyw","geo_precision":"range","address":"11825 East 46th Street","school":"Winding Ridge Elementary","state":"IN","distance":6.90815167956438},"type":"Feature","geometry":{"type":"Point","coordinates":[-85.957471,39.841293]}},{"properties":{"city":"Indianapolis","geo_score":0.585,"zip code":"46254","id":"ac8f7tgs9if9","geo_precision":"zip","address":"5401 North Highschool Road","school":"Deer Run Elementary","state":"IN","distance":16.8057823200616},"type":"Feature","geometry":{"type":"Point","coordinates":[-86.25638,39.845875]}},{"properties":{"city":"Indianapolis","geo_score":0.935,"zip code":"46254","id":"ac8f7th3ggg0","geo_precision":"range","address":"4301 W 52nd Street","school":"Guion Creek Elementary","state":"IN","distance":15.2212380469593},"type":"Feature","geometry":{"type":"Point","coordinates":[-86.232365,39.8459]}},{"properties":{"city":"Indianapolis","geo_score":0.585,"zip code":"46235","id":"ac8f7tjncgon","geo_precision":"zip","address":"4352 North Mitthoefer Road","school":"Imagine Indiana Life Sciences Academy East","state":"IN","distance":6.49044699729781},"type":"Feature","geometry":{"type":"Point","coordinates":[-85.974081,39.84709]}},{"properties":{"city":"Indianapolis","geo_score":0.935,"zip code":"46226","id":"ac8f7t9l898n","geo_precision":"range","address":"7510 East 53rd St","school":"Harrison Hill Elementary","state":"IN","distance":5.65340337849164},"type":"Feature","geometry":{"type":"Point","coordinates":[-86.035419,39.850024]}},{"properties":{"city":"Indianapolis","geo_score":0.941,"zip code":"46226","id":"ac8f7t93s7hp","geo_precision":"range","address":"5259 North David Street","school":"Brook Park Elementary","state":"IN","distance":5.9200186714319},"type":"Feature","geometry":{"type":"Point","coordinates":[-86.050273,39.850913]}},{"properties":{"city":"Indianapolis","geo_score":0.813,"zip code":"46254","id":"ac8f7tk68n35","geo_precision":"range","address":"5455 W 56th Street","school":"Snacks Crossing Elementary","state":"IN","distance":17.2924672644737},"type":"Feature","geometry":{"type":"Point","coordinates":[-86.261573,39.853064]}},{"properties":{"city":"Indianapolis","geo_score":0.607,"zip code":"46228","id":"ac8f7tan4vg0","geo_precision":"street","address":"2150 Kessler Blvd. West Drive","school":"Crooked Creek Elementary","state":"IN","distance":13.3782719510451},"type":"Feature","geometry":{"type":"Point","coordinates":[-86.199823,39.853728]}},{"properties":{"city":"Indianapolis","geo_score":0.585,"zip code":"46226","id":"ac8f7teimlsz","geo_precision":"zip","address":"53010 Roxburry Road","school":"IPS # 106 Robert Lee Frost","state":"IN","distance":6.66362175337328},"type":"Feature","geometry":{"type":"Point","coordinates":[-86.063874,39.857818]}},{"properties":{"city":"Maxwell","geo_score":0.924,"zip code":"46140","id":"ac8f7t75gosq","geo_precision":"range","address":"102 N Main Street","school":"Maxwell Intermediate","state":"IN","distance":18.7637358288745},"type":"Feature","geometry":{"type":"Point","coordinates":[-85.770066,39.857838]}},{"properties":{"city":"Indianapolis","geo_score":0.805,"zip code":"46226","id":"ac8f7t5ee9yb","geo_precision":"range","address":"6345 Sunnyside Road","school":"Sunnyside Elementary","state":"IN","distance":8.54206998199923},"type":"Feature","geometry":{"type":"Point","coordinates":[-85.973199,39.880463]}},{"properties":{"city":"Indianapolis","geo_score":1.0,"zip code":"46268","id":"ac8f7tgs29qf","geo_precision":"range","address":"7001 Zionsville Road","school":"Central Elementary","state":"IN","distance":17.9090596362736},"type":"Feature","geometry":{"type":"Point","coordinates":[-86.25977,39.880927]}},{"properties":{"city":"Indianapolis","geo_score":0.585,"zip code":"46268","id":"ac8f7tag49kp","geo_precision":"zip","address":"6250 Rodebaugh Road","school":"New Augusta South","state":"IN","distance":16.7010439222009},"type":"Feature","geometry":{"type":"Point","coordinates":[-86.238602,39.883375]}},{"properties":{"city":"Indianapolis","geo_score":0.935,"zip code":"46256","id":"ac8f7tdm8mad","geo_precision":"range","address":"7600 East 71st Street","school":"Crestview Elementary","state":"In","distance":7.96980605353506},"type":"Feature","geometry":{"type":"Point","coordinates":[-86.037948,39.883522]}},{"properties":{"city":"Indianpolis","geo_score":0.992,"zip code":"46240","id":"ac8f7tja43b2","geo_precision":"range","address":"7435 North Keystone Avenue","school":"Indiana Math and Science Academy North","state":"IN","distance":10.6913744078617},"type":"Feature","geometry":{"type":"Point","coordinates":[-86.121878,39.890202]}},{"properties":{"city":"Indianapolis","geo_score":1.0,"zip code":"46268","id":"ac8f7tgb9ryy","geo_precision":"range","address":"7625 New Augusta Road","school":"Eastbrook Elementary","state":"IN","distance":16.9299214173122},"type":"Feature","geometry":{"type":"Point","coordinates":[-86.236391,39.894551]}},{"properties":{"city":"Indianapolis","geo_score":0.979,"zip code":"46268","id":"ac8f7ta5yzho","geo_precision":"range","address":"7839 New Augusta Drive","school":"College Park Elementary","state":"IN","distance":16.9538511848389},"type":"Feature","geometry":{"type":"Point","coordinates":[-86.236391,39.895287]}},{"properties":{"city":"Greenfield","geo_score":0.991,"zip code":"46140","id":"ac8f7thqhuyz","geo_precision":"range","address":"8185 N State Road 9","school":"Eden Elementary","state":"IN","distance":19.9935820031472},"type":"Feature","geometry":{"type":"Point","coordinates":[-85.770649,39.903763]}},{"properties":{"city":"Indianapolis","geo_score":0.935,"zip code":"46256","id":"ac8f7thvpsxt","geo_precision":"range","address":"8502 East 82nd Street","school":"Mary Castle Elementary","state":"IN","distance":9.45977567952767},"type":"Feature","geometry":{"type":"Point","coordinates":[-86.017113,39.905483]}},{"properties":{"city":"Indianapolis","geo_score":1.0,"zip code":"46260","id":"ac8f7tdy42dt","geo_precision":"range","address":"8250 Spring Mill Road","school":"Springmill Elementary","state":"IN","distance":13.4394342362609},"type":"Feature","geometry":{"type":"Point","coordinates":[-86.165147,39.905658]}},{"properties":{"city":"Fortville","geo_score":0.99,"zip code":"46040","id":"ac8f7tk0clql","geo_precision":"range","address":"8414 North 200 West","school":"Fortville Elementary School","state":"In","distance":15.8056073019074},"type":"Feature","geometry":{"type":"Point","coordinates":[-85.843335,39.906121]}},{"properties":{"city":"Indianapolis","geo_score":0.935,"zip code":"46240","id":"ac8f7tfzzn3e","geo_precision":"range","address":"1000 E 91st St","school":"Nora Elementary","state":"IN","distance":13.2207119122849},"type":"Feature","geometry":{"type":"Point","coordinates":[-86.143547,39.919859]}},{"properties":{"city":"Indianapolis","geo_score":0.966,"zip code":"46280","id":"ac8f7t5bkozf","geo_precision":"range","address":"10404 Orchard Park Drive","school":"Orchard Park","state":"IN","distance":13.7254782483718},"type":"Feature","geometry":{"type":"Point","coordinates":[-86.129922,39.93861]}},{"properties":{"city":"Carmel","geo_score":0.986,"zip code":"46033","id":"ac8f7tjzvsht","geo_precision":"range","address":"10721 Lakeshore Drive West","school":"Forest Dale Elementary","state":"IN","distance":13.4516770184597},"type":"Feature","geometry":{"type":"Point","coordinates":[-86.111385,39.944017]}},{"properties":{"city":"Fishers","geo_score":0.808,"zip code":"46037","id":"ac8f7tdwntlo","geo_precision":"street","address":"11300 East 121st Street","school":"Hoosier Road Elementary","state":"IN","distance":14.0689933443017},"type":"Feature","geometry":{"type":"Point","coordinates":[-85.969985,39.964603]}},{"properties":{"city":"Fishers","geo_score":1.0,"zip code":"46038","id":"ac8f7tb4dbfa","geo_precision":"range","address":"8660 East 131st Street","school":"New Britton Elementary","state":"IN","distance":14.4812722767757},"type":"Feature","geometry":{"type":"Point","coordinates":[-86.01752,39.97868]}},{"properties":{"city":"Carmel","geo_score":0.84,"zip code":"46032","id":"ac8f7tijbf9r","geo_precision":"range","address":"101 4th Avenue","school":"Carmel Elementary School","state":"IN","distance":15.9604821638543},"type":"Feature","geometry":{"type":"Point","coordinates":[-86.122547,39.979295]}},{"properties":{"city":"Westfield","geo_score":0.805,"zip code":"46069","id":"ac8f7tlb75bj","geo_precision":"range","address":"16231 Carey Road","school":"Carey Ridge Elementary","state":"IN","distance":18.1189517340873},"type":"Feature","geometry":{"type":"Point","coordinates":[-86.108757,40.017998]}}],"is_temporal":false,"author":{"url":null,"metadata":null,"contact_name":null,"contact_address":null,"source":null,"contact_phone":null},"source":null,"pagination":{"sort":null,"start":0,"total":116,"limit":1000000},"state":"complete","tags":"","published":"2014-08-16T15:09:15-04:00","id":321689}