{"type":"FeatureCollection","data_type":"Dataset","url_type":null,"permissions":[{"permissions":{"download":true,"view":true},"group_id":"everyone"}],"classification":null,"title":"MA WIND 1","count":16,"stream_id":322100,"contributor":{"url":"http://geocommons.com/users/6","name":"seagor"},"data_attributes":null,"calculation_params":null,"icon_link":null,"link":"http://geocommons.com/overlays/322100.json","extent":[-71.0,41.57,-70.17,42.57],"geometry_types":["point"],"unique_name":"","name":"MA WIND 1","feature_count":16,"description":"","next_feature":null,"is_raster":false,"short_classification":"Y","stats":{"latitude":{"max":42.57,"variance":0.0835104395604395,"mean":41.7778571428571,"stdev":0.288981728765747,"min":41.57,"median":41.66},"time":{"max":"2030/01/01 08:00:00 -0500","variance":84667252.7472528,"mean":"2030/01/01 03:04:17 -0500","stdev":9201.48100836234,"min":"2030/01/01 01:00:00 -0500","median":"2030/01/01 02:00:00 -0500"},"longitude":{"max":-70.28,"variance":0.0580093406593407,"mean":-70.8335714285714,"stdev":0.240851283283566,"min":-71.0,"median":-70.94}},"features":[{"properties":{"latitude":42.12,"time":{"end_time":"2030/01/01 05:00:00 -0500","original":"0100 AM ","granularity":"hour","time":"2030/01/01 04:00:00 -0500"},"county":"PLYMOUTH","event":"NON-TSTM WND DMG","remrks":"TREE DOWN ON SNOWMOBIL,DRIVER NOT INJURED.","city/location":"HANOVER","longitude":-70.82,"id":"acabr2rogvtb","source":"AMATEUR RADIO","state":"MA"},"type":"Feature","geometry":{"type":"Point","coordinates":[-70.82,42.12]}},{"properties":{"latitude":"41.64","time":"0120 AM","county":"ANZ232","event":"NON-TSTM WND GST","remrks":"58 MPH","city/location":"S WEST DENNIS","longitude":"-70.17","id":"acabr2x4m52x","source":"MESONET","state":"MA"},"type":"Feature","geometry":{"type":"Point","coordinates":[-70.17,41.64]}},{"properties":{"latitude":41.57,"time":{"end_time":"2030/01/01 02:00:00 -0500","original":"0121 AM ","granularity":"hour","time":"2030/01/01 01:00:00 -0500"},"county":"BRISTOL","event":"NON-TSTM WND DMG","remrks":"TREE AND WIRES DOWN ON HIGHLAND AVE","city/location":"DARTMOUTH","longitude":-71.0,"id":"acabr32ic1mb","source":"AMATEUR RADIO","state":"MA"},"type":"Feature","geometry":{"type":"Point","coordinates":[-71.0,41.57]}},{"properties":{"latitude":42.57,"time":{"end_time":"2030/01/01 02:00:00 -0500","original":"0145 AM  ","granularity":"hour","time":"2030/01/01 01:00:00 -0500"},"county":"ESSEX","event":"NON-TSTM WND DMG","remrks":"WIRES DOWN","city/location":"MANCHESTER","longitude":-70.77,"id":"acabr2uehw16","source":"AMATEUR RADIO","state":"MA"},"type":"Feature","geometry":{"type":"Point","coordinates":[-70.77,42.57]}},{"properties":{"latitude":41.98,"time":{"end_time":"2030/01/01 02:00:00 -0500","original":" 0145 AM","granularity":"hour","time":"2030/01/01 01:00:00 -0500"},"county":"PLYMOUTH","event":"NON-TSTM WND DMG","remrks":"2 TREES AND WIRES DOWN","city/location":"HALIFAX","longitude":-70.87,"id":"acabr2vafmka","source":"AMATEUR RADIO","state":"MA"},"type":"Feature","geometry":{"type":"Point","coordinates":[-70.87,41.98]}},{"properties":{"latitude":41.66,"time":{"end_time":"2030/01/01 02:00:00 -0500","original":"0205 AM","granularity":"hour","time":"2030/01/01 01:00:00 -0500"},"county":"BRISTOL","event":"NON-TSTM WND DMG","remrks":"POWER LINES DOWN ON A HOME ON WESTLAND St.","city/location":"NEW BEDFORD","longitude":-70.94,"id":"acabr2q0fe1h","source":"AMATEUR RADIO","state":"MA"},"type":"Feature","geometry":{"type":"Point","coordinates":[-70.94,41.66]}},{"properties":{"latitude":41.62,"time":{"end_time":"2030/01/01 02:00:00 -0500","original":" 0205 AM","granularity":"hour","time":"2030/01/01 01:00:00 -0500"},"county":"ANZ232","event":"NON-TSTM WND GST","remrks":"67 MPH","city/location":"SSW HYANNIS PARK","longitude":-70.28,"id":"acabr2olqubb","source":"MESONET","state":"MA"},"type":"Feature","geometry":{"type":"Point","coordinates":[-70.28,41.62]}},{"properties":{"latitude":41.98,"time":{"end_time":"2030/01/01 05:00:00 -0500","original":"0208 AM","granularity":"hour","time":"2030/01/01 04:00:00 -0500"},"county":"PLYMOUTH","event":"NON-TSTM WND DMG","remrks":"TREE DOWN BLOCKING ROAD","city/location":"HALIFAX","longitude":-70.87,"id":"acabr2x660ki","source":"AMATEUR RADIO","state":"MA"},"type":"Feature","geometry":{"type":"Point","coordinates":[-70.87,41.98]}},{"properties":{"latitude":41.57,"time":{"end_time":"2030/01/01 07:00:00 -0500","original":"0210 AM ","granularity":"hour","time":"2030/01/01 06:00:00 -0500"},"county":"BRISTOL","event":"NON-TSTM WND DMG","remrks":"TREE,POLE,WIRES DOWN ON ACTIVE GENERATOR ANDVMPER-VICTORIA ST.","city/location":"DARTMOUTH","longitude":-71.0,"id":"acabr2y1u1ue","source":"AMATEUR RADIO","state":"MA"},"type":"Feature","geometry":{"type":"Point","coordinates":[-71.0,41.57]}},{"properties":{"latitude":41.57,"time":{"end_time":"2030/01/01 03:00:00 -0500","original":"0218 AM ","granularity":"hour","time":"2030/01/01 02:00:00 -0500"},"county":"BRISTOL","event":"NON-TSTM WND DMG","remrks":"TREE DOWN ON HIGH HILL ROAD","city/location":"DARTMOUTH","longitude":-71.0,"id":"acabr2plix4m","source":"AMATEUR RADIO","state":"MA"},"type":"Feature","geometry":{"type":"Point","coordinates":[-71.0,41.57]}},{"properties":{"latitude":41.66,"time":{"end_time":"2030/01/01 09:00:00 -0500","original":"0224 AM","granularity":"hour","time":"2030/01/01 08:00:00 -0500"},"county":"BRISTOL","event":"NON-TSTM WND DMG","remrks":"LIMB AND WIRES DOWN ON CAR ON ROCKLAND STREET","city/location":"NEW BEDFORD","longitude":-70.94,"id":"acabr2risfbu","source":"AMATEUR RADIO","state":"MA"},"type":"Feature","geometry":{"type":"Point","coordinates":[-70.94,41.66]}},{"properties":{"latitude":41.66,"time":{"end_time":"2030/01/01 03:00:00 -0500","original":"0230 AM","granularity":"hour","time":"2030/01/01 02:00:00 -0500"},"county":"BRISTOL","event":"NON-TSTM WND DMG","remrks":"TRAFFIC LIGHT DOWN IN INTERSECTION ON BELLEVILLE AVE.","city/location":"NEW BEDFORD","longitude":-70.94,"id":"acabr2rm9t94","source":"AMATEUR RADIO","state":"MA"},"type":"Feature","geometry":{"type":"Point","coordinates":[-70.94,41.66]}},{"properties":{"latitude":41.57,"time":{"end_time":"2030/01/01 03:00:00 -0500","original":" 0230 AM ","granularity":"hour","time":"2030/01/01 02:00:00 -0500"},"county":"BRISTOL","event":"NON-TSTM WND DMG","remrks":"MULTIPLE TREES DOWN","city/location":"DARTMOUTH","longitude":-71.0,"id":"acabr2rvkv7p","source":"AMATEUR RADIO","state":"MA"},"type":"Feature","geometry":{"type":"Point","coordinates":[-71.0,41.57]}},{"properties":{"latitude":41.66,"time":{"end_time":"2030/01/01 03:00:00 -0500","original":" 0230 AM","granularity":"hour","time":"2030/01/01 02:00:00 -0500"},"county":"BRISTOL","event":"NON-TSTM WND DMG","remrks":"BUILDING SIGN BLOWN DOWN","city/location":"NEW BEDFORD","longitude":-70.94,"id":"acabr2yln43a","source":"AMATEUR RADIO","state":"MA"},"type":"Feature","geometry":{"type":"Point","coordinates":[-70.94,41.66]}},{"properties":{"latitude":"41.66","time":"0240 AM","county":"PLYMOUTH","event":"NON-TSTM WND DMG","remrks":"TREE AND UTILITY POLE ON MATTAPOISETT","city/location":"MATTAPOISETT","longitude":"-70.81","id":"acabr2y7egbx","source":"AMATEUR RADIO","state":"MA"},"type":"Feature","geometry":{"type":"Point","coordinates":[-70.81,41.66]}},{"properties":{"latitude":41.7,"time":{"end_time":"2030/01/01 09:00:00 -0500","original":"0932 AM ","granularity":"hour","time":"2030/01/01 08:00:00 -0500"},"county":"BARNSTABLE","event":"NON-TSTM WND DMG","remrks":"TREES, WIRES DOWN ROUTE 6A EAST OF ROUTE 132 INTERSECTION","city/location":"BARNSTABLE","longitude":-70.3,"id":"acabr2q9b01v","source":"LAW ENFORCEMENT","state":"MA"},"type":"Feature","geometry":{"type":"Point","coordinates":[-70.3,41.7]}}],"is_temporal":true,"author":{"url":"","metadata":"","contact_name":"","contact_address":"","source":"","contact_phone":""},"source":"","pagination":{"sort":null,"start":0,"total":16,"limit":1000000},"state":"complete","tags":"","published":"2014-08-16T15:39:27-04:00","id":322100}