{"type":"FeatureCollection","data_type":"Dataset","url_type":null,"permissions":[{"permissions":{"download":true,"view":true},"group_id":"everyone"}],"classification":null,"title":"Washington State Department of Health, Tribal Clinics, Washington, 2008 ","count":64,"stream_id":3223,"contributor":{"url":"http://geocommons.com/users/139","name":"Burkey"},"data_attributes":null,"calculation_params":null,"icon_link":null,"link":"http://geocommons.com/overlays/3223.json","extent":[-124.667,46.378,-117.304,48.8866],"geometry_types":["point"],"unique_name":null,"name":"Washington State Department of Health, Tribal Clinics, Washington, 2008 ","feature_count":64,"description":"Abstract:\n    This dataset shows the locations of Native American Health Centers in Washington State. \nPurpose:\n    This dataset was made as part of a project to map Washington's Health System.","next_feature":null,"is_raster":false,"short_classification":"Y","stats":{"CERTAINTY":{"max":null,"min":null,"median":null},"N_HOUSENUM":{"max":null,"min":null,"median":null},"AV_SCORE":{"max":100,"mean":80.21875,"variance":831.951388888889,"stdev":28.8435675478761,"min":0,"median":100},"BLOCK00":{"max":null,"min":null,"median":null},"X_COORD":{"max":-117.30441,"mean":-122.11368796875,"variance":2.98464093296882,"stdev":1.72761133735827,"min":-124.66712,"median":-122.50112},"N_ZIP":{"max":null,"min":null,"median":null},"AV_ZIP":{"max":null,"min":null,"median":null},"BG00":{"max":null,"min":null,"median":null},"BG90":{"max":null,"min":null,"median":null},"TRACT90D":{"max":null,"min":null,"median":null},"Y_COORD":{"max":48.88658,"mean":47.780621875,"variance":0.454877218199604,"stdev":0.674445860095237,"min":46.37796,"median":47.8878},"TRACT00D":{"max":null,"min":null,"median":null}},"features":[{"properties":{"NAME":"Chehalis Tribal Health Clinic","CITY":"Oakville","CERTAINTY":"1","ZCTA":"98568","AV_CO":"027","ZIP":"98568","N_LCODE":"AS1","N_HOUSENUM":"420","GEOLEVEL":"CENSUSTRACT","AV_SCORE":100,"N_STREET":"HOWANUT","AV_ALPHA":"14","TRACT00":"000700","BLOCK00":"3174","PHONE":"(360) 273-5504","N_ADDRESS":"420 HOWANUT RD","N_UNIT":"","X_COORD":-123.16864,"TYPE":"Tribal Mental Health","N_ZIP4":"9616","N_STATE":"WA","TRACT90":"000700","BLOCK90":"86","N_ZIP":"98568","AV_ZIP":"98568","BG00":"3","STATE":"WA","N_CITY":"OAKVILLE","N_POSTDIR":"","AV_DATE":"Thu Sep 27 07:58:54 2007","BG90":"3","ACCURACY":"Close","TRACT90D":"0007.003","N_STRSUF":"RD","Y_COORD":46.81531,"id":"a6462aq0rpoa","ADDRESS":"420 Howanut Road","N_MCODE":"S80","N_PREDIR":"","SOURCE":"NAVTECH","QUALITY":"03","TRACT00D":"0007.003","AV_CITY":""},"type":"Feature","geometry":{"type":"Point","coordinates":[-123.168638877805,46.81531312583]}},{"properties":{"NAME":"Colville Confederated Tribes","CITY":"Nespelem","CERTAINTY":"5","ZCTA":"","AV_CO":"047","ZIP":"99155","N_LCODE":"ZC5Z","N_HOUSENUM":"150","GEOLEVEL":"ZIPCODE","AV_SCORE":0,"N_STREET":"PO BOX","AV_ALPHA":"24","TRACT00":"970100","BLOCK00":"1255","PHONE":"(509) 634-8862","N_ADDRESS":"PO BOX 150","N_UNIT":"","X_COORD":-118.97655,"TYPE":"Mental Health","N_ZIP4":"0150","N_STATE":"WA","TRACT90":"970100","BLOCK90":"91A","N_ZIP":"99155","AV_ZIP":"","BG00":"1","STATE":"WA","N_CITY":"NESPELEM","N_POSTDIR":"","AV_DATE":"","BG90":"1","ACCURACY":"Very Approximate","TRACT90D":"9701.001","N_STRSUF":"","Y_COORD":48.16379,"id":"a6462avg2h5o","ADDRESS":"P.O. Box 150","N_MCODE":"S80","N_PREDIR":"","SOURCE":"Post Office Zip Centroid","QUALITY":"10","TRACT00D":"9701.001","AV_CITY":""},"type":"Feature","geometry":{"type":"Point","coordinates":[-118.97655,48.1637899990474]}},{"properties":{"NAME":"Colville Indian Health Center","CITY":"Nespelem","CERTAINTY":"5","ZCTA":"","AV_CO":"047","ZIP":"99155","N_LCODE":"ZC5X","N_HOUSENUM":"","GEOLEVEL":"CITY","AV_SCORE":0,"N_STREET":"","AV_ALPHA":"24","TRACT00":"970100","BLOCK00":"1236","PHONE":"(509) 634-5771","N_ADDRESS":"","N_UNIT":"","X_COORD":-118.97361,"TYPE":"","N_ZIP4":"","N_STATE":"WA","TRACT90":"970100","BLOCK90":"76","N_ZIP":"99155","AV_ZIP":"","BG00":"1","STATE":"WA","N_CITY":"NESPELEM","N_POSTDIR":"","AV_DATE":"","BG90":"1","ACCURACY":"Very Approximate","TRACT90D":"9701.001","N_STRSUF":"","Y_COORD":48.16722,"id":"a6462av9kbg1","ADDRESS":"","N_MCODE":"E020","N_PREDIR":"","SOURCE":"City or Place Centroid","QUALITY":"11","TRACT00D":"9701.001","AV_CITY":""},"type":"Feature","geometry":{"type":"Point","coordinates":[-118.97361,48.1672199990474]}},{"properties":{"NAME":"Colville Indian Health Center","CITY":"Nespelem","CERTAINTY":"5","ZCTA":"","AV_CO":"047","ZIP":"99155","N_LCODE":"ZC5Z","N_HOUSENUM":"71","GEOLEVEL":"ZIPCODE","AV_SCORE":0,"N_STREET":"PO BOX","AV_ALPHA":"24","TRACT00":"970100","BLOCK00":"1255","PHONE":"(509) 634-2965","N_ADDRESS":"PO BOX 71","N_UNIT":"","X_COORD":-118.97655,"TYPE":"","N_ZIP4":"0071","N_STATE":"WA","TRACT90":"970100","BLOCK90":"91A","N_ZIP":"99155","AV_ZIP":"","BG00":"1","STATE":"WA","N_CITY":"NESPELEM","N_POSTDIR":"","AV_DATE":"","BG90":"1","ACCURACY":"Very Approximate","TRACT90D":"9701.001","N_STRSUF":"","Y_COORD":48.16379,"id":"a6462arq6qyb","ADDRESS":"P.O. Box 71","N_MCODE":"S80","N_PREDIR":"","SOURCE":"Post Office Zip Centroid","QUALITY":"10","TRACT00D":"9701.001","AV_CITY":""},"type":"Feature","geometry":{"type":"Point","coordinates":[-118.97655,48.1637899990474]}},{"properties":{"NAME":"Inchelium Health Center","CITY":"Inchelium","CERTAINTY":"4","ZCTA":"99138","AV_CO":"019","ZIP":"99138","N_LCODE":"ZT5V","N_HOUSENUM":"","GEOLEVEL":"ZIPCODE","AV_SCORE":70,"N_STREET":"KETTLE FALLS","AV_ALPHA":"10","TRACT00":"980300","BLOCK00":"2162","PHONE":"(509) 722-3331","N_ADDRESS":"KETTLE FALLS HWY","N_UNIT":"","X_COORD":-118.4069,"TYPE":"","N_ZIP4":"","N_STATE":"WA","TRACT90":"980300","BLOCK90":"30A","N_ZIP":"99138","AV_ZIP":"99138","BG00":"2","STATE":"WA","N_CITY":"INCHELIUM","N_POSTDIR":"","AV_DATE":"Thu Sep 27 07:58:54 2007","BG90":"2","ACCURACY":"Very Approximate","TRACT90D":"9803.002","N_STRSUF":"HWY","Y_COORD":48.2881,"id":"a6462ah8aa0u","ADDRESS":"Kettle Falls Hwy","N_MCODE":"E020","N_PREDIR":"","SOURCE":"Centrus","QUALITY":"09","TRACT00D":"9803.002","AV_CITY":""},"type":"Feature","geometry":{"type":"Point","coordinates":[-118.206219985508,48.3016302154468]}},{"properties":{"NAME":"Island Crossing Counseling Servic","CITY":"Arlington","CERTAINTY":"1","ZCTA":"98223","AV_CO":"061","ZIP":"98223","N_LCODE":"AS0","N_HOUSENUM":"21123","GEOLEVEL":"CENSUSTRACT","AV_SCORE":70,"N_STREET":"SMOKEY POINT","AV_ALPHA":"31","TRACT00":"053503","BLOCK00":"4004","PHONE":"(360) 652-9640","N_ADDRESS":"21123 SMOKEY POINT BLVD","N_UNIT":"","X_COORD":-122.19277,"TYPE":"","N_ZIP4":"4224","N_STATE":"WA","TRACT90":"053501","BLOCK90":"08B","N_ZIP":"98223","AV_ZIP":"98223","BG00":"4","STATE":"WA","N_CITY":"ARLINGTON","N_POSTDIR":"","AV_DATE":"Thu Sep 27 07:58:54 2007","BG90":"4","ACCURACY":"Approximate","TRACT90D":"0535.014","N_STRSUF":"BLVD","Y_COORD":48.18778,"id":"a6462ape9uhu","ADDRESS":"21123 Smokey Point Blvd","N_MCODE":"S80","N_PREDIR":"","SOURCE":"Centrus","QUALITY":"03","TRACT00D":"0535.034","AV_CITY":""},"type":"Feature","geometry":{"type":"Point","coordinates":[-122.192772,48.1877779990476]}},{"properties":{"NAME":"Jamestown Family Health Clinic","CITY":"Sequim","CERTAINTY":"1","ZCTA":"98382","AV_CO":"009","ZIP":"98382","N_LCODE":"AP0","N_HOUSENUM":"1033","GEOLEVEL":"CENSUSTRACT","AV_SCORE":100,"N_STREET":"OLD BLYN","AV_ALPHA":"05","TRACT00":"982300","BLOCK00":"2997","PHONE":"(360) 6814-4657","N_ADDRESS":"1033 OLD BLYN HWY","N_UNIT":"","X_COORD":-122.99917,"TYPE":"","N_ZIP4":"7670","N_STATE":"WA","TRACT90":"982300","BLOCK90":"99C","N_ZIP":"98382","AV_ZIP":"","BG00":"2","STATE":"WA","N_CITY":"SEQUIM","N_POSTDIR":"","AV_DATE":"Thu Sep 27 07:58:54 2007","BG90":"1","ACCURACY":"Close","TRACT90D":"9823.001","N_STRSUF":"HWY","Y_COORD":48.02625,"id":"a6462ak7din4","ADDRESS":"1033 Old Blyn Hwy","N_MCODE":"S80","N_PREDIR":"","SOURCE":"Local Parcels","QUALITY":"02","TRACT00D":"9823.002","AV_CITY":""},"type":"Feature","geometry":{"type":"Point","coordinates":[-122.999174155,48.0262500040466]}},{"properties":{"NAME":"Kalispel Tribe of Indians","CITY":"Cusick","CERTAINTY":"1","ZCTA":"99119","AV_CO":"051","ZIP":"99119","N_LCODE":"AS1","N_HOUSENUM":"418643","GEOLEVEL":"CENSUSTRACT","AV_SCORE":100,"N_STREET":"SR 20","AV_ALPHA":"26","TRACT00":"970200","BLOCK00":"2106","PHONE":"(509) 445-1147","N_ADDRESS":"418643 SR 20","N_UNIT":"","X_COORD":-117.30441,"TYPE":"Tribal Mental Health","N_ZIP4":"","N_STATE":"WA","TRACT90":"970200","BLOCK90":"17","N_ZIP":"99119","AV_ZIP":"99119","BG00":"2","STATE":"WA","N_CITY":"CUSICK","N_POSTDIR":"","AV_DATE":"Thu Sep 27 07:58:54 2007","BG90":"2","ACCURACY":"Close","TRACT90D":"9702.002","N_STRSUF":"","Y_COORD":48.34377,"id":"a6462aslwgb4","ADDRESS":"418643 SR 20","N_MCODE":"T80","N_PREDIR":"","SOURCE":"NAVTECH-HWY","QUALITY":"03","TRACT00D":"9702.002","AV_CITY":""},"type":"Feature","geometry":{"type":"Point","coordinates":[-117.304413953256,48.3437741194516]}},{"properties":{"NAME":"Lower Elwah Health Clinic","CITY":"Port Angeles","CERTAINTY":"1","ZCTA":"98363","AV_CO":"009","ZIP":"98363","N_LCODE":"AS1","N_HOUSENUM":"3080","GEOLEVEL":"CENSUSTRACT","AV_SCORE":100,"N_STREET":"LOWER ELWHA","AV_ALPHA":"05","TRACT00":"981500","BLOCK00":"1005","PHONE":"(360) 452-8471","N_ADDRESS":"3080 LOWER ELWHA RD","N_UNIT":"","X_COORD":-123.55363,"TYPE":"Mental Health","N_ZIP4":"8411","N_STATE":"WA","TRACT90":"981500","BLOCK90":"05","N_ZIP":"98363","AV_ZIP":"98363","BG00":"1","STATE":"WA","N_CITY":"PORT ANGELES","N_POSTDIR":"","AV_DATE":"Thu Sep 27 07:58:54 2007","BG90":"3","ACCURACY":"Close","TRACT90D":"9815.003","N_STRSUF":"RD","Y_COORD":48.14439,"id":"a6462ainzdyd","ADDRESS":"3080 Lower Elwha Road","N_MCODE":"S80","N_PREDIR":"","SOURCE":"Local Roads","QUALITY":"03","TRACT00D":"9815.001","AV_CITY":""},"type":"Feature","geometry":{"type":"Point","coordinates":[-123.553625544511,48.1443854885465]}},{"properties":{"NAME":"Lower Elwha Health Clinic","CITY":"Port Angeles","CERTAINTY":"1","ZCTA":"98363","AV_CO":"009","ZIP":"98363","N_LCODE":"AS1","N_HOUSENUM":"3080","GEOLEVEL":"CENSUSTRACT","AV_SCORE":100,"N_STREET":"LOWER ELWHA","AV_ALPHA":"05","TRACT00":"981500","BLOCK00":"1005","PHONE":"(360) 452-6252","N_ADDRESS":"3080 LOWER ELWHA RD","N_UNIT":"","X_COORD":-123.55363,"TYPE":"Indian Health Center","N_ZIP4":"8411","N_STATE":"WA","TRACT90":"981500","BLOCK90":"05","N_ZIP":"98363","AV_ZIP":"98363","BG00":"1","STATE":"WA","N_CITY":"PORT ANGELES","N_POSTDIR":"","AV_DATE":"Thu Sep 27 07:58:54 2007","BG90":"3","ACCURACY":"Close","TRACT90D":"9815.003","N_STRSUF":"RD","Y_COORD":48.14439,"id":"a6462ar8hgs2","ADDRESS":"3080 Lower Elwha Road","N_MCODE":"S80","N_PREDIR":"","SOURCE":"Local Roads","QUALITY":"03","TRACT00D":"9815.001","AV_CITY":""},"type":"Feature","geometry":{"type":"Point","coordinates":[-123.553625544511,48.1443854885465]}},{"properties":{"NAME":"Lummi Indian Health Center","CITY":"Bellingham","CERTAINTY":"1","ZCTA":"98248","AV_CO":"073","ZIP":"98269","N_LCODE":"AS1","N_HOUSENUM":"2592","GEOLEVEL":"CENSUSTRACT","AV_SCORE":100,"N_STREET":"KWINA","AV_ALPHA":"37","TRACT00":"010800","BLOCK00":"1033","PHONE":"(360) 384-0464","N_ADDRESS":"2592 KWINA RD","N_UNIT":"","X_COORD":-122.62247,"TYPE":"","N_ZIP4":"9278","N_STATE":"WA","TRACT90":"010800","BLOCK90":"39","N_ZIP":"98226","AV_ZIP":"98226","BG00":"1","STATE":"WA","N_CITY":"BELLINGHAM","N_POSTDIR":"","AV_DATE":"Thu Sep 27 07:58:54 2007","BG90":"1","ACCURACY":"Close","TRACT90D":"0108.001","N_STRSUF":"RD","Y_COORD":48.79392,"id":"a6462aihg2pz","ADDRESS":"2592 Kwina Road","N_MCODE":"S90","N_PREDIR":"","SOURCE":"NAVTECH","QUALITY":"03","TRACT00D":"0108.001","AV_CITY":""},"type":"Feature","geometry":{"type":"Point","coordinates":[-122.622472377937,48.7939205906953]}},{"properties":{"NAME":"Lummi Tribal Health Center","CITY":"Bellingham","CERTAINTY":"1","ZCTA":"98248","AV_CO":"073","ZIP":"98269","N_LCODE":"AS1","N_HOUSENUM":"2592","GEOLEVEL":"CENSUSTRACT","AV_SCORE":100,"N_STREET":"KWINA","AV_ALPHA":"37","TRACT00":"010800","BLOCK00":"1033","PHONE":"No Number","N_ADDRESS":"2592 KWINA RD","N_UNIT":"","X_COORD":-122.62247,"TYPE":"Tribal Mental Health","N_ZIP4":"9278","N_STATE":"WA","TRACT90":"010800","BLOCK90":"39","N_ZIP":"98226","AV_ZIP":"98226","BG00":"1","STATE":"WA","N_CITY":"BELLINGHAM","N_POSTDIR":"","AV_DATE":"Thu Sep 27 07:58:54 2007","BG90":"1","ACCURACY":"Close","TRACT90D":"0108.001","N_STRSUF":"RD","Y_COORD":48.79392,"id":"a6462asnwwiz","ADDRESS":"2592 Kwina Road","N_MCODE":"S90","N_PREDIR":"","SOURCE":"NAVTECH","QUALITY":"03","TRACT00D":"0108.001","AV_CITY":""},"type":"Feature","geometry":{"type":"Point","coordinates":[-122.622472377937,48.7939205906953]}},{"properties":{"NAME":"Lummi Yesss Mental Health Service","CITY":"Bellingham","CERTAINTY":"1","ZCTA":"98248","AV_CO":"073","ZIP":"98269","N_LCODE":"AS1","N_HOUSENUM":"2616","GEOLEVEL":"CENSUSTRACT","AV_SCORE":100,"N_STREET":"KWINA","AV_ALPHA":"37","TRACT00":"010800","BLOCK00":"1033","PHONE":"(360) 384-1489","N_ADDRESS":"2616 KWINA RD","N_UNIT":"","X_COORD":-122.62359,"TYPE":"Tribal Mental Health","N_ZIP4":"9291","N_STATE":"WA","TRACT90":"010800","BLOCK90":"39","N_ZIP":"98226","AV_ZIP":"98226","BG00":"1","STATE":"WA","N_CITY":"BELLINGHAM","N_POSTDIR":"","AV_DATE":"Thu Sep 27 07:58:54 2007","BG90":"1","ACCURACY":"Close","TRACT90D":"0108.001","N_STRSUF":"RD","Y_COORD":48.79392,"id":"a6462ahtrk0x","ADDRESS":"2616 Kwina Road","N_MCODE":"S90","N_PREDIR":"","SOURCE":"NAVTECH","QUALITY":"03","TRACT00D":"0108.001","AV_CITY":""},"type":"Feature","geometry":{"type":"Point","coordinates":[-122.623587129432,48.7939190604942]}},{"properties":{"NAME":"Makah Tribal Council","CITY":"Neah Bay","CERTAINTY":"1","ZCTA":"98357","AV_CO":"009","ZIP":"98357","N_LCODE":"AS1","N_HOUSENUM":"201","GEOLEVEL":"CENSUSTRACT","AV_SCORE":100,"N_STREET":"RESORT","AV_ALPHA":"05","TRACT00":"980100","BLOCK00":"2031","PHONE":"(360) 645-3270","N_ADDRESS":"201 RESORT DRIVE","N_UNIT":"","X_COORD":-124.66712,"TYPE":"Mental Health","N_ZIP4":"","N_STATE":"WA","TRACT90":"980100","BLOCK90":"36C","N_ZIP":"98357","AV_ZIP":"98381","BG00":"2","STATE":"WA","N_CITY":"NEAH BAY","N_POSTDIR":"","AV_DATE":"Thu Sep 27 07:58:54 2007","BG90":"2","ACCURACY":"Close","TRACT90D":"9801.002","N_STRSUF":"DR","Y_COORD":48.3488,"id":"a6462ahsfkpi","ADDRESS":"201 Resort Drive","N_MCODE":"E020","N_PREDIR":"","SOURCE":"Local Roads","QUALITY":"03","TRACT00D":"9801.002","AV_CITY":""},"type":"Feature","geometry":{"type":"Point","coordinates":[-124.667120207958,48.3488044554042]}},{"properties":{"NAME":"Muckelshoot Health Clinic","CITY":"Auburn","CERTAINTY":"1","ZCTA":"98092","AV_CO":"033","ZIP":"98092","N_LCODE":"AS1","N_HOUSENUM":"39015","GEOLEVEL":"CENSUSTRACT","AV_SCORE":100,"N_STREET":"172ND","AV_ALPHA":"17","TRACT00":"031202","BLOCK00":"5003","PHONE":"(253) 939-6648","N_ADDRESS":"39015 172ND AVE SE","N_UNIT":"","X_COORD":-122.11239,"TYPE":"","N_ZIP4":"9763","N_STATE":"WA","TRACT90":"031202","BLOCK90":"05","N_ZIP":"98092","AV_ZIP":"98092","BG00":"5","STATE":"WA","N_CITY":"AUBURN","N_POSTDIR":"SE","AV_DATE":"Thu Sep 27 07:58:54 2007","BG90":"5","ACCURACY":"Close","TRACT90D":"0312.025","N_STRSUF":"AVE","Y_COORD":47.25168,"id":"a6462al8nhjo","ADDRESS":"39015 172nd Ave SE","N_MCODE":"S80","N_PREDIR":"","SOURCE":"Local Roads","QUALITY":"03","TRACT00D":"0312.025","AV_CITY":""},"type":"Feature","geometry":{"type":"Point","coordinates":[-122.112390166036,47.2516750121759]}},{"properties":{"NAME":"Muckelshoot Indian Hlth Services","CITY":"Auburn","CERTAINTY":"1","ZCTA":"98092","AV_CO":"033","ZIP":"98092","N_LCODE":"AS1","N_HOUSENUM":"39015","GEOLEVEL":"CENSUSTRACT","AV_SCORE":100,"N_STREET":"172ND","AV_ALPHA":"17","TRACT00":"031202","BLOCK00":"5003","PHONE":"(253) 939-6648","N_ADDRESS":"39015 172ND AVE SE","N_UNIT":"","X_COORD":-122.11239,"TYPE":"","N_ZIP4":"9763","N_STATE":"WA","TRACT90":"031202","BLOCK90":"05","N_ZIP":"98092","AV_ZIP":"98092","BG00":"5","STATE":"WA","N_CITY":"AUBURN","N_POSTDIR":"SE","AV_DATE":"Thu Sep 27 07:58:54 2007","BG90":"5","ACCURACY":"Close","TRACT90D":"0312.025","N_STRSUF":"AVE","Y_COORD":47.25168,"id":"a6462aq89nfd","ADDRESS":"39015 172nd Ave SE","N_MCODE":"S80","N_PREDIR":"","SOURCE":"Local Roads","QUALITY":"03","TRACT00D":"0312.025","AV_CITY":""},"type":"Feature","geometry":{"type":"Point","coordinates":[-122.112390166036,47.2516750121759]}},{"properties":{"NAME":"Muckleshoot Tribe","CITY":"Auburn","CERTAINTY":"1","ZCTA":"98092","AV_CO":"033","ZIP":"98092","N_LCODE":"AS1","N_HOUSENUM":"39015","GEOLEVEL":"CENSUSTRACT","AV_SCORE":100,"N_STREET":"172ND","AV_ALPHA":"17","TRACT00":"031202","BLOCK00":"5003","PHONE":"(253) 939-6648","N_ADDRESS":"39015 172ND AVE SE","N_UNIT":"","X_COORD":-122.11239,"TYPE":"Tribal Mental Health","N_ZIP4":"9763","N_STATE":"WA","TRACT90":"031202","BLOCK90":"05","N_ZIP":"98092","AV_ZIP":"98092","BG00":"5","STATE":"WA","N_CITY":"AUBURN","N_POSTDIR":"SE","AV_DATE":"Thu Sep 27 07:58:54 2007","BG90":"5","ACCURACY":"Close","TRACT90D":"0312.025","N_STRSUF":"AVE","Y_COORD":47.25168,"id":"a6462aszijfm","ADDRESS":"39015 172nd Ave SE","N_MCODE":"S80","N_PREDIR":"","SOURCE":"Local Roads","QUALITY":"03","TRACT00D":"0312.025","AV_CITY":""},"type":"Feature","geometry":{"type":"Point","coordinates":[-122.112390166036,47.2516750121759]}},{"properties":{"NAME":"Nisqually Indian Tribe","CITY":"Olympia","CERTAINTY":"1","ZCTA":"98513","AV_CO":"067","ZIP":"98513","N_LCODE":"AS1","N_HOUSENUM":"4816","GEOLEVEL":"CENSUSTRACT","AV_SCORE":100,"N_STREET":"SHE NAH NUM","AV_ALPHA":"34","TRACT00":"012320","BLOCK00":"2012","PHONE":"(360) 902-0820","N_ADDRESS":"4816 SHE NAH NUM DR SE","N_UNIT":"","X_COORD":-122.67046,"TYPE":"Tribal Mental Health","N_ZIP4":"9105","N_STATE":"WA","TRACT90":"012300","BLOCK90":"02A","N_ZIP":"98513","AV_ZIP":"98513","BG00":"2","STATE":"WA","N_CITY":"OLYMPIA","N_POSTDIR":"SE","AV_DATE":"Thu Sep 27 07:58:54 2007","BG90":"6","ACCURACY":"Close","TRACT90D":"0123.006","N_STRSUF":"DR","Y_COORD":47.0045,"id":"a6462ajsvkav","ADDRESS":"4816 She-Nah-Num DR SE","N_MCODE":"S88","N_PREDIR":"","SOURCE":"NAVTECH","QUALITY":"03","TRACT00D":"0123.202","AV_CITY":""},"type":"Feature","geometry":{"type":"Point","coordinates":[-122.670462780975,47.0045013382833]}},{"properties":{"NAME":"Nisqually Tribal Clinic","CITY":"Olympia","CERTAINTY":"1","ZCTA":"98513","AV_CO":"067","ZIP":"98513","N_LCODE":"AS1","N_HOUSENUM":"4816","GEOLEVEL":"CENSUSTRACT","AV_SCORE":100,"N_STREET":"SHE NAH NUM","AV_ALPHA":"34","TRACT00":"012320","BLOCK00":"2012","PHONE":"(360) 456-5221","N_ADDRESS":"4816 SHE NAH NUM DR SE","N_UNIT":"","X_COORD":-122.67046,"TYPE":"","N_ZIP4":"9105","N_STATE":"WA","TRACT90":"012300","BLOCK90":"02A","N_ZIP":"98513","AV_ZIP":"98513","BG00":"2","STATE":"WA","N_CITY":"OLYMPIA","N_POSTDIR":"SE","AV_DATE":"Thu Sep 27 07:58:54 2007","BG90":"6","ACCURACY":"Close","TRACT90D":"0123.006","N_STRSUF":"DR","Y_COORD":47.0045,"id":"a6462ahgx06r","ADDRESS":"4816 She-Nah-Num DR SE","N_MCODE":"S88","N_PREDIR":"","SOURCE":"NAVTECH","QUALITY":"03","TRACT00D":"0123.202","AV_CITY":""},"type":"Feature","geometry":{"type":"Point","coordinates":[-122.670462780975,47.0045013382833]}},{"properties":{"NAME":"Nooksack Community Clinic","CITY":"Everson","CERTAINTY":"1","ZCTA":"98247","AV_CO":"073","ZIP":"98247","N_LCODE":"AS1","N_HOUSENUM":"6760","GEOLEVEL":"CENSUSTRACT","AV_SCORE":100,"N_STREET":"MISSION","AV_ALPHA":"37","TRACT00":"010700","BLOCK00":"4025","PHONE":"(360) 966-2106","N_ADDRESS":"6760 MISSION RD","N_UNIT":"","X_COORD":-122.35306,"TYPE":"","N_ZIP4":"9749","N_STATE":"WA","TRACT90":"010700","BLOCK90":"16","N_ZIP":"98247","AV_ZIP":"98247","BG00":"4","STATE":"WA","N_CITY":"EVERSON","N_POSTDIR":"","AV_DATE":"Thu Sep 27 07:58:54 2007","BG90":"4","ACCURACY":"Close","TRACT90D":"0107.004","N_STRSUF":"RD","Y_COORD":48.88658,"id":"a6462avzebov","ADDRESS":"6760 Misson Rd","N_MCODE":"S89","N_PREDIR":"","SOURCE":"NAVTECH","QUALITY":"03","TRACT00D":"0107.004","AV_CITY":""},"type":"Feature","geometry":{"type":"Point","coordinates":[-122.353061684785,48.8865832614131]}},{"properties":{"NAME":"Nooksack Tribe","CITY":"Deming","CERTAINTY":"4","ZCTA":"982XX","AV_CO":"073","ZIP":"98244","N_LCODE":"ZT5V","N_HOUSENUM":"157","GEOLEVEL":"ZIPCODE","AV_SCORE":70,"N_STREET":"PO BOX","AV_ALPHA":"37","TRACT00":"010100","BLOCK00":"3058","PHONE":"(360) 592-5176","N_ADDRESS":"PO BOX 157","N_UNIT":"","X_COORD":-122.0866,"TYPE":"Tribal Mental Health","N_ZIP4":"0157","N_STATE":"WA","TRACT90":"010100","BLOCK90":"01","N_ZIP":"98244","AV_ZIP":"98244","BG00":"3","STATE":"WA","N_CITY":"DEMING","N_POSTDIR":"","AV_DATE":"Thu Sep 27 07:58:54 2007","BG90":"3","ACCURACY":"Very Approximate","TRACT90D":"0101.003","N_STRSUF":"","Y_COORD":48.804,"id":"a6462ah8trwv","ADDRESS":"P.O. Box 157","N_MCODE":"S80","N_PREDIR":"","SOURCE":"Centrus","QUALITY":"09","TRACT00D":"0101.003","AV_CITY":""},"type":"Feature","geometry":{"type":"Point","coordinates":[-122.222721890471,48.8310007996195]}},{"properties":{"NAME":"Nooksack Tribe","CITY":"Deming","CERTAINTY":"4","ZCTA":"982XX","AV_CO":"073","ZIP":"98244","N_LCODE":"ZT5V","N_HOUSENUM":"157","GEOLEVEL":"ZIPCODE","AV_SCORE":70,"N_STREET":"PO BOX","AV_ALPHA":"37","TRACT00":"010100","BLOCK00":"3058","PHONE":"(360) 592-5176","N_ADDRESS":"PO BOX 157","N_UNIT":"","X_COORD":-122.0866,"TYPE":"Tribal Mental Health","N_ZIP4":"0157","N_STATE":"WA","TRACT90":"010100","BLOCK90":"01","N_ZIP":"98244","AV_ZIP":"98244","BG00":"3","STATE":"WA","N_CITY":"DEMING","N_POSTDIR":"","AV_DATE":"Thu Sep 27 07:58:54 2007","BG90":"3","ACCURACY":"Very Approximate","TRACT90D":"0101.003","N_STRSUF":"","Y_COORD":48.804,"id":"a6462aksyhwg","ADDRESS":"P.O. Box 157","N_MCODE":"S80","N_PREDIR":"","SOURCE":"Centrus","QUALITY":"09","TRACT00D":"0101.003","AV_CITY":""},"type":"Feature","geometry":{"type":"Point","coordinates":[-122.224834047119,48.8229636362561]}},{"properties":{"NAME":"Nooksack Tribe Childrens Center","CITY":"Deming","CERTAINTY":"4","ZCTA":"982XX","AV_CO":"073","ZIP":"98244","N_LCODE":"ZT5V","N_HOUSENUM":"157","GEOLEVEL":"ZIPCODE","AV_SCORE":70,"N_STREET":"PO BOX","AV_ALPHA":"37","TRACT00":"010100","BLOCK00":"3058","PHONE":"(360) 592-5176","N_ADDRESS":"PO BOX 157","N_UNIT":"","X_COORD":-122.0866,"TYPE":"Tribal Mental Health","N_ZIP4":"0157","N_STATE":"WA","TRACT90":"010100","BLOCK90":"01","N_ZIP":"98244","AV_ZIP":"98244","BG00":"3","STATE":"WA","N_CITY":"DEMING","N_POSTDIR":"","AV_DATE":"Thu Sep 27 07:58:54 2007","BG90":"3","ACCURACY":"Very Approximate","TRACT90D":"0101.003","N_STRSUF":"","Y_COORD":48.804,"id":"a6462aqoz0j4","ADDRESS":"P.O. Box 157","N_MCODE":"S80","N_PREDIR":"","SOURCE":"Centrus","QUALITY":"09","TRACT00D":"0101.003","AV_CITY":""},"type":"Feature","geometry":{"type":"Point","coordinates":[-122.204289625781,48.8199618111281]}},{"properties":{"NAME":"Northwest Indian Treatment Cnt","CITY":"Elma","CERTAINTY":"1","ZCTA":"98541","AV_CO":"027","ZIP":"98514","N_LCODE":"AS1","N_HOUSENUM":"308","GEOLEVEL":"CENSUSTRACT","AV_SCORE":100,"N_STREET":"YOUNG","AV_ALPHA":"14","TRACT00":"000500","BLOCK00":"1005","PHONE":"(360) 482-2674","N_ADDRESS":"308 E YOUNG ST","N_UNIT":"","X_COORD":-123.39748,"TYPE":"Tribal Mental Health","N_ZIP4":"","N_STATE":"WA","TRACT90":"000500","BLOCK90":"03","N_ZIP":"98541","AV_ZIP":"98541","BG00":"1","STATE":"WA","N_CITY":"ELMA","N_POSTDIR":"","AV_DATE":"Thu Sep 27 07:58:54 2007","BG90":"1","ACCURACY":"Close","TRACT90D":"0005.001","N_STRSUF":"ST","Y_COORD":47.00574,"id":"a6462ao4wfkv","ADDRESS":"308 E Young St","N_MCODE":"T90","N_PREDIR":"E","SOURCE":"NAVTECH","QUALITY":"03","TRACT00D":"0005.001","AV_CITY":"ELMA"},"type":"Feature","geometry":{"type":"Point","coordinates":[-123.397477618927,47.0057353749108]}},{"properties":{"NAME":"Omak Indian Health Services","CITY":"Omak","CERTAINTY":"1","ZCTA":"98841","AV_CO":"047","ZIP":"98841","N_LCODE":"AS1","N_HOUSENUM":"","GEOLEVEL":"CENSUSTRACT","AV_SCORE":59,"N_STREET":"5TH","AV_ALPHA":"24","TRACT00":"970200","BLOCK00":"2031","PHONE":"(509) 826-6499","N_ADDRESS":"5TH AVE E AT BENTON ST","N_UNIT":"","X_COORD":-119.52484,"TYPE":"Dental Clinic","N_ZIP4":"","N_STATE":"WA","TRACT90":"970200","BLOCK90":"34","N_ZIP":"98841","AV_ZIP":"98841","BG00":"2","STATE":"WA","N_CITY":"OMAK","N_POSTDIR":"E","AV_DATE":"Thu Sep 27 07:58:54 2007","BG90":"2","ACCURACY":"Approximate","TRACT90D":"9702.002","N_STRSUF":"AVE","Y_COORD":48.40448,"id":"a6462akybev7","ADDRESS":"Fifth and Benton","N_MCODE":"X0D1","N_PREDIR":"","SOURCE":"NAVTECH","QUALITY":"03","TRACT00D":"9702.002","AV_CITY":"OMAK"},"type":"Feature","geometry":{"type":"Point","coordinates":[-119.52484,48.4044799990489]}},{"properties":{"NAME":"Paschal Sherman Indian School","CITY":"Omak","CERTAINTY":"1","ZCTA":"98841","AV_CO":"047","ZIP":"98841","N_LCODE":"AS0","N_HOUSENUM":"25","GEOLEVEL":"CENSUSTRACT","AV_SCORE":70,"N_STREET":"MISSION","AV_ALPHA":"24","TRACT00":"970200","BLOCK00":"1142","PHONE":"(509) 422-7590","N_ADDRESS":"25 MISSION RD","N_UNIT":"","X_COORD":-119.45252,"TYPE":"","N_ZIP4":"9455","N_STATE":"WA","TRACT90":"970200","BLOCK90":"24","N_ZIP":"98841","AV_ZIP":"99116","BG00":"1","STATE":"WA","N_CITY":"OMAK","N_POSTDIR":"","AV_DATE":"Thu Sep 27 07:58:54 2007","BG90":"1","ACCURACY":"Approximate","TRACT90D":"9702.001","N_STRSUF":"RD","Y_COORD":48.37568,"id":"a6462atag8w6","ADDRESS":"25 Mission Rd","N_MCODE":"S80","N_PREDIR":"","SOURCE":"Centrus","QUALITY":"03","TRACT00D":"9702.001","AV_CITY":""},"type":"Feature","geometry":{"type":"Point","coordinates":[-119.452522,48.3756789990487]}},{"properties":{"NAME":"Paschal Sherman Indian School","CITY":"Omak","CERTAINTY":"1","ZCTA":"98841","AV_CO":"047","ZIP":"98841","N_LCODE":"AS0","N_HOUSENUM":"25","GEOLEVEL":"CENSUSTRACT","AV_SCORE":70,"N_STREET":"MISSION","AV_ALPHA":"24","TRACT00":"970200","BLOCK00":"1142","PHONE":"(509) 422-7590","N_ADDRESS":"25 MISSION RD","N_UNIT":"","X_COORD":-119.45252,"TYPE":"Tribal Mental Health","N_ZIP4":"9455","N_STATE":"WA","TRACT90":"970200","BLOCK90":"24","N_ZIP":"98841","AV_ZIP":"99116","BG00":"1","STATE":"WA","N_CITY":"OMAK","N_POSTDIR":"","AV_DATE":"Thu Sep 27 07:58:54 2007","BG90":"1","ACCURACY":"Approximate","TRACT90D":"9702.001","N_STRSUF":"RD","Y_COORD":48.37568,"id":"a6462alcnmsg","ADDRESS":"25 Mission Rd","N_MCODE":"S80","N_PREDIR":"","SOURCE":"Centrus","QUALITY":"03","TRACT00D":"9702.001","AV_CITY":""},"type":"Feature","geometry":{"type":"Point","coordinates":[-119.452522,48.3756789990487]}},{"properties":{"NAME":"Port Gamble S'Kallam Dental","CITY":"Kingston","CERTAINTY":"1","ZCTA":"98346","AV_CO":"035","ZIP":"98346","N_LCODE":"AS1","N_HOUSENUM":"32014","GEOLEVEL":"CENSUSTRACT","AV_SCORE":100,"N_STREET":"LITTLE BOSTON","AV_ALPHA":"18","TRACT00":"090101","BLOCK00":"2007","PHONE":"(360) 297-6262","N_ADDRESS":"32014 LITTLE BOSTON RD NE","N_UNIT":"","X_COORD":-122.56916,"TYPE":"Tribal Services","N_ZIP4":"9734","N_STATE":"WA","TRACT90":"090101","BLOCK90":"10","N_ZIP":"98346","AV_ZIP":"98346","BG00":"2","STATE":"WA","N_CITY":"KINGSTON","N_POSTDIR":"NE","AV_DATE":"Thu Sep 27 07:58:54 2007","BG90":"2","ACCURACY":"Close","TRACT90D":"0901.012","N_STRSUF":"RD","Y_COORD":47.85372,"id":"a6462aluvjyb","ADDRESS":"32014 Little Boston Rd NE","N_MCODE":"S80","N_PREDIR":"","SOURCE":"NAVTECH","QUALITY":"03","TRACT00D":"0901.012","AV_CITY":""},"type":"Feature","geometry":{"type":"Point","coordinates":[-122.569163874815,47.8537157566202]}},{"properties":{"NAME":"Port Gamble S'Kallam Health","CITY":"Kingston","CERTAINTY":"1","ZCTA":"98346","AV_CO":"035","ZIP":"98346","N_LCODE":"AS1","N_HOUSENUM":"32014","GEOLEVEL":"CENSUSTRACT","AV_SCORE":100,"N_STREET":"LITTLE BOSTON","AV_ALPHA":"18","TRACT00":"090101","BLOCK00":"2007","PHONE":"(360) 297-2840","N_ADDRESS":"32014 LITTLE BOSTON RD NE","N_UNIT":"","X_COORD":-122.56916,"TYPE":"Tribal Medical","N_ZIP4":"9734","N_STATE":"WA","TRACT90":"090101","BLOCK90":"10","N_ZIP":"98346","AV_ZIP":"98346","BG00":"2","STATE":"WA","N_CITY":"KINGSTON","N_POSTDIR":"NE","AV_DATE":"Thu Sep 27 07:58:54 2007","BG90":"2","ACCURACY":"Close","TRACT90D":"0901.012","N_STRSUF":"RD","Y_COORD":47.85372,"id":"a6462asb1rkk","ADDRESS":"32014 Little Boston Rd NE","N_MCODE":"S80","N_PREDIR":"","SOURCE":"NAVTECH","QUALITY":"03","TRACT00D":"0901.012","AV_CITY":""},"type":"Feature","geometry":{"type":"Point","coordinates":[-122.569163874815,47.8537157566202]}},{"properties":{"NAME":"Port Gamble S'Kallam Health Cente","CITY":"Kingston","CERTAINTY":"1","ZCTA":"98346","AV_CO":"035","ZIP":"98346","N_LCODE":"AS1","N_HOUSENUM":"32014","GEOLEVEL":"CENSUSTRACT","AV_SCORE":100,"N_STREET":"LITTLE BOSTON","AV_ALPHA":"18","TRACT00":"090101","BLOCK00":"2007","PHONE":"(360) 297-9601","N_ADDRESS":"32014 LITTLE BOSTON RD NE","N_UNIT":"","X_COORD":-122.56916,"TYPE":"Social Service Program","N_ZIP4":"9734","N_STATE":"WA","TRACT90":"090101","BLOCK90":"10","N_ZIP":"98346","AV_ZIP":"98346","BG00":"2","STATE":"WA","N_CITY":"KINGSTON","N_POSTDIR":"NE","AV_DATE":"Thu Sep 27 07:58:54 2007","BG90":"2","ACCURACY":"Close","TRACT90D":"0901.012","N_STRSUF":"RD","Y_COORD":47.85372,"id":"a6462aqgltjg","ADDRESS":"32014 Little Boston Rd NE","N_MCODE":"S80","N_PREDIR":"","SOURCE":"NAVTECH","QUALITY":"03","TRACT00D":"0901.012","AV_CITY":""},"type":"Feature","geometry":{"type":"Point","coordinates":[-122.569163874815,47.8537157566202]}},{"properties":{"NAME":"Port Gamble S'Kallam Tribe","CITY":"Kingston","CERTAINTY":"1","ZCTA":"98346","AV_CO":"035","ZIP":"98346","N_LCODE":"AS1","N_HOUSENUM":"32014","GEOLEVEL":"CENSUSTRACT","AV_SCORE":100,"N_STREET":"LITTLE BOSTON","AV_ALPHA":"18","TRACT00":"090101","BLOCK00":"2007","PHONE":"(360) 297-2840","N_ADDRESS":"32014 LITTLE BOSTON RD NE","N_UNIT":"","X_COORD":-122.56916,"TYPE":"Mental Health Services","N_ZIP4":"9734","N_STATE":"WA","TRACT90":"090101","BLOCK90":"10","N_ZIP":"98346","AV_ZIP":"98346","BG00":"2","STATE":"WA","N_CITY":"KINGSTON","N_POSTDIR":"NE","AV_DATE":"Thu Sep 27 07:58:54 2007","BG90":"2","ACCURACY":"Close","TRACT90D":"0901.012","N_STRSUF":"RD","Y_COORD":47.85372,"id":"a6462aq13o4x","ADDRESS":"32014 Little Boston Rd NE","N_MCODE":"S80","N_PREDIR":"","SOURCE":"NAVTECH","QUALITY":"03","TRACT00D":"0901.012","AV_CITY":""},"type":"Feature","geometry":{"type":"Point","coordinates":[-122.569163874815,47.8537157566202]}},{"properties":{"NAME":"Puyallup Tribal Health Authority","CITY":"Tacoma","CERTAINTY":"1","ZCTA":"98404","AV_CO":"053","ZIP":"98404","N_LCODE":"AS1","N_HOUSENUM":"2209","GEOLEVEL":"CENSUSTRACT","AV_SCORE":100,"N_STREET":"32ND","AV_ALPHA":"27","TRACT00":"062100","BLOCK00":"1005","PHONE":"(253) 593-0232","N_ADDRESS":"2209 E 32ND ST","N_UNIT":"","X_COORD":-122.39991,"TYPE":"Tribal Mental Health","N_ZIP4":"4997","N_STATE":"WA","TRACT90":"062100","BLOCK90":"04","N_ZIP":"98404","AV_ZIP":"98404","BG00":"1","STATE":"WA","N_CITY":"TACOMA","N_POSTDIR":"","AV_DATE":"Thu Sep 27 07:58:54 2007","BG90":"1","ACCURACY":"Close","TRACT90D":"0621.001","N_STRSUF":"ST","Y_COORD":47.23583,"id":"a6462agzrzx7","ADDRESS":"2209 E 32nd Street","N_MCODE":"S80","N_PREDIR":"E","SOURCE":"Local Roads","QUALITY":"03","TRACT00D":"0621.001","AV_CITY":"TACOMA"},"type":"Feature","geometry":{"type":"Point","coordinates":[-122.39990971758,47.2358274993448]}},{"properties":{"NAME":"Puyallup Tribal Health Authority","CITY":"Tacoma","CERTAINTY":"1","ZCTA":"98404","AV_CO":"053","ZIP":"98404","N_LCODE":"AS1","N_HOUSENUM":"2209","GEOLEVEL":"CENSUSTRACT","AV_SCORE":100,"N_STREET":"32ND","AV_ALPHA":"27","TRACT00":"062100","BLOCK00":"1005","PHONE":"(253) 593-0244","N_ADDRESS":"2209 E 32ND ST","N_UNIT":"","X_COORD":-122.39991,"TYPE":"IHC-PCCM","N_ZIP4":"4997","N_STATE":"WA","TRACT90":"062100","BLOCK90":"04","N_ZIP":"98404","AV_ZIP":"98404","BG00":"1","STATE":"WA","N_CITY":"TACOMA","N_POSTDIR":"","AV_DATE":"Thu Sep 27 07:58:54 2007","BG90":"1","ACCURACY":"Close","TRACT90D":"0621.001","N_STRSUF":"ST","Y_COORD":47.23583,"id":"a6462arnaqsn","ADDRESS":"2209 E 32nd Street","N_MCODE":"S80","N_PREDIR":"E","SOURCE":"Local Roads","QUALITY":"03","TRACT00D":"0621.001","AV_CITY":"TACOMA"},"type":"Feature","geometry":{"type":"Point","coordinates":[-122.39990971758,47.2358274993448]}},{"properties":{"NAME":"Puyallup Tribal Health Authority","CITY":"Tacoma","CERTAINTY":"1","ZCTA":"98404","AV_CO":"053","ZIP":"98404","N_LCODE":"AS1","N_HOUSENUM":"2209","GEOLEVEL":"CENSUSTRACT","AV_SCORE":100,"N_STREET":"32ND","AV_ALPHA":"27","TRACT00":"062100","BLOCK00":"1005","PHONE":"(253) 593-0132","N_ADDRESS":"2209 E 32ND ST","N_UNIT":"","X_COORD":-122.39991,"TYPE":"Indian Health Center","N_ZIP4":"4997","N_STATE":"WA","TRACT90":"062100","BLOCK90":"04","N_ZIP":"98404","AV_ZIP":"98404","BG00":"1","STATE":"WA","N_CITY":"TACOMA","N_POSTDIR":"","AV_DATE":"Thu Sep 27 07:58:54 2007","BG90":"1","ACCURACY":"Close","TRACT90D":"0621.001","N_STRSUF":"ST","Y_COORD":47.23583,"id":"a6462aiomuto","ADDRESS":"2209 E 32nd Street","N_MCODE":"S80","N_PREDIR":"E","SOURCE":"Local Roads","QUALITY":"03","TRACT00D":"0621.001","AV_CITY":"TACOMA"},"type":"Feature","geometry":{"type":"Point","coordinates":[-122.39990971758,47.2358274993448]}},{"properties":{"NAME":"Quileute Family and Health","CITY":"La Push","CERTAINTY":"1","ZCTA":"98350","AV_CO":"009","ZIP":"98350","N_LCODE":"AS1","N_HOUSENUM":"560","GEOLEVEL":"CENSUSTRACT","AV_SCORE":55,"N_STREET":"QUILEUTE HEIGHTS","AV_ALPHA":"05","TRACT00":"980400","BLOCK00":"2134","PHONE":"(360) 374-9035","N_ADDRESS":"560 QUILEUTE HEIGHTS RD","N_UNIT":"","X_COORD":-124.62102,"TYPE":"Services","N_ZIP4":"","N_STATE":"WA","TRACT90":"980500","BLOCK90":"37","N_ZIP":"98350","AV_ZIP":"98331","BG00":"2","STATE":"WA","N_CITY":"LA PUSH","N_POSTDIR":"","AV_DATE":"Thu Sep 27 07:58:54 2007","BG90":"1","ACCURACY":"Approximate","TRACT90D":"9805.001","N_STRSUF":"RD","Y_COORD":47.89909,"id":"a6462ashl30h","ADDRESS":"560 Quileute Heights Rd","N_MCODE":"E020","N_PREDIR":"","SOURCE":"Local Roads","QUALITY":"03","TRACT00D":"9804.002","AV_CITY":""},"type":"Feature","geometry":{"type":"Point","coordinates":[-124.62102024634,47.899090735969]}},{"properties":{"NAME":"Quileute Tribal Council","CITY":"La Push","CERTAINTY":"1","ZCTA":"98350","AV_CO":"009","ZIP":"98350","N_LCODE":"AS1","N_HOUSENUM":"560","GEOLEVEL":"CENSUSTRACT","AV_SCORE":55,"N_STREET":"QUILEUTE HEIGHTS","AV_ALPHA":"05","TRACT00":"980400","BLOCK00":"2134","PHONE":"(360) 902-0820","N_ADDRESS":"560 QUILEUTE HEIGHTS RD","N_UNIT":"","X_COORD":-124.62102,"TYPE":"Tribal Mental Health","N_ZIP4":"","N_STATE":"WA","TRACT90":"980500","BLOCK90":"37","N_ZIP":"98350","AV_ZIP":"98331","BG00":"2","STATE":"WA","N_CITY":"LA PUSH","N_POSTDIR":"","AV_DATE":"Thu Sep 27 07:58:54 2007","BG90":"1","ACCURACY":"Approximate","TRACT90D":"9805.001","N_STRSUF":"RD","Y_COORD":47.89909,"id":"a6462aqtu3m5","ADDRESS":"560 Quileute Heights Rd","N_MCODE":"E020","N_PREDIR":"","SOURCE":"Local Roads","QUALITY":"03","TRACT00D":"9804.002","AV_CITY":""},"type":"Feature","geometry":{"type":"Point","coordinates":[-124.62102024634,47.899090735969]}},{"properties":{"NAME":"Quinault ICW","CITY":"Taholah","CERTAINTY":"3","ZCTA":"98587","AV_CO":"027","ZIP":"98587","N_LCODE":"ZT7F","N_HOUSENUM":"701","GEOLEVEL":"ZIPCODE","AV_SCORE":40,"N_STREET":"CUITAN","AV_ALPHA":"14","TRACT00":"000100","BLOCK00":"1294","PHONE":"(360) 276-8211","N_ADDRESS":"701 CUITAN STREET","N_UNIT":"","X_COORD":-124.28936,"TYPE":"Tribal Mental Health","N_ZIP4":"","N_STATE":"WA","TRACT90":"000100","BLOCK90":"54","N_ZIP":"98587","AV_ZIP":"98587","BG00":"1","STATE":"WA","N_CITY":"TAHOLAH","N_POSTDIR":"","AV_DATE":"Thu Sep 27 07:58:54 2007","BG90":"2","ACCURACY":"Very Approximate","TRACT90D":"0001.002","N_STRSUF":"ST","Y_COORD":47.34714,"id":"a6462assnh1o","ADDRESS":"701 Cuitan Street","N_MCODE":"E022","N_PREDIR":"","SOURCE":"Street Centroid","QUALITY":"05","TRACT00D":"0001.001","AV_CITY":""},"type":"Feature","geometry":{"type":"Point","coordinates":[-124.289362381,47.3471367234427]}},{"properties":{"NAME":"Roger Saux Health Center","CITY":"Taholah","CERTAINTY":"3","ZCTA":"98587","AV_CO":"027","ZIP":"98587","N_LCODE":"ZT7F","N_HOUSENUM":"407","GEOLEVEL":"ZIPCODE","AV_SCORE":40,"N_STREET":"COMMUX","AV_ALPHA":"14","TRACT00":"000100","BLOCK00":"1301","PHONE":"(360) 276-4405","N_ADDRESS":"407 COMMUX ST","N_UNIT":"","X_COORD":-124.29149,"TYPE":"","N_ZIP4":"","N_STATE":"WA","TRACT90":"000100","BLOCK90":"49","N_ZIP":"98587","AV_ZIP":"98587","BG00":"1","STATE":"WA","N_CITY":"TAHOLAH","N_POSTDIR":"","AV_DATE":"Thu Sep 27 07:58:54 2007","BG90":"2","ACCURACY":"Very Approximate","TRACT90D":"0001.002","N_STRSUF":"ST","Y_COORD":47.34624,"id":"a6462ahkygc6","ADDRESS":"407 Commux St","N_MCODE":"E022","N_PREDIR":"","SOURCE":"Street Centroid","QUALITY":"05","TRACT00D":"0001.001","AV_CITY":""},"type":"Feature","geometry":{"type":"Point","coordinates":[-124.291486167,47.3462367124427]}},{"properties":{"NAME":"Shoalwater Bay Tribal Clinic","CITY":"Tokeland","CERTAINTY":"4","ZCTA":"98590","AV_CO":"049","ZIP":"98590","N_LCODE":"ZT5V","N_HOUSENUM":"2373","GEOLEVEL":"ZIPCODE","AV_SCORE":70,"N_STREET":"OLD TOKELAND","AV_ALPHA":"25","TRACT00":"950300","BLOCK00":"1093","PHONE":"(360) 267-6766","N_ADDRESS":"2373 OLD TOKELAND RD","N_UNIT":"","X_COORD":-124.0001,"TYPE":"","N_ZIP4":"","N_STATE":"WA","TRACT90":"950300","BLOCK90":"69","N_ZIP":"98590","AV_ZIP":"98590","BG00":"1","STATE":"WA","N_CITY":"TOKELAND","N_POSTDIR":"","AV_DATE":"Thu Sep 27 07:58:54 2007","BG90":"1","ACCURACY":"Very Approximate","TRACT90D":"9503.001","N_STRSUF":"RD","Y_COORD":46.7405,"id":"a6462atkens6","ADDRESS":"2373 Old Tokeland Rd","N_MCODE":"E020","N_PREDIR":"","SOURCE":"Centrus","QUALITY":"09","TRACT00D":"9503.001","AV_CITY":""},"type":"Feature","geometry":{"type":"Point","coordinates":[-123.988560593103,46.7101110860612]}},{"properties":{"NAME":"Shoalwater Bay Tribal Council","CITY":"Tokeland","CERTAINTY":"4","ZCTA":"98590","AV_CO":"049","ZIP":"98590","N_LCODE":"ZT5V","N_HOUSENUM":"2373","GEOLEVEL":"ZIPCODE","AV_SCORE":70,"N_STREET":"OLD TOKELAND","AV_ALPHA":"25","TRACT00":"950300","BLOCK00":"1093","PHONE":"(360) 267-6766","N_ADDRESS":"2373 OLD TOKELAND RD","N_UNIT":"","X_COORD":-124.0001,"TYPE":"Tribal Mental Health","N_ZIP4":"","N_STATE":"WA","TRACT90":"950300","BLOCK90":"69","N_ZIP":"98590","AV_ZIP":"98590","BG00":"1","STATE":"WA","N_CITY":"TOKELAND","N_POSTDIR":"","AV_DATE":"Thu Sep 27 07:58:54 2007","BG90":"1","ACCURACY":"Very Approximate","TRACT90D":"9503.001","N_STRSUF":"RD","Y_COORD":46.7405,"id":"a6462au11zp6","ADDRESS":"2373 Old Tokeland Rd","N_MCODE":"E020","N_PREDIR":"","SOURCE":"Centrus","QUALITY":"09","TRACT00D":"9503.001","AV_CITY":""},"type":"Feature","geometry":{"type":"Point","coordinates":[-123.997852402393,46.7131216274435]}},{"properties":{"NAME":"Skokomish Dept of Social Services","CITY":"Shelton","CERTAINTY":"1","ZCTA":"98584","AV_CO":"045","ZIP":"98584","N_LCODE":"AS1","N_HOUSENUM":"561","GEOLEVEL":"CENSUSTRACT","AV_SCORE":100,"N_STREET":"TRIBAL CENTER","AV_ALPHA":"23","TRACT00":"961400","BLOCK00":"1041","PHONE":"(360) 426-7788","N_ADDRESS":"561 N TRIBAL CENTER RD","N_UNIT":"","X_COORD":-123.15089,"TYPE":"Tribal Mental Health","N_ZIP4":"7416","N_STATE":"WA","TRACT90":"961400","BLOCK90":"46","N_ZIP":"98584","AV_ZIP":"98584","BG00":"1","STATE":"WA","N_CITY":"SKOKOMISH NATION","N_POSTDIR":"","AV_DATE":"Thu Sep 27 07:58:54 2007","BG90":"1","ACCURACY":"Close","TRACT90D":"9614.001","N_STRSUF":"RD","Y_COORD":47.3259,"id":"a6462aiu8ytc","ADDRESS":"N 561 Tribal Center Rd","N_MCODE":"SA0","N_PREDIR":"N","SOURCE":"NAVTECH","QUALITY":"03","TRACT00D":"9614.001","AV_CITY":""},"type":"Feature","geometry":{"type":"Point","coordinates":[-123.150889427244,47.3258999060942]}},{"properties":{"NAME":"Skokomish Early Childhood Educati","CITY":"Shelton","CERTAINTY":"1","ZCTA":"98584","AV_CO":"045","ZIP":"98584","N_LCODE":"AS1","N_HOUSENUM":"561","GEOLEVEL":"CENSUSTRACT","AV_SCORE":100,"N_STREET":"TRIBAL CENTER","AV_ALPHA":"23","TRACT00":"961400","BLOCK00":"1041","PHONE":"(360) 426-7788","N_ADDRESS":"561 N TRIBAL CENTER RD","N_UNIT":"","X_COORD":-123.15089,"TYPE":"Mental Health","N_ZIP4":"7416","N_STATE":"WA","TRACT90":"961400","BLOCK90":"46","N_ZIP":"98584","AV_ZIP":"98584","BG00":"1","STATE":"WA","N_CITY":"SKOKOMISH NATION","N_POSTDIR":"","AV_DATE":"Thu Sep 27 07:58:54 2007","BG90":"1","ACCURACY":"Close","TRACT90D":"9614.001","N_STRSUF":"RD","Y_COORD":47.3259,"id":"a6462alne3m8","ADDRESS":"N 561 Tribal Center Rd","N_MCODE":"SA0","N_PREDIR":"N","SOURCE":"NAVTECH","QUALITY":"03","TRACT00D":"9614.001","AV_CITY":""},"type":"Feature","geometry":{"type":"Point","coordinates":[-123.150889427244,47.3258999060942]}},{"properties":{"NAME":"Skokomish Health Clinic","CITY":"Shelton","CERTAINTY":"1","ZCTA":"98584","AV_CO":"045","ZIP":"98584","N_LCODE":"AS1","N_HOUSENUM":"100","GEOLEVEL":"CENSUSTRACT","AV_SCORE":100,"N_STREET":"TRIBAL CENTER","AV_ALPHA":"23","TRACT00":"961400","BLOCK00":"1039","PHONE":"(360) 426-5755","N_ADDRESS":"100 N TRIBAL CENTER RD","N_UNIT":"","X_COORD":-123.146,"TYPE":"","N_ZIP4":"9748","N_STATE":"WA","TRACT90":"961400","BLOCK90":"50","N_ZIP":"98584","AV_ZIP":"98584","BG00":"1","STATE":"WA","N_CITY":"SKOKOMISH NATION","N_POSTDIR":"","AV_DATE":"Thu Sep 27 07:58:54 2007","BG90":"1","ACCURACY":"Close","TRACT90D":"9614.001","N_STRSUF":"RD","Y_COORD":47.32189,"id":"a6462aw87ec5","ADDRESS":"N 100 Tribal Center Rd","N_MCODE":"SA0","N_PREDIR":"N","SOURCE":"NAVTECH","QUALITY":"03","TRACT00D":"9614.001","AV_CITY":""},"type":"Feature","geometry":{"type":"Point","coordinates":[-123.146004263372,47.3218865407427]}},{"properties":{"NAME":"Sophie Trettevick Health Center","CITY":"Neah Bay","CERTAINTY":"5","ZCTA":"","AV_CO":"009","ZIP":"98357","N_LCODE":"ZC5Z","N_HOUSENUM":"410","GEOLEVEL":"ZIPCODE","AV_SCORE":0,"N_STREET":"PO BOX","AV_ALPHA":"05","TRACT00":"980100","BLOCK00":"1031","PHONE":"(360) 645-2233","N_ADDRESS":"PO BOX 410","N_UNIT":"","X_COORD":-124.62341,"TYPE":"Health Center","N_ZIP4":"0410","N_STATE":"WA","TRACT90":"980100","BLOCK90":"13","N_ZIP":"98357","AV_ZIP":"","BG00":"1","STATE":"WA","N_CITY":"NEAH BAY","N_POSTDIR":"","AV_DATE":"","BG90":"1","ACCURACY":"Very Approximate","TRACT90D":"9801.001","N_STRSUF":"","Y_COORD":48.36777,"id":"a6462aw062mw","ADDRESS":"P.O. Box 410","N_MCODE":"S80","N_PREDIR":"","SOURCE":"Post Office Zip Centroid","QUALITY":"10","TRACT00D":"9801.001","AV_CITY":""},"type":"Feature","geometry":{"type":"Point","coordinates":[-124.62341,48.3677699990487]}},{"properties":{"NAME":"Spokane Tribe Mental Health","CITY":"Wellpinit","CERTAINTY":"4","ZCTA":"991XX","AV_CO":"065","ZIP":"99040","N_LCODE":"ZT5V","N_HOUSENUM":"6228","GEOLEVEL":"ZIPCODE","AV_SCORE":70,"N_STREET":"SCHOOL","AV_ALPHA":"33","TRACT00":"951000","BLOCK00":"1163","PHONE":"No Number","N_ADDRESS":"6228 E SCHOOL RD","N_UNIT":"","X_COORD":-118.0177,"TYPE":"","N_ZIP4":"","N_STATE":"WA","TRACT90":"951000","BLOCK90":"59","N_ZIP":"99040","AV_ZIP":"99040","BG00":"1","STATE":"WA","N_CITY":"WELLPINIT","N_POSTDIR":"","AV_DATE":"Thu Sep 27 07:58:54 2007","BG90":"1","ACCURACY":"Very Approximate","TRACT90D":"9510.001","N_STRSUF":"RD","Y_COORD":47.8878,"id":"a6462astzg77","ADDRESS":"6228 E School Rd","N_MCODE":"E020","N_PREDIR":"E","SOURCE":"Centrus","QUALITY":"09","TRACT00D":"9510.001","AV_CITY":""},"type":"Feature","geometry":{"type":"Point","coordinates":[-117.980554509232,47.8836053189249]}},{"properties":{"NAME":"Squaxin Island Health Clinic","CITY":"Shelton","CERTAINTY":"1","ZCTA":"98584","AV_CO":"045","ZIP":"98584","N_LCODE":"AS1","N_HOUSENUM":"90","GEOLEVEL":"CENSUSTRACT","AV_SCORE":100,"N_STREET":"KLAH CHE MIN","AV_ALPHA":"23","TRACT00":"961300","BLOCK00":"1046","PHONE":"(360) 427-9006","N_ADDRESS":"90 SE KLAH CHE MIN DR","N_UNIT":"","X_COORD":-123.08226,"TYPE":"Tribal Mental Health","N_ZIP4":"9216","N_STATE":"WA","TRACT90":"961300","BLOCK90":"55","N_ZIP":"98584","AV_ZIP":"98584","BG00":"1","STATE":"WA","N_CITY":"SHELTON","N_POSTDIR":"","AV_DATE":"Thu Sep 27 07:58:54 2007","BG90":"1","ACCURACY":"Close","TRACT90D":"9613.001","N_STRSUF":"DR","Y_COORD":47.12249,"id":"a6462alwymhu","ADDRESS":"SE 90 Klah-Che-Min Dr","N_MCODE":"S88","N_PREDIR":"SE","SOURCE":"GDT 1000","QUALITY":"03","TRACT00D":"9613.001","AV_CITY":""},"type":"Feature","geometry":{"type":"Point","coordinates":[-123.082262969541,47.1224927567704]}},{"properties":{"NAME":"Squaxin Island Health Clinic","CITY":"Shelton","CERTAINTY":"1","ZCTA":"98584","AV_CO":"045","ZIP":"98584","N_LCODE":"AS1","N_HOUSENUM":"90","GEOLEVEL":"CENSUSTRACT","AV_SCORE":100,"N_STREET":"KLAH CHE MIN","AV_ALPHA":"23","TRACT00":"961300","BLOCK00":"1046","PHONE":"(360) 427-9006","N_ADDRESS":"90 SE KLAH CHE MIN DR","N_UNIT":"","X_COORD":-123.08226,"TYPE":"","N_ZIP4":"9216","N_STATE":"WA","TRACT90":"961300","BLOCK90":"55","N_ZIP":"98584","AV_ZIP":"98584","BG00":"1","STATE":"WA","N_CITY":"SHELTON","N_POSTDIR":"","AV_DATE":"Thu Sep 27 07:58:54 2007","BG90":"1","ACCURACY":"Close","TRACT90D":"9613.001","N_STRSUF":"DR","Y_COORD":47.12249,"id":"a6462aua57wd","ADDRESS":"SE 90 Klah-Che-Min Dr","N_MCODE":"S88","N_PREDIR":"SE","SOURCE":"GDT 1000","QUALITY":"03","TRACT00D":"9613.001","AV_CITY":""},"type":"Feature","geometry":{"type":"Point","coordinates":[-123.082262969541,47.1224927567704]}},{"properties":{"NAME":"Stillaguamish Health Clinic","CITY":"Arlington","CERTAINTY":"1","ZCTA":"98223","AV_CO":"061","ZIP":"98223","N_LCODE":"AS1","N_HOUSENUM":"3439","GEOLEVEL":"CENSUSTRACT","AV_SCORE":100,"N_STREET":"STOLUCKQUAMISH","AV_ALPHA":"31","TRACT00":"053400","BLOCK00":"4010","PHONE":"(360) 425-9338","N_ADDRESS":"3439 STOLUCKQUAMISH LN","N_UNIT":"","X_COORD":-122.18392,"TYPE":"","N_ZIP4":"9056","N_STATE":"WA","TRACT90":"053400","BLOCK90":"24A","N_ZIP":"98223","AV_ZIP":"98223","BG00":"4","STATE":"WA","N_CITY":"ARLINGTON","N_POSTDIR":"","AV_DATE":"Thu Sep 27 07:58:54 2007","BG90":"2","ACCURACY":"Close","TRACT90D":"0534.002","N_STRSUF":"LN","Y_COORD":48.21453,"id":"a6462ahyzv99","ADDRESS":"3439 Stoluckquamish Lane","N_MCODE":"S80","N_PREDIR":"","SOURCE":"NAVTECH","QUALITY":"03","TRACT00D":"0534.004","AV_CITY":""},"type":"Feature","geometry":{"type":"Point","coordinates":[-122.183924251556,48.2145251488541]}},{"properties":{"NAME":"Suquamish Tribe","CITY":"Suquamish","CERTAINTY":"1","ZCTA":"98392","AV_CO":"035","ZIP":"98392","N_LCODE":"AP0","N_HOUSENUM":"18465","GEOLEVEL":"CENSUSTRACT","AV_SCORE":100,"N_STREET":"AUGUSTA","AV_ALPHA":"18","TRACT00":"090601","BLOCK00":"4026","PHONE":"(360) 598-3311","N_ADDRESS":"18465 AUGUSTA AVE NE","N_UNIT":"","X_COORD":-122.55272,"TYPE":"Tribal Mental Health","N_ZIP4":"9535","N_STATE":"WA","TRACT90":"090601","BLOCK90":"30","N_ZIP":"98392","AV_ZIP":"98392","BG00":"4","STATE":"WA","N_CITY":"SUQUAMISH","N_POSTDIR":"NE","AV_DATE":"Thu Sep 27 07:58:54 2007","BG90":"4","ACCURACY":"Close","TRACT90D":"0906.014","N_STRSUF":"AVE","Y_COORD":47.73029,"id":"a6462ai9aiaa","ADDRESS":"18465 Augusta Ave","N_MCODE":"S84","N_PREDIR":"","SOURCE":"Local Parcels","QUALITY":"02","TRACT00D":"0906.014","AV_CITY":""},"type":"Feature","geometry":{"type":"Point","coordinates":[-122.552720576,47.7302901030449]}},{"properties":{"NAME":"Suquamish Tribe Early Childhood","CITY":"Suquamish","CERTAINTY":"1","ZCTA":"98392","AV_CO":"035","ZIP":"98392","N_LCODE":"AP0","N_HOUSENUM":"18465","GEOLEVEL":"CENSUSTRACT","AV_SCORE":100,"N_STREET":"AUGUSTA","AV_ALPHA":"18","TRACT00":"090601","BLOCK00":"4026","PHONE":"(360) 598-1724","N_ADDRESS":"18465 AUGUSTA AVE NE","N_UNIT":"","X_COORD":-122.55272,"TYPE":"Early Childhood Educati","N_ZIP4":"9535","N_STATE":"WA","TRACT90":"090601","BLOCK90":"30","N_ZIP":"98392","AV_ZIP":"98392","BG00":"4","STATE":"WA","N_CITY":"SUQUAMISH","N_POSTDIR":"NE","AV_DATE":"Thu Sep 27 07:58:54 2007","BG90":"4","ACCURACY":"Close","TRACT90D":"0906.014","N_STRSUF":"AVE","Y_COORD":47.73029,"id":"a6462arq7u6q","ADDRESS":"18465 Augusta Ave","N_MCODE":"S84","N_PREDIR":"","SOURCE":"Local Parcels","QUALITY":"02","TRACT00D":"0906.014","AV_CITY":""},"type":"Feature","geometry":{"type":"Point","coordinates":[-122.552720576,47.7302901030449]}},{"properties":{"NAME":"Swinomish Health Clinic","CITY":"La Conner","CERTAINTY":"1","ZCTA":"98257","AV_CO":"057","ZIP":"98257","N_LCODE":"AS1","N_HOUSENUM":"1729","GEOLEVEL":"CENSUSTRACT","AV_SCORE":55,"N_STREET":"RESERVATION","AV_ALPHA":"29","TRACT00":"952000","BLOCK00":"1003","PHONE":"(360) 466-3167","N_ADDRESS":"1729 RESERVATION ROAD","N_UNIT":"","X_COORD":-122.54288,"TYPE":"Indian Health Center","N_ZIP4":"","N_STATE":"WA","TRACT90":"952000","BLOCK90":"03","N_ZIP":"98257","AV_ZIP":"98257","BG00":"1","STATE":"WA","N_CITY":"LA CONNER","N_POSTDIR":"","AV_DATE":"Thu Sep 27 07:58:54 2007","BG90":"1","ACCURACY":"Approximate","TRACT90D":"9520.001","N_STRSUF":"RD","Y_COORD":48.43277,"id":"a6462ap2vdnj","ADDRESS":"1729 Reservation Road","N_MCODE":"E024","N_PREDIR":"","SOURCE":"GDT 1000","QUALITY":"03","TRACT00D":"9520.001","AV_CITY":""},"type":"Feature","geometry":{"type":"Point","coordinates":[-122.542877504432,48.4327673825931]}},{"properties":{"NAME":"Swinomish Upper Skagit Dental","CITY":"La Conner","CERTAINTY":"1","ZCTA":"98257","AV_CO":"057","ZIP":"98257","N_LCODE":"AS0","N_HOUSENUM":"17395","GEOLEVEL":"CENSUSTRACT","AV_SCORE":70,"N_STREET":"RESERVATION","AV_ALPHA":"29","TRACT00":"952000","BLOCK00":"2013","PHONE":"(360) 466-3900","N_ADDRESS":"17395 RESERVATION RD","N_UNIT":"","X_COORD":-122.50112,"TYPE":"Clinic","N_ZIP4":"8802","N_STATE":"WA","TRACT90":"952000","BLOCK90":"04A","N_ZIP":"98257","AV_ZIP":"98257","BG00":"2","STATE":"WA","N_CITY":"LA CONNER","N_POSTDIR":"","AV_DATE":"Thu Sep 27 07:58:54 2007","BG90":"2","ACCURACY":"Approximate","TRACT90D":"9520.002","N_STRSUF":"RD","Y_COORD":48.39342,"id":"a6462as7ff2x","ADDRESS":"17395 Reservation Road","N_MCODE":"S80","N_PREDIR":"","SOURCE":"Centrus","QUALITY":"03","TRACT00D":"9520.002","AV_CITY":""},"type":"Feature","geometry":{"type":"Point","coordinates":[-122.501122,48.3934209990488]}},{"properties":{"NAME":"Swinomish Upper Skagit Dental","CITY":"La Conner","CERTAINTY":"1","ZCTA":"98257","AV_CO":"057","ZIP":"98257","N_LCODE":"AS0","N_HOUSENUM":"17395","GEOLEVEL":"CENSUSTRACT","AV_SCORE":70,"N_STREET":"RESERVATION","AV_ALPHA":"29","TRACT00":"952000","BLOCK00":"2013","PHONE":"(360) 466-3900","N_ADDRESS":"17395 RESERVATION RD","N_UNIT":"","X_COORD":-122.50112,"TYPE":"Indian Health Center","N_ZIP4":"8802","N_STATE":"WA","TRACT90":"952000","BLOCK90":"04A","N_ZIP":"98257","AV_ZIP":"98257","BG00":"2","STATE":"WA","N_CITY":"LA CONNER","N_POSTDIR":"","AV_DATE":"Thu Sep 27 07:58:54 2007","BG90":"2","ACCURACY":"Approximate","TRACT90D":"9520.002","N_STRSUF":"RD","Y_COORD":48.39342,"id":"a6462auytrf4","ADDRESS":"17395 Reservation Road","N_MCODE":"S80","N_PREDIR":"","SOURCE":"Centrus","QUALITY":"03","TRACT00D":"9520.002","AV_CITY":""},"type":"Feature","geometry":{"type":"Point","coordinates":[-122.501122,48.3934209990488]}},{"properties":{"NAME":"Tulalip Indian Health Services","CITY":"Marysville","CERTAINTY":"1","ZCTA":"98271","AV_CO":"061","ZIP":"98270","N_LCODE":"AS1","N_HOUSENUM":"6700","GEOLEVEL":"CENSUSTRACT","AV_SCORE":100,"N_STREET":"TOTEM BEACH","AV_ALPHA":"31","TRACT00":"053002","BLOCK00":"6005","PHONE":"(360) 651-4511","N_ADDRESS":"6700 TOTEM BEACH RD","N_UNIT":"","X_COORD":-122.27022,"TYPE":"","N_ZIP4":"9714","N_STATE":"WA","TRACT90":"053098","BLOCK90":"32","N_ZIP":"98271","AV_ZIP":"98271","BG00":"6","STATE":"WA","N_CITY":"TULALIP","N_POSTDIR":"","AV_DATE":"Thu Sep 27 07:58:54 2007","BG90":"6","ACCURACY":"Close","TRACT90D":"0530.986","N_STRSUF":"RD","Y_COORD":48.05373,"id":"a6462akdng77","ADDRESS":"6700 Totem Beach","N_MCODE":"SB1","N_PREDIR":"","SOURCE":"NAVTECH","QUALITY":"03","TRACT00D":"0530.026","AV_CITY":""},"type":"Feature","geometry":{"type":"Point","coordinates":[-122.270223333333,48.0537344990467]}},{"properties":{"NAME":"Tulalip Tribes Family Services","CITY":"Marysville","CERTAINTY":"1","ZCTA":"98271","AV_CO":"061","ZIP":"98271","N_LCODE":"AP0","N_HOUSENUM":"6221","GEOLEVEL":"CENSUSTRACT","AV_SCORE":100,"N_STREET":"23RD","AV_ALPHA":"31","TRACT00":"053002","BLOCK00":"3007","PHONE":"(360) 651-3284","N_ADDRESS":"6221 23RD AVE NE","N_UNIT":"","X_COORD":-122.19757,"TYPE":"Tribal Mental Health","N_ZIP4":"9129","N_STATE":"WA","TRACT90":"053098","BLOCK90":"15","N_ZIP":"98271","AV_ZIP":"98271","BG00":"3","STATE":"WA","N_CITY":"TULALIP","N_POSTDIR":"NE","AV_DATE":"Thu Sep 27 07:58:54 2007","BG90":"3","ACCURACY":"Close","TRACT90D":"0530.983","N_STRSUF":"AVE","Y_COORD":48.05291,"id":"a6462amhpt75","ADDRESS":"6221 23rd Ave NE","N_MCODE":"SA0","N_PREDIR":"","SOURCE":"Local Parcels","QUALITY":"02","TRACT00D":"0530.023","AV_CITY":""},"type":"Feature","geometry":{"type":"Point","coordinates":[-122.197574353,48.0529055740468]}},{"properties":{"NAME":"Tulalip Tribes Family Services","CITY":"Marysville","CERTAINTY":"1","ZCTA":"98271","AV_CO":"061","ZIP":"98271","N_LCODE":"AS1","N_HOUSENUM":"2821","GEOLEVEL":"CENSUSTRACT","AV_SCORE":100,"N_STREET":"MISSION HILL","AV_ALPHA":"31","TRACT00":"053002","BLOCK00":"6000","PHONE":"(360) 651-4400","N_ADDRESS":"2821 MISSION HILL RD","N_UNIT":"","X_COORD":-122.26948,"TYPE":"Tribal Mental Health","N_ZIP4":"9706","N_STATE":"WA","TRACT90":"053098","BLOCK90":"37B","N_ZIP":"98271","AV_ZIP":"98271","BG00":"6","STATE":"WA","N_CITY":"TULALIP","N_POSTDIR":"","AV_DATE":"Thu Sep 27 07:58:54 2007","BG90":"6","ACCURACY":"Close","TRACT90D":"0530.986","N_STRSUF":"RD","Y_COORD":48.05048,"id":"a6462aw6puiv","ADDRESS":"2821 Mission Hill Rd","N_MCODE":"SA0","N_PREDIR":"","SOURCE":"NAVTECH","QUALITY":"03","TRACT00D":"0530.026","AV_CITY":""},"type":"Feature","geometry":{"type":"Point","coordinates":[-122.269483038838,48.0504758224821]}},{"properties":{"NAME":"Upper Skagit Indian Health Clinic","CITY":"Sedro Woolley","CERTAINTY":"3","ZCTA":"98284","AV_CO":"057","ZIP":"98284","N_LCODE":"ZT7F","N_HOUSENUM":"2293","GEOLEVEL":"ZIPCODE","AV_SCORE":40,"N_STREET":"COMMUNITY PLAZA","AV_ALPHA":"29","TRACT00":"950900","BLOCK00":"2048","PHONE":"(360) 856-4200","N_ADDRESS":"2293 COMMUNITY PLAZA HWY","N_UNIT":"","X_COORD":-122.18501,"TYPE":"","N_ZIP4":"","N_STATE":"WA","TRACT90":"950900","BLOCK90":"42A","N_ZIP":"98284","AV_ZIP":"98284","BG00":"2","STATE":"WA","N_CITY":"SEDRO WOOLLEY","N_POSTDIR":"","AV_DATE":"Thu Sep 27 07:58:54 2007","BG90":"2","ACCURACY":"Very Approximate","TRACT90D":"9509.002","N_STRSUF":"HWY","Y_COORD":48.53981,"id":"a6462atd3jyk","ADDRESS":"2293 Community Plaza Hwy","N_MCODE":"E024","N_PREDIR":"","SOURCE":"Street Centroid","QUALITY":"05","TRACT00D":"9509.002","AV_CITY":""},"type":"Feature","geometry":{"type":"Point","coordinates":[-122.185012961,48.5398111031498]}},{"properties":{"NAME":"Wa He Lut Indian School","CITY":"Olympia","CERTAINTY":"3","ZCTA":"98513","AV_CO":"067","ZIP":"98513","N_LCODE":"ZT7F","N_HOUSENUM":"1110","GEOLEVEL":"ZIPCODE","AV_SCORE":40,"N_STREET":"CONINE","AV_ALPHA":"34","TRACT00":"012320","BLOCK00":"1000","PHONE":"(360) 456-1311","N_ADDRESS":"1110 CONINE AVE SE","N_UNIT":"","X_COORD":-122.70612,"TYPE":"Tribal Mental Health","N_ZIP4":"","N_STATE":"WA","TRACT90":"012300","BLOCK90":"01","N_ZIP":"98513","AV_ZIP":"98513","BG00":"1","STATE":"WA","N_CITY":"OLYMPIA","N_POSTDIR":"SE","AV_DATE":"Thu Sep 27 07:58:54 2007","BG90":"5","ACCURACY":"Very Approximate","TRACT90D":"0123.005","N_STRSUF":"AVE","Y_COORD":47.06443,"id":"a6462akrx5t0","ADDRESS":"1110 Conine Ave SE","N_MCODE":"E024","N_PREDIR":"","SOURCE":"Street Centroid","QUALITY":"05","TRACT00D":"0123.201","AV_CITY":""},"type":"Feature","geometry":{"type":"Point","coordinates":[-122.706122759,47.0644273531593]}},{"properties":{"NAME":"Wa He Lut Indian School","CITY":"Fife","CERTAINTY":"1","ZCTA":"98424","AV_CO":"053","ZIP":"98484","N_LCODE":"AS1","N_HOUSENUM":"5009","GEOLEVEL":"CENSUSTRACT","AV_SCORE":100,"N_STREET":"PACIFIC","AV_ALPHA":"27","TRACT00":"070900","BLOCK00":"3025","PHONE":"(253) 922-7988","N_ADDRESS":"5009 PACIFIC HWY E","N_UNIT":"","X_COORD":-122.36146,"TYPE":"Alesek Native Children","N_ZIP4":"2657","N_STATE":"WA","TRACT90":"070900","BLOCK90":"27","N_ZIP":"98424","AV_ZIP":"98424","BG00":"3","STATE":"WA","N_CITY":"FIFE","N_POSTDIR":"E","AV_DATE":"Thu Sep 27 07:58:54 2007","BG90":"3","ACCURACY":"Close","TRACT90D":"0709.003","N_STRSUF":"HWY","Y_COORD":47.24319,"id":"a6462avxntbu","ADDRESS":"5009 Pacific Hwy East","N_MCODE":"S90","N_PREDIR":"","SOURCE":"Local Roads","QUALITY":"03","TRACT00D":"0709.003","AV_CITY":"FIFE"},"type":"Feature","geometry":{"type":"Point","coordinates":[-122.361462875893,47.243188061993]}},{"properties":{"NAME":"Wa He Lut Indian School","CITY":"Olympia","CERTAINTY":"3","ZCTA":"98513","AV_CO":"067","ZIP":"98513","N_LCODE":"ZT7F","N_HOUSENUM":"1110","GEOLEVEL":"ZIPCODE","AV_SCORE":40,"N_STREET":"CONINE","AV_ALPHA":"34","TRACT00":"012320","BLOCK00":"1000","PHONE":"(360) 456-1311","N_ADDRESS":"1110 CONINE AVE SE","N_UNIT":"","X_COORD":-122.70612,"TYPE":"","N_ZIP4":"","N_STATE":"WA","TRACT90":"012300","BLOCK90":"01","N_ZIP":"98513","AV_ZIP":"98513","BG00":"1","STATE":"WA","N_CITY":"OLYMPIA","N_POSTDIR":"SE","AV_DATE":"Thu Sep 27 07:58:54 2007","BG90":"5","ACCURACY":"Very Approximate","TRACT90D":"0123.005","N_STRSUF":"AVE","Y_COORD":47.06443,"id":"a6462agindyl","ADDRESS":"1110 Conine Ave SE","N_MCODE":"E024","N_PREDIR":"","SOURCE":"Street Centroid","QUALITY":"05","TRACT00D":"0123.201","AV_CITY":""},"type":"Feature","geometry":{"type":"Point","coordinates":[-122.706122759,47.0644273531593]}},{"properties":{"NAME":"Wellpinit Indian Health Center","CITY":"Wellpinit","CERTAINTY":"4","ZCTA":"991XX","AV_CO":"065","ZIP":"99040","N_LCODE":"ZT5V","N_HOUSENUM":"357","GEOLEVEL":"ZIPCODE","AV_SCORE":70,"N_STREET":"PO BOX","AV_ALPHA":"33","TRACT00":"951000","BLOCK00":"1163","PHONE":"(509) 258-4517","N_ADDRESS":"PO BOX 357","N_UNIT":"","X_COORD":-118.0177,"TYPE":"","N_ZIP4":"0357","N_STATE":"WA","TRACT90":"951000","BLOCK90":"59","N_ZIP":"99040","AV_ZIP":"99040","BG00":"1","STATE":"WA","N_CITY":"WELLPINIT","N_POSTDIR":"","AV_DATE":"Thu Sep 27 07:58:54 2007","BG90":"1","ACCURACY":"Very Approximate","TRACT90D":"9510.001","N_STRSUF":"","Y_COORD":47.8878,"id":"a6462apsqko7","ADDRESS":"P.O. Box 357","N_MCODE":"S80","N_PREDIR":"","SOURCE":"Centrus","QUALITY":"09","TRACT00D":"9510.001","AV_CITY":""},"type":"Feature","geometry":{"type":"Point","coordinates":[-117.991884375686,47.8922942817307]}},{"properties":{"NAME":"White Swan Health Clinic","CITY":"White Swan","CERTAINTY":"1","ZCTA":"98952","AV_CO":"077","ZIP":"98952","N_LCODE":"AS1","N_HOUSENUM":"520","GEOLEVEL":"CENSUSTRACT","AV_SCORE":100,"N_STREET":"SIGNAL PEAK","AV_ALPHA":"39","TRACT00":"002702","BLOCK00":"4111","PHONE":"(509) 874-2979","N_ADDRESS":"520 SIGNAL PEAK RD","N_UNIT":"","X_COORD":-120.73278,"TYPE":"","N_ZIP4":"","N_STATE":"WA","TRACT90":"002700","BLOCK90":"56","N_ZIP":"98952","AV_ZIP":"98952","BG00":"4","STATE":"WA","N_CITY":"WHITE SWAN","N_POSTDIR":"","AV_DATE":"Thu Sep 27 07:58:54 2007","BG90":"6","ACCURACY":"Close","TRACT90D":"0027.006","N_STRSUF":"RD","Y_COORD":46.37796,"id":"a6462ap8brg1","ADDRESS":"520 Signal Peak Rd","N_MCODE":"E024","N_PREDIR":"","SOURCE":"Local Roads","QUALITY":"03","TRACT00D":"0027.024","AV_CITY":""},"type":"Feature","geometry":{"type":"Point","coordinates":[-120.73277759786,46.3779641330237]}},{"properties":{"NAME":"Yakima Indian Health Center","CITY":"Toppenish","CERTAINTY":"1","ZCTA":"98948","AV_CO":"077","ZIP":"98948","N_LCODE":"AS1","N_HOUSENUM":"401","GEOLEVEL":"CENSUSTRACT","AV_SCORE":100,"N_STREET":"BUSTER","AV_ALPHA":"39","TRACT00":"002400","BLOCK00":"3075","PHONE":"(509) 865-2102","N_ADDRESS":"401 BUSTER RD","N_UNIT":"","X_COORD":-120.3412,"TYPE":"Mental Health Encounter","N_ZIP4":"9792","N_STATE":"WA","TRACT90":"002400","BLOCK90":"37","N_ZIP":"98948","AV_ZIP":"98948","BG00":"3","STATE":"WA","N_CITY":"TOPPENISH","N_POSTDIR":"","AV_DATE":"Thu Sep 27 07:58:54 2007","BG90":"4","ACCURACY":"Close","TRACT90D":"0024.004","N_STRSUF":"RD","Y_COORD":46.38081,"id":"a6462almwku4","ADDRESS":"401 Buster Rd","N_MCODE":"S80","N_PREDIR":"","SOURCE":"Local Roads","QUALITY":"03","TRACT00D":"0024.003","AV_CITY":""},"type":"Feature","geometry":{"type":"Point","coordinates":[-120.341197761003,46.3808103625276]}},{"properties":{"NAME":"Yakima Indian Nation","CITY":"Toppenish","CERTAINTY":"1","ZCTA":"98948","AV_CO":"077","ZIP":"98948","N_LCODE":"AS1","N_HOUSENUM":"401","GEOLEVEL":"CENSUSTRACT","AV_SCORE":100,"N_STREET":"BUSTER","AV_ALPHA":"39","TRACT00":"002400","BLOCK00":"3075","PHONE":"(509) 874-2979","N_ADDRESS":"401 BUSTER RD","N_UNIT":"","X_COORD":-120.3412,"TYPE":"Voluntary Mental Health","N_ZIP4":"9792","N_STATE":"WA","TRACT90":"002400","BLOCK90":"37","N_ZIP":"98948","AV_ZIP":"98948","BG00":"3","STATE":"WA","N_CITY":"TOPPENISH","N_POSTDIR":"","AV_DATE":"Thu Sep 27 07:58:54 2007","BG90":"4","ACCURACY":"Close","TRACT90D":"0024.004","N_STRSUF":"RD","Y_COORD":46.38081,"id":"a6462annlis4","ADDRESS":"401 Buster Rd","N_MCODE":"S80","N_PREDIR":"","SOURCE":"Local Roads","QUALITY":"03","TRACT00D":"0024.003","AV_CITY":""},"type":"Feature","geometry":{"type":"Point","coordinates":[-120.341197761003,46.3808103625276]}}],"is_temporal":false,"author":{"url":"http://ww4.doh.wa.gov/gis/gisdata.htm","metadata":"http://ww4.doh.wa.gov/gis/metadata/tribal_clinics.htm","contact_name":"","contact_address":"","source":"Washington State Department of Health","contact_phone":""},"source":"http://ww4.doh.wa.gov/gis/gisdata.htm","pagination":{"sort":null,"start":0,"total":64,"limit":1000000},"state":"complete","tags":"health,medicine,washington","published":"2007-10-01T12:00:00Z","id":3223}