{"type":"FeatureCollection","data_type":"Dataset","url_type":null,"permissions":[{"permissions":{"download":true,"view":true},"group_id":"everyone"}],"classification":null,"title":"ma fld 1-A","count":25,"stream_id":322566,"contributor":{"url":"http://geocommons.com/users/37170","name":"lfuentes"},"data_attributes":null,"calculation_params":null,"icon_link":null,"link":"http://geocommons.com/overlays/322566.json","extent":[-70.99,41.27,-70.1,42.83],"geometry_types":["point"],"unique_name":null,"name":"ma fld 1-A","feature_count":25,"description":"","next_feature":null,"is_raster":false,"short_classification":"Y","stats":{"latitude":{"max":42.83,"variance":0.188172333333332,"mean":42.0984,"stdev":0.433788350850195,"min":41.27,"median":42.23},"time":{"max":"2030/01/01 11:00:00 -0500","variance":137160000.0,"mean":"2030/01/01 05:36:00 -0500","stdev":11711.5327775659,"min":"2030/01/01 01:00:00 -0500","median":"2030/01/01 05:00:00 -0500"},"longitude":{"max":-70.1,"variance":0.095094333333335,"mean":-70.6788,"stdev":0.308373691052487,"min":-70.99,"median":-70.8}},"features":[{"properties":{"latitude":42.83,"time":{"end_time":"2030/01/01 06:00:00 -0500","original":" 0833 AM ","granularity":"hour","time":"2030/01/01 05:00:00 -0500"},"county":"ESSEX","event":"COASTAL FLOOD","remrks":"STRUCTURAL DAMAGE TO THE OCEANSIDE OF A BUILDING ON   NORTHERN BLVD","city/location":"SALISBURY","longitude":-70.84,"id":"acb12gwasuv6","source":"LAW ENFORCEMENT","state":"MA"},"type":"Feature","geometry":{"type":"Point","coordinates":[-70.84,42.83]}},{"properties":{"latitude":42.62,"time":{"end_time":"2030/01/01 09:00:00 -0500","original":" 0920 AM","granularity":"hour","time":"2030/01/01 08:00:00 -0500"},"county":"ESSEX","event":"COASTAL FLOOD","remrks":"ATLANTIC ROAD FLOODED","city/location":"GLOUCESTER","longitude":-70.65,"id":"acb12gpdh3qc","source":"PUBLIC","state":"MA"},"type":"Feature","geometry":{"type":"Point","coordinates":[-70.65,42.62]}},{"properties":{"latitude":42.48,"time":{"end_time":"2030/01/01 12:00:00 -0500","original":"0923 AM ","granularity":"hour","time":"2030/01/01 11:00:00 -0500"},"county":"ESSEX","event":"COASTAL FLOOD","remrks":"MARBLEHEAD CAUSEWAY AND NECK FLOODED","city/location":"MARBLEHEAD","longitude":-70.87,"id":"acb12gqc166i","source":"AMATEUR RADIO","state":"MA"},"type":"Feature","geometry":{"type":"Point","coordinates":[-70.87,42.48]}},{"properties":{"latitude":42.3,"time":{"end_time":"2030/01/01 04:00:00 -0500","original":"0927 AM","granularity":"hour","time":"2030/01/01 03:00:00 -0500"},"county":"PLYMOUTH","event":"COASTAL FLOOD","remrks":"ATLANTIC AVE FLOODED AND IMPASSABLE","city/location":"HULL","longitude":-70.9,"id":"acb12gugf13u","source":"AMATEUR RADIO","state":"MA"},"type":"Feature","geometry":{"type":"Point","coordinates":[-70.9,42.3]}},{"properties":{"latitude":42.23,"time":{"end_time":"2030/01/01 05:00:00 -0500","original":"0940 AM","granularity":"hour","time":"2030/01/01 04:00:00 -0500"},"county":"NORFOLK","event":"COASTAL FLOOD","remrks":"ATLANTIC AVENUE AND THE CAUSEWAY AT JERUSALEM ROAD FLOODED","city/location":"COHASSET","longitude":-70.8,"id":"acb12gn2weer","source":"AMATEUR RADIO","state":"MA"},"type":"Feature","geometry":{"type":"Point","coordinates":[-70.8,42.23]}},{"properties":{"latitude":41.96,"time":{"end_time":"2030/01/01 08:00:00 -0500","original":"0943 AM","granularity":"hour","time":"2030/01/01 07:00:00 -0500"},"county":"PLYMOUTH","event":"COASTAL FLOOD","remrks":"WARREN AVENUE BY THE ENTRANCE TO THE BEACH IS FLOODED","city/location":"PLYMOUTH","longitude":-70.68,"id":"acb12gx83grf","source":"AMATEUR RADIO","state":"MA"},"type":"Feature","geometry":{"type":"Point","coordinates":[-70.68,41.96]}},{"properties":{"latitude":42.42,"time":{"end_time":"2030/01/01 10:00:00 -0500","original":"0945 AM ","granularity":"hour","time":"2030/01/01 09:00:00 -0500"},"county":"SUFFOLK","event":"COASTAL FLOOD","remrks":"PINES ROAD FLOODED","city/location":"REVERE","longitude":-70.99,"id":"acb12gs3pv98","source":"TRAINED SPOTTER","state":"MA"},"type":"Feature","geometry":{"type":"Point","coordinates":[-70.99,42.42]}},{"properties":{"latitude":42.38,"time":{"end_time":"2030/01/01 10:00:00 -0500","original":"0945 AM","granularity":"hour","time":"2030/01/01 09:00:00 -0500"},"county":"SUFFOLK","event":"COASTAL FLOOD","remrks":"POINT SHIRLEY STREET FLOODED WITH 2 FEET OF WATER","city/location":"WINTHROP","longitude":-70.98,"id":"acb12glxznna","source":"AMATEUR RADIO","state":"MA"},"type":"Feature","geometry":{"type":"Point","coordinates":[-70.98,42.38]}},{"properties":{"latitude":42.3,"time":{"end_time":"2030/01/01 10:00:00 -0500","original":" 0945 AM","granularity":"hour","time":"2030/01/01 09:00:00 -0500"},"county":"PLYMOUTH","event":"COASTAL FLOOD","remrks":"WATER STREET FLOODED AND IMPASSABLE","city/location":"HULL","longitude":-70.9,"id":"acb12gum310g","source":"AMATEUR RADIO","state":"MA"},"type":"Feature","geometry":{"type":"Point","coordinates":[-70.9,42.3]}},{"properties":{"latitude":42.19,"time":{"end_time":"2030/01/01 05:00:00 -0500","original":" 0952 AM ","granularity":"hour","time":"2030/01/01 04:00:00 -0500"},"county":"PLYMOUTH","event":"COASTAL FLOOD","remrks":"GEORGE WASHINGTON BOULEVARD FLOODED","city/location":"HULL","longitude":-70.9,"id":"acb12grzp3h7","source":"AMATEUR RADIO","state":"MA"},"type":"Feature","geometry":{"type":"Point","coordinates":[-70.9,42.19]}},{"properties":{"latitude":42.19,"time":{"end_time":"2030/01/01 08:00:00 -0500","original":"0955 AM","granularity":"hour","time":"2030/01/01 07:00:00 -0500"},"county":"PLYMOUTH","event":"COASTAL FLOOD","remrks":"HAWTHORNE STREET IMPASSABLE, WATER OVERTOPPING SEAWALL","city/location":"SCITUATE","longitude":-70.73,"id":"acb12gpoqm9e","source":"AMATEUR RADIO","state":"MA"},"type":"Feature","geometry":{"type":"Point","coordinates":[-70.73,42.19]}},{"properties":{"latitude":42.38,"time":{"end_time":"2030/01/01 05:00:00 -0500","original":"1000 AM  ","granularity":"hour","time":"2030/01/01 04:00:00 -0500"},"county":"SUFFOLK","event":"COASTAL FLOOD","remrks":"WINTHROP SHORE DRIVE FLOODED","city/location":"WINTHROP","longitude":-70.98,"id":"acb12gytcmqi","source":"AMATEUR RADIO","state":"MA"},"type":"Feature","geometry":{"type":"Point","coordinates":[-70.98,42.38]}},{"properties":{"latitude":42.38,"time":{"end_time":"2030/01/01 04:00:00 -0500","original":"1011 AM","granularity":"hour","time":"2030/01/01 03:00:00 -0500"},"county":"SUFFOLK","event":"COASTAL FLOOD","remrks":"TAFTS AVENUE FLOODED","city/location":"WINTHROP","longitude":-70.98,"id":"acb12grfkq2v","source":"AMATEUR RADIO","state":"MA"},"type":"Feature","geometry":{"type":"Point","coordinates":[-70.98,42.38]}},{"properties":{"latitude":42.3,"time":{"end_time":"2030/01/01 06:00:00 -0500","original":"1013 AM ","granularity":"hour","time":"2030/01/01 05:00:00 -0500"},"county":"PLYMOUTH","event":"COASTAL FLOOD","remrks":"MANOMET AVENUE BETWEEN MALTA AND PHIPPS STREETS FLOODED","city/location":"HULL","longitude":-70.9,"id":"acb12gol38v5","source":"AMATEUR RADIO","state":"MA"},"type":"Feature","geometry":{"type":"Point","coordinates":[-70.9,42.3]}},{"properties":{"latitude":41.27,"time":{"end_time":"2030/01/01 11:00:00 -0500","original":"1018 AM","granularity":"hour","time":"2030/01/01 10:00:00 -0500"},"county":"NANTUCKET","event":"COASTAL FLOOD","remrks":"EASY AND WASHINGTON STREETS FLOODED. 2 TO 3 FEET","city/location":"NANTUCKET","longitude":-70.1,"id":"acb12grxbhpd","source":"AMATEUR RADIO","state":"MA"},"type":"Feature","geometry":{"type":"Point","coordinates":[-70.1,41.27]}},{"properties":{"latitude":41.76,"time":{"end_time":"2030/01/01 04:00:00 -0500","original":"1035 AM","granularity":"hour","time":"2030/01/01 03:00:00 -0500"},"county":"BARNSTABLE","event":"COASTAL FLOOD","remrks":"PRIVATE AND PUBLIC ACCESS STAIRS LEADING TO THE BEACH ARE GONE","city/location":"SANDWICH","longitude":-70.5,"id":"acb12gjiwlbd","source":"AMATEUR RADIO","state":"MA"},"type":"Feature","geometry":{"type":"Point","coordinates":[-70.5,41.76]}},{"properties":{"latitude":42.23,"time":{"end_time":"2030/01/01 02:00:00 -0500","original":"1045 AM","granularity":"hour","time":"2030/01/01 01:00:00 -0500"},"county":"NORFOLK","event":"COASTAL FLOOD","remrks":"WATER 1-2 FT DEEP CAME UP TO HOUSES ON BEACH STREET","city/location":"COHASSET","longitude":-70.8,"id":"acb12gmykb3i","source":"NWS EMPLOYEE","state":"MA"},"type":"Feature","geometry":{"type":"Point","coordinates":[-70.8,42.23]}},{"properties":{"latitude":41.27,"time":{"end_time":"2030/01/01 04:00:00 -0500","original":"1047 AM ","granularity":"hour","time":"2030/01/01 03:00:00 -0500"},"county":"NANTUCKET","event":"COASTAL FLOOD","remrks":"WAUWINTET ROAD NEAR EAT FIRE SPRINGS ROAD FLOODED","city/location":"NANTUCKET","longitude":-70.1,"id":"acb12gtfvufm","source":"AMATEUR RADIO","state":"MA"},"type":"Feature","geometry":{"type":"Point","coordinates":[-70.1,41.27]}},{"properties":{"latitude":41.27,"time":{"end_time":"2030/01/01 04:00:00 -0500","original":"1047 AM ","granularity":"hour","time":"2030/01/01 03:00:00 -0500"},"county":"NANTUCKET","event":"COASTAL FLOOD","remrks":"WATER UP TO NANTUCKET HOTEL,EASTON STREET  BRANT POINT AREA","city/location":"NANTUCKET","longitude":-70.1,"id":"acb12gvsqz9o","source":"AMATEUR RADIO","state":"MA"},"type":"Feature","geometry":{"type":"Point","coordinates":[-70.1,41.27]}},{"properties":{"latitude":41.27,"time":{"end_time":"2030/01/01 04:00:00 -0500","original":"1047 AM ","granularity":"hour","time":"2030/01/01 03:00:00 -0500"},"county":"NANTUCKET","event":"COASTAL FLOOD","remrks":"MAIN STREET FLOODED UP TO THE CLUB CAR RESTAURANT","city/location":"NANTUCKET","longitude":-70.1,"id":"acb12glnxvrj","source":"AMATEUR RADIO","state":"MA"},"type":"Feature","geometry":{"type":"Point","coordinates":[-70.1,41.27]}},{"properties":{"latitude":42.23,"time":{"end_time":"2030/01/01 02:00:00 -0500","original":"1057 AM","granularity":"hour","time":"2030/01/01 01:00:00 -0500"},"county":"NORFOLK","event":"COASTAL FLOOD","remrks":"OCEANSIDE DRIVE FLOODED","city/location":"COHASSET","longitude":-70.8,"id":"acb12gx5xwsv","source":"AMATEUR RADIO","state":"MA"},"type":"Feature","geometry":{"type":"Point","coordinates":[-70.8,42.23]}},{"properties":{"latitude":41.73,"time":{"end_time":"2030/01/01 11:00:00 -0500","original":" 1114 AM","granularity":"hour","time":"2030/01/01 10:00:00 -0500"},"county":"BARNSTABLE","event":"COASTAL FLOOD","remrks":"HARBOR ROAD FLOODED UP TO 2 FEET DEEP NEAR SESUIT  HARBOR","city/location":"DENNIS","longitude":-70.2,"id":"acb12gndthnd","source":"AMATEUR RADIO","state":"MA"},"type":"Feature","geometry":{"type":"Point","coordinates":[-70.2,41.73]}},{"properties":{"latitude":42.19,"time":{"end_time":"2030/01/01 02:00:00 -0500","original":"1129 AM ","granularity":"hour","time":"2030/01/01 01:00:00 -0500"},"county":"PLYMOUTH","event":"COASTAL FLOOD","remrks":"HOME FLOODED ON SCITUATE AVENUE","city/location":"SCITUATE","longitude":-70.73,"id":"acb12gpx5exj","source":"AMATEUR RADIO","state":"MA"},"type":"Feature","geometry":{"type":"Point","coordinates":[-70.73,42.19]}},{"properties":{"latitude":42.09,"time":{"end_time":"2030/01/01 07:00:00 -0500","original":" 1134 AM ","granularity":"hour","time":"2030/01/01 06:00:00 -0500"},"county":"PLYMOUTH","event":"COASTAL FLOOD","remrks":"CARS STUCK IN FLOOD WATERS ON PLYMOUTH AVENUE","city/location":"MARSHFIELD","longitude":-70.71,"id":"acb12gs64ezj","source":"AMATEUR RADIO","state":"MA"},"type":"Feature","geometry":{"type":"Point","coordinates":[-70.71,42.09]}},{"properties":{"latitude":42.19,"time":{"end_time":"2030/01/01 12:00:00 -0500","original":"1139 AM","granularity":"hour","time":"2030/01/01 11:00:00 -0500"},"county":"PLYMOUTH","event":"COASTAL FLOOD","remrks":"NEWPORT STREET FLOODED","city/location":"SCITUATE","longitude":-70.73,"id":"acb12gwonjlj","source":"AMATEUR RADIO","state":"MA"},"type":"Feature","geometry":{"type":"Point","coordinates":[-70.73,42.19]}}],"is_temporal":true,"author":{"url":"","metadata":"","contact_name":"","contact_address":"","source":"","contact_phone":""},"source":"","pagination":{"sort":null,"start":0,"total":25,"limit":1000000},"state":"complete","tags":"","published":"2014-08-16T16:00:09-04:00","id":322566}