{"type":"FeatureCollection","data_type":"Dataset","url_type":null,"permissions":[{"permissions":{"download":true,"view":true},"group_id":"everyone"}],"classification":null,"title":"Bars","count":13,"stream_id":323324,"contributor":{"url":"http://geocommons.com/users/38325","name":"ryancooper729"},"data_attributes":null,"calculation_params":null,"icon_link":null,"link":"http://geocommons.com/overlays/323324.json","extent":[-84.5092,38.0298,-84.4864,38.0598],"geometry_types":["point"],"unique_name":null,"name":"Bars","feature_count":13,"description":"","next_feature":null,"is_raster":false,"short_classification":"Y","stats":{"latitude":{"max":38.0598218,"variance":0.000111198241068515,"mean":38.0433588738462,"stdev":0.0105450576607487,"min":38.0297805,"median":38.04479835},"longitude":{"max":-84.48639081,"variance":3.42132276471825e-05,"mean":-84.4957155584615,"stdev":0.00584920743752369,"min":-84.50918593,"median":-84.49601864}},"features":[{"properties":{"name":"#Hashtags","city":"Lexington","add":"500 Euclid Ave","zip":"40508","food":"Yes","latitude":38.03447969,"type":"Bar","phone":null,"longitude":-84.49604677,"id":"accpfmch1joc","state":"KY"},"type":"Feature","geometry":{"type":"Point","coordinates":[-84.49604677,38.03447969]}},{"properties":{"name":"Al's Bar","city":"Lexington","add":"601 N Limestone St","zip":"40508","food":"Yes","latitude":38.05403721,"type":"Bar","phone":"(859) 309-2901","longitude":-84.48639081,"id":"accpfmmobl9q","state":"KY"},"type":"Feature","geometry":{"type":"Point","coordinates":[-84.48639081,38.05403721]}},{"properties":{"name":"Charlie Brown's","city":"Lexington","add":"816 E Euclid Ave","zip":"40502","food":"Yes","latitude":38.029895,"type":"Bar","phone":"(859) 269-5701","longitude":-84.491043,"id":"accpfmkfl4ss","state":"KY"},"type":"Feature","geometry":{"type":"Point","coordinates":[-84.491043,38.029895]}},{"properties":{"name":"Chevy Chase Inn","city":"Lexington","add":"833 Euclid Ave","zip":"40502","food":"~","latitude":38.0297805,"type":"Bar","phone":"(859) 266-9422","longitude":-84.4905208,"id":"accpfmceuy6a","state":"KY"},"type":"Feature","geometry":{"type":"Point","coordinates":[-84.4905208,38.0297805]}},{"properties":{"name":"Country Boy Brewing","city":"Lexington","add":"436 Chair Ave","zip":"40508","food":"~","latitude":38.04391282,"type":"Bar","phone":"(859) 554-6200","longitude":-84.50918593,"id":"accpfmbz36mo","state":"KY"},"type":"Feature","geometry":{"type":"Point","coordinates":[-84.50918593,38.04391282]}},{"properties":{"name":"Green Lantern","city":"Lexington","add":"497 W 3rd St","zip":"40508","food":"~","latitude":38.05494156,"type":"Bar","phone":"(859) 252-9539","longitude":-84.4985719,"id":"accpfmlv2vnn","state":"KY"},"type":"Feature","geometry":{"type":"Point","coordinates":[-84.4985719,38.05494156]}},{"properties":{"name":"Grey Goose","city":"Lexington","add":"170 Jefferson St","zip":"40508","food":"Yes","latitude":38.05295333,"type":"Bar","phone":"(859) 233-1500","longitude":-84.50086492,"id":"accpfml829x9","state":"KY"},"type":"Feature","geometry":{"type":"Point","coordinates":[-84.50086492,38.05295333]}},{"properties":{"name":"Lynagh's Irish Pub","city":"Lexington","add":"384 Woodland Ave","zip":"40508","food":"Yes","latitude":38.03474719,"type":"Bar","phone":"(859) 255-1292","longitude":-84.49567309,"id":"accpfmkhumj1","state":"KY"},"type":"Feature","geometry":{"type":"Point","coordinates":[-84.49567309,38.03474719]}},{"properties":{"name":"McCarthy's Irish Bar","city":"Lexington","add":"117 S Upper St","zip":"40507","food":"~","latitude":38.046925,"type":"Bar","phone":"(859) 258-2181","longitude":-84.498575,"id":"accpfmdi9hxx","state":"KY"},"type":"Feature","geometry":{"type":"Point","coordinates":[-84.498575,38.046925]}},{"properties":{"name":"Side Bar Grill","city":"Lexington","add":"147 N Limestone St","zip":"40507","food":"Yes","latitude":38.04722178,"type":"Bar","phone":"(859) 225-8883","longitude":-84.49601864,"id":"accpfmlho9vz","state":"KY"},"type":"Feature","geometry":{"type":"Point","coordinates":[-84.49601864,38.04722178]}},{"properties":{"name":"Soundbar","city":"Lexington","add":"208 S Limestone St","zip":"40508","food":"~","latitude":38.04479835,"type":"Bar","phone":"(859) 523-6338","longitude":-84.49889146,"id":"accpfmk59po9","state":"KY"},"type":"Feature","geometry":{"type":"Point","coordinates":[-84.49889146,38.04479835]}},{"properties":{"name":"The Beer Trappe","city":"Lexington","add":"811 E Euclid Ave","zip":"40502","food":"~","latitude":38.03015113,"type":"Bar","phone":"(859) 309-0911","longitude":-84.49076333,"id":"accpfmke2mr2","state":"KY"},"type":"Feature","geometry":{"type":"Point","coordinates":[-84.49076333,38.03015113]}},{"properties":{"name":"West Sixth Brewery","city":"Lexington","add":"501 W 6th St","zip":"40508","food":"~","latitude":38.0598218,"type":"Bar","phone":"(859) 951-6006","longitude":-84.49175661,"id":"accpfmjc6vm6","state":"KY"},"type":"Feature","geometry":{"type":"Point","coordinates":[-84.49175661,38.0598218]}}],"is_temporal":false,"author":{"url":"","metadata":"","contact_name":"","contact_address":"","source":"","contact_phone":""},"source":"","pagination":{"sort":null,"start":0,"total":13,"limit":1000000},"state":"complete","tags":"dope2013","published":"2014-08-16T16:56:48-04:00","id":323324}