{"type":"FeatureCollection","data_type":"Dataset","url_type":null,"permissions":[{"permissions":{"download":true,"view":true},"group_id":"everyone"}],"classification":null,"title":"Asian","count":15,"stream_id":323540,"contributor":{"url":"http://geocommons.com/users/32664","name":"zach.roof@sbcglobal.net"},"data_attributes":null,"calculation_params":null,"icon_link":null,"link":"http://geocommons.com/overlays/323540.json","extent":[-122.282,32.877,-71.0938,42.3731],"geometry_types":["point"],"unique_name":null,"name":"Asian","feature_count":15,"description":"","next_feature":null,"is_raster":false,"short_classification":"Y","stats":{"ranking":{"max":68.5,"variance":14.6023809523809,"mean":60.0666666666667,"stdev":3.82130618406599,"min":56.5,"median":58.0},"%ug enrollment that are asian":{"max":49,"variance":122.885714285714,"mean":26.2,"stdev":11.0853829111003,"min":15,"median":23},"gr asian":{"max":99,"variance":23.9238095238095,"mean":93.9333333333333,"stdev":4.89119714628326,"min":83,"median":96}},"features":[{"properties":{"city":"Irvine","zip":"92697","ranking":68.5,"college":"University of California-Irvine","street address":"501 Aldrich Hall","%ug enrollment that are asian":49,"gr asian":88,"id":"acd3m62ewskl","state":"California"},"type":"Feature","geometry":{"type":"Point","coordinates":[-117.9894,33.72897]}},{"properties":{"city":"La Jolla","zip":"92093","ranking":66.0,"college":"University of California-San Diego","street address":"9500 Gilman Dr","%ug enrollment that are asian":44,"gr asian":88,"id":"acd3m5w139mb","state":"California"},"type":"Feature","geometry":{"type":"Point","coordinates":[-117.234045,32.87699]}},{"properties":{"city":"Berkeley","zip":"94720","ranking":65.0,"college":"University of California-Berkeley","street address":"200 California Hall","%ug enrollment that are asian":37,"gr asian":93,"id":"acd3m5yhhb58","state":"California"},"type":"Feature","geometry":{"type":"Point","coordinates":[-122.281596,37.880632]}},{"properties":{"city":"Los Angeles","zip":"90095-1405","ranking":63.0,"college":"University of California-Los Angeles","street address":"405 Hilgard Ave","%ug enrollment that are asian":34,"gr asian":92,"id":"acd3m5tswt0x","state":"California"},"type":"Feature","geometry":{"type":"Point","coordinates":[-118.437979,34.074279]}},{"properties":{"city":"Cambridge","zip":"02139-4307","ranking":61.0,"college":"Massachusetts Institute of Technology","street address":"77 Massachusetts Avenue","%ug enrollment that are asian":24,"gr asian":98,"id":"acd3m63kq5it","state":"Massachusetts"},"type":"Feature","geometry":{"type":"Point","coordinates":[-71.093793,42.359299]}},{"properties":{"city":"Davis","zip":"95616-8678","ranking":60.0,"college":"University of California-Davis","street address":"One Shields Avenue","%ug enrollment that are asian":37,"gr asian":83,"id":"acd3m5xypfjg","state":"California"},"type":"Feature","geometry":{"type":"Point","coordinates":[-121.747162,38.540767]}},{"properties":{"city":"Durham","zip":"27708","ranking":59.0,"college":"Duke University","street address":"103 Allen Bldg","%ug enrollment that are asian":21,"gr asian":97,"id":"acd3m63rdg9v","state":"North Carolina"},"type":"Feature","geometry":{"type":"Point","coordinates":[-78.885001,35.961369]}},{"properties":{"city":"Los Angeles","zip":"90089","ranking":58.0,"college":"University of Southern California","street address":"1540 Alcazar St","%ug enrollment that are asian":23,"gr asian":93,"id":"acd3m5vcb0w7","state":"California"},"type":"Feature","geometry":{"type":"Point","coordinates":[-118.203771,34.063468]}},{"properties":{"city":"Stanford","zip":"94305","ranking":58.0,"college":"Stanford University","street address":"450 Serra Mall","%ug enrollment that are asian":18,"gr asian":98,"id":"acd3m650938j","state":"California"},"type":"Feature","geometry":{"type":"Point","coordinates":[-122.1607,37.42705]}},{"properties":{"city":"Princeton","zip":"08544-0070","ranking":58.0,"college":"Princeton University","street address":"1 Nassau Hall","%ug enrollment that are asian":18,"gr asian":98,"id":"acd3m5u2yc46","state":"New Jersey"},"type":"Feature","geometry":{"type":"Point","coordinates":[-74.61698,40.302907]}},{"properties":{"city":"Evanston","zip":"60208","ranking":57.0,"college":"Northwestern University","street address":"633 Clark St","%ug enrollment that are asian":18,"gr asian":96,"id":"acd3m5txssoq","state":"Illinois"},"type":"Feature","geometry":{"type":"Point","coordinates":[-87.678401,42.04961]}},{"properties":{"city":"Philadelphia","zip":"19104-6303","ranking":57.0,"college":"University of Pennsylvania","street address":"34th and Spruce Streets","%ug enrollment that are asian":17,"gr asian":97,"id":"acd3m5z96h6q","state":"Pennsylvania"},"type":"Feature","geometry":{"type":"Point","coordinates":[-75.192587,39.950446]}},{"properties":{"city":"New Haven","zip":"6520","ranking":57.0,"college":"Yale University","street address":"47 College Street","%ug enrollment that are asian":15,"gr asian":99,"id":"acd3m5w60oog","state":"Connecticut"},"type":"Feature","geometry":{"type":"Point","coordinates":[-72.932026,41.302491]}},{"properties":{"city":"Cambridge","zip":"2138","ranking":57.0,"college":"Harvard University","street address":"1350 Massachusetts Ave","%ug enrollment that are asian":15,"gr asian":99,"id":"acd3m5zy281g","state":"Massachusetts"},"type":"Feature","geometry":{"type":"Point","coordinates":[-71.118312,42.373138]}},{"properties":{"city":"Pittsburgh","zip":"15213-3890","ranking":56.5,"college":"Carnegie Mellon University","street address":"5000 Forbes Avenue","%ug enrollment that are asian":23,"gr asian":90,"id":"acd3m5w3cqd9","state":"Pennsylvania"},"type":"Feature","geometry":{"type":"Point","coordinates":[-79.943782,40.444622]}}],"is_temporal":false,"author":{"url":"","metadata":"","contact_name":"","contact_address":"","source":"","contact_phone":""},"source":"","pagination":{"sort":null,"start":0,"total":15,"limit":1000000},"state":"complete","tags":"","published":"2014-08-16T17:11:02-04:00","id":323540}