{"type":"FeatureCollection","data_type":"Dataset Analysis","url_type":null,"permissions":[{"permissions":{"download":true,"view":true},"group_id":"everyone"}],"classification":null,"title":"Filtered Features of 'citystateref' based on 'citystateref'","count":55,"stream_id":323592,"contributor":{"url":"http://geocommons.com/users/61676","name":"daniel.m.levin@jpmorgan.com"},"data_attributes":null,"calculation_params":{"input":{"min_distance":"25","unit":"miles","near_id":"323587","distance":"75","include_distance":true,"id":"323587"},"calculation":"buffer_intersect"},"icon_link":null,"link":"http://geocommons.com/overlays/323592.json","extent":[-122.186,25.7743,-71.027,42.9293],"geometry_types":["point"],"unique_name":null,"name":"Filtered Features of 'citystateref' based on 'citystateref'","feature_count":55,"description":"Dataset created by filtering features of 'citystateref' that are within a buffer of 25 to 75 miles around the features in 'citystateref'","next_feature":null,"is_raster":false,"short_classification":"Y","stats":{"geo_score":{"max":0.714,"variance":4.51951560282871e-31,"mean":0.713999999999999,"stdev":6.72273426726709e-16,"min":0.714,"median":0.714},"deal revenue":{"max":21512.79,"variance":9349896.07760989,"mean":813.357090909091,"stdev":3057.75997710904,"min":2.5,"median":44.53},"deal ct":{"max":451,"variance":3889.72188552188,"mean":18.6181818181818,"stdev":62.36763492006,"min":1,"median":2},"distance":{"max":74.9918161921333,"variance":852.829593692518,"mean":48.9104223260738,"stdev":29.203246286886,"min":0.327103639217569,"median":62.4830564394327}},"features":[{"properties":{"city":"Miami","geo_score":0.714,"deal revenue":409.09,"id":"acd7syqhcb6s","geo_precision":"city","deal ct":17,"state":"FL","distance":72.8589013073346},"type":"Feature","geometry":{"type":"Point","coordinates":[-80.193659,25.774266]}},{"properties":{"city":"Fort Lauderdale","geo_score":0.714,"deal revenue":107.29,"id":"acd7syr231k2","geo_precision":"city","deal ct":12,"state":"FL","distance":72.8589013073346},"type":"Feature","geometry":{"type":"Point","coordinates":[-80.208381,26.166474]}},{"properties":{"city":"Saint Petersburg","geo_score":0.714,"deal revenue":6.75,"id":"acd7sytzixn8","geo_precision":"city","deal ct":2,"state":"FL","distance":59.4695386469728},"type":"Feature","geometry":{"type":"Point","coordinates":[-82.115644,27.273659]}},{"properties":{"city":"Tampa","geo_score":0.714,"deal revenue":147.3,"id":"acd7syrahyas","geo_precision":"city","deal ct":4,"state":"FL","distance":59.4695386469723},"type":"Feature","geometry":{"type":"Point","coordinates":[-82.582035,27.996097]}},{"properties":{"city":"Houston","geo_score":0.714,"deal revenue":7532.91,"id":"acd7sykljxre","geo_precision":"city","deal ct":89,"state":"TX","distance":67.7851018401428},"type":"Feature","geometry":{"type":"Point","coordinates":[-96.919704,29.845783]}},{"properties":{"city":"Austin","geo_score":0.714,"deal revenue":543.35,"id":"acd7syrac6lc","geo_precision":"city","deal ct":20,"state":"TX","distance":67.7851018401429},"type":"Feature","geometry":{"type":"Point","coordinates":[-97.771258,30.326374]}},{"properties":{"city":"Dallas","geo_score":0.714,"deal revenue":2203.53,"id":"acd7syemetdf","geo_precision":"city","deal ct":69,"state":"TX","distance":74.6116473723382},"type":"Feature","geometry":{"type":"Point","coordinates":[-96.240533,32.370699]}},{"properties":{"city":"San Diego","geo_score":0.714,"deal revenue":51.9,"id":"acd7sypzk9kg","geo_precision":"city","deal ct":5,"state":"CA","distance":69.4307298011156},"type":"Feature","geometry":{"type":"Point","coordinates":[-117.174366,32.7211]}},{"properties":{"city":"Southlake","geo_score":0.714,"deal revenue":15.97,"id":"acd7sysmpwbx","geo_precision":"city","deal ct":4,"state":"TX","distance":74.6116473723385},"type":"Feature","geometry":{"type":"Point","coordinates":[-97.152368,32.948474]}},{"properties":{"city":"Palo Alto","geo_score":0.714,"deal revenue":258.57,"id":"acd7syuq8ts6","geo_precision":"city","deal ct":17,"state":"CA","distance":69.4307298011156},"type":"Feature","geometry":{"type":"Point","coordinates":[-116.846046,33.016928]}},{"properties":{"city":"Newport Beach","geo_score":0.714,"deal revenue":15.25,"id":"acd7syq7mj5n","geo_precision":"city","deal ct":1,"state":"CA","distance":71.938619623932},"type":"Feature","geometry":{"type":"Point","coordinates":[-117.928947,33.61891]}},{"properties":{"city":"Irvine","geo_score":0.714,"deal revenue":99.3,"id":"acd7syqjldom","geo_precision":"city","deal ct":13,"state":"CA","distance":59.8489866791612},"type":"Feature","geometry":{"type":"Point","coordinates":[-117.72222,33.718018]}},{"properties":{"city":"San Francisco","geo_score":0.714,"deal revenue":1714.58,"id":"acd7syks9ix1","geo_precision":"city","deal ct":44,"state":"CA","distance":59.8489866791611},"type":"Feature","geometry":{"type":"Point","coordinates":[-118.298662,33.786594]}},{"properties":{"city":"Mountain View","geo_score":0.714,"deal revenue":53.89,"id":"acd7sys787f4","geo_precision":"city","deal ct":2,"state":"CA","distance":62.4830564394328},"type":"Feature","geometry":{"type":"Point","coordinates":[-121.705327,37.189396]}},{"properties":{"city":"San Jose","geo_score":0.714,"deal revenue":5.0,"id":"acd7syga0xm5","geo_precision":"city","deal ct":1,"state":"CA","distance":62.4830564394328},"type":"Feature","geometry":{"type":"Point","coordinates":[-121.705327,37.189396]}},{"properties":{"city":"Menlo Park","geo_score":0.714,"deal revenue":1276.14,"id":"acd7syv3t9nk","geo_precision":"city","deal ct":3,"state":"CA","distance":62.4830564394327},"type":"Feature","geometry":{"type":"Point","coordinates":[-122.186373,37.439616]}},{"properties":{"city":"East Palo Alto","geo_score":0.714,"deal revenue":500.49,"id":"acd7syowv9iv","geo_precision":"city","deal ct":5,"state":"CA","distance":64.281989500091},"type":"Feature","geometry":{"type":"Point","coordinates":[-122.141075,37.468827]}},{"properties":{"city":"Richmond","geo_score":0.714,"deal revenue":62.02,"id":"acd7syey8mpa","geo_precision":"city","deal ct":2,"state":"VA","distance":69.0369519108397},"type":"Feature","geometry":{"type":"Point","coordinates":[-76.83774,37.914858]}},{"properties":{"city":"Los Angeles","geo_score":0.714,"deal revenue":945.12,"id":"acd7syl9q2l1","geo_precision":"city","deal ct":32,"state":"CA","distance":68.7518200072616},"type":"Feature","geometry":{"type":"Point","coordinates":[-120.618608,38.052816]}},{"properties":{"city":"Sacramento","geo_score":0.714,"deal revenue":4.4,"id":"acd7syso5c8t","geo_precision":"city","deal ct":1,"state":"CA","distance":68.5990980890732},"type":"Feature","geometry":{"type":"Point","coordinates":[-121.555406,38.380456]}},{"properties":{"city":"Arlington","geo_score":0.714,"deal revenue":14.5,"id":"acd7syrrqekm","geo_precision":"city","deal ct":1,"state":"VA","distance":0.361145499585319},"type":"Feature","geometry":{"type":"Point","coordinates":[-77.099113,38.885484]}},{"properties":{"city":"Washington","geo_score":0.714,"deal revenue":2091.69,"id":"acd7syg5x7yh","geo_precision":"city","deal ct":56,"state":"DC","distance":0.361145499585476},"type":"Feature","geometry":{"type":"Point","coordinates":[-77.036366,38.895112]}},{"properties":{"city":"Tysons Corner","geo_score":0.714,"deal revenue":45.26,"id":"acd7syilj5g5","geo_precision":"city","deal ct":3,"state":"VA","distance":0.356423620299267},"type":"Feature","geometry":{"type":"Point","coordinates":[-77.249426,38.921778]}},{"properties":{"city":"McLean","geo_score":0.714,"deal revenue":201.16,"id":"acd7syewtjoh","geo_precision":"city","deal ct":7,"state":"VA","distance":72.1420244640238},"type":"Feature","geometry":{"type":"Point","coordinates":[-77.18672,38.935202]}},{"properties":{"city":"Chevy Chase","geo_score":0.714,"deal revenue":44.53,"id":"acd7syhnbrkf","geo_precision":"city","deal ct":2,"state":"MD","distance":0.361145499585277},"type":"Feature","geometry":{"type":"Point","coordinates":[-77.076367,38.971222]}},{"properties":{"city":"Baltimore","geo_score":0.714,"deal revenue":41.51,"id":"acd7sys4io5k","geo_precision":"city","deal ct":5,"state":"MD","distance":66.7170094785176},"type":"Feature","geometry":{"type":"Point","coordinates":[-75.844658,39.058168]}},{"properties":{"city":"DOVER","geo_score":0.714,"deal revenue":3.9,"id":"acd7syoqb9tf","geo_precision":"city","deal ct":1,"state":"DE","distance":61.7755964184368},"type":"Feature","geometry":{"type":"Point","coordinates":[-75.49549,39.156376]}},{"properties":{"city":"Cincinnati","geo_score":0.714,"deal revenue":259.69,"id":"acd7syruig8l","geo_precision":"city","deal ct":10,"state":"OH","distance":55.6066822944969},"type":"Feature","geometry":{"type":"Point","coordinates":[-84.53822,39.166759]}},{"properties":{"city":"Charleston","geo_score":0.714,"deal revenue":7.53,"id":"acd7syfjy1f2","geo_precision":"city","deal ct":1,"state":"WV","distance":50.2554817172629},"type":"Feature","geometry":{"type":"Point","coordinates":[-77.860278,39.313538]}},{"properties":{"city":"Mason","geo_score":0.714,"deal revenue":49.5,"id":"acd7syeoahbm","geo_precision":"city","deal ct":2,"state":"OH","distance":69.9029761138518},"type":"Feature","geometry":{"type":"Point","coordinates":[-84.180906,39.397999]}},{"properties":{"city":"Dayton","geo_score":0.714,"deal revenue":65.47,"id":"acd7syh195gy","geo_precision":"city","deal ct":4,"state":"OH","distance":55.6066822944969},"type":"Feature","geometry":{"type":"Point","coordinates":[-84.268593,39.750471]}},{"properties":{"city":"Philadelphia","geo_score":0.714,"deal revenue":780.71,"id":"acd7syv1xz1n","geo_precision":"city","deal ct":19,"state":"PA","distance":0.361145499585163},"type":"Feature","geometry":{"type":"Point","coordinates":[-75.11787,40.001811]}},{"properties":{"city":"Malvern","geo_score":0.714,"deal revenue":12.67,"id":"acd7syug9rvc","geo_precision":"city","deal ct":2,"state":"PA","distance":0.361145499585319},"type":"Feature","geometry":{"type":"Point","coordinates":[-75.713599,40.02951]}},{"properties":{"city":"West Conshohocken","geo_score":0.714,"deal revenue":1052.21,"id":"acd7syhaunpk","geo_precision":"city","deal ct":8,"state":"PA","distance":0.361145499585049},"type":"Feature","geometry":{"type":"Point","coordinates":[-75.316295,40.069832]}},{"properties":{"city":"Uniondale","geo_score":0.714,"deal revenue":37.19,"id":"acd7sykulc4d","geo_precision":"city","deal ct":3,"state":"NY","distance":0.361145499585518},"type":"Feature","geometry":{"type":"Point","coordinates":[-73.591421,40.705868]}},{"properties":{"city":"New York","geo_score":0.714,"deal revenue":21512.79,"id":"acd7syskfbp5","geo_precision":"city","deal ct":451,"state":"NY","distance":0.361145499585305},"type":"Feature","geometry":{"type":"Point","coordinates":[-74.005973,40.714269]}},{"properties":{"city":"Short Hills","geo_score":0.714,"deal revenue":24.35,"id":"acd7sympk18e","geo_precision":"city","deal ct":2,"state":"NJ","distance":72.0867487157351},"type":"Feature","geometry":{"type":"Point","coordinates":[-74.334443,40.74055]}},{"properties":{"city":"Syosset","geo_score":0.714,"deal revenue":10.9,"id":"acd7sykssj6b","geo_precision":"city","deal ct":1,"state":"NY","distance":73.6648194259897},"type":"Feature","geometry":{"type":"Point","coordinates":[-73.601772,40.754757]}},{"properties":{"city":"Jericho","geo_score":0.714,"deal revenue":3.65,"id":"acd7syuwu2gu","geo_precision":"city","deal ct":1,"state":"NY","distance":73.6648194259897},"type":"Feature","geometry":{"type":"Point","coordinates":[-73.601772,40.754757]}},{"properties":{"city":"Florham Park","geo_score":0.714,"deal revenue":133.09,"id":"acd7syha094e","geo_precision":"city","deal ct":3,"state":"NJ","distance":0.361145499585319},"type":"Feature","geometry":{"type":"Point","coordinates":[-74.397996,40.7735]}},{"properties":{"city":"Roseland","geo_score":0.714,"deal revenue":10.75,"id":"acd7syrl4nvj","geo_precision":"city","deal ct":2,"state":"NJ","distance":74.9918161921333},"type":"Feature","geometry":{"type":"Point","coordinates":[-74.306093,40.820499]}},{"properties":{"city":"Rye","geo_score":0.714,"deal revenue":28.9,"id":"acd7syffaxbg","geo_precision":"city","deal ct":1,"state":"NY","distance":59.4717304310486},"type":"Feature","geometry":{"type":"Point","coordinates":[-73.744725,40.955237]}},{"properties":{"city":"Ridgewood","geo_score":0.714,"deal revenue":2.5,"id":"acd7syion9ou","geo_precision":"city","deal ct":1,"state":"NJ","distance":0.361145499585149},"type":"Feature","geometry":{"type":"Point","coordinates":[-74.11207,40.982247]}},{"properties":{"city":"White Plains","geo_score":0.714,"deal revenue":6.25,"id":"acd7sygp7jjf","geo_precision":"city","deal ct":2,"state":"NY","distance":64.6241904771259},"type":"Feature","geometry":{"type":"Point","coordinates":[-73.769626,41.031397]}},{"properties":{"city":"Stamford","geo_score":0.714,"deal revenue":169.1,"id":"acd7syiqf3kh","geo_precision":"city","deal ct":15,"state":"CT","distance":68.6096253053444},"type":"Feature","geometry":{"type":"Point","coordinates":[-73.536216,41.054082]}},{"properties":{"city":"Westport","geo_score":0.714,"deal revenue":9.17,"id":"acd7sytwxmje","geo_precision":"city","deal ct":1,"state":"CT","distance":0.36114549958512},"type":"Feature","geometry":{"type":"Point","coordinates":[-73.343261,41.144496]}},{"properties":{"city":"New Canaan","geo_score":0.714,"deal revenue":4.02,"id":"acd7sylfztg2","geo_precision":"city","deal ct":1,"state":"CT","distance":69.5920557151492},"type":"Feature","geometry":{"type":"Point","coordinates":[-73.501267,41.162209]}},{"properties":{"city":"Mount Kisco","geo_score":0.714,"deal revenue":2.66,"id":"acd7sypykph0","geo_precision":"city","deal ct":1,"state":"NY","distance":0.327103639217569},"type":"Feature","geometry":{"type":"Point","coordinates":[-73.72286,41.197329]}},{"properties":{"city":"Bridgeport","geo_score":0.714,"deal revenue":3.33,"id":"acd7syg2w0ed","geo_precision":"city","deal ct":1,"state":"CT","distance":0.361145499585476},"type":"Feature","geometry":{"type":"Point","coordinates":[-73.363661,41.308873]}},{"properties":{"city":"Hartford","geo_score":0.714,"deal revenue":18.5,"id":"acd7sypc30k4","geo_precision":"city","deal ct":1,"state":"CT","distance":57.5645697864002},"type":"Feature","geometry":{"type":"Point","coordinates":[-72.677099,41.78007]}},{"properties":{"city":"Providence","geo_score":0.714,"deal revenue":35.0,"id":"acd7syg220ps","geo_precision":"city","deal ct":1,"state":"RI","distance":53.7000130041684},"type":"Feature","geometry":{"type":"Point","coordinates":[-71.414451,41.82275]}},{"properties":{"city":"Mineola","geo_score":0.714,"deal revenue":9.5,"id":"acd7syhf141m","geo_precision":"city","deal ct":1,"state":"NY","distance":67.1492553085341},"type":"Feature","geometry":{"type":"Point","coordinates":[-79.440048,42.175057]}},{"properties":{"city":"Boston","geo_score":0.714,"deal revenue":2078.63,"id":"acd7sygjtbmw","geo_precision":"city","deal ct":68,"state":"MA","distance":53.7000130041684},"type":"Feature","geometry":{"type":"Point","coordinates":[-71.026964,42.370567]}},{"properties":{"city":"Waltham","geo_score":0.714,"deal revenue":7.68,"id":"acd7syip02z4","geo_precision":"city","deal ct":2,"state":"MA","distance":59.0131300544866},"type":"Feature","geometry":{"type":"Point","coordinates":[-71.2398,42.388938]}},{"properties":{"city":"Buffalo","geo_score":0.714,"deal revenue":3.5,"id":"acd7syp1z5ei","geo_precision":"city","deal ct":1,"state":"NY","distance":67.1492553085342},"type":"Feature","geometry":{"type":"Point","coordinates":[-78.832706,42.929303]}}],"is_temporal":false,"author":{"url":null,"metadata":null,"contact_name":null,"contact_address":null,"source":null,"contact_phone":null},"source":null,"pagination":{"sort":null,"start":0,"total":55,"limit":1000000},"state":"complete","tags":"","published":"2014-08-16T17:15:36-04:00","id":323592}