{"type":"FeatureCollection","data_type":"Dataset","url_type":null,"permissions":[{"permissions":{"download":true,"view":true},"group_id":"everyone"}],"classification":null,"title":"African American","count":15,"stream_id":323539,"contributor":{"url":"http://geocommons.com/users/32664","name":"zach.roof@sbcglobal.net"},"data_attributes":null,"calculation_params":null,"icon_link":null,"link":"http://geocommons.com/overlays/323539.json","extent":[-95.9922,30.0759,-76.2698,39.3459],"geometry_types":["point"],"unique_name":null,"name":"African American","feature_count":15,"description":"","next_feature":null,"is_raster":false,"short_classification":"Y","stats":{"%ug enrollment that are black or african american":{"max":96,"variance":25.0285714285714,"mean":89.2,"stdev":5.00285632699675,"min":78,"median":89},"rank":{"max":78.5,"variance":33.9880952380952,"mean":63.6666666666667,"stdev":5.82993098056017,"min":57.5,"median":61.5},"gr african american":{"max":61,"variance":104.409523809524,"mean":38.1333333333333,"stdev":10.2180978567209,"min":25,"median":39}},"features":[{"properties":{"city":"Washington","zip":"20059-0001","%ug enrollment that are black or african american":96,"gr african american":61,"rank":78.5,"college":"Howard University","street address":"2400 Sixth St NW","id":"acd3hbc32mk2","state":"District of Columbia"},"type":"Feature","geometry":{"type":"Point","coordinates":[-77.021672,38.925882]}},{"properties":{"city":"Hampton","zip":"23668-0099","%ug enrollment that are black or african american":90,"gr african american":56,"rank":73.0,"college":"Hampton University","street address":"E Queen Street","id":"acd3hbbmh7rr","state":"Virginia"},"type":"Feature","geometry":{"type":"Point","coordinates":[-76.338422,37.024791]}},{"properties":{"city":"Tallahassee","zip":"32307","%ug enrollment that are black or african american":94,"gr african american":40,"rank":67.0,"college":"Florida Agricultural and Mechanical University","street address":"1500 S Martin Luther King Jr Blvd","id":"acd3hblzgorh","state":"Florida"},"type":"Feature","geometry":{"type":"Point","coordinates":[-84.285609,30.427139]}},{"properties":{"city":"Jackson","zip":"39217","%ug enrollment that are black or african american":93,"gr african american":41,"rank":67.0,"college":"Jackson State University","street address":"1440 J R Lynch St","id":"acd3hba8q69f","state":"Mississippi"},"type":"Feature","geometry":{"type":"Point","coordinates":[-90.206056,32.297593]}},{"properties":{"city":"Bowie","zip":"20715-9465","%ug enrollment that are black or african american":91,"gr african american":40,"rank":65.5,"college":"Bowie State University","street address":"14000 Jericho Park Rd","id":"acd3hbmf88wm","state":"Maryland"},"type":"Feature","geometry":{"type":"Point","coordinates":[-76.76357,39.016524]}},{"properties":{"city":"Greensboro","zip":"27411","%ug enrollment that are black or african american":88,"gr african american":41,"rank":64.5,"college":"North Carolina A &amp; T State University","street address":"1601 E Market  St","id":"acd3hblvkx9i","state":"North Carolina"},"type":"Feature","geometry":{"type":"Point","coordinates":[-79.770405,36.072862]}},{"properties":{"city":"Durham","zip":"27707","%ug enrollment that are black or african american":84,"gr african american":39,"rank":61.5,"college":"North Carolina Central University","street address":"1801 Fayetteville Street","id":"acd3hbl74v2e","state":"North Carolina"},"type":"Feature","geometry":{"type":"Point","coordinates":[-78.901181,35.9745]}},{"properties":{"city":"Petersburg","zip":"23806","%ug enrollment that are black or african american":84,"gr african american":39,"rank":61.5,"college":"Virginia State University","street address":"One Hayden Drive","id":"acd3hbammy90","state":"Virginia"},"type":"Feature","geometry":{"type":"Point","coordinates":[-77.421883,37.235476]}},{"properties":{"city":"Montgomery","zip":"36104-0271","%ug enrollment that are black or african american":95,"gr african american":26,"rank":60.5,"college":"Alabama State University","street address":"915 S Jackson Street","id":"acd3hbj46lvz","state":"Alabama"},"type":"Feature","geometry":{"type":"Point","coordinates":[-86.289182,32.373788]}},{"properties":{"city":"Norfolk","zip":"23504-8000","%ug enrollment that are black or african american":89,"gr african american":32,"rank":60.5,"college":"Norfolk State University","street address":"700 Park Avenue","id":"acd3hbaj0zm8","state":"Virginia"},"type":"Feature","geometry":{"type":"Point","coordinates":[-76.269839,36.847247]}},{"properties":{"city":"Prairie View","zip":"77446","%ug enrollment that are black or african american":87,"gr african american":34,"rank":60.5,"college":"Prairie View A &amp; M University","street address":"FM 1098 Road &amp; University Drive","id":"acd3hb86hliq","state":"Texas"},"type":"Feature","geometry":{"type":"Point","coordinates":[-95.992189,30.075875]}},{"properties":{"city":"Baton Rouge","zip":"70813","%ug enrollment that are black or african american":95,"gr african american":25,"rank":60.0,"college":"Southern University and A &amp; M College","street address":"Southern Branch Post Office","id":"acd3hbk38tzt","state":"Louisiana"},"type":"Feature","geometry":{"type":"Point","coordinates":[-91.181305,30.52235]}},{"properties":{"city":"Winston-Salem","zip":"27110-0001","%ug enrollment that are black or african american":78,"gr african american":42,"rank":60.0,"college":"Winston-Salem State University","street address":"601 Martin Luther King Jr Dr","id":"acd3hbcuv91p","state":"North Carolina"},"type":"Feature","geometry":{"type":"Point","coordinates":[-80.221792,36.087886]}},{"properties":{"city":"Baltimore","zip":"21251-0001","%ug enrollment that are black or african american":87,"gr african american":28,"rank":57.5,"college":"Morgan State University","street address":"1700 East Cold Spring Lane","id":"acd3hbgzgjkl","state":"Maryland"},"type":"Feature","geometry":{"type":"Point","coordinates":[-76.587088,39.345892]}},{"properties":{"city":"Grambling","zip":"71245","%ug enrollment that are black or african american":87,"gr african american":28,"rank":57.5,"college":"Grambling State University","street address":"403 Main Street","id":"acd3hb8r724n","state":"Louisiana"},"type":"Feature","geometry":{"type":"Point","coordinates":[-92.713646,32.521581]}}],"is_temporal":false,"author":{"url":"","metadata":"","contact_name":"","contact_address":"","source":"","contact_phone":""},"source":"","pagination":{"sort":null,"start":0,"total":15,"limit":1000000},"state":"complete","tags":"","published":"2014-08-16T17:11:02-04:00","id":323539}