{"type":"FeatureCollection","data_type":"Dataset","url_type":null,"permissions":[{"permissions":{"download":true,"view":true},"group_id":"everyone"}],"classification":null,"title":"citystateref","count":105,"stream_id":323717,"contributor":{"url":"http://geocommons.com/users/61676","name":"daniel.m.levin@jpmorgan.com"},"data_attributes":null,"calculation_params":null,"icon_link":null,"link":"http://geocommons.com/overlays/323717.json","extent":[-123.886,7.98333,104.15,54.5999],"geometry_types":["point"],"unique_name":null,"name":"citystateref","feature_count":105,"description":"","next_feature":null,"is_raster":false,"short_classification":"Y","stats":{"deal revenue":{"max":21455.17,"variance":5130278.9329032,"mean":514.726666666667,"stdev":2265.01190568686,"min":2.5,"median":36.75},"deal ct":{"max":447,"variance":2250.62271062271,"mean":13.3809523809524,"stdev":47.4407283947318,"min":1,"median":2}},"features":[{"properties":{"city":"Birmingham","geo_score":0.0,"deal revenue":5.04,"id":"acdgs6aefzqv","deal ct":2,"geo_precision":"unmatched","state":"AL"},"type":"Feature","geometry":null},{"properties":{"city":"Phoenix","geo_score":0.857,"deal revenue":49.22,"id":"acdgs6aipi9o","deal ct":4,"geo_precision":"zip","state":"AZ"},"type":"Feature","geometry":{"type":"Point","coordinates":[46.5430556,39.7611111]}},{"properties":{"city":"Costa Mesa","geo_score":0.857,"deal revenue":179.82,"id":"acdgs62m0dgc","deal ct":8,"geo_precision":"zip","state":"CA"},"type":"Feature","geometry":{"type":"Point","coordinates":[-123.886001997,49.049630101]}},{"properties":{"city":"East Palo Alto","geo_score":0.857,"deal revenue":500.49,"id":"acdgs6511n7i","deal ct":5,"geo_precision":"zip","state":"CA"},"type":"Feature","geometry":{"type":"Point","coordinates":[-78.216235049,46.000123105]}},{"properties":{"city":"Irvine","geo_score":0.857,"deal revenue":99.3,"id":"acdgs6c3ejlg","deal ct":13,"geo_precision":"zip","state":"CA"},"type":"Feature","geometry":{"type":"Point","coordinates":[-119.685756752,51.649870533]}},{"properties":{"city":"Los Angeles","geo_score":0.857,"deal revenue":945.12,"id":"acdgs5xri8fr","deal ct":32,"geo_precision":"zip","state":"CA"},"type":"Feature","geometry":{"type":"Point","coordinates":[-73.734174418,46.256476309]}},{"properties":{"city":"Menlo Park","geo_score":0.857,"deal revenue":1276.14,"id":"acdgs5zknfzi","deal ct":3,"geo_precision":"zip","state":"CA"},"type":"Feature","geometry":{"type":"Point","coordinates":[-78.999582775,44.300117445]}},{"properties":{"city":"Mountain View","geo_score":0.857,"deal revenue":53.89,"id":"acdgs68o7rtx","deal ct":2,"geo_precision":"zip","state":"CA"},"type":"Feature","geometry":{"type":"Point","coordinates":[-104.58434708,49.166763401]}},{"properties":{"city":"Newport Beach","geo_score":0.857,"deal revenue":15.25,"id":"acdgs6cef739","deal ct":1,"geo_precision":"zip","state":"CA"},"type":"Feature","geometry":{"type":"Point","coordinates":[-74.549179628,49.933438264]}},{"properties":{"city":"Palo Alto","geo_score":0.857,"deal revenue":258.57,"id":"acdgs64je0ct","deal ct":17,"geo_precision":"zip","state":"CA"},"type":"Feature","geometry":{"type":"Point","coordinates":[-82.666501652,41.783380409]}},{"properties":{"city":"Redwood Shores","geo_score":0.857,"deal revenue":155.72,"id":"acdgs68x2jrn","deal ct":2,"geo_precision":"zip","state":"CA"},"type":"Feature","geometry":{"type":"Point","coordinates":[-74.582507594,50.233438721]}},{"properties":{"city":"Sacramento","geo_score":0.857,"deal revenue":4.4,"id":"acdgs657gll1","deal ct":1,"geo_precision":"zip","state":"CA"},"type":"Feature","geometry":{"type":"Point","coordinates":[-118.385598186,50.449832005]}},{"properties":{"city":"San Diego","geo_score":0.857,"deal revenue":51.9,"id":"acdgs60vx6hw","deal ct":5,"geo_precision":"zip","state":"CA"},"type":"Feature","geometry":{"type":"Point","coordinates":[-101.584220585,51.399979807]}},{"properties":{"city":"San Francisco","geo_score":0.857,"deal revenue":1714.58,"id":"acdgs66k8wra","deal ct":44,"geo_precision":"zip","state":"CA"},"type":"Feature","geometry":{"type":"Point","coordinates":[-80.466445516,48.350174128]}},{"properties":{"city":"San Jose","geo_score":0.857,"deal revenue":5.0,"id":"acdgs68kf358","deal ct":1,"geo_precision":"zip","state":"CA"},"type":"Feature","geometry":{"type":"Point","coordinates":[-76.832710082,48.30017534]}},{"properties":{"city":"Santa Monica","geo_score":0.857,"deal revenue":2.56,"id":"acdgs5zhppqd","deal ct":1,"geo_precision":"zip","state":"CA"},"type":"Feature","geometry":{"type":"Point","coordinates":[-109.701493505,49.283331736]}},{"properties":{"city":"Sherman Oaks","geo_score":0.857,"deal revenue":15.51,"id":"acdgs620hjz4","deal ct":1,"geo_precision":"zip","state":"CA"},"type":"Feature","geometry":{"type":"Point","coordinates":[-119.88609793,54.599932276]}},{"properties":{"city":"Denver","geo_score":0.0,"deal revenue":170.92,"id":"acdgs6b35irn","deal ct":9,"geo_precision":"unmatched","state":"CO"},"type":"Feature","geometry":null},{"properties":{"city":"Englewood","geo_score":0.0,"deal revenue":30.0,"id":"acdgs5xv7udx","deal ct":1,"geo_precision":"unmatched","state":"CO"},"type":"Feature","geometry":null},{"properties":{"city":"Bridgeport","geo_score":0.0,"deal revenue":3.33,"id":"acdgs6bhuo7v","deal ct":1,"geo_precision":"unmatched","state":"CT"},"type":"Feature","geometry":null},{"properties":{"city":"Hartford","geo_score":0.0,"deal revenue":18.5,"id":"acdgs6azjgoo","deal ct":1,"geo_precision":"unmatched","state":"CT"},"type":"Feature","geometry":null},{"properties":{"city":"New Canaan","geo_score":0.0,"deal revenue":4.02,"id":"acdgs62avihw","deal ct":1,"geo_precision":"unmatched","state":"CT"},"type":"Feature","geometry":null},{"properties":{"city":"Stamford","geo_score":0.0,"deal revenue":169.1,"id":"acdgs66x7fm6","deal ct":15,"geo_precision":"unmatched","state":"CT"},"type":"Feature","geometry":null},{"properties":{"city":"Westport","geo_score":0.0,"deal revenue":9.17,"id":"acdgs5zsufwl","deal ct":1,"geo_precision":"unmatched","state":"CT"},"type":"Feature","geometry":null},{"properties":{"city":"Washington","geo_score":0.0,"deal revenue":2091.69,"id":"acdgs676y8f6","deal ct":56,"geo_precision":"unmatched","state":"DC"},"type":"Feature","geometry":null},{"properties":{"city":"DOVER","geo_score":0.857,"deal revenue":3.9,"id":"acdgs693bplj","deal ct":1,"geo_precision":"zip","state":"DE"},"type":"Feature","geometry":{"type":"Point","coordinates":[7.3666667,53.0833333]}},{"properties":{"city":"Fort Lauderdale","geo_score":0.0,"deal revenue":107.29,"id":"acdgs6462toj","deal ct":12,"geo_precision":"unmatched","state":"FL"},"type":"Feature","geometry":null},{"properties":{"city":"Miami","geo_score":0.0,"deal revenue":409.09,"id":"acdgs69m7lnr","deal ct":17,"geo_precision":"unmatched","state":"FL"},"type":"Feature","geometry":null},{"properties":{"city":"St. peterdburg","geo_score":0.0,"deal revenue":6.75,"id":"acdgs61djmoy","deal ct":2,"geo_precision":"unmatched","state":"FL"},"type":"Feature","geometry":null},{"properties":{"city":"Tampa","geo_score":0.0,"deal revenue":147.3,"id":"acdgs5z2wv4x","deal ct":4,"geo_precision":"unmatched","state":"FL"},"type":"Feature","geometry":null},{"properties":{"city":"Atlanta","geo_score":0.0,"deal revenue":768.67,"id":"acdgs62wasfy","deal ct":36,"geo_precision":"unmatched","state":"GA"},"type":"Feature","geometry":null},{"properties":{"city":"Bannockburn","geo_score":0.0,"deal revenue":23.25,"id":"acdgs637vb1k","deal ct":2,"geo_precision":"unmatched","state":"IL"},"type":"Feature","geometry":null},{"properties":{"city":"Chicago","geo_score":0.0,"deal revenue":4552.01,"id":"acdgs66dkc8w","deal ct":156,"geo_precision":"unmatched","state":"IL"},"type":"Feature","geometry":null},{"properties":{"city":"River Forest","geo_score":0.0,"deal revenue":3.75,"id":"acdgs6859w7j","deal ct":1,"geo_precision":"unmatched","state":"IL"},"type":"Feature","geometry":null},{"properties":{"city":"Schiller Park","geo_score":0.0,"deal revenue":3.49,"id":"acdgs6bkvqi2","deal ct":1,"geo_precision":"unmatched","state":"IL"},"type":"Feature","geometry":null},{"properties":{"city":"Indianapolis","geo_score":0.0,"deal revenue":260.59,"id":"acdgs63jpqar","deal ct":21,"geo_precision":"unmatched","state":"IN"},"type":"Feature","geometry":null},{"properties":{"city":"Lexington","geo_score":0.0,"deal revenue":6.5,"id":"acdgs663v4dk","deal ct":1,"geo_precision":"unmatched","state":"KY"},"type":"Feature","geometry":null},{"properties":{"city":"Louisville","geo_score":0.0,"deal revenue":11.17,"id":"acdgs68zaq3g","deal ct":2,"geo_precision":"unmatched","state":"KY"},"type":"Feature","geometry":null},{"properties":{"city":"New Orleans","geo_score":0.857,"deal revenue":6.59,"id":"acdgs60nkn3l","deal ct":2,"geo_precision":"zip","state":"LA"},"type":"Feature","geometry":{"type":"Point","coordinates":[104.15,20.6166667]}},{"properties":{"city":"Boston","geo_score":0.857,"deal revenue":2078.63,"id":"acdgs64hj4fg","deal ct":68,"geo_precision":"zip","state":"MA"},"type":"Feature","geometry":{"type":"Point","coordinates":[-4.23,34.11]}},{"properties":{"city":"Waltham","geo_score":0.0,"deal revenue":7.68,"id":"acdgs6dp7u4q","deal ct":2,"geo_precision":"unmatched","state":"MA"},"type":"Feature","geometry":null},{"properties":{"city":"Baltimore","geo_score":0.0,"deal revenue":41.51,"id":"acdgs63ilulh","deal ct":5,"geo_precision":"unmatched","state":"MD"},"type":"Feature","geometry":null},{"properties":{"city":"Chevy Chase","geo_score":0.0,"deal revenue":44.53,"id":"acdgs5yh218o","deal ct":2,"geo_precision":"unmatched","state":"MD"},"type":"Feature","geometry":null},{"properties":{"city":"Portland","geo_score":0.0,"deal revenue":36.45,"id":"acdgs5z224lw","deal ct":2,"geo_precision":"unmatched","state":"ME"},"type":"Feature","geometry":null},{"properties":{"city":"Ann Arbor","geo_score":0.0,"deal revenue":30.63,"id":"acdgs6dr8t4z","deal ct":2,"geo_precision":"unmatched","state":"MI"},"type":"Feature","geometry":null},{"properties":{"city":"Bloomfield Hills","geo_score":0.0,"deal revenue":28.7,"id":"acdgs63e9w6n","deal ct":2,"geo_precision":"unmatched","state":"MI"},"type":"Feature","geometry":null},{"properties":{"city":"Detroit","geo_score":0.0,"deal revenue":142.96,"id":"acdgs6aq3yav","deal ct":10,"geo_precision":"unmatched","state":"MI"},"type":"Feature","geometry":null},{"properties":{"city":"Grand Rapids","geo_score":0.0,"deal revenue":183.38,"id":"acdgs64v0a1t","deal ct":5,"geo_precision":"unmatched","state":"MI"},"type":"Feature","geometry":null},{"properties":{"city":"Lansing","geo_score":0.0,"deal revenue":60.04,"id":"acdgs61tnpfi","deal ct":4,"geo_precision":"unmatched","state":"MI"},"type":"Feature","geometry":null},{"properties":{"city":"Southfield","geo_score":0.0,"deal revenue":26.0,"id":"acdgs696g6sr","deal ct":2,"geo_precision":"unmatched","state":"MI"},"type":"Feature","geometry":null},{"properties":{"city":"Troy","geo_score":0.0,"deal revenue":7.5,"id":"acdgs6d8h77j","deal ct":1,"geo_precision":"unmatched","state":"MI"},"type":"Feature","geometry":null},{"properties":{"city":"Kansas City","geo_score":0.0,"deal revenue":128.67,"id":"acdgs5yl4lz1","deal ct":3,"geo_precision":"unmatched","state":"MO"},"type":"Feature","geometry":null},{"properties":{"city":"St. Louis","geo_score":0.0,"deal revenue":66.15,"id":"acdgs602g15a","deal ct":5,"geo_precision":"unmatched","state":"MO"},"type":"Feature","geometry":null},{"properties":{"city":"St Louis","geo_score":0.0,"deal revenue":17.75,"id":"acdgs5zkaffh","deal ct":3,"geo_precision":"unmatched","state":"MO"},"type":"Feature","geometry":null},{"properties":{"city":"Charlotte","geo_score":0.0,"deal revenue":151.96,"id":"acdgs5z8gtvn","deal ct":10,"geo_precision":"unmatched","state":"NC"},"type":"Feature","geometry":null},{"properties":{"city":"Raleigh","geo_score":0.0,"deal revenue":17.43,"id":"acdgs693ebis","deal ct":2,"geo_precision":"unmatched","state":"NC"},"type":"Feature","geometry":null},{"properties":{"city":"Florham Park","geo_score":0.0,"deal revenue":133.09,"id":"acdgs5z0b7te","deal ct":3,"geo_precision":"unmatched","state":"NJ"},"type":"Feature","geometry":null},{"properties":{"city":"Ridgewood","geo_score":0.0,"deal revenue":2.5,"id":"acdgs65hs1ki","deal ct":1,"geo_precision":"unmatched","state":"NJ"},"type":"Feature","geometry":null},{"properties":{"city":"Roseland","geo_score":0.0,"deal revenue":10.75,"id":"acdgs64bkn4x","deal ct":2,"geo_precision":"unmatched","state":"NJ"},"type":"Feature","geometry":null},{"properties":{"city":"Short Hills","geo_score":0.0,"deal revenue":24.35,"id":"acdgs668i6re","deal ct":2,"geo_precision":"unmatched","state":"NJ"},"type":"Feature","geometry":null},{"properties":{"city":"Teaneck","geo_score":0.0,"deal revenue":2.8,"id":"acdgs616gfbc","deal ct":1,"geo_precision":"unmatched","state":"NJ"},"type":"Feature","geometry":null},{"properties":{"city":"Albany","geo_score":0.0,"deal revenue":33.81,"id":"acdgs697jeac","deal ct":1,"geo_precision":"unmatched","state":"NY"},"type":"Feature","geometry":null},{"properties":{"city":"Buffalo","geo_score":0.0,"deal revenue":3.5,"id":"acdgs6cpxpsh","deal ct":1,"geo_precision":"unmatched","state":"NY"},"type":"Feature","geometry":null},{"properties":{"city":"Jericho","geo_score":0.0,"deal revenue":3.65,"id":"acdgs6dc4yqe","deal ct":1,"geo_precision":"unmatched","state":"NY"},"type":"Feature","geometry":null},{"properties":{"city":"Mineola","geo_score":0.0,"deal revenue":9.5,"id":"acdgs6b2gdx0","deal ct":1,"geo_precision":"unmatched","state":"NY"},"type":"Feature","geometry":null},{"properties":{"city":"Mount Kisco","geo_score":0.0,"deal revenue":2.66,"id":"acdgs62vbo8q","deal ct":1,"geo_precision":"unmatched","state":"NY"},"type":"Feature","geometry":null},{"properties":{"city":"New York","geo_score":0.0,"deal revenue":21455.17,"id":"acdgs5xi073v","deal ct":447,"geo_precision":"unmatched","state":"NY"},"type":"Feature","geometry":null},{"properties":{"city":"New Yotk","geo_score":0.0,"deal revenue":14.33,"id":"acdgs6df6ovq","deal ct":1,"geo_precision":"unmatched","state":"NY"},"type":"Feature","geometry":null},{"properties":{"city":"NY","geo_score":0.0,"deal revenue":40.49,"id":"acdgs676r8v8","deal ct":2,"geo_precision":"unmatched","state":"NY"},"type":"Feature","geometry":null},{"properties":{"city":"Rochester","geo_score":0.0,"deal revenue":80.5,"id":"acdgs6bxv614","deal ct":3,"geo_precision":"unmatched","state":"NY"},"type":"Feature","geometry":null},{"properties":{"city":"Rye","geo_score":0.0,"deal revenue":28.9,"id":"acdgs672v8p1","deal ct":1,"geo_precision":"unmatched","state":"NY"},"type":"Feature","geometry":null},{"properties":{"city":"Syosset","geo_score":0.0,"deal revenue":10.9,"id":"acdgs5y8th6y","deal ct":1,"geo_precision":"unmatched","state":"NY"},"type":"Feature","geometry":null},{"properties":{"city":"Uniondale","geo_score":0.0,"deal revenue":37.19,"id":"acdgs6cwq0ny","deal ct":3,"geo_precision":"unmatched","state":"NY"},"type":"Feature","geometry":null},{"properties":{"city":"White Plains","geo_score":0.0,"deal revenue":6.25,"id":"acdgs63bfteb","deal ct":2,"geo_precision":"unmatched","state":"NY"},"type":"Feature","geometry":null},{"properties":{"city":"Cincinnati","geo_score":0.0,"deal revenue":259.69,"id":"acdgs6cufupw","deal ct":10,"geo_precision":"unmatched","state":"OH"},"type":"Feature","geometry":null},{"properties":{"city":"Cleveland","geo_score":0.0,"deal revenue":412.93,"id":"acdgs6406uq3","deal ct":15,"geo_precision":"unmatched","state":"OH"},"type":"Feature","geometry":null},{"properties":{"city":"Columbus","geo_score":0.0,"deal revenue":40.31,"id":"acdgs65jnejg","deal ct":3,"geo_precision":"unmatched","state":"OH"},"type":"Feature","geometry":null},{"properties":{"city":"Dayton","geo_score":0.0,"deal revenue":65.47,"id":"acdgs5yg3ot5","deal ct":4,"geo_precision":"unmatched","state":"OH"},"type":"Feature","geometry":null},{"properties":{"city":"Mason","geo_score":0.0,"deal revenue":49.5,"id":"acdgs6274pps","deal ct":2,"geo_precision":"unmatched","state":"OH"},"type":"Feature","geometry":null},{"properties":{"city":"Tulsa","geo_score":0.0,"deal revenue":15.73,"id":"acdgs6bpu1s5","deal ct":2,"geo_precision":"unmatched","state":"OK"},"type":"Feature","geometry":null},{"properties":{"city":"Malvern","geo_score":0.0,"deal revenue":12.67,"id":"acdgs6cw7fwl","deal ct":2,"geo_precision":"unmatched","state":"PA"},"type":"Feature","geometry":null},{"properties":{"city":"PA","geo_score":0.0,"deal revenue":10.0,"id":"acdgs5zyj0kq","deal ct":1,"geo_precision":"unmatched","state":"PA"},"type":"Feature","geometry":null},{"properties":{"city":"Philadelphia","geo_score":0.857,"deal revenue":770.71,"id":"acdgs67os59r","deal ct":18,"geo_precision":"zip","state":"PA"},"type":"Feature","geometry":{"type":"Point","coordinates":[-81.4,7.9833333]}},{"properties":{"city":"Pittsburgh","geo_score":0.0,"deal revenue":226.13,"id":"acdgs60he3bn","deal ct":11,"geo_precision":"unmatched","state":"PA"},"type":"Feature","geometry":null},{"properties":{"city":"West Conshohocken","geo_score":0.0,"deal revenue":1052.21,"id":"acdgs6d3yg4f","deal ct":8,"geo_precision":"unmatched","state":"PA"},"type":"Feature","geometry":null},{"properties":{"city":"Providence","geo_score":0.0,"deal revenue":35.0,"id":"acdgs615ifq0","deal ct":1,"geo_precision":"unmatched","state":"RI"},"type":"Feature","geometry":null},{"properties":{"city":"Columbia","geo_score":0.0,"deal revenue":36.75,"id":"acdgs68giefv","deal ct":2,"geo_precision":"unmatched","state":"SC"},"type":"Feature","geometry":null},{"properties":{"city":"Nashville","geo_score":0.0,"deal revenue":182.25,"id":"acdgs68jnpnh","deal ct":13,"geo_precision":"unmatched","state":"TN"},"type":"Feature","geometry":null},{"properties":{"city":"Austin","geo_score":0.0,"deal revenue":543.35,"id":"acdgs6a2791x","deal ct":20,"geo_precision":"unmatched","state":"TX"},"type":"Feature","geometry":null},{"properties":{"city":"Dallas","geo_score":0.0,"deal revenue":2203.53,"id":"acdgs61m8xvm","deal ct":69,"geo_precision":"unmatched","state":"TX"},"type":"Feature","geometry":null},{"properties":{"city":"Fort Worth","geo_score":0.0,"deal revenue":225.39,"id":"acdgs68vqasm","deal ct":5,"geo_precision":"unmatched","state":"TX"},"type":"Feature","geometry":null},{"properties":{"city":"Houston","geo_score":0.0,"deal revenue":7532.91,"id":"acdgs649k61k","deal ct":89,"geo_precision":"unmatched","state":"TX"},"type":"Feature","geometry":null},{"properties":{"city":"Southlake","geo_score":0.0,"deal revenue":15.97,"id":"acdgs65f9j71","deal ct":4,"geo_precision":"unmatched","state":"TX"},"type":"Feature","geometry":null},{"properties":{"city":"The Woodlands","geo_score":0.0,"deal revenue":2.5,"id":"acdgs667yp2p","deal ct":1,"geo_precision":"unmatched","state":"TX"},"type":"Feature","geometry":null},{"properties":{"city":"Arlington","geo_score":0.0,"deal revenue":14.5,"id":"acdgs61kjzqu","deal ct":1,"geo_precision":"unmatched","state":"VA"},"type":"Feature","geometry":null},{"properties":{"city":"Charlottesville","geo_score":0.0,"deal revenue":5.05,"id":"acdgs5xnfbkq","deal ct":1,"geo_precision":"unmatched","state":"VA"},"type":"Feature","geometry":null},{"properties":{"city":"McLean","geo_score":0.0,"deal revenue":201.16,"id":"acdgs6c7127m","deal ct":7,"geo_precision":"unmatched","state":"VA"},"type":"Feature","geometry":null},{"properties":{"city":"Richmond","geo_score":0.0,"deal revenue":62.02,"id":"acdgs639h6bw","deal ct":2,"geo_precision":"unmatched","state":"VA"},"type":"Feature","geometry":null},{"properties":{"city":"Tysons Corner","geo_score":0.0,"deal revenue":45.26,"id":"acdgs6bsba79","deal ct":3,"geo_precision":"unmatched","state":"VA"},"type":"Feature","geometry":null},{"properties":{"city":"Virginia Beach","geo_score":0.0,"deal revenue":49.0,"id":"acdgs6ajiqaq","deal ct":1,"geo_precision":"unmatched","state":"VA"},"type":"Feature","geometry":null},{"properties":{"city":"Weybridge","geo_score":0.0,"deal revenue":10.51,"id":"acdgs66n7wvx","deal ct":2,"geo_precision":"unmatched","state":"VT"},"type":"Feature","geometry":null},{"properties":{"city":"Seattle","geo_score":0.0,"deal revenue":14.04,"id":"acdgs66zrdb2","deal ct":3,"geo_precision":"unmatched","state":"WA"},"type":"Feature","geometry":null},{"properties":{"city":"Madison","geo_score":0.0,"deal revenue":8.1,"id":"acdgs63lvr67","deal ct":2,"geo_precision":"unmatched","state":"WI"},"type":"Feature","geometry":null},{"properties":{"city":"Milwaukee","geo_score":0.0,"deal revenue":826.23,"id":"acdgs5xtheok","deal ct":15,"geo_precision":"unmatched","state":"WI"},"type":"Feature","geometry":null},{"properties":{"city":"Charleston","geo_score":0.0,"deal revenue":7.53,"id":"acdgs60x7zlm","deal ct":1,"geo_precision":"unmatched","state":"WV"},"type":"Feature","geometry":null}],"is_temporal":false,"author":{"url":"","metadata":null,"contact_name":null,"contact_address":null,"source":null,"contact_phone":null},"source":"","pagination":{"sort":null,"start":0,"total":105,"limit":1000000},"state":"complete","tags":"","published":"2014-08-16T17:23:35-04:00","id":323717}