{"type":"FeatureCollection","data_type":"Dataset","url_type":null,"permissions":[{"permissions":{"download":true,"view":true},"group_id":"everyone"}],"classification":null,"title":"robbery_offender_extract_wsjournal_with_address","count":181,"stream_id":323823,"contributor":{"url":"http://geocommons.com/users/22834","name":"Journalnow"},"data_attributes":null,"calculation_params":null,"icon_link":null,"link":"http://geocommons.com/overlays/323823.json","extent":[-120.619,33.9574,-78.6167,38.0528],"geometry_types":["point"],"unique_name":null,"name":"robbery_offender_extract_wsjournal_with_address","feature_count":181,"description":"","next_feature":null,"is_raster":false,"short_classification":"Y","stats":{"unique number":{"max":2101887,"variance":2308383458.36102,"mean":2016259.81767956,"stdev":48045.639327217,"min":1934416,"median":2018162}},"features":[{"properties":{"city":"WINSTON-SALEM","zip":"27105","ethnicity":"N","role":"OFFENDER","geo_score":1.0,"gender":"MALE","unique number":1934419,"id":"acdkccq2t9zq","address":"1230 MOTOR RD","geo_precision":"range","race":"B","state":"NC"},"type":"Feature","geometry":{"type":"Point","coordinates":[-80.225627,36.158101]}},{"properties":{"city":"WINSTON-SALEM","zip":"27105","ethnicity":"N","role":"OFFENDER","geo_score":1.0,"gender":"FEMALE","unique number":1934419,"id":"acdkccxxpifw","address":"1321 THURMOND ST","geo_precision":"range","race":"B","state":"NC"},"type":"Feature","geometry":{"type":"Point","coordinates":[-80.257989,36.112198]}},{"properties":{"city":"WINSTON-SALEM","zip":"27105","ethnicity":"N","role":"OFFENDER","geo_score":0.979,"gender":"MALE","unique number":1934416,"id":"acdkccoxu04l","address":"315 WALKERTOWN AV","geo_precision":"range","race":"B","state":"NC"},"type":"Feature","geometry":{"type":"Point","coordinates":[-80.20719,36.119194]}},{"properties":{"city":"WINSTON-SALEM","zip":"27105","ethnicity":"N","role":"OFFENDER","geo_score":1.0,"gender":"MALE","unique number":1934416,"id":"acdkccvduijr","address":"1230 MOTOR RD","geo_precision":"range","race":"B","state":"NC"},"type":"Feature","geometry":{"type":"Point","coordinates":[-80.225627,36.158101]}},{"properties":{"city":"WINSTON-SALEM","zip":"27105","ethnicity":"N","role":"OFFENDER","geo_score":1.0,"gender":"FEMALE","unique number":1934416,"id":"acdkccsh5mxx","address":"1308 THURMOND ST","geo_precision":"range","race":"B","state":"NC"},"type":"Feature","geometry":{"type":"Point","coordinates":[-80.258139,36.112444]}},{"properties":{"city":"WINSTON-SALEM","zip":"27105","ethnicity":"N","role":"OFFENDER","geo_score":1.0,"gender":"FEMALE","unique number":1934416,"id":"acdkcclf0ynh","address":"1321 THURMOND ST","geo_precision":"range","race":"B","state":"NC"},"type":"Feature","geometry":{"type":"Point","coordinates":[-80.257989,36.112198]}},{"properties":{"city":"WINSTON-SALEM","zip":"27105","ethnicity":"N","role":"OFFENDER","geo_score":0.963,"gender":"MALE","unique number":1936643,"id":"acdkccw6ns6t","address":"5005 OHIO AV","geo_precision":"range","race":"B","state":"NC"},"type":"Feature","geometry":{"type":"Point","coordinates":[-80.232914,36.161428]}},{"properties":{"city":"WINSTON-SALEM","zip":"27127","ethnicity":"N","role":"OFFENDER","geo_score":1.0,"gender":"MALE","unique number":1936796,"id":"acdkccpqgzoh","address":"3802 HEATHROW DR","geo_precision":"range","race":"B","state":"NC"},"type":"Feature","geometry":{"type":"Point","coordinates":[-80.289178,36.048039]}},{"properties":{"city":"CLEMMONS","zip":"27012","ethnicity":"N","role":"OFFENDER","geo_score":0.88,"gender":"MALE","unique number":1936796,"id":"acdkccn7gpah","address":"8893 CENTERGROVE PLACE CT","geo_precision":"range","race":"B","state":"NC"},"type":"Feature","geometry":{"type":"Point","coordinates":[-80.434567,36.04376]}},{"properties":{"city":"LEWISVILLE","zip":"27023","ethnicity":"N","role":"OFFENDER","geo_score":1.0,"gender":"MALE","unique number":1937195,"id":"acdkccw45o7d","address":"6311 LINDA DR","geo_precision":"range","race":"W","state":"NC"},"type":"Feature","geometry":{"type":"Point","coordinates":[-80.41566,36.101816]}},{"properties":{"city":"CLEMMONS","zip":"27265","ethnicity":"N","role":"OFFENDER","geo_score":0.922,"gender":"MALE","unique number":1939085,"id":"acdkcckk49lq","address":"2118 ARDEN PL","geo_precision":"range","race":"B","state":"NC"},"type":"Feature","geometry":{"type":"Point","coordinates":[-79.99582,35.993069]}},{"properties":{"city":"KERNERSVILLE","zip":"27284","ethnicity":"N","role":"OFFENDER","geo_score":0.476,"gender":"FEMALE","unique number":1939479,"id":"acdkccsp4aof","address":"1231 QUAKER WAY AV","geo_precision":"street","race":"W","state":"NC"},"type":"Feature","geometry":{"type":"Point","coordinates":[-80.024377,35.961742]}},{"properties":{"city":"WINSTON-SALEM","zip":"27101","ethnicity":"N","role":"OFFENDER","geo_score":0.786,"gender":"FEMALE","unique number":1940465,"id":"acdkccmmnnk0","address":"930 N PATTERSON AV","geo_precision":"street","race":"B","state":"NC"},"type":"Feature","geometry":{"type":"Point","coordinates":[-80.240443,36.09599]}},{"properties":{"city":"WINSTON-SALEM","zip":"27101","ethnicity":"N","role":"OFFENDER","geo_score":0.927,"gender":"FEMALE","unique number":1941570,"id":"acdkccoceaih","address":"623 W SIXTH ST","geo_precision":"range","race":"B","state":"NC"},"type":"Feature","geometry":{"type":"Point","coordinates":[-80.250967,36.100803]}},{"properties":{"city":"WINSTON-SALEM","zip":"27101","ethnicity":"N","role":"OFFENDER","geo_score":0.786,"gender":"MALE","unique number":1943857,"id":"acdkccw90due","address":"930 N PATTERSON AV","geo_precision":"street","race":"B","state":"NC"},"type":"Feature","geometry":{"type":"Point","coordinates":[-80.240443,36.09599]}},{"properties":{"city":"WINSTON-SALEM","zip":"27103","ethnicity":"N","role":"OFFENDER","geo_score":1.0,"gender":"MALE","unique number":1946536,"id":"acdkccmax0cn","address":"2358 WALKER AVE","geo_precision":"range","race":"W","state":"NC"},"type":"Feature","geometry":{"type":"Point","coordinates":[-80.279697,36.077462]}},{"properties":{"city":"WINSTON-SALEM","zip":"27106","ethnicity":"N","role":"OFFENDER","geo_score":1.0,"gender":"MALE","unique number":1951368,"id":"acdkccwhy329","address":"2372 BETHABARA RD","geo_precision":"range","race":"B","state":"NC"},"type":"Feature","geometry":{"type":"Point","coordinates":[-80.309306,36.162881]}},{"properties":{"city":"WINSTON-SALEM","zip":"27105","ethnicity":"N","role":"OFFENDER","geo_score":1.0,"gender":"MALE","unique number":1951854,"id":"acdkccw81bt2","address":"127 MOTOR RD","geo_precision":"range","race":"B","state":"NC"},"type":"Feature","geometry":{"type":"Point","coordinates":[-80.257525,36.149736]}},{"properties":{"city":"WINSTON-SALEM","zip":"27105","ethnicity":"N","role":"OFFENDER","geo_score":0.977,"gender":"MALE","unique number":1951854,"id":"acdkccywumyt","address":"4140 SUNFLOWER CR","geo_precision":"range","race":"B","state":"NC"},"type":"Feature","geometry":{"type":"Point","coordinates":[-80.196862,36.149264]}},{"properties":{"city":"WINSTON-SALEM","zip":"27105","ethnicity":"N","role":"OFFENDER","geo_score":1.0,"gender":"MALE","unique number":1951854,"id":"acdkccx7nnmh","address":"1103 NEWPORT ST","geo_precision":"range","race":"B","state":"NC"},"type":"Feature","geometry":{"type":"Point","coordinates":[-80.224982,36.148599]}},{"properties":{"city":"HIGH POINT","zip":"27260","ethnicity":"N","role":"OFFENDER","geo_score":1.0,"gender":"MALE","unique number":1953813,"id":"acdkccmtgj2h","address":"1915 S ELM ST","geo_precision":"range","race":"B","state":"NC"},"type":"Feature","geometry":{"type":"Point","coordinates":[-80.00858,35.930454]}},{"properties":{"city":"WINSTON-SALEM","zip":"27106","ethnicity":"N","role":"OFFENDER","geo_score":1.0,"gender":"MALE","unique number":1953889,"id":"acdkcctkpvxe","address":"5200 SHATTALON DR","geo_precision":"range","race":"B","state":"NC"},"type":"Feature","geometry":{"type":"Point","coordinates":[-80.309809,36.171824]}},{"properties":{"city":"WINSTON-SALEM","zip":"27107","ethnicity":"N","role":"OFFENDER","geo_score":0.434,"gender":"FEMALE","unique number":1954949,"id":"acdkccwrzk9t","address":"1325 GHOLSON AV","geo_precision":"street","race":"B","state":"NC"},"type":"Feature","geometry":{"type":"Point","coordinates":[-80.305681,36.120711]}},{"properties":{"city":"WINSTON-SALEM","zip":"27105","ethnicity":"N","role":"OFFENDER","geo_score":0.585,"gender":"MALE","unique number":1955444,"id":"acdkccpd9l57","address":"461 W TWENTY-FIFTH ST","geo_precision":"zip","race":"B","state":"NC"},"type":"Feature","geometry":{"type":"Point","coordinates":[-80.138934,36.088748]}},{"properties":{"city":"TOBACCOVILLE","zip":"27050","ethnicity":"N","role":"OFFENDER","geo_score":1.0,"gender":"MALE","unique number":1956833,"id":"acdkccjxbhof","address":"5308 OSWEGO CT","geo_precision":"range","race":"W","state":"NC"},"type":"Feature","geometry":{"type":"Point","coordinates":[-80.428217,36.246418]}},{"properties":{"city":"WINSTON-SALEM","zip":"27127","ethnicity":"N","role":"OFFENDER","geo_score":0.581,"gender":"MALE","unique number":1956833,"id":"acdkccpebo4m","address":"1600 HAVERSHAM PARK DR","geo_precision":"street","race":"B","state":"NC"},"type":"Feature","geometry":{"type":"Point","coordinates":[-80.252941,36.071298]}},{"properties":{"city":"WINSTON-SALEM","zip":"27105","ethnicity":"N","role":"OFFENDER","geo_score":0.805,"gender":"MALE","unique number":1957658,"id":"acdkccq8hs7l","address":"5001 TOWERGATE DR","geo_precision":"range","race":"B","state":"NC"},"type":"Feature","geometry":{"type":"Point","coordinates":[-80.313863,36.163782]}},{"properties":{"city":"GREENSBORO","zip":"27410","ethnicity":"N","role":"OFFENDER","geo_score":0.581,"gender":"MALE","unique number":1957670,"id":"acdkcct5sfke","address":"1308 MIZZELL RD","geo_precision":"street","race":"B","state":"NC"},"type":"Feature","geometry":{"type":"Point","coordinates":[-79.782823,36.127627]}},{"properties":{"city":"GREENSBORO","zip":"27262","ethnicity":"N","role":"OFFENDER","geo_score":0.732,"gender":"MALE","unique number":1958551,"id":"acdkccnq6wwe","address":"305 E LEE ST","geo_precision":"range","race":"B","state":"NC"},"type":"Feature","geometry":{"type":"Point","coordinates":[-79.930484,35.99244]}},{"properties":{"city":"KERNERSVILLE","zip":"27284","ethnicity":"N","role":"OFFENDER","geo_score":0.983,"gender":"MALE","unique number":1958614,"id":"acdkccmr3xxr","address":"1437 ABBOTTS CREEK CR","geo_precision":"range","race":"B","state":"NC"},"type":"Feature","geometry":{"type":"Point","coordinates":[-80.068334,36.083164]}},{"properties":{"city":"WINSTON-SALEM","zip":"27101","ethnicity":"N","role":"OFFENDER","geo_score":0.585,"gender":"MALE","unique number":1959242,"id":"acdkccr0libe","address":"905 HIGHLAND AV","geo_precision":"zip","race":"B","state":"NC"},"type":"Feature","geometry":{"type":"Point","coordinates":[-80.28762,36.101817]}},{"properties":{"city":"WINSTON-SALEM","zip":"27101","ethnicity":"N","role":"OFFENDER","geo_score":0.786,"gender":"MALE","unique number":1959242,"id":"acdkccwthwgb","address":"930 N PATTERSON AV","geo_precision":"street","race":"B","state":"NC"},"type":"Feature","geometry":{"type":"Point","coordinates":[-80.240443,36.09599]}},{"properties":{"city":"WINSTON-SALEM","zip":"27107","ethnicity":"N","role":"OFFENDER","geo_score":1.0,"gender":"MALE","unique number":1961117,"id":"acdkcclbdcoc","address":"1019 LOUISE RD","geo_precision":"range","race":"B","state":"NC"},"type":"Feature","geometry":{"type":"Point","coordinates":[-80.213954,36.054773]}},{"properties":{"city":"WINSTON-SALEM","zip":"27105","ethnicity":"N","role":"OFFENDER","geo_score":0.585,"gender":"MALE","unique number":1961622,"id":"acdkccq56tk7","address":"323 E TWENTY-FOURTH ST","geo_precision":"zip","race":"B","state":"NC"},"type":"Feature","geometry":{"type":"Point","coordinates":[-80.138934,36.088748]}},{"properties":{"city":"WINSTON-SALEM","zip":"27107","ethnicity":"N","role":"OFFENDER","geo_score":0.585,"gender":"MALE","unique number":1967822,"id":"acdkcct5ou7q","address":"3543 GLENLYON DR","geo_precision":"zip","race":"B","state":"NC"},"type":"Feature","geometry":{"type":"Point","coordinates":[-80.203937,36.069582]}},{"properties":{"city":"WINSTON-SALEM","zip":"27101","ethnicity":"N","role":"OFFENDER","geo_score":0.786,"gender":"MALE","unique number":1971945,"id":"acdkccwxmfc7","address":"930 N PATTERSON AV","geo_precision":"street","race":"B","state":"NC"},"type":"Feature","geometry":{"type":"Point","coordinates":[-80.240443,36.09599]}},{"properties":{"city":"WINSTON-SALEM","zip":"27107","ethnicity":"N","role":"OFFENDER","geo_score":0.68,"gender":"MALE","unique number":1971945,"id":"acdkccpx1r0l","address":"3196 MISTY RIDGE DR","geo_precision":"street","race":"B","state":"NC"},"type":"Feature","geometry":{"type":"Point","coordinates":[-80.205739,36.039145]}},{"properties":{"city":"KING","zip":"27021","ethnicity":"N","role":"OFFENDER","geo_score":0.955,"gender":"MALE","unique number":1972782,"id":"acdkccmm38bm","address":"29 LONG CREEK WY","geo_precision":"range","race":"W","state":"NC"},"type":"Feature","geometry":{"type":"Point","coordinates":[-80.385998,36.277337]}},{"properties":{"city":"KERNERSVILLE","zip":"27284","ethnicity":"N","role":"OFFENDER","geo_score":1.0,"gender":"MALE","unique number":1973522,"id":"acdkccmrhv23","address":"428 WEST BODENHAMER ST","geo_precision":"range","race":"B","state":"NC"},"type":"Feature","geometry":{"type":"Point","coordinates":[-80.079803,36.129778]}},{"properties":{"city":"KING","zip":"27021","ethnicity":"N","role":"OFFENDER","geo_score":0.955,"gender":"MALE","unique number":1973631,"id":"acdkccmuv1iw","address":"29 LONG CREEK WY","geo_precision":"range","race":"W","state":"NC"},"type":"Feature","geometry":{"type":"Point","coordinates":[-80.385998,36.277337]}},{"properties":{"city":"WINSTON-SALEM","zip":"27101","ethnicity":"N","role":"OFFENDER","geo_score":0.786,"gender":"MALE","unique number":1976385,"id":"acdkccrzmm5n","address":"930 N PATTERSON AV","geo_precision":"street","race":"B","state":"NC"},"type":"Feature","geometry":{"type":"Point","coordinates":[-80.240443,36.09599]}},{"properties":{"city":"WINSTON-SALEM","zip":"27105","ethnicity":"N","role":"OFFENDER","geo_score":1.0,"gender":"MALE","unique number":1976785,"id":"acdkcctk8yfr","address":"300 RETNUH DR","geo_precision":"range","race":"B","state":"NC"},"type":"Feature","geometry":{"type":"Point","coordinates":[-80.254117,36.155832]}},{"properties":{"city":"WINSTON-SALEM","zip":"27105","ethnicity":"N","role":"OFFENDER","geo_score":0.961,"gender":"MALE","unique number":1978144,"id":"acdkccrhcq80","address":"6034 UNIVERSITY PW","geo_precision":"range","race":"B","state":"NC"},"type":"Feature","geometry":{"type":"Point","coordinates":[-80.27779,36.190937]}},{"properties":{"city":"WINSTON-SALEM","zip":"27104","ethnicity":"N","role":"OFFENDER","geo_score":0.522,"gender":"FEMALE","unique number":1978957,"id":"acdkccsgmuf9","address":"2213 MUELLER DR","geo_precision":"street","race":"B","state":"NC"},"type":"Feature","geometry":{"type":"Point","coordinates":[-80.31689,36.17389]}},{"properties":{"city":"WINSTON-SALEM","zip":"27106","ethnicity":"N","role":"OFFENDER","geo_score":0.927,"gender":"MALE","unique number":1979140,"id":"acdkccwopiio","address":"4665 PRATT STREET","geo_precision":"range","race":"B","state":"NC"},"type":"Feature","geometry":{"type":"Point","coordinates":[-80.325511,36.161404]}},{"properties":{"city":"WINSTON-SALEM","zip":"27107","ethnicity":"N","role":"OFFENDER","geo_score":1.0,"gender":"MALE","unique number":1980912,"id":"acdkcczcvcks","address":"1821 BUTLER ST","geo_precision":"range","race":"B","state":"NC"},"type":"Feature","geometry":{"type":"Point","coordinates":[-80.196221,36.074995]}},{"properties":{"city":"WINSTON-SALEM","zip":"27105","ethnicity":"N","role":"OFFENDER","geo_score":0.977,"gender":"MALE","unique number":1983826,"id":"acdkccn3ctwv","address":"922 PITTSBURG AV","geo_precision":"range","race":"B","state":"NC"},"type":"Feature","geometry":{"type":"Point","coordinates":[-80.254711,36.114604]}},{"properties":{"city":"WINSTON-SALEM","zip":"27107","ethnicity":"N","role":"OFFENDER","geo_score":0.69,"gender":"MALE","unique number":1983826,"id":"acdkccoqi7fy","address":"407 BEDFORD PARK DR","geo_precision":"street","race":"B","state":"NC"},"type":"Feature","geometry":{"type":"Point","coordinates":[-80.147346,36.042716]}},{"properties":{"city":"WINSTON-SALEM","zip":"27105","ethnicity":"N","role":"OFFENDER","geo_score":0.806,"gender":"MALE","unique number":1982973,"id":"acdkccqn3656","address":"5795 DOGWOOD DR","geo_precision":"street","race":"B","state":"NC"},"type":"Feature","geometry":{"type":"Point","coordinates":[-80.269886,36.173714]}},{"properties":{"city":"WINSTON-SALEM","zip":"27105","ethnicity":"N","role":"OFFENDER","geo_score":0.976,"gender":"MALE","unique number":1983351,"id":"acdkccs0oqw9","address":"2821 PIEDMONT CR","geo_precision":"range","race":"B","state":"NC"},"type":"Feature","geometry":{"type":"Point","coordinates":[-80.230353,36.123946]}},{"properties":{"city":"WINSTON-SALEM","zip":"27107","ethnicity":"N","role":"OFFENDER","geo_score":1.0,"gender":"MALE","unique number":1986039,"id":"acdkccqmpcwn","address":"1209 BRETTON ST","geo_precision":"range","race":"B","state":"NC"},"type":"Feature","geometry":{"type":"Point","coordinates":[-80.212242,36.070011]}},{"properties":{"city":"WINSTON-SALEM","zip":"27105","ethnicity":"N","role":"OFFENDER","geo_score":0.973,"gender":"MALE","unique number":1986261,"id":"acdkcct29yl5","address":"2337 OKALINA AV","geo_precision":"range","race":"B","state":"NC"},"type":"Feature","geometry":{"type":"Point","coordinates":[-80.242877,36.11928]}},{"properties":{"city":"WINSTON-SALEM","zip":"27107","ethnicity":"N","role":"OFFENDER","geo_score":1.0,"gender":"MALE","unique number":1986466,"id":"acdkccpgx6hx","address":"1015 SWAIM WOODS LN","geo_precision":"range","race":"B","state":"NC"},"type":"Feature","geometry":{"type":"Point","coordinates":[-80.215167,36.057556]}},{"properties":{"city":"WINSTON-SALEM","zip":"27107","ethnicity":"N","role":"OFFENDER","geo_score":1.0,"gender":"MALE","unique number":1988401,"id":"acdkccyaogfa","address":"2104 BERTHA ST","geo_precision":"range","race":"B","state":"NC"},"type":"Feature","geometry":{"type":"Point","coordinates":[-80.218331,36.069251]}},{"properties":{"city":"WINSTON-SALEM","zip":"27107","ethnicity":"N","role":"OFFENDER","geo_score":0.976,"gender":"MALE","unique number":1988905,"id":"acdkccy4fwxn","address":"2219 SUNSHINE AV","geo_precision":"range","race":"B","state":"NC"},"type":"Feature","geometry":{"type":"Point","coordinates":[-80.208111,36.067]}},{"properties":{"city":"WINSTON-SALEM","zip":"27105","ethnicity":"N","role":"OFFENDER","geo_score":0.463,"gender":"MALE","unique number":1988905,"id":"acdkccz5dudd","address":"5071 JOSHUA WAY","geo_precision":"street","race":"B","state":"NC"},"type":"Feature","geometry":{"type":"Point","coordinates":[-80.354488,36.040419]}},{"properties":{"city":"WINSTON SALEM","zip":"27107","ethnicity":"N","role":"OFFENDER","geo_score":0.992,"gender":"MALE","unique number":1988943,"id":"acdkccv9m1x7","address":"1288 NORMAN SHOAF RD","geo_precision":"range","race":"W","state":"NC"},"type":"Feature","geometry":{"type":"Point","coordinates":[-80.19815,35.968971]}},{"properties":{"city":"WINSTON-SALEM","zip":"27127","ethnicity":"N","role":"OFFENDER","geo_score":1.0,"gender":"MALE","unique number":1988943,"id":"acdkccp8iojj","address":"517 W DEVONSHIRE ST","geo_precision":"range","race":"W","state":"NC"},"type":"Feature","geometry":{"type":"Point","coordinates":[-80.248276,36.068585]}},{"properties":{"city":"LEXINGTON","zip":"27259","ethnicity":"N","role":"OFFENDER","geo_score":0.805,"gender":"MALE","unique number":1988943,"id":"acdkccxpdnd6","address":"332 ASPEN LN","geo_precision":"range","race":"W","state":"NC"},"type":"Feature","geometry":{"type":"Point","coordinates":[-80.207473,35.936449]}},{"properties":{"city":"WINSTON-SALEM","zip":"27101","ethnicity":"N","role":"OFFENDER","geo_score":0.585,"gender":"MALE","unique number":1989321,"id":"acdkccr1fyj2","address":"516 N JACKSON AV","geo_precision":"zip","race":"B","state":"NC"},"type":"Feature","geometry":{"type":"Point","coordinates":[-80.28762,36.101817]}},{"properties":{"city":"WINSTON-SALEM","zip":"27101","ethnicity":"N","role":"OFFENDER","geo_score":0.927,"gender":"MALE","unique number":1989321,"id":"acdkccnoraor","address":"1712 E FIRST ST","geo_precision":"range","race":"B","state":"NC"},"type":"Feature","geometry":{"type":"Point","coordinates":[-80.223742,36.095824]}},{"properties":{"city":"WINSTON-SALEM","zip":"27105","ethnicity":"H","role":"OFFENDER","geo_score":0.754,"gender":"MALE","unique number":1989803,"id":"acdkccnn62sb","address":"3705 NEW WALKERTOWN RD","geo_precision":"street","race":"W","state":"NC"},"type":"Feature","geometry":{"type":"Point","coordinates":[-80.223676,36.149124]}},{"properties":{"city":"WINSTON-SALEM","zip":"27127","ethnicity":"N","role":"OFFENDER","geo_score":1.0,"gender":"MALE","unique number":1991357,"id":"acdkccruhway","address":"340 E DEVONSHIRE ST","geo_precision":"range","race":"W","state":"NC"},"type":"Feature","geometry":{"type":"Point","coordinates":[-80.232797,36.068489]}},{"properties":{"city":"WINSTON-SALEM","zip":"27105","ethnicity":"N","role":"OFFENDER","geo_score":1.0,"gender":"MALE","unique number":1991376,"id":"acdkcclwaovl","address":"242 POLO RD","geo_precision":"range","race":"B","state":"NC"},"type":"Feature","geometry":{"type":"Point","coordinates":[-80.259298,36.142934]}},{"properties":{"city":"WINSTON-SALEM","zip":"27107","ethnicity":"N","role":"OFFENDER","geo_score":1.0,"gender":"MALE","unique number":1992155,"id":"acdkcckmhb82","address":"431 BARNES RD","geo_precision":"range","race":"B","state":"NC"},"type":"Feature","geometry":{"type":"Point","coordinates":[-80.224195,36.020993]}},{"properties":{"city":"WINSTON-SALEM","zip":"27105","ethnicity":"N","role":"OFFENDER","geo_score":0.973,"gender":"MALE","unique number":1992521,"id":"acdkccnakxml","address":"2337 OKALINA AV","geo_precision":"range","race":"B","state":"NC"},"type":"Feature","geometry":{"type":"Point","coordinates":[-80.242877,36.11928]}},{"properties":{"city":"WINSTON-SALEM","zip":"27105","ethnicity":"N","role":"OFFENDER","geo_score":0.557,"gender":"MALE","unique number":1993032,"id":"acdkccv3pcsn","address":"4448 LANAGAN PLACE DR","geo_precision":"street","race":"B","state":"NC"},"type":"Feature","geometry":{"type":"Point","coordinates":[-80.260859,36.142284]}},{"properties":{"city":"WINSTON-SALEM","zip":"27105","ethnicity":"N","role":"OFFENDER","geo_score":1.0,"gender":"MALE","unique number":1993032,"id":"acdkccsivjhk","address":"444 SHERBROOKE DR","geo_precision":"range","race":"B","state":"NC"},"type":"Feature","geometry":{"type":"Point","coordinates":[-80.237857,36.135958]}},{"properties":{"city":"WINSTON-SALEM","zip":"27127","ethnicity":"N","role":"OFFENDER","geo_score":1.0,"gender":"FEMALE","unique number":1993910,"id":"acdkccr3vzn1","address":"2415 RILEY FOREST DR","geo_precision":"range","race":"W","state":"NC"},"type":"Feature","geometry":{"type":"Point","coordinates":[-80.276345,36.040843]}},{"properties":{"city":"WINSTON-SALEM","zip":"27105","ethnicity":"N","role":"OFFENDER","geo_score":0.973,"gender":"MALE","unique number":1995075,"id":"acdkcct7zdna","address":"2337 OKALINA AV","geo_precision":"range","race":"B","state":"NC"},"type":"Feature","geometry":{"type":"Point","coordinates":[-80.242877,36.11928]}},{"properties":{"city":"WINSTON-SALEM","zip":"27105","ethnicity":"N","role":"OFFENDER","geo_score":0.902,"gender":"MALE","unique number":1995075,"id":"acdkccjlt8g5","address":"1412 PITTSBURG CT","geo_precision":"street","race":"B","state":"NC"},"type":"Feature","geometry":{"type":"Point","coordinates":[-80.251881,36.114456]}},{"properties":{"city":"WINSTON-SALEM","zip":"27105","ethnicity":"N","role":"OFFENDER","geo_score":1.0,"gender":"MALE","unique number":1995075,"id":"acdkccpfpjug","address":"1505 PITTSBURG CT","geo_precision":"range","race":"B","state":"NC"},"type":"Feature","geometry":{"type":"Point","coordinates":[-80.251806,36.11453]}},{"properties":{"city":"WINSTON-SALEM","zip":"27103","ethnicity":"N","role":"OFFENDER","geo_score":0.398,"gender":"MALE","unique number":1995075,"id":"acdkccndie7z","address":"558 MISSION RD","geo_precision":"street","race":"B","state":"NC"},"type":"Feature","geometry":{"type":"Point","coordinates":[-80.198967,36.10144]}},{"properties":{"city":"WINSTON-SALEM","zip":"27105","ethnicity":"N","role":"OFFENDER","geo_score":0.742,"gender":"MALE","unique number":1996441,"id":"acdkccrq85l8","address":"185 WILLOW OAK DR","geo_precision":"street","race":"B","state":"NC"},"type":"Feature","geometry":{"type":"Point","coordinates":[-80.247982,36.119682]}},{"properties":{"city":"WINSTON-SALEM","zip":"27105","ethnicity":"N","role":"OFFENDER","geo_score":0.937,"gender":"MALE","unique number":1997198,"id":"acdkccx0jj84","address":"3054 N PATTERSON AV","geo_precision":"range","race":"B","state":"NC"},"type":"Feature","geometry":{"type":"Point","coordinates":[-80.24207,36.129487]}},{"properties":{"city":"WINSTON-SALEM","zip":"27105","ethnicity":"N","role":"OFFENDER","geo_score":1.0,"gender":"MALE","unique number":1997755,"id":"acdkccy9rn5a","address":"942 TAFT ST","geo_precision":"range","race":"B","state":"NC"},"type":"Feature","geometry":{"type":"Point","coordinates":[-80.26069,36.115538]}},{"properties":{"city":"WINSTON-SALEM","zip":"27106","ethnicity":"N","role":"OFFENDER","geo_score":1.0,"gender":"MALE","unique number":1997823,"id":"acdkccw9k81m","address":"5000 SHATTALON DR","geo_precision":"range","race":"B","state":"NC"},"type":"Feature","geometry":{"type":"Point","coordinates":[-80.32269,36.170531]}},{"properties":{"city":"WINSTON-SALEM","zip":"27127","ethnicity":"N","role":"OFFENDER","geo_score":0.976,"gender":"MALE","unique number":1998542,"id":"acdkccswv8fv","address":"317 E SPRAGUE ST","geo_precision":"range","race":"W","state":"NC"},"type":"Feature","geometry":{"type":"Point","coordinates":[-80.245435,36.069724]}},{"properties":{"city":"WINSTON-SALEM","zip":"27107","ethnicity":"N","role":"OFFENDER","geo_score":1.0,"gender":"MALE","unique number":1998541,"id":"acdkccs0xbdg","address":"1211 REYNOLDS FOREST DR","geo_precision":"range","race":"B","state":"NC"},"type":"Feature","geometry":{"type":"Point","coordinates":[-80.193619,36.084307]}},{"properties":{"city":"WINSTON-SALEM","zip":"27127","ethnicity":"N","role":"OFFENDER","geo_score":1.0,"gender":"FEMALE","unique number":2000823,"id":"acdkccmcpsqn","address":"1255 CLOISTER DR","geo_precision":"range","race":"W","state":"NC"},"type":"Feature","geometry":{"type":"Point","coordinates":[-80.256249,36.06167]}},{"properties":{"city":"WINSTON-SALEM","zip":"27106","ethnicity":"N","role":"OFFENDER","geo_score":0.967,"gender":"FEMALE","unique number":2000823,"id":"acdkcczlso9t","address":"4002 AVERA AV","geo_precision":"range","race":"W","state":"NC"},"type":"Feature","geometry":{"type":"Point","coordinates":[-80.343091,36.161673]}},{"properties":{"city":"WINSTON-SALEM","zip":"27127","ethnicity":"N","role":"OFFENDER","geo_score":1.0,"gender":"MALE","unique number":2001256,"id":"acdkccq3p131","address":"3220 EDELWEISS DR","geo_precision":"range","race":"B","state":"NC"},"type":"Feature","geometry":{"type":"Point","coordinates":[-80.257783,36.053136]}},{"properties":{"city":"WINSTON-SALEM","zip":"27105","ethnicity":"N","role":"OFFENDER","geo_score":1.0,"gender":"MALE","unique number":2007138,"id":"acdkccsgdoay","address":"2708 ANSONIA ST","geo_precision":"range","race":"B","state":"NC"},"type":"Feature","geometry":{"type":"Point","coordinates":[-80.219815,36.126366]}},{"properties":{"city":"WINSTON-SALEM","zip":"27106","ethnicity":"N","role":"OFFENDER","geo_score":0.84,"gender":"MALE","unique number":2007431,"id":"acdkccq9lvz0","address":"910 DELMONTE DR","geo_precision":"street","race":"B","state":"NC"},"type":"Feature","geometry":{"type":"Point","coordinates":[-80.268689,36.142527]}},{"properties":{"city":"JAMESTOWN","zip":"27282","ethnicity":"N","role":"OFFENDER","geo_score":0.927,"gender":"MALE","unique number":2010723,"id":"acdkccz5hkq6","address":"1122 EDENBERGE DR","geo_precision":"range","race":"B","state":"NC"},"type":"Feature","geometry":{"type":"Point","coordinates":[-79.938965,35.96958]}},{"properties":{"city":"WINSTON-SALEM","zip":"27104","ethnicity":"N","role":"OFFENDER","geo_score":0.916,"gender":"MALE","unique number":2012280,"id":"acdkccn4yfd4","address":"1949 HINSHAW AV","geo_precision":"range","race":"W","state":"NC"},"type":"Feature","geometry":{"type":"Point","coordinates":[-80.270992,36.094396]}},{"properties":{"city":"WINSTON-SALEM","zip":"27103","ethnicity":"N","role":"OFFENDER","geo_score":1.0,"gender":"MALE","unique number":2013371,"id":"acdkccy7grlg","address":"2875 AZTEC CT","geo_precision":"range","race":"B","state":"NC"},"type":"Feature","geometry":{"type":"Point","coordinates":[-80.329875,36.06191]}},{"properties":{"city":"WINSTON-SALEM","zip":"27127","ethnicity":"H","role":"OFFENDER","geo_score":1.0,"gender":"FEMALE","unique number":2016543,"id":"acdkccv4o6h3","address":"1700 LOMOND ST","geo_precision":"range","race":"W","state":"NC"},"type":"Feature","geometry":{"type":"Point","coordinates":[-80.232914,36.073825]}},{"properties":{"city":"WINSTON-SALEM","zip":"27106","ethnicity":"N","role":"OFFENDER","geo_score":1.0,"gender":"MALE","unique number":2016713,"id":"acdkccog9eih","address":"5165 AMBERCREST DR","geo_precision":"range","race":"B","state":"NC"},"type":"Feature","geometry":{"type":"Point","coordinates":[-80.279639,36.162673]}},{"properties":{"city":"WALKERTOWN","zip":"27051","ethnicity":"N","role":"OFFENDER","geo_score":1.0,"gender":"MALE","unique number":2016778,"id":"acdkccofl1pz","address":"3440 MAPLEBROOK ST","geo_precision":"range","race":"W","state":"NC"},"type":"Feature","geometry":{"type":"Point","coordinates":[-80.165555,36.157889]}},{"properties":{"city":"WINSTON-SALEM","zip":"27104","ethnicity":"N","role":"OFFENDER","geo_score":0.983,"gender":"MALE","unique number":2018162,"id":"acdkcczpwwu6","address":"260 VILLAGE CREEK CR","geo_precision":"range","race":"B","state":"NC"},"type":"Feature","geometry":{"type":"Point","coordinates":[-80.326751,36.074366]}},{"properties":{"city":"GREENSBORO","zip":"27407","ethnicity":"N","role":"OFFENDER","geo_score":0.629,"gender":"MALE","unique number":2018162,"id":"acdkccp9b63w","address":"709 GARRETT ST","geo_precision":"street","race":"B","state":"NC"},"type":"Feature","geometry":{"type":"Point","coordinates":[-79.836452,36.052884]}},{"properties":{"city":"GREENSBORO","zip":"27406","ethnicity":"N","role":"OFFENDER","geo_score":1.0,"gender":"MALE","unique number":2018162,"id":"acdkccjjdhvl","address":"710 W TERRELL ST","geo_precision":"range","race":"B","state":"NC"},"type":"Feature","geometry":{"type":"Point","coordinates":[-79.807589,36.049472]}},{"properties":{"city":"WALKERTOWN","zip":"27051","ethnicity":"N","role":"OFFENDER","geo_score":1.0,"gender":"MALE","unique number":2018450,"id":"acdkccrj3s79","address":"3440 MAPLEBROOK ST","geo_precision":"range","race":"W","state":"NC"},"type":"Feature","geometry":{"type":"Point","coordinates":[-80.165555,36.157889]}},{"properties":{"city":"WINSTON-SALEM","zip":"27105","ethnicity":"N","role":"OFFENDER","geo_score":0.967,"gender":"MALE","unique number":2019343,"id":"acdkccjta8lw","address":"4309 GROVE AV","geo_precision":"range","race":"B","state":"NC"},"type":"Feature","geometry":{"type":"Point","coordinates":[-80.23074,36.148129]}},{"properties":{"city":"WINSTON SALEM","zip":"27105","ethnicity":"N","role":"OFFENDER","geo_score":0.585,"gender":"MALE","unique number":2019924,"id":"acdkccvpk3kw","address":"2707 PATRICK AV","geo_precision":"zip","race":"B","state":"NC"},"type":"Feature","geometry":{"type":"Point","coordinates":[-80.138934,36.088748]}},{"properties":{"city":"WINSTON-SALEM","zip":"27107","ethnicity":"N","role":"OFFENDER","geo_score":0.941,"gender":"MALE","unique number":2021140,"id":"acdkccoin7by","address":"3301 HEITMAN DR","geo_precision":"range","race":"B","state":"NC"},"type":"Feature","geometry":{"type":"Point","coordinates":[-80.216681,36.052728]}},{"properties":{"city":"WINSTON-SALEM","zip":"27107","ethnicity":"H","role":"OFFENDER","geo_score":0.902,"gender":"MALE","unique number":2021828,"id":"acdkccmwjgh5","address":"338 BARNES RD","geo_precision":"street","race":"W","state":"NC"},"type":"Feature","geometry":{"type":"Point","coordinates":[-80.224195,36.020993]}},{"properties":{"city":"WINSTON-SALEM","zip":"27107","ethnicity":"H","role":"OFFENDER","geo_score":0.937,"gender":"MALE","unique number":2022983,"id":"acdkccs6np79","address":"2405 MARKWOOD LN","geo_precision":"range","race":"W","state":"NC"},"type":"Feature","geometry":{"type":"Point","coordinates":[-80.194974,36.059481]}},{"properties":{"city":"WALKERTOWN","zip":"27051","ethnicity":"N","role":"OFFENDER","geo_score":1.0,"gender":"MALE","unique number":2024124,"id":"acdkccvontjb","address":"6113 CAIN FOREST DR","geo_precision":"range","race":"W","state":"NC"},"type":"Feature","geometry":{"type":"Point","coordinates":[-80.150932,36.206141]}},{"properties":{"city":"WALKERTOWN","zip":"27051","ethnicity":"N","role":"OFFENDER","geo_score":1.0,"gender":"MALE","unique number":2024124,"id":"acdkccm40wdq","address":"5004 SITKA RD","geo_precision":"range","race":"W","state":"NC"},"type":"Feature","geometry":{"type":"Point","coordinates":[-80.19969,36.174815]}},{"properties":{"city":"WINSTON-SALEM","zip":"27106","ethnicity":"N","role":"OFFENDER","geo_score":1.0,"gender":"MALE","unique number":2026765,"id":"acdkccwnqkpb","address":"2372 BETHABARA RD","geo_precision":"range","race":"B","state":"NC"},"type":"Feature","geometry":{"type":"Point","coordinates":[-80.309306,36.162881]}},{"properties":{"city":"WINSTON-SALEM","zip":"27105","ethnicity":"N","role":"OFFENDER","geo_score":0.971,"gender":"MALE","unique number":2026987,"id":"acdkccme2nvy","address":"3053 GILMER AV","geo_precision":"range","race":"B","state":"NC"},"type":"Feature","geometry":{"type":"Point","coordinates":[-80.24436,36.129546]}},{"properties":{"city":"WINSTON-SALEM","zip":"27105","ethnicity":"N","role":"OFFENDER","geo_score":0.935,"gender":"MALE","unique number":2027051,"id":"acdkcclbcrab","address":"1713 SHADY MOUNT AV","geo_precision":"range","race":"B","state":"NC"},"type":"Feature","geometry":{"type":"Point","coordinates":[-80.220984,36.116026]}},{"properties":{"city":"WINSTON-SALEM","zip":"27101","ethnicity":"N","role":"OFFENDER","geo_score":0.935,"gender":"MALE","unique number":2027377,"id":"acdkccya7zsf","address":"1209 E ELEVENTH ST","geo_precision":"range","race":"B","state":"NC"},"type":"Feature","geometry":{"type":"Point","coordinates":[-80.229753,36.108075]}},{"properties":{"city":"WINSTON-SALEM","zip":"27107","ethnicity":"N","role":"OFFENDER","geo_score":0.976,"gender":"MALE","unique number":2027510,"id":"acdkccvjanso","address":"2219 SUNSHINE AV","geo_precision":"range","race":"B","state":"NC"},"type":"Feature","geometry":{"type":"Point","coordinates":[-80.208111,36.067]}},{"properties":{"city":"LEWISVILLE","zip":"27023","ethnicity":"N","role":"OFFENDER","geo_score":1.0,"gender":"MALE","unique number":2028955,"id":"acdkccw5u2pv","address":"1045 LEWISVILLE CLEMMONS RD","geo_precision":"range","race":"B","state":"NC"},"type":"Feature","geometry":{"type":"Point","coordinates":[-80.395552,36.08394]}},{"properties":{"city":"WINSTON-SALEM","zip":"27016","ethnicity":"N","role":"OFFENDER","geo_score":0.463,"gender":"MALE","unique number":2029943,"id":"acdkccpvtkiu","address":"2710 CHANUTE RD","geo_precision":"street","race":"B","state":"NC"},"type":"Feature","geometry":{"type":"Point","coordinates":[-79.985222,36.341633]}},{"properties":{"city":"WINSTON-SALEM","zip":"27107","ethnicity":"H","role":"OFFENDER","geo_score":0.937,"gender":"MALE","unique number":2032694,"id":"acdkccqb2l6e","address":"2405 MARKWOOD LN","geo_precision":"range","race":"W","state":"NC"},"type":"Feature","geometry":{"type":"Point","coordinates":[-80.194974,36.059481]}},{"properties":{"city":"WINSTON-SALEM","zip":"27107","ethnicity":"H","role":"OFFENDER","geo_score":1.0,"gender":"MALE","unique number":2032694,"id":"acdkccna8h9h","address":"1241 E SPRAGUE ST","geo_precision":"range","race":"B","state":"NC"},"type":"Feature","geometry":{"type":"Point","coordinates":[-80.211385,36.067202]}},{"properties":{"city":"WINSTON-SALEM","zip":"27101","ethnicity":"N","role":"OFFENDER","geo_score":1.0,"gender":"MALE","unique number":2034960,"id":"acdkccy3hwjg","address":"3470 OLD GREENSBORO RD","geo_precision":"range","race":"B","state":"NC"},"type":"Feature","geometry":{"type":"Point","coordinates":[-80.197625,36.106521]}},{"properties":{"city":"WINSTON-SALEM","zip":"27101","ethnicity":"N","role":"OFFENDER","geo_score":0.786,"gender":"MALE","unique number":2036537,"id":"acdkccwf3c0s","address":"930 N PATTERSON AV","geo_precision":"street","race":"B","state":"NC"},"type":"Feature","geometry":{"type":"Point","coordinates":[-80.240443,36.09599]}},{"properties":{"city":"WINSTON-SALEM","zip":"27106","ethnicity":"N","role":"OFFENDER","geo_score":0.92,"gender":"MALE","unique number":2036537,"id":"acdkccrbu67w","address":"2700 SPEAS RD","geo_precision":"range","race":"B","state":"NC"},"type":"Feature","geometry":{"type":"Point","coordinates":[-80.309137,36.157461]}},{"properties":{"city":"WINSTON SALEM","zip":"271054537","ethnicity":"N","role":"OFFENDER","geo_score":0.992,"gender":"FEMALE","unique number":2037303,"id":"acdkccxk8vit","address":"2736 PIEDMONT CIR","geo_precision":"range","race":"B","state":"NC"},"type":"Feature","geometry":{"type":"Point","coordinates":[-80.231268,36.123922]}},{"properties":{"city":"WINSTON-SALEM","zip":"27105","ethnicity":"N","role":"OFFENDER","geo_score":0.937,"gender":"MALE","unique number":2037303,"id":"acdkccz825r8","address":"3017 N PATTERSON AV","geo_precision":"range","race":"B","state":"NC"},"type":"Feature","geometry":{"type":"Point","coordinates":[-80.241927,36.130405]}},{"properties":{"city":"WINSTON-SALEM","zip":"27105","ethnicity":"N","role":"OFFENDER","geo_score":0.971,"gender":"FEMALE","unique number":2037303,"id":"acdkccvj9lti","address":"3068 GILMER AV","geo_precision":"range","race":"B","state":"NC"},"type":"Feature","geometry":{"type":"Point","coordinates":[-80.244496,36.129141]}},{"properties":{"city":"WINSTON-SALEM","zip":"27107","ethnicity":"N","role":"OFFENDER","geo_score":1.0,"gender":"MALE","unique number":2037907,"id":"acdkccjf4qiu","address":"1209 BRETTON ST","geo_precision":"range","race":"B","state":"NC"},"type":"Feature","geometry":{"type":"Point","coordinates":[-80.212242,36.070011]}},{"properties":{"city":"WINSTON-SALEM","zip":"27107","ethnicity":"N","role":"OFFENDER","geo_score":1.0,"gender":"MALE","unique number":2038024,"id":"acdkccuywp0i","address":"3316 KIRBY ST","geo_precision":"range","race":"B","state":"NC"},"type":"Feature","geometry":{"type":"Point","coordinates":[-80.223432,36.053546]}},{"properties":{"city":"WINSTON-SALEM","zip":"27105","ethnicity":"N","role":"OFFENDER","geo_score":0.585,"gender":"MALE","unique number":2038799,"id":"acdkccmdhjm9","address":"1624 TWENTY-SECOND ST","geo_precision":"zip","race":"B","state":"NC"},"type":"Feature","geometry":{"type":"Point","coordinates":[-80.138934,36.088748]}},{"properties":{"city":"WINSTON-SALEM","zip":"27105","ethnicity":"N","role":"OFFENDER","geo_score":0.585,"gender":"MALE","unique number":2039331,"id":"acdkccpkgyaz","address":"9 E THIRTIETH ST","geo_precision":"zip","race":"B","state":"NC"},"type":"Feature","geometry":{"type":"Point","coordinates":[-80.138934,36.088748]}},{"properties":{"city":"WINSTON-SALEM","zip":"27105","ethnicity":"N","role":"OFFENDER","geo_score":0.935,"gender":"MALE","unique number":2044366,"id":"acdkcczk2zhq","address":"431 E SIXTEENTH ST","geo_precision":"range","race":"B","state":"NC"},"type":"Feature","geometry":{"type":"Point","coordinates":[-80.240575,36.114346]}},{"properties":{"city":null,"zip":"27105","ethnicity":"N","role":"OFFENDER","geo_score":0.655,"gender":"MALE","unique number":2044366,"id":"acdkcclrgm85","address":"114 E GLENN AV","geo_precision":"street","race":"B","state":"NC"},"type":"Feature","geometry":{"type":"Point","coordinates":[-80.248334,36.115755]}},{"properties":{"city":"WINSTON-SALEM","zip":"27107","ethnicity":"N","role":"OFFENDER","geo_score":1.0,"gender":"MALE","unique number":2044464,"id":"acdkccovwl4c","address":"1821 BUTLER ST","geo_precision":"range","race":"B","state":"NC"},"type":"Feature","geometry":{"type":"Point","coordinates":[-80.196221,36.074995]}},{"properties":{"city":"WINSTON-SALEM","zip":"27107","ethnicity":"H","role":"OFFENDER","geo_score":0.902,"gender":"MALE","unique number":2049038,"id":"acdkccufoakx","address":"338 BARNES RD","geo_precision":"street","race":"W","state":"NC"},"type":"Feature","geometry":{"type":"Point","coordinates":[-80.224195,36.020993]}},{"properties":{"city":"WINSTON-SALEM","zip":"27107","ethnicity":"H","role":"OFFENDER","geo_score":0.982,"gender":"MALE","unique number":2049148,"id":"acdkccrvww4q","address":"3636 CEDAR SPRINGS DR","geo_precision":"range","race":"W","state":"NC"},"type":"Feature","geometry":{"type":"Point","coordinates":[-80.206318,36.050717]}},{"properties":{"city":"WINSTON-SALEM","zip":"27105","ethnicity":"N","role":"OFFENDER","geo_score":1.0,"gender":"MALE","unique number":2050273,"id":"acdkccu57wjx","address":"1395 CHESTNUT PLAINS CT","geo_precision":"range","race":"B","state":"NC"},"type":"Feature","geometry":{"type":"Point","coordinates":[-80.242703,36.112522]}},{"properties":{"city":"LEXINGTON","zip":"27295","ethnicity":"N","role":"OFFENDER","geo_score":0.948,"gender":"FEMALE","unique number":2050848,"id":"acdkccslnssv","address":"407 KEPLEY CRAVER RD","geo_precision":"range","race":"W","state":"NC"},"type":"Feature","geometry":{"type":"Point","coordinates":[-80.26364,35.915941]}},{"properties":{"city":"CLEMMONS","zip":"270127010","ethnicity":"N","role":"OFFENDER","geo_score":0.967,"gender":"MALE","unique number":2050848,"id":"acdkccn24w2r","address":"526 DAVIS AV","geo_precision":"range","race":"W","state":"NC"},"type":"Feature","geometry":{"type":"Point","coordinates":[-80.365326,35.959123]}},{"properties":{"city":"WINSTON-SALEM","zip":"27127","ethnicity":"N","role":"OFFENDER","geo_score":1.0,"gender":"MALE","unique number":2051523,"id":"acdkccvy9rpu","address":"3056 MARMION ST","geo_precision":"range","race":"B","state":"NC"},"type":"Feature","geometry":{"type":"Point","coordinates":[-80.244749,36.056645]}},{"properties":{"city":"LEXINGTON","zip":"27295","ethnicity":"N","role":"OFFENDER","geo_score":0.948,"gender":"FEMALE","unique number":2051671,"id":"acdkccr2jcvd","address":"407 KEPLEY CRAVER RD","geo_precision":"range","race":"W","state":"NC"},"type":"Feature","geometry":{"type":"Point","coordinates":[-80.26364,35.915941]}},{"properties":{"city":"CLEMMONS","zip":"270127010","ethnicity":"N","role":"OFFENDER","geo_score":0.967,"gender":"MALE","unique number":2051671,"id":"acdkccnk05id","address":"526 DAVIS AV","geo_precision":"range","race":"W","state":"NC"},"type":"Feature","geometry":{"type":"Point","coordinates":[-80.365326,35.959123]}},{"properties":{"city":"LEXINGTON","zip":"27295","ethnicity":"N","role":"OFFENDER","geo_score":1.0,"gender":"MALE","unique number":2051671,"id":"acdkccqviq6e","address":"407 KEPLEY CRAVER AVE","geo_precision":"range","race":"W","state":"NC"},"type":"Feature","geometry":{"type":"Point","coordinates":[-80.26364,35.915941]}},{"properties":{"city":"RALEIGH","zip":"27601","ethnicity":"N","role":"OFFENDER","geo_score":0.805,"gender":"MALE","unique number":2054390,"id":"acdkccv6iagt","address":"2401 EVERS DR","geo_precision":"range","race":"B","state":"NC"},"type":"Feature","geometry":{"type":"Point","coordinates":[-78.616656,35.745292]}},{"properties":{"city":"WINSTON-SALEM","zip":"27101","ethnicity":"N","role":"OFFENDER","geo_score":0.805,"gender":"MALE","unique number":2056626,"id":"acdkccyliplx","address":"120 N SPRING ST","geo_precision":"street","race":"B","state":"NC"},"type":"Feature","geometry":{"type":"Point","coordinates":[-80.253311,36.100322]}},{"properties":{"city":"WINSTON-SALEM","zip":"27104","ethnicity":"N","role":"OFFENDER","geo_score":0.927,"gender":"MALE","unique number":2056629,"id":"acdkccy8j9an","address":"4029 SYLVIA ST","geo_precision":"range","race":"B","state":"NC"},"type":"Feature","geometry":{"type":"Point","coordinates":[-80.318375,36.081605]}},{"properties":{"city":"WINSTON-SALEM","zip":"27104","ethnicity":"N","role":"OFFENDER","geo_score":0.983,"gender":"MALE","unique number":2056629,"id":"acdkccnve75z","address":"280 VILLAGE CREEK CR","geo_precision":"range","race":"B","state":"NC"},"type":"Feature","geometry":{"type":"Point","coordinates":[-80.32663,36.074769]}},{"properties":{"city":"WINSTON-SALEM","zip":"27105","ethnicity":"N","role":"OFFENDER","geo_score":0.752,"gender":"MALE","unique number":2057132,"id":"acdkccrqyjql","address":"2422 N GLENN AV","geo_precision":"street","race":"B","state":"NC"},"type":"Feature","geometry":{"type":"Point","coordinates":[-80.247655,36.115779]}},{"properties":{"city":"WINSTON-SALEM","zip":"27107","ethnicity":"N","role":"OFFENDER","geo_score":1.0,"gender":"MALE","unique number":2058016,"id":"acdkccxgsykw","address":"2215 COLONY ST","geo_precision":"range","race":"B","state":"NC"},"type":"Feature","geometry":{"type":"Point","coordinates":[-80.216674,36.068388]}},{"properties":{"city":"WINSTON-SALEM","zip":"27105","ethnicity":"N","role":"OFFENDER","geo_score":0.752,"gender":"MALE","unique number":2058373,"id":"acdkccurj1o5","address":"2421 N GLENN AV","geo_precision":"street","race":"B","state":"NC"},"type":"Feature","geometry":{"type":"Point","coordinates":[-80.247655,36.115779]}},{"properties":{"city":"WINSTON-SALEM","zip":"27105","ethnicity":"N","role":"OFFENDER","geo_score":0.935,"gender":"MALE","unique number":2058699,"id":"acdkccnzvdht","address":"1906 E SIXTEENTH ST","geo_precision":"range","race":"B","state":"NC"},"type":"Feature","geometry":{"type":"Point","coordinates":[-80.221155,36.114318]}},{"properties":{"city":"WINSTON SALEM","zip":"27105","ethnicity":"N","role":"OFFENDER","geo_score":0.992,"gender":"MALE","unique number":2058679,"id":"acdkccykwr0w","address":"4203 ORCHID PL","geo_precision":"range","race":"B","state":"NC"},"type":"Feature","geometry":{"type":"Point","coordinates":[-80.199693,36.146705]}},{"properties":{"city":"WINSTON-SALEM","zip":"27127","ethnicity":"N","role":"OFFENDER","geo_score":1.0,"gender":"MALE","unique number":2059745,"id":"acdkccy40ldh","address":"1713 LOMOND ST","geo_precision":"range","race":"W","state":"NC"},"type":"Feature","geometry":{"type":"Point","coordinates":[-80.232746,36.073818]}},{"properties":{"city":"WINSTON-SALEM","zip":"27101","ethnicity":"N","role":"OFFENDER","geo_score":0.786,"gender":"MALE","unique number":2059971,"id":"acdkccrjxhtk","address":"930 N PATTERSON AV","geo_precision":"street","race":"B","state":"NC"},"type":"Feature","geometry":{"type":"Point","coordinates":[-80.240443,36.09599]}},{"properties":{"city":"WINSTON-SALEM","zip":"27101","ethnicity":"N","role":"OFFENDER","geo_score":0.786,"gender":"MALE","unique number":2059971,"id":"acdkccspb5c5","address":"930 N PATTERSON AV","geo_precision":"street","race":"B","state":"NC"},"type":"Feature","geometry":{"type":"Point","coordinates":[-80.240443,36.09599]}},{"properties":{"city":"RURAL HALL","zip":"27045","ethnicity":"N","role":"OFFENDER","geo_score":0.902,"gender":"MALE","unique number":2063276,"id":"acdkccvu6ff8","address":"8550 CIRCLE DR","geo_precision":"range","race":"W","state":"NC"},"type":"Feature","geometry":{"type":"Point","coordinates":[-80.311446,36.238636]}},{"properties":{"city":"WINSTON-SALEM","zip":"27107","ethnicity":"N","role":"OFFENDER","geo_score":1.0,"gender":"FEMALE","unique number":2063276,"id":"acdkccwwy9jc","address":"314 ROBBINS LN","geo_precision":"range","race":"W","state":"NC"},"type":"Feature","geometry":{"type":"Point","coordinates":[-80.165812,35.973009]}},{"properties":{"city":"WINSTON-SALEM","zip":"27106","ethnicity":"N","role":"OFFENDER","geo_score":1.0,"gender":"FEMALE","unique number":2064629,"id":"acdkccqjyreb","address":"2059 BETHABARA RD","geo_precision":"range","race":"B","state":"NC"},"type":"Feature","geometry":{"type":"Point","coordinates":[-80.293871,36.152608]}},{"properties":{"city":"WINSTON-SALEM","zip":null,"ethnicity":"H","role":"OFFENDER","geo_score":0.902,"gender":"MALE","unique number":2065050,"id":"acdkcclrk87q","address":"3221 ZUIDER ZEE DR","geo_precision":"range","race":"W","state":"NC"},"type":"Feature","geometry":{"type":"Point","coordinates":[-80.256336,36.053069]}},{"properties":{"city":"WINSTON-SALEM","zip":"27127","ethnicity":"N","role":"OFFENDER","geo_score":1.0,"gender":"FEMALE","unique number":2065653,"id":"acdkccn7gfca","address":"3260 ANDERSON DR","geo_precision":"range","race":"B","state":"NC"},"type":"Feature","geometry":{"type":"Point","coordinates":[-80.240755,36.053015]}},{"properties":{"city":"WINSTON-SALEM","zip":"27106","ethnicity":"N","role":"OFFENDER","geo_score":1.0,"gender":"MALE","unique number":2068827,"id":"acdkccw43az4","address":"4955 DELAND ST","geo_precision":"range","race":"B","state":"NC"},"type":"Feature","geometry":{"type":"Point","coordinates":[-80.274794,36.158212]}},{"properties":{"city":"WINSTON-SALEM","zip":"27106","ethnicity":"N","role":"OFFENDER","geo_score":1.0,"gender":"MALE","unique number":2068827,"id":"acdkcczif8iy","address":"5110 WILLIAMSBURG RD","geo_precision":"range","race":"B","state":"NC"},"type":"Feature","geometry":{"type":"Point","coordinates":[-80.301231,36.165612]}},{"properties":{"city":"WINSTON-SALEM","zip":"27105","ethnicity":"N","role":"OFFENDER","geo_score":1.0,"gender":"MALE","unique number":2068827,"id":"acdkccntoajy","address":"5055 APPALACHIAN RD","geo_precision":"range","race":"B","state":"NC"},"type":"Feature","geometry":{"type":"Point","coordinates":[-80.225464,36.185564]}},{"properties":{"city":"WINSTON-SALEM","zip":"27103","ethnicity":"N","role":"OFFENDER","geo_score":1.0,"gender":"MALE","unique number":2075059,"id":"acdkccocuwiu","address":"2826 WESTRIDGE RD","geo_precision":"range","race":"W","state":"NC"},"type":"Feature","geometry":{"type":"Point","coordinates":[-80.29161,36.07615]}},{"properties":{"city":"WINSTON-SALEM","zip":"27103","ethnicity":"N","role":"OFFENDER","geo_score":1.0,"gender":"MALE","unique number":2075065,"id":"acdkccttn34r","address":"2826 WESTRIDGE RD","geo_precision":"range","race":"W","state":"NC"},"type":"Feature","geometry":{"type":"Point","coordinates":[-80.29161,36.07615]}},{"properties":{"city":"WINSTON-SALEM","zip":"27101","ethnicity":"N","role":"OFFENDER","geo_score":1.0,"gender":"MALE","unique number":2078575,"id":"acdkccqnfku0","address":"730 FERRELL CT","geo_precision":"range","race":"B","state":"NC"},"type":"Feature","geometry":{"type":"Point","coordinates":[-80.21838,36.103246]}},{"properties":{"city":"WINSTON-SALEM","zip":"27105","ethnicity":"N","role":"OFFENDER","geo_score":1.0,"gender":"MALE","unique number":2078782,"id":"acdkccxjkhxo","address":"222 MOTOR RD","geo_precision":"range","race":"B","state":"NC"},"type":"Feature","geometry":{"type":"Point","coordinates":[-80.25345,36.154606]}},{"properties":{"city":"WINSTON-SALEM","zip":"27101","ethnicity":"N","role":"OFFENDER","geo_score":1.0,"gender":"MALE","unique number":2080471,"id":"acdkccl56kcj","address":"730 FERRELL CT","geo_precision":"range","race":"B","state":"NC"},"type":"Feature","geometry":{"type":"Point","coordinates":[-80.21838,36.103246]}},{"properties":{"city":"WINSTON-SALEM","zip":"27105","ethnicity":"N","role":"OFFENDER","geo_score":0.935,"gender":"MALE","unique number":2081184,"id":"acdkccm2tbwy","address":"1713 SHADY MOUNT AV","geo_precision":"range","race":"B","state":"NC"},"type":"Feature","geometry":{"type":"Point","coordinates":[-80.220984,36.116026]}},{"properties":{"city":"WINSTON-SALEM","zip":"27107","ethnicity":"N","role":"OFFENDER","geo_score":1.0,"gender":"MALE","unique number":2081184,"id":"acdkccwkd7hb","address":"1 SALEM GARDENS DR","geo_precision":"range","race":"B","state":"NC"},"type":"Feature","geometry":{"type":"Point","coordinates":[-80.18414,36.081209]}},{"properties":{"city":"WINSTON-SALEM","zip":"27127","ethnicity":"N","role":"OFFENDER","geo_score":1.0,"gender":"MALE","unique number":2081184,"id":"acdkccy8pfex","address":"1850 FRANCISCAN DR","geo_precision":"range","race":"B","state":"NC"},"type":"Feature","geometry":{"type":"Point","coordinates":[-80.26092,36.049786]}},{"properties":{"city":"WINSTON-SALEM","zip":"27106","ethnicity":"N","role":"OFFENDER","geo_score":0.732,"gender":"MALE","unique number":2082169,"id":"acdkccnkquv6","address":"3900 BARKWOOD DR","geo_precision":"street","race":"B","state":"NC"},"type":"Feature","geometry":{"type":"Point","coordinates":[-80.269325,36.137398]}},{"properties":{"city":"WINSTON-SALEM","zip":"27107","ethnicity":"N","role":"OFFENDER","geo_score":1.0,"gender":"MALE","unique number":2082682,"id":"acdkccvsugjp","address":"2106 E SPRAGUE ST","geo_precision":"range","race":"W","state":"NC"},"type":"Feature","geometry":{"type":"Point","coordinates":[-80.195277,36.071747]}},{"properties":{"city":"WINSTON-SALEM","zip":"27107","ethnicity":"N","role":"OFFENDER","geo_score":1.0,"gender":"FEMALE","unique number":2082682,"id":"acdkccw7e5ip","address":"2106 E SPRAGUE ST","geo_precision":"range","race":"W","state":"NC"},"type":"Feature","geometry":{"type":"Point","coordinates":[-80.195277,36.071747]}},{"properties":{"city":"WINSTON-SALEM","zip":"27105","ethnicity":"N","role":"OFFENDER","geo_score":1.0,"gender":"MALE","unique number":2083770,"id":"acdkcczpsnak","address":"2411 DRUID HILLS DR","geo_precision":"range","race":"B","state":"NC"},"type":"Feature","geometry":{"type":"Point","coordinates":[-80.245841,36.120481]}},{"properties":{"city":"WINSTON-SALEM","zip":"27105","ethnicity":"N","role":"OFFENDER","geo_score":0.935,"gender":"MALE","unique number":2084951,"id":"acdkccr5z26q","address":"1088 E SEVENTEENTH ST","geo_precision":"range","race":"B","state":"NC"},"type":"Feature","geometry":{"type":"Point","coordinates":[-80.231505,36.115101]}},{"properties":{"city":"WINSTON-SALEM","zip":"27105","ethnicity":"N","role":"OFFENDER","geo_score":0.935,"gender":"MALE","unique number":2084951,"id":"acdkcctq3i3v","address":"1088 E SEVENTEENTH ST","geo_precision":"range","race":"B","state":"NC"},"type":"Feature","geometry":{"type":"Point","coordinates":[-80.231505,36.115101]}},{"properties":{"city":"WINSTON-SALEM","zip":"27105","ethnicity":"N","role":"OFFENDER","geo_score":1.0,"gender":"MALE","unique number":2085924,"id":"acdkccvu73az","address":"4065 BURNHAM CT","geo_precision":"range","race":"B","state":"NC"},"type":"Feature","geometry":{"type":"Point","coordinates":[-80.245777,36.146308]}},{"properties":{"city":"WINSTON-SALEM","zip":"271053515","ethnicity":"N","role":"OFFENDER","geo_score":0.98,"gender":"MALE","unique number":2085924,"id":"acdkccril0vz","address":"219 FOREST HILL AV","geo_precision":"range","race":"B","state":"NC"},"type":"Feature","geometry":{"type":"Point","coordinates":[-80.248392,36.144011]}},{"properties":{"city":"WINSTON-SALEM","zip":"27127","ethnicity":"N","role":"OFFENDER","geo_score":1.0,"gender":"MALE","unique number":2088416,"id":"acdkccuv8531","address":"2918 EDWARDS ST","geo_precision":"range","race":"B","state":"NC"},"type":"Feature","geometry":{"type":"Point","coordinates":[-80.240071,36.058364]}},{"properties":{"city":"WINSTON-SALEM","zip":"27105","ethnicity":"N","role":"OFFENDER","geo_score":1.0,"gender":"MALE","unique number":2089552,"id":"acdkccvovo5w","address":"116 BLAZE ST","geo_precision":"range","race":"B","state":"NC"},"type":"Feature","geometry":{"type":"Point","coordinates":[-80.274773,36.161344]}},{"properties":{"city":"LOS ANGELES","zip":"90003","ethnicity":"N","role":"OFFENDER","geo_score":0.74,"gender":"MALE","unique number":2091846,"id":"acdkccr5smnm","address":"861 W 88TH STREET","geo_precision":"street","race":"B","state":"CA"},"type":"Feature","geometry":{"type":"Point","coordinates":[-118.281476,33.957364]}},{"properties":{"city":"LOS ANGELES","zip":"90003","ethnicity":"N","role":"OFFENDER","geo_score":0.742,"gender":"MALE","unique number":2091846,"id":"acdkccriad4f","address":"1007 SOUTH SAN PEDRO","geo_precision":"street","race":"B","state":"CA"},"type":"Feature","geometry":{"type":"Point","coordinates":[-118.269554,33.988569]}},{"properties":{"city":"LOS ANGELES","zip":null,"ethnicity":"N","role":"OFFENDER","geo_score":0.488,"gender":"MALE","unique number":2091846,"id":"acdkccl8dtjg","address":"230 W TWENTY-THIRD ST","geo_precision":"city","race":"B","state":"CA"},"type":"Feature","geometry":{"type":"Point","coordinates":[-120.618608,38.052816]}},{"properties":{"city":"LOS ANGELES","zip":"90018","ethnicity":"N","role":"OFFENDER","geo_score":0.875,"gender":"MALE","unique number":2091846,"id":"acdkcco0885e","address":"2919 4TH AV","geo_precision":"range","race":"B","state":"CA"},"type":"Feature","geometry":{"type":"Point","coordinates":[-118.321284,34.029358]}},{"properties":{"city":"WINSTON-SALEM","zip":"27105","ethnicity":"N","role":"OFFENDER","geo_score":0.585,"gender":"MALE","unique number":2093549,"id":"acdkccmii6t3","address":"840 ESSEX RD","geo_precision":"zip","race":"B","state":"NC"},"type":"Feature","geometry":{"type":"Point","coordinates":[-80.138934,36.088748]}},{"properties":{"city":"WINSTON-SALEM","zip":"27127","ethnicity":"N","role":"OFFENDER","geo_score":1.0,"gender":"MALE","unique number":2096617,"id":"acdkccw1v6ju","address":"3903 QUILLMARK CT","geo_precision":"range","race":"B","state":"NC"},"type":"Feature","geometry":{"type":"Point","coordinates":[-80.275369,36.038809]}},{"properties":{"city":"WINSTON-SALEM","zip":"27107","ethnicity":"N","role":"OFFENDER","geo_score":0.817,"gender":"MALE","unique number":2098647,"id":"acdkcco2fhpp","address":"1515 BRUCE ST","geo_precision":"street","race":"B","state":"NC"},"type":"Feature","geometry":{"type":"Point","coordinates":[-80.225539,36.081416]}},{"properties":{"city":"WINSTON-SALEM","zip":"27105","ethnicity":"N","role":"OFFENDER","geo_score":1.0,"gender":"MALE","unique number":2098647,"id":"acdkcck17btw","address":"922 THURMOND ST","geo_precision":"range","race":"B","state":"NC"},"type":"Feature","geometry":{"type":"Point","coordinates":[-80.257873,36.106287]}},{"properties":{"city":"WINSTON-SALEM","zip":"27105","ethnicity":"N","role":"OFFENDER","geo_score":1.0,"gender":"MALE","unique number":2099186,"id":"acdkccqihl7k","address":"1230 MOTOR RD","geo_precision":"range","race":"B","state":"NC"},"type":"Feature","geometry":{"type":"Point","coordinates":[-80.225627,36.158101]}},{"properties":{"city":"WINSTON-SALEM","zip":"27105","ethnicity":"N","role":"OFFENDER","geo_score":0.973,"gender":"MALE","unique number":2099701,"id":"acdkccwp0gsi","address":"2715 KILKARE AV","geo_precision":"range","race":"B","state":"NC"},"type":"Feature","geometry":{"type":"Point","coordinates":[-80.247075,36.123931]}},{"properties":{"city":"WINSTON-SALEM","zip":"27107","ethnicity":"H","role":"OFFENDER","geo_score":1.0,"gender":"MALE","unique number":2101887,"id":"acdkccrpm1f8","address":"3362 CHEVY CHASE ST","geo_precision":"range","race":"W","state":"NC"},"type":"Feature","geometry":{"type":"Point","coordinates":[-80.211283,36.048964]}}],"is_temporal":false,"author":{"url":"","metadata":null,"contact_name":null,"contact_address":null,"source":null,"contact_phone":null},"source":"","pagination":{"sort":null,"start":0,"total":181,"limit":1000000},"state":"complete","tags":"","published":"2014-08-16T17:33:43-04:00","id":323823}