{"type":"FeatureCollection","data_type":"Dataset","url_type":null,"permissions":[{"permissions":{"download":true,"view":true},"group_id":"everyone"}],"classification":null,"title":"USOpportunityHeatmap","count":59,"stream_id":323868,"contributor":{"url":"http://geocommons.com/users/61676","name":"daniel.m.levin@jpmorgan.com"},"data_attributes":null,"calculation_params":null,"icon_link":null,"link":"http://geocommons.com/overlays/323868.json","extent":[-157.858,21.3048,-70.2567,61.2175],"geometry_types":["point"],"unique_name":null,"name":"USOpportunityHeatmap","feature_count":59,"description":"","next_feature":null,"is_raster":false,"short_classification":"Y","stats":{"latitude":{"max":61.21755,"variance":38.8900517418085,"mean":39.0932485254237,"stdev":6.23618887958091,"min":21.30477,"median":39.740235},"longitude":{"max":-70.256654,"variance":362.41977746889,"mean":-93.9460568135594,"stdev":19.0373259012102,"min":-157.857614,"median":-90.077749},"count":{"max":935,"variance":30085.4488603156,"mean":142.389830508475,"stdev":173.451574972139,"min":7,"median":78}},"features":[{"properties":{"city":"Mobile","latitude":30.686395,"count":46,"longitude":-88.053239,"id":"acdmttnaaqqv","state":"AL"},"type":"Feature","geometry":{"type":"Point","coordinates":[-88.053239,30.686395]}},{"properties":{"city":"Anchorage","latitude":61.21755,"count":9,"longitude":-149.858384,"id":"acdmttfbn0pj","state":"AK"},"type":"Feature","geometry":{"type":"Point","coordinates":[-149.858384,61.21755]}},{"properties":{"city":"Phoenix","latitude":33.44826,"count":88,"longitude":-112.075774,"id":"acdmttqgl73a","state":"AZ"},"type":"Feature","geometry":{"type":"Point","coordinates":[-112.075774,33.44826]}},{"properties":{"city":"Little Rock","latitude":34.748655,"count":25,"longitude":-92.274494,"id":"acdmttl7jqif","state":"AR"},"type":"Feature","geometry":{"type":"Point","coordinates":[-92.274494,34.748655]}},{"properties":{"city":"San Francisco","latitude":37.777125,"count":508,"longitude":-122.419644,"id":"acdmtti30g0u","state":"CA"},"type":"Feature","geometry":{"type":"Point","coordinates":[-122.419644,37.777125]}},{"properties":{"city":"Los Angeles","latitude":34.05349,"count":457,"longitude":-118.245319,"id":"acdmttevpnog","state":"CA"},"type":"Feature","geometry":{"type":"Point","coordinates":[-118.245319,34.05349]}},{"properties":{"city":"San Diego","latitude":32.715695,"count":78,"longitude":-117.161719,"id":"acdmttgk8c2w","state":"CA"},"type":"Feature","geometry":{"type":"Point","coordinates":[-117.161719,32.715695]}},{"properties":{"city":"Denver","latitude":39.74001,"count":185,"longitude":-104.992259,"id":"acdmttkfr6sk","state":"CO"},"type":"Feature","geometry":{"type":"Point","coordinates":[-104.992259,39.74001]}},{"properties":{"city":"Hartford","latitude":41.763325,"count":124,"longitude":-72.674069,"id":"acdmttode1pv","state":"CT"},"type":"Feature","geometry":{"type":"Point","coordinates":[-72.674069,41.763325]}},{"properties":{"city":"Washington","latitude":38.89037,"count":291,"longitude":-77.031959,"id":"acdmttgujb3w","state":"DC"},"type":"Feature","geometry":{"type":"Point","coordinates":[-77.031959,38.89037]}},{"properties":{"city":"Richmond","latitude":37.5407,"count":14,"longitude":-77.433654,"id":"acdmttg0i0zj","state":"VA"},"type":"Feature","geometry":{"type":"Point","coordinates":[-77.433654,37.5407]}},{"properties":{"city":"Baltimore","latitude":39.290585,"count":13,"longitude":-76.609264,"id":"acdmttfs7wz3","state":"MD"},"type":"Feature","geometry":{"type":"Point","coordinates":[-76.609264,39.290585]}},{"properties":{"city":"Wilmington","latitude":39.740235,"count":290,"longitude":-75.550844,"id":"acdmttruooxe","state":"DE"},"type":"Feature","geometry":{"type":"Point","coordinates":[-75.550844,39.740235]}},{"properties":{"city":"Miami","latitude":25.728985,"count":399,"longitude":-80.237419,"id":"acdmttpxbkpb","state":"FL"},"type":"Feature","geometry":{"type":"Point","coordinates":[-80.237419,25.728985]}},{"properties":{"city":"Atlanta","latitude":33.748315,"count":217,"longitude":-84.391109,"id":"acdmttjpdp7l","state":"GA"},"type":"Feature","geometry":{"type":"Point","coordinates":[-84.391109,33.748315]}},{"properties":{"city":"Honolulu","latitude":21.30477,"count":7,"longitude":-157.857614,"id":"acdmttqz89xk","state":"HI"},"type":"Feature","geometry":{"type":"Point","coordinates":[-157.857614,21.30477]}},{"properties":{"city":"Boise","latitude":43.60698,"count":18,"longitude":-116.193409,"id":"acdmttserbrr","state":"ID"},"type":"Feature","geometry":{"type":"Point","coordinates":[-116.193409,43.60698]}},{"properties":{"city":"Chicago","latitude":41.88415,"count":389,"longitude":-87.632409,"id":"acdmttlwm4q9","state":"IL"},"type":"Feature","geometry":{"type":"Point","coordinates":[-87.632409,41.88415]}},{"properties":{"city":"Indianapolis","latitude":39.76691,"count":102,"longitude":-86.149964,"id":"acdmttnt3y3q","state":"IN"},"type":"Feature","geometry":{"type":"Point","coordinates":[-86.149964,39.76691]}},{"properties":{"city":"Des Moines","latitude":41.58979,"count":36,"longitude":-93.615659,"id":"acdmttqv6td4","state":"IA"},"type":"Feature","geometry":{"type":"Point","coordinates":[-93.615659,41.58979]}},{"properties":{"city":"Wichita","latitude":37.68698,"count":56,"longitude":-97.335579,"id":"acdmttgei3e0","state":"KS"},"type":"Feature","geometry":{"type":"Point","coordinates":[-97.335579,37.68698]}},{"properties":{"city":"Louisville","latitude":38.25486,"count":53,"longitude":-85.766404,"id":"acdmttskyg3u","state":"KY"},"type":"Feature","geometry":{"type":"Point","coordinates":[-85.766404,38.25486]}},{"properties":{"city":"New Orleans","latitude":29.9537,"count":51,"longitude":-90.077749,"id":"acdmttsrwsd8","state":"LA"},"type":"Feature","geometry":{"type":"Point","coordinates":[-90.077749,29.9537]}},{"properties":{"city":"Portland","latitude":43.659145,"count":21,"longitude":-70.256654,"id":"acdmttl3b2d2","state":"ME"},"type":"Feature","geometry":{"type":"Point","coordinates":[-70.256654,43.659145]}},{"properties":{"city":"Boston","latitude":42.358635,"count":307,"longitude":-71.056699,"id":"acdmtthq9nhb","state":"MA"},"type":"Feature","geometry":{"type":"Point","coordinates":[-71.056699,42.358635]}},{"properties":{"city":"Detroit","latitude":42.331685,"count":120,"longitude":-83.047924,"id":"acdmttkte4xz","state":"MI"},"type":"Feature","geometry":{"type":"Point","coordinates":[-83.047924,42.331685]}},{"properties":{"city":"Saint Paul","latitude":44.943821,"count":165,"longitude":-93.093323,"id":"acdmttjdcw9s","state":"MI"},"type":"Feature","geometry":{"type":"Point","coordinates":[-93.093323,44.943821]}},{"properties":{"city":"Jackson","latitude":32.29869,"count":18,"longitude":-90.180489,"id":"acdmttjibf0p","state":"MS"},"type":"Feature","geometry":{"type":"Point","coordinates":[-90.180489,32.29869]}},{"properties":{"city":"Kansas City","latitude":39.10296,"count":80,"longitude":-94.583062,"id":"acdmtthu7a2b","state":"MO"},"type":"Feature","geometry":{"type":"Point","coordinates":[-94.583062,39.10296]}},{"properties":{"city":"Billings","latitude":45.783975,"count":16,"longitude":-108.505794,"id":"acdmttjq6wuh","state":"MT"},"type":"Feature","geometry":{"type":"Point","coordinates":[-108.505794,45.783975]}},{"properties":{"city":"Omaha","latitude":41.260675,"count":44,"longitude":-95.940469,"id":"acdmttpt4hed","state":"NE"},"type":"Feature","geometry":{"type":"Point","coordinates":[-95.940469,41.260675]}},{"properties":{"city":"Las Vegas","latitude":36.171915,"count":81,"longitude":-115.139974,"id":"acdmttk5prk9","state":"NV"},"type":"Feature","geometry":{"type":"Point","coordinates":[-115.139974,36.171915]}},{"properties":{"city":"Concord","latitude":43.20725,"count":30,"longitude":-71.536604,"id":"acdmttodof4r","state":"NH"},"type":"Feature","geometry":{"type":"Point","coordinates":[-71.536604,43.20725]}},{"properties":{"city":"Sante Fe","latitude":34.166121,"count":12,"longitude":-106.026119,"id":"acdmtto6cu64","state":"NM"},"type":"Feature","geometry":{"type":"Point","coordinates":[-106.026119,34.166121]}},{"properties":{"city":"New York","latitude":40.71455,"count":935,"longitude":-74.007124,"id":"acdmttmq9j19","state":"NY"},"type":"Feature","geometry":{"type":"Point","coordinates":[-74.007124,40.71455]}},{"properties":{"city":"Charlotte","latitude":35.22269,"count":141,"longitude":-80.837764,"id":"acdmttfqc1he","state":"NC"},"type":"Feature","geometry":{"type":"Point","coordinates":[-80.837764,35.22269]}},{"properties":{"city":"Fargo","latitude":46.87591,"count":32,"longitude":-96.781764,"id":"acdmttgryksj","state":"ND"},"type":"Feature","geometry":{"type":"Point","coordinates":[-96.781764,46.87591]}},{"properties":{"city":"Cleveland","latitude":41.50438,"count":121,"longitude":-81.690434,"id":"acdmttpxshqj","state":"OH"},"type":"Feature","geometry":{"type":"Point","coordinates":[-81.690434,41.50438]}},{"properties":{"city":"Columbus","latitude":39.96196,"count":40,"longitude":-83.002984,"id":"acdmttjwpkdq","state":"OH"},"type":"Feature","geometry":{"type":"Point","coordinates":[-83.002984,39.96196]}},{"properties":{"city":"Cincinnati","latitude":39.106614,"count":47,"longitude":-84.504552,"id":"acdmttl8vpd2","state":"OH"},"type":"Feature","geometry":{"type":"Point","coordinates":[-84.504552,39.106614]}},{"properties":{"city":"Oklahoma City","latitude":35.472015,"count":68,"longitude":-97.520354,"id":"acdmttdtwl10","state":"OK"},"type":"Feature","geometry":{"type":"Point","coordinates":[-97.520354,35.472015]}},{"properties":{"city":"Portland","latitude":45.511795,"count":63,"longitude":-122.675629,"id":"acdmttjzvc7o","state":"OR"},"type":"Feature","geometry":{"type":"Point","coordinates":[-122.675629,45.511795]}},{"properties":{"city":"Philadelphia","latitude":39.95228,"count":279,"longitude":-75.162454,"id":"acdmttm31y93","state":"PA"},"type":"Feature","geometry":{"type":"Point","coordinates":[-75.162454,39.95228]}},{"properties":{"city":"Providence","latitude":41.823875,"count":16,"longitude":-71.411994,"id":"acdmttsbc2ah","state":"RI"},"type":"Feature","geometry":{"type":"Point","coordinates":[-71.411994,41.823875]}},{"properties":{"city":"Charlston","latitude":33.626459,"count":53,"longitude":-80.947403,"id":"acdmtthb6sbz","state":"SC"},"type":"Feature","geometry":{"type":"Point","coordinates":[-80.947403,33.626459]}},{"properties":{"city":"Sioux Falls","latitude":43.54535,"count":27,"longitude":-96.731284,"id":"acdmttk7z0th","state":"SD"},"type":"Feature","geometry":{"type":"Point","coordinates":[-96.731284,43.54535]}},{"properties":{"city":"Nashville","latitude":36.167783,"count":102,"longitude":-86.778365,"id":"acdmttsa3z4o","state":"TN"},"type":"Feature","geometry":{"type":"Point","coordinates":[-86.778365,36.167783]}},{"properties":{"city":"Dallas","latitude":32.778155,"count":196,"longitude":-96.795404,"id":"acdmtti91ecr","state":"TX"},"type":"Feature","geometry":{"type":"Point","coordinates":[-96.795404,32.778155]}},{"properties":{"city":"Houston","latitude":29.76045,"count":413,"longitude":-95.369784,"id":"acdmttogfzyq","state":"TX"},"type":"Feature","geometry":{"type":"Point","coordinates":[-95.369784,29.76045]}},{"properties":{"city":"Austin","latitude":30.267605,"count":100,"longitude":-97.742984,"id":"acdmttmdimvo","state":"TX"},"type":"Feature","geometry":{"type":"Point","coordinates":[-97.742984,30.267605]}},{"properties":{"city":"Salt Lake City","latitude":40.759505,"count":69,"longitude":-111.888229,"id":"acdmtthca7fb","state":"UT"},"type":"Feature","geometry":{"type":"Point","coordinates":[-111.888229,40.759505]}},{"properties":{"city":"Burlington","latitude":44.47592,"count":8,"longitude":-73.213234,"id":"acdmttd9sets","state":"VT"},"type":"Feature","geometry":{"type":"Point","coordinates":[-73.213234,44.47592]}},{"properties":{"city":"Seattle","latitude":47.60356,"count":131,"longitude":-122.329439,"id":"acdmttemj3at","state":"WA"},"type":"Feature","geometry":{"type":"Point","coordinates":[-122.329439,47.60356]}},{"properties":{"city":"Charleston","latitude":38.350195,"count":8,"longitude":-81.638989,"id":"acdmttmtfpsi","state":"WV"},"type":"Feature","geometry":{"type":"Point","coordinates":[-81.638989,38.350195]}},{"properties":{"city":"Milwaukee","latitude":43.04181,"count":112,"longitude":-87.906844,"id":"acdmttckbt0x","state":"WI"},"type":"Feature","geometry":{"type":"Point","coordinates":[-87.906844,43.04181]}},{"properties":{"city":"Cheyenne","latitude":41.134815,"count":15,"longitude":-104.821544,"id":"acdmttsk9zs5","state":"WY"},"type":"Feature","geometry":{"type":"Point","coordinates":[-104.821544,41.134815]}},{"properties":{"city":"Montreal","latitude":45.51228,"count":176,"longitude":-73.55439,"id":"acdmttii6xwh","state":"PQ"},"type":"Feature","geometry":{"type":"Point","coordinates":[-73.55439,45.51228]}},{"properties":{"city":"Toronto","latitude":43.64856,"count":498,"longitude":-79.385324,"id":"acdmttqpuv0j","state":"ON"},"type":"Feature","geometry":{"type":"Point","coordinates":[-79.385324,43.64856]}},{"properties":{"city":"Vancouver","latitude":49.26044,"count":401,"longitude":-123.114034,"id":"acdmttppwa55","state":"BC"},"type":"Feature","geometry":{"type":"Point","coordinates":[-123.114034,49.26044]}}],"is_temporal":false,"author":{"url":"","metadata":"","contact_name":"","contact_address":"","source":"","contact_phone":""},"source":"","pagination":{"sort":null,"start":0,"total":59,"limit":1000000},"state":"complete","tags":"","published":"2014-08-16T17:40:59-04:00","id":323868}