{"type":"FeatureCollection","data_type":"Dataset","url_type":null,"permissions":[{"permissions":{"download":true,"view":true},"group_id":"everyone"}],"classification":null,"title":"ENG_Tech-Project_3xlsx","count":51,"stream_id":323951,"contributor":{"url":"http://geocommons.com/users/62295","name":"haba"},"data_attributes":null,"calculation_params":null,"icon_link":null,"link":"http://geocommons.com/overlays/323951.json","extent":[0.0,0.0,0.0,0.0],"geometry_types":null,"unique_name":null,"name":"ENG_Tech-Project_3xlsx","feature_count":51,"description":"","next_feature":null,"is_raster":false,"short_classification":"Y","features":[{"properties":{"obesity rate":"34.90%","very religious":"59%","id":"acdt24pwaev2","state":"Mississippi"},"type":"Feature","geometry":null},{"properties":{"obesity rate":"33.40%","very religious":"57%","id":"acdt24yn4ia5","state":"Utah"},"type":"Feature","geometry":null},{"properties":{"obesity rate":"32.40%","very religious":"56%","id":"acdt24yqi5df","state":"Alabama"},"type":"Feature","geometry":null},{"properties":{"obesity rate":"32%","very religious":"54%","id":"acdt24yeqp3v","state":"Louisiana"},"type":"Feature","geometry":null},{"properties":{"obesity rate":"31.30%","very religious":"54%","id":"acdt24wdrjxv","state":"Arkansas"},"type":"Feature","geometry":null},{"properties":{"obesity rate":"31.10%","very religious":"54%","id":"acdt24mw2hlp","state":"South Carolina"},"type":"Feature","geometry":null},{"properties":{"obesity rate":"30.90%","very religious":"52%","id":"acdt24r4eeqf","state":"Tennessee"},"type":"Feature","geometry":null},{"properties":{"obesity rate":"30.80%","very religious":"50%","id":"acdt24lbw3tu","state":"North Carolina"},"type":"Feature","geometry":null},{"properties":{"obesity rate":"30.80%","very religious":"48%","id":"acdt24wdb5jf","state":"Georgia"},"type":"Feature","geometry":null},{"properties":{"obesity rate":"30.40%","very religious":"48%","id":"acdt24yf2wvv","state":"Oklahoma"},"type":"Feature","geometry":null},{"properties":{"obesity rate":"30.40%","very religious":"47%","id":"acdt24q3v9d9","state":"Texas"},"type":"Feature","geometry":null},{"properties":{"obesity rate":"30.30%","very religious":"47%","id":"acdt24y8vqma","state":"Kentucky"},"type":"Feature","geometry":null},{"properties":{"obesity rate":"29.60%","very religious":"45%","id":"acdt24tvomor","state":"South Dakota"},"type":"Feature","geometry":null},{"properties":{"obesity rate":"29.60%","very religious":"45%","id":"acdt24n8z706","state":"Kansas"},"type":"Feature","geometry":null},{"properties":{"obesity rate":"29.20%","very religious":"45%","id":"acdt24kxdihh","state":"Indiana"},"type":"Feature","geometry":null},{"properties":{"obesity rate":"29.20%","very religious":"44%","id":"acdt24xs67j6","state":"Missouri"},"type":"Feature","geometry":null},{"properties":{"obesity rate":"29.10%","very religious":"44%","id":"acdt24rphi5j","state":"North Dakota"},"type":"Feature","geometry":null},{"properties":{"obesity rate":"29%","very religious":"44%","id":"acdt24z8k5hf","state":"Nebraska"},"type":"Feature","geometry":null},{"properties":{"obesity rate":"28.80%","very religious":"43%","id":"acdt24yeq5gh","state":"West Virginia"},"type":"Feature","geometry":null},{"properties":{"obesity rate":"28.60%","very religious":"42%","id":"acdt24s9dwco","state":"Virginia"},"type":"Feature","geometry":null},{"properties":{"obesity rate":"28.40%","very religious":"42%","id":"acdt24p3m1fr","state":"Idaho"},"type":"Feature","geometry":null},{"properties":{"obesity rate":"28.30%","very religious":"41%","id":"acdt24pcziib","state":"New Mexico"},"type":"Feature","geometry":null},{"properties":{"obesity rate":"28.10%","very religious":"41%","id":"acdt24txtuk8","state":"Iowa"},"type":"Feature","geometry":null},{"properties":{"obesity rate":"28%","very religious":"40%","id":"acdt24npuqdj","state":"Minnesota"},"type":"Feature","geometry":null},{"properties":{"obesity rate":"27.80%","very religious":"40%","id":"acdt24q4k1my","state":"Pennsylvania"},"type":"Feature","geometry":null},{"properties":{"obesity rate":"27.80%","very religious":"39%","id":"acdt250wbvwp","state":"Ohio"},"type":"Feature","geometry":null},{"properties":{"obesity rate":"27.70%","very religious":"39%","id":"acdt24uk1f0k","state":"Maryland"},"type":"Feature","geometry":null},{"properties":{"obesity rate":"27.40%","very religious":"39%","id":"acdt24p53bpw","state":"Florida"},"type":"Feature","geometry":null},{"properties":{"obesity rate":"27.10%","very religious":"39%","id":"acdt24qizny9","state":"Illinois"},"type":"Feature","geometry":null},{"properties":{"obesity rate":"27%","very religious":"37%","id":"acdt24wkjtue","state":"Wisconsin"},"type":"Feature","geometry":null},{"properties":{"obesity rate":"26.70%","very religious":"37%","id":"acdt24vpn2ga","state":"Michigan"},"type":"Feature","geometry":null},{"properties":{"obesity rate":"26.60%","very religious":"35%","id":"acdt250e42tl","state":"Arizona"},"type":"Feature","geometry":null},{"properties":{"obesity rate":"26.50%","very religious":"35%","id":"acdt24zgqv7l","state":"Montana"},"type":"Feature","geometry":null},{"properties":{"obesity rate":"26.30%","very religious":"35%","id":"acdt24mnrghc","state":"California"},"type":"Feature","geometry":null},{"properties":{"obesity rate":"26.20%","very religious":"34%","id":"acdt24qbb9xv","state":"Wyoming"},"type":"Feature","geometry":null},{"properties":{"obesity rate":"25.70%","very religious":"34%","id":"acdt24u7rlts","state":"New Jersey"},"type":"Feature","geometry":null},{"properties":{"obesity rate":"25.40%","very religious":"33%","id":"acdt24x3xf3q","state":"Delaware"},"type":"Feature","geometry":null},{"properties":{"obesity rate":"25.40%","very religious":"33%","id":"acdt24lwaijp","state":"Colorado"},"type":"Feature","geometry":null},{"properties":{"obesity rate":"25%","very religious":"33%","id":"acdt24vqazwk","state":"Hawaii"},"type":"Feature","geometry":null},{"properties":{"obesity rate":"24.70%","very religious":"32%","id":"acdt24mkaq15","state":"Rhode Island"},"type":"Feature","geometry":null},{"properties":{"obesity rate":"24.60%","very religious":"32%","id":"acdt24ldgfc8","state":"New York"},"type":"Feature","geometry":null},{"properties":{"obesity rate":"24.50%","very religious":"32%","id":"acdt24u7xqo8","state":"District of Columbia"},"type":"Feature","geometry":null},{"properties":{"obesity rate":"24.50%","very religious":"31%","id":"acdt24pnym05","state":"Connecticut"},"type":"Feature","geometry":null},{"properties":{"obesity rate":"24.50%","very religious":"30%","id":"acdt24vgx5up","state":"Washington"},"type":"Feature","geometry":null},{"properties":{"obesity rate":"24.40%","very religious":"30%","id":"acdt24khv43w","state":"Nevada"},"type":"Feature","geometry":null},{"properties":{"obesity rate":"23.80%","very religious":"30%","id":"acdt24n0iv0x","state":"Oregon"},"type":"Feature","geometry":null},{"properties":{"obesity rate":"23.70%","very religious":"28%","id":"acdt24ze7qxw","state":"Alaska"},"type":"Feature","geometry":null},{"properties":{"obesity rate":"23.70%","very religious":"28%","id":"acdt24zf480h","state":"Massachusetts"},"type":"Feature","geometry":null},{"properties":{"obesity rate":"22.70%","very religious":"25%","id":"acdt24qqdvbk","state":"Maine"},"type":"Feature","geometry":null},{"properties":{"obesity rate":"21.80%","very religious":"23%","id":"acdt24vs67a0","state":"New Hampshire"},"type":"Feature","geometry":null},{"properties":{"obesity rate":"20.70%","very religious":"23%","id":"acdt24r0v1ib","state":"Vermont"},"type":"Feature","geometry":null}],"is_temporal":false,"author":{"url":"","metadata":null,"contact_name":null,"contact_address":null,"source":null,"contact_phone":null},"source":"","pagination":{"sort":null,"start":0,"total":51,"limit":1000000},"state":"parsed","tags":"","published":"2014-08-16T17:47:42-04:00","id":323951}