{"type":"FeatureCollection","data_type":"Dataset","url_type":null,"permissions":[{"permissions":{"download":true,"view":true},"group_id":"everyone"}],"classification":null,"title":"Lake County, Illinois Food Resources","count":59,"stream_id":324140,"contributor":{"url":"http://geocommons.com/users/62280","name":"kdavis"},"data_attributes":null,"calculation_params":null,"icon_link":null,"link":"http://geocommons.com/overlays/324140.json","extent":[-88.1572,42.1557,-87.8057,42.4923],"geometry_types":["point"],"unique_name":null,"name":"Lake County, Illinois Food Resources","feature_count":59,"description":"County-wide list of all food pantries and soup kitchens affiliated with Northern Illinois Food Bank","next_feature":null,"is_raster":false,"short_classification":"Y","stats":{},"features":[{"properties":{"name":"OPEN ARMS MISSION","city":"Antioch","geo_score":0.633,"zip code":"60002","id":"aced3blm69xe","address":"1548 S. Main Street","geo_precision":"street","state":"Illinois"},"type":"Feature","geometry":{"type":"Point","coordinates":[-88.094788,42.492315]}},{"properties":{"name":"PROJECT HOPE","city":"Barrington","geo_score":0.867,"zip code":"60010","id":"aced3b9nwzwv","address":"320 East Franklin","geo_precision":"range","state":"Illinois"},"type":"Feature","geometry":{"type":"Point","coordinates":[-88.131561,42.155715]}},{"properties":{"name":"Grace To Share","city":"Grayslake","geo_score":0.607,"zip code":"60030","id":"aced3bme9598","address":"888 Belvidere Road, Unit 401","geo_precision":"street","state":"Illinois"},"type":"Feature","geometry":{"type":"Point","coordinates":[-88.053711,42.340918]}},{"properties":{"name":"LORD of GLORY FOOD PANTRY","city":"Grayslake","geo_score":0.602,"zip code":"60030","id":"aced3becll7u","address":"607 W. Belvidere Road","geo_precision":"street","state":"Illinois"},"type":"Feature","geometry":{"type":"Point","coordinates":[-88.044918,42.338264]}},{"properties":{"name":"The CHAPEL of LAKE COUNTY FP","city":"Grayslake","geo_score":0.69,"zip code":"60030","id":"aced3bdoghyz","address":"25270 West Hwy 60","geo_precision":"range","state":"Illinois"},"type":"Feature","geometry":{"type":"Point","coordinates":[-88.115969,42.316478]}},{"properties":{"name":"Wildwood Presbyterian Church Food Pantry","city":"Grayslake","geo_score":1.0,"zip code":"60030","id":"aced3bloxyha","address":"18630 West Old Gages Lake Road","geo_precision":"range","state":"Illinois"},"type":"Feature","geometry":{"type":"Point","coordinates":[-87.995936,42.355987]}},{"properties":{"name":"ASSISI HOMES OF GURNEE","city":"Gurnee","geo_score":0.61,"zip code":"60031","id":"aced3bbdj22u","address":"3495 W. Grand Ave","geo_precision":"street","state":"Illinois"},"type":"Feature","geometry":{"type":"Point","coordinates":[-87.991075,42.385886]}},{"properties":{"name":"WARREN TOWNSHIP","city":"Gurnee","geo_score":0.604,"zip code":"60031","id":"aced3bhieghc","address":"17801 W. Washington Street","geo_precision":"street","state":"Illinois"},"type":"Feature","geometry":{"type":"Point","coordinates":[-87.885585,42.35959]}},{"properties":{"name":"MORAINE TOWNSHIP FP","city":"Highland Park","geo_score":1.0,"zip code":"60035","id":"aced3bdv1ybi","address":"777 Central Avenue","geo_precision":"range","state":"Illinois"},"type":"Feature","geometry":{"type":"Point","coordinates":[-87.80575,42.1835]}},{"properties":{"name":"ST. JAMES CHURCH","city":"Highwood","geo_score":0.87,"zip code":"60040","id":"aced3bac8qi6","address":"134 North Ave","geo_precision":"range","state":"Illinois"},"type":"Feature","geometry":{"type":"Point","coordinates":[-87.81181,42.203478]}},{"properties":{"name":"SMV SHARING HANDS FP","city":"Indian Creek","geo_score":0.5,"zip code":"60061","id":"aced3bglenve","address":"236 U.S. Highway 45","geo_precision":"street","state":"Illinois"},"type":"Feature","geometry":{"type":"Point","coordinates":[-87.966895,42.220386]}},{"properties":{"name":"C.O.O.L. FOOD PANTRY WEST","city":"Ingleside","geo_score":0.6,"zip code":"60041","id":"aced3b8bypfe","address":"25519 W. Highway 134","geo_precision":"street","state":"Illinois"},"type":"Feature","geometry":{"type":"Point","coordinates":[-88.129246,42.367869]}},{"properties":{"name":"GRANT TOWNSHIP FP","city":"Ingleside","geo_score":0.607,"zip code":"60041","id":"aced3biwzxa7","address":"26725 W. Molidor Road","geo_precision":"street","state":"Illinois"},"type":"Feature","geometry":{"type":"Point","coordinates":[-88.157246,42.346489]}},{"properties":{"name":"ST. VINCENT DE PAUL @ ST. BEDE","city":"Ingleside","geo_score":1.0,"zip code":"60041","id":"aced3biyxvhe","address":"36455 N Wilson Road","geo_precision":"range","state":"Illinois"},"type":"Feature","geometry":{"type":"Point","coordinates":[-88.139784,42.391468]}},{"properties":{"name":"SHIELDS TOWNSHIP","city":"Lake Bluff","geo_score":1.0,"zip code":"60044","id":"aced3beru557","address":"906 Muir Avenue","geo_precision":"range","state":"Illinois"},"type":"Feature","geometry":{"type":"Point","coordinates":[-87.883644,42.286952]}},{"properties":{"name":"CHURCH of the HOLY SPIRIT-LF","city":"Lake Forest","geo_score":0.602,"zip code":"60045","id":"aced3bfhe36g","address":"400 E. Westminster Road","geo_precision":"street","state":"Illinois"},"type":"Feature","geometry":{"type":"Point","coordinates":[-87.842021,42.253]}},{"properties":{"name":"LAKE VILLA TOWNSHIP FP","city":"Lake Villa","geo_score":0.602,"zip code":"60046","id":"aced3bkbnare","address":"37908 N. Fairfield Road","geo_precision":"street","state":"Illinois"},"type":"Feature","geometry":{"type":"Point","coordinates":[-88.114149,42.392283]}},{"properties":{"name":"Luke 3:11 Share Center @ Fairfield Road Baptist Church","city":"Lake Villa","geo_score":1.0,"zip code":"60046","id":"aced3blsafxl","address":"37510 North Fairfield Road","geo_precision":"range","state":"Illinois"},"type":"Feature","geometry":{"type":"Point","coordinates":[-88.107708,42.410925]}},{"properties":{"name":"ST VINCENT DePAUL-ST. FRANCIS","city":"Lake Zurich","geo_score":0.602,"zip code":"60047","id":"aced3biqndtr","address":"135 S. Buesching Road","geo_precision":"street","state":"Illinois"},"type":"Feature","geometry":{"type":"Point","coordinates":[-88.082293,42.199349]}},{"properties":{"name":"FIRST PRESBYTERIAN CHURCH","city":"Libertyville","geo_score":0.61,"zip code":"60048","id":"aced3bkp2ra1","address":"219 W. Maple Avenue","geo_precision":"street","state":"Illinois"},"type":"Feature","geometry":{"type":"Point","coordinates":[-87.955398,42.28496]}},{"properties":{"name":"HOPE Food Pantry @ St. Lawrence Episcopal Church","city":"Libertyville","geo_score":0.61,"zip code":"60048","id":"aced3b9s9eqc","address":"125 W. Church Street","geo_precision":"street","state":"Illinois"},"type":"Feature","geometry":{"type":"Point","coordinates":[-87.956379,42.286829]}},{"properties":{"name":"LIBERTYVILLE TOWNSHIP PANTRY","city":"Libertyville","geo_score":1.0,"zip code":"60048","id":"aced3bjsywg4","address":"359 Merrill Court","geo_precision":"range","state":"Illinois"},"type":"Feature","geometry":{"type":"Point","coordinates":[-87.957975,42.292954]}},{"properties":{"name":"ST. JOSEPH'S CHURCH","city":"Libertyville","geo_score":0.6,"zip code":"60048","id":"aced3baapvl1","address":"112 N. Milwaukee Avenue","geo_precision":"street","state":"Illinois"},"type":"Feature","geometry":{"type":"Point","coordinates":[-87.953581,42.284161]}},{"properties":{"name":"CALVARY COMMUNITY CARE FP","city":"Mundelein","geo_score":0.61,"zip code":"60060","id":"aced3be8680x","address":"1221 W. Maple Avenue","geo_precision":"street","state":"Illinois"},"type":"Feature","geometry":{"type":"Point","coordinates":[-88.009594,42.274479]}},{"properties":{"name":"SANTA MARIA DEL POPOLO - SVDPS","city":"Mundelein","geo_score":0.619,"zip code":"60060","id":"aced3bgnxo7w","address":"116 N. Lake Street","geo_precision":"street","state":"Illinois"},"type":"Feature","geometry":{"type":"Point","coordinates":[-88.004009,42.266073]}},{"properties":{"name":"EMMANUEL FAITH BIBLE FP","city":"North Chicago","geo_score":1.0,"zip code":"60064","id":"aced3bnhyw54","address":"1840 Lincoln Street","geo_precision":"range","state":"Illinois"},"type":"Feature","geometry":{"type":"Point","coordinates":[-87.842649,42.325724]}},{"properties":{"name":"Eternal Flame FP","city":"North Chicago","geo_score":1.0,"zip code":"60064","id":"aced3bmr8548","address":"1412 Greenfield Ave.","geo_precision":"range","state":"Illinois"},"type":"Feature","geometry":{"type":"Point","coordinates":[-87.847461,42.332573]}},{"properties":{"name":"MOUNT SINAI BAPTIST CHURCH FP","city":"North Chicago","geo_score":1.0,"zip code":"60064","id":"aced3bhw9p2h","address":"2401 Argonne Drive","geo_precision":"range","state":"Illinois"},"type":"Feature","geometry":{"type":"Point","coordinates":[-87.862164,42.324988]}},{"properties":{"name":"MT. MORIAH CHRISTIAN Cntr FP","city":"North Chicago","geo_score":0.916,"zip code":"60064","id":"aced3bmr7rnp","address":"523 10th Street","geo_precision":"range","state":"Illinois"},"type":"Feature","geometry":{"type":"Point","coordinates":[-87.837523,42.341193]}},{"properties":{"name":"P.L.A.N.","city":"Round Lake Beach","geo_score":0.947,"zip code":"60073","id":"aced3blk5756","address":"1892 Nicole Lane","geo_precision":"range","state":"Illinois"},"type":"Feature","geometry":{"type":"Point","coordinates":[-88.084029,42.381388]}},{"properties":{"name":"ROUND LAKE CHURCH OF GOD","city":"Round Lake Beach","geo_score":0.839,"zip code":"60073","id":"aced3be147gj","address":"1202 Cedar Lake Road","geo_precision":"street","state":"Illinois"},"type":"Feature","geometry":{"type":"Point","coordinates":[-88.089919,42.360656]}},{"properties":{"name":"AVON TOWNSHIP FP","city":"Round Lake Park","geo_score":0.6,"zip code":"60073","id":"aced3b9lcsos","address":"433 E. Washington Avenue","geo_precision":"street","state":"Illinois"},"type":"Feature","geometry":{"type":"Point","coordinates":[-88.082732,42.358863]}},{"properties":{"name":"ST. PATRICK CATHOLIC CHURCH","city":"Wadsworth","geo_score":0.602,"zip code":"60083","id":"aced3bl031wh","address":"15000 W. Wadsworth Road","geo_precision":"street","state":"Illinois"},"type":"Feature","geometry":{"type":"Point","coordinates":[-87.885382,42.428489]}},{"properties":{"name":"C.O.O.L. FOOD PANTRY","city":"Waukegan","geo_score":0.625,"zip code":"60085","id":"aced3batzca4","address":"127 W. Water Street","geo_precision":"street","state":"Illinois"},"type":"Feature","geometry":{"type":"Point","coordinates":[-87.831376,42.358205]}},{"properties":{"name":"CATHOLIC CHARITIES Lake FP","city":"Waukegan","geo_score":0.625,"zip code":"60085","id":"aced3bh3qkiq","address":"671 S. Lewis Avenue","geo_precision":"street","state":"Illinois"},"type":"Feature","geometry":{"type":"Point","coordinates":[-87.85376,42.371063]}},{"properties":{"name":"CHRIST CHURCH COMMUNITY MEAL","city":"Waukegan","geo_score":1.0,"zip code":"60085","id":"aced3bgbgorc","address":"410 Grand Avenue","geo_precision":"range","state":"Illinois"},"type":"Feature","geometry":{"type":"Point","coordinates":[-87.835255,42.363856]}},{"properties":{"name":"CHRIST'N FAITH FELLOW'P-Gurnee","city":"Waukegan","geo_score":0.602,"zip code":"60085","id":"aced3bexv1hf","address":"1730 E. Washington Street","geo_precision":"street","state":"Illinois"},"type":"Feature","geometry":{"type":"Point","coordinates":[-87.868556,42.359241]}},{"properties":{"name":"COMMUNITY CHRISTIAN CHURCH FP","city":"Waukegan","geo_score":0.763,"zip code":"60085","id":"aced3ba6plly","address":"1400 Yorkhouse Road","geo_precision":"range","state":"Illinois"},"type":"Feature","geometry":{"type":"Point","coordinates":[-87.847805,42.410078]}},{"properties":{"name":"El PUENTE LATINO","city":"Waukegan","geo_score":0.857,"zip code":"60085","id":"aced3b938kl1","address":"2415 N. Butrick","geo_precision":"zip","state":"Illinois"},"type":"Feature","geometry":{"type":"Point","coordinates":[-87.88424,42.348355]}},{"properties":{"name":"FIRST UNITED METHODIST SK","city":"Waukegan","geo_score":0.989,"zip code":"60085","id":"aced3bnqlgu4","address":"128 N Martin Luther King Jr Av","geo_precision":"range","state":"Illinois"},"type":"Feature","geometry":{"type":"Point","coordinates":[-87.833937,42.361914]}},{"properties":{"name":"GOD'S HAND EXTENDED MERCY","city":"Waukegan","geo_score":0.607,"zip code":"60085","id":"aced3bjk4szj","address":"317 S. Genesee St.","geo_precision":"street","state":"Illinois"},"type":"Feature","geometry":{"type":"Point","coordinates":[-87.831376,42.358205]}},{"properties":{"name":"GREATER FAITH CHURCH FP","city":"Waukegan","geo_score":1.0,"zip code":"60085","id":"aced3b7t9zo0","address":"565 Powell Avenue","geo_precision":"range","state":"Illinois"},"type":"Feature","geometry":{"type":"Point","coordinates":[-87.841028,42.351583]}},{"properties":{"name":"HOLY FAMILY BREAD BASKET","city":"Waukegan","geo_score":0.902,"zip code":"60085","id":"aced3b92gbee","address":"914 8th Street","geo_precision":"range","state":"Illinois"},"type":"Feature","geometry":{"type":"Point","coordinates":[-87.843371,42.344819]}},{"properties":{"name":"HOLY FAMILY FOOD PANTRY","city":"Waukegan","geo_score":0.902,"zip code":"60085","id":"aced3b7x06g6","address":"912 8th Street","geo_precision":"range","state":"Illinois"},"type":"Feature","geometry":{"type":"Point","coordinates":[-87.843392,42.344819]}},{"properties":{"name":"LAKE CO COMMUNITY ACTION FP","city":"Waukegan","geo_score":0.883,"zip code":"60085","id":"aced3b9jplte","address":"574 McAlister","geo_precision":"range","state":"Illinois"},"type":"Feature","geometry":{"type":"Point","coordinates":[-87.836391,42.34977]}},{"properties":{"name":"NORTH SHORE CHURCH ' CHRIST SK","city":"Waukegan","geo_score":1.0,"zip code":"60085","id":"aced3bcs3831","address":"326 Julian Street","geo_precision":"range","state":"Illinois"},"type":"Feature","geometry":{"type":"Point","coordinates":[-87.833446,42.365287]}},{"properties":{"name":"SHILOH BAPTIST CHURCH FP","city":"Waukegan","geo_score":0.607,"zip code":"60085","id":"aced3bdt2g6k","address":"800 S. Genesee St.","geo_precision":"street","state":"Illinois"},"type":"Feature","geometry":{"type":"Point","coordinates":[-87.831376,42.358205]}},{"properties":{"name":"SHILOH BAPTIST CHURCH SK","city":"Waukegan","geo_score":0.607,"zip code":"60085","id":"aced3bd6c053","address":"800 S. Genesee St.","geo_precision":"street","state":"Illinois"},"type":"Feature","geometry":{"type":"Point","coordinates":[-87.831376,42.358205]}},{"properties":{"name":"ST. ANASTASIA FOOD PANTRY","city":"Waukegan","geo_score":1.0,"zip code":"60085","id":"aced3bcejbij","address":"624 Douglas Avenue","geo_precision":"range","state":"Illinois"},"type":"Feature","geometry":{"type":"Point","coordinates":[-87.839379,42.376519]}},{"properties":{"name":"ST. ANASTASIA SOUP KITCHEN","city":"Waukegan","geo_score":1.0,"zip code":"60085","id":"aced3b8x0w4y","address":"624 Douglas Avenue","geo_precision":"range","state":"Illinois"},"type":"Feature","geometry":{"type":"Point","coordinates":[-87.839379,42.376519]}},{"properties":{"name":"The UMMA CENTER","city":"Waukegan","geo_score":1.0,"zip code":"60085","id":"aced3bjn4hrl","address":"221 Washington Street","geo_precision":"range","state":"Illinois"},"type":"Feature","geometry":{"type":"Point","coordinates":[-87.831351,42.359552]}},{"properties":{"name":"WAUKEGAN BAPTIST BIBLE CHURCH","city":"Waukegan","geo_score":0.709,"zip code":"60085","id":"aced3bhq50mw","address":"1500 Sunset Avenue","geo_precision":"street","state":"Illinois"},"type":"Feature","geometry":{"type":"Point","coordinates":[-87.850389,42.391952]}},{"properties":{"name":"NORTH POINT CHURCH Food Pantry","city":"Winthrop Harbor","geo_score":0.61,"zip code":"60096","id":"aced3b9kxgzw","address":"900 N. Lewis Avenue","geo_precision":"street","state":"Illinois"},"type":"Feature","geometry":{"type":"Point","coordinates":[-87.853169,42.483095]}},{"properties":{"name":"ABIDING LOVE MINISTRIES FP","city":"Zion","geo_score":1.0,"zip code":"60099","id":"aced3bgi3sj9","address":"Christian Assembly of God, 2929 Bethel Blvd","geo_precision":"range","state":"Illinois"},"type":"Feature","geometry":{"type":"Point","coordinates":[-87.833418,42.441404]}},{"properties":{"name":"ABIDING LOVE MINISTRIES SK","city":"Zion","geo_score":1.0,"zip code":"60099","id":"aced3be3i48p","address":"Christian Assembly of God, 2929 Bethel Blvd","geo_precision":"range","state":"Illinois"},"type":"Feature","geometry":{"type":"Point","coordinates":[-87.833418,42.441404]}},{"properties":{"name":"CHRISTIAN FAITH FELLOWSHIP","city":"Zion","geo_score":0.916,"zip code":"60099","id":"aced3bj0zax5","address":"1727 27th Street","geo_precision":"range","state":"Illinois"},"type":"Feature","geometry":{"type":"Point","coordinates":[-87.835625,42.446084]}},{"properties":{"name":"CHURCH OF JOY - FOOD PANTRY","city":"Zion","geo_score":0.916,"zip code":"60099","id":"aced3bcyfd5b","address":"1312 27th Street","geo_precision":"range","state":"Illinois"},"type":"Feature","geometry":{"type":"Point","coordinates":[-87.828331,42.446179]}},{"properties":{"name":"OUR LADY of HUMILITY FP","city":"Zion","geo_score":0.958,"zip code":"60099","id":"aced3blloyd0","address":"10655 Wadsworth Road","geo_precision":"range","state":"Illinois"},"type":"Feature","geometry":{"type":"Point","coordinates":[-87.835129,42.42997]}},{"properties":{"name":"ZION BIBLE CHURCH FOOD PANTRY","city":"Zion","geo_score":1.0,"zip code":"60099","id":"aced3bnh7nj4","address":"2633 Emmaus Ave.","geo_precision":"range","state":"Illinois"},"type":"Feature","geometry":{"type":"Point","coordinates":[-87.828396,42.4467]}}],"is_temporal":false,"author":{"url":"","metadata":"","contact_name":"","contact_address":"","source":"","contact_phone":""},"source":"","pagination":{"sort":null,"start":0,"total":59,"limit":1000000},"state":"complete","tags":"","published":"2014-08-16T18:00:00-04:00","id":324140}