{"type":"FeatureCollection","data_type":"Dataset","url_type":null,"permissions":[{"permissions":{"download":true,"view":true},"group_id":"everyone"}],"classification":null,"title":"2/24/13 - Colorado snowfall reports","count":162,"stream_id":324852,"contributor":{"url":"http://geocommons.com/users/37944","name":"ExaminerWeather"},"data_attributes":null,"calculation_params":null,"icon_link":null,"link":"http://geocommons.com/overlays/324852.json","extent":[-108.38,37.21,-101.05,42.8],"geometry_types":["point"],"unique_name":null,"name":"2/24/13 - Colorado snowfall reports","feature_count":162,"description":"Snowfall reports from National Weather Service storm spotters for the February 24, 2013 snowstorm that hit northeastern Colorado.","next_feature":null,"is_raster":false,"short_classification":"Y","stats":{"lon":{"max":-101.05,"variance":1.25705772563454,"mean":-105.002839506173,"stdev":1.12118585686519,"min":-108.38,"median":-105.07},"date":{"max":"2013/02/25 00:00:00 -0500","variance":435040993.78882,"mean":"2013/02/24 01:28:53 -0500","stdev":20857.6363423284,"min":"2013/02/24 00:00:00 -0500","median":"2013/02/24 00:00:00 -0500"},"snowfall":{"max":30.0,"variance":24.5071394064872,"mean":7.33148148148148,"stdev":4.95046860473705,"min":0.0,"median":7.3},"lat":{"max":42.8,"variance":1.14240931293612,"mean":39.9099382716049,"stdev":1.06883549386055,"min":37.21,"median":39.8}},"features":[{"properties":{"lon":-105.49,"event type":"HEAVY SNOW","county":"Gilpin","date":{"end_time":"2013/02/25 00:00:00 -0500","original":"2/24/2013","granularity":"day","time":"2013/02/24 00:00:00 -0500"},"time (mst)":"12:00 PM","snowfall":8.3,"id":"acgvclrutzuf","lat":39.8,"source":"trained spotter","state":"CO","location":"Black Hawk"},"type":"Feature","geometry":{"type":"Point","coordinates":[-105.49,39.8]}},{"properties":{"lon":-104.8,"event type":"SNOW","county":"Weld","date":{"end_time":"2013/02/25 00:00:00 -0500","original":"2/24/2013","granularity":"day","time":"2013/02/24 00:00:00 -0500"},"time (mst)":"12:00 PM","snowfall":5.6,"id":"acgvcm3et6e4","lat":40.42,"source":"nws employee","state":"CO","location":"3 W Greeley"},"type":"Feature","geometry":{"type":"Point","coordinates":[-104.8,40.42]}},{"properties":{"lon":-103.11,"event type":"HEAVY SNOW","county":"Logan","date":{"end_time":"2013/02/25 00:00:00 -0500","original":"2/24/2013","granularity":"day","time":"2013/02/24 00:00:00 -0500"},"time (mst)":"12:00 PM","snowfall":6.0,"id":"acgvclrcw4vw","lat":40.96,"source":"trained spotter","state":"CO","location":"Peetz"},"type":"Feature","geometry":{"type":"Point","coordinates":[-103.11,40.96]}},{"properties":{"lon":-106.9,"event type":"SNOW","county":"Carbon","date":{"end_time":"2013/02/25 00:00:00 -0500","original":"2/24/2013","granularity":"day","time":"2013/02/24 00:00:00 -0500"},"time (mst)":"12:00 PM","snowfall":10.0,"id":"acgvcm54vlcj","lat":41.01,"source":"park/forest srvc","state":"WY","location":"2 SW HOG Park Reservoir"},"type":"Feature","geometry":{"type":"Point","coordinates":[-106.9,41.01]}},{"properties":{"lon":-107.27,"event type":"SNOW","county":"Carbon","date":{"end_time":"2013/02/25 00:00:00 -0500","original":"2/24/2013","granularity":"day","time":"2013/02/24 00:00:00 -0500"},"time (mst)":"12:00 PM","snowfall":8.0,"id":"acgvcm3apk2x","lat":41.03,"source":"park/forest srvc","state":"WY","location":"14 E Dixon"},"type":"Feature","geometry":{"type":"Point","coordinates":[-107.27,41.03]}},{"properties":{"lon":-107.03,"event type":"SNOW","county":"Carbon","date":{"end_time":"2013/02/25 00:00:00 -0500","original":"2/24/2013","granularity":"day","time":"2013/02/24 00:00:00 -0500"},"time (mst)":"12:00 PM","snowfall":8.0,"id":"acgvcm1va6m4","lat":41.03,"source":"park/forest srvc","state":"WY","location":"17 SW Encampment"},"type":"Feature","geometry":{"type":"Point","coordinates":[-107.03,41.03]}},{"properties":{"lon":-107.13,"event type":"HEAVY SNOW","county":"Carbon","date":{"end_time":"2013/02/25 00:00:00 -0500","original":"2/24/2013","granularity":"day","time":"2013/02/24 00:00:00 -0500"},"time (mst)":"12:00 PM","snowfall":12.0,"id":"acgvclq2dv9f","lat":41.1,"source":"park/forest srvc","state":"WY","location":"19 WSW Encampment"},"type":"Feature","geometry":{"type":"Point","coordinates":[-107.13,41.1]}},{"properties":{"lon":-106.97,"event type":"SNOW","county":"Carbon","date":{"end_time":"2013/02/25 00:00:00 -0500","original":"2/24/2013","granularity":"day","time":"2013/02/24 00:00:00 -0500"},"time (mst)":"12:00 PM","snowfall":6.0,"id":"acgvclu9e8u0","lat":41.15,"source":"park/forest srvc","state":"WY","location":"10 WSW Encampment"},"type":"Feature","geometry":{"type":"Point","coordinates":[-106.97,41.15]}},{"properties":{"lon":-106.86,"event type":"SNOW","county":"Carbon","date":{"end_time":"2013/02/25 00:00:00 -0500","original":"2/24/2013","granularity":"day","time":"2013/02/24 00:00:00 -0500"},"time (mst)":"12:00 PM","snowfall":10.0,"id":"acgvclryecan","lat":41.16,"source":"park/forest srvc","state":"WY","location":"5 SW Encampment"},"type":"Feature","geometry":{"type":"Point","coordinates":[-106.86,41.16]}},{"properties":{"lon":-105.45,"event type":"SNOW","county":"Albany","date":{"end_time":"2013/02/25 00:00:00 -0500","original":"2/24/2013","granularity":"day","time":"2013/02/24 00:00:00 -0500"},"time (mst)":"12:00 PM","snowfall":8.0,"id":"acgvcltcijsl","lat":41.21,"source":"park/forest srvc","state":"WY","location":"10 SE Laramie"},"type":"Feature","geometry":{"type":"Point","coordinates":[-105.45,41.21]}},{"properties":{"lon":-106.32,"event type":"SNOW","county":"Albany","date":{"end_time":"2013/02/25 00:00:00 -0500","original":"2/24/2013","granularity":"day","time":"2013/02/24 00:00:00 -0500"},"time (mst)":"12:00 PM","snowfall":8.0,"id":"acgvcm366l4b","lat":41.23,"source":"park/forest srvc","state":"WY","location":"12 WSW Centennial"},"type":"Feature","geometry":{"type":"Point","coordinates":[-106.32,41.23]}},{"properties":{"lon":-106.19,"event type":"SNOW","county":"Albany","date":{"end_time":"2013/02/25 00:00:00 -0500","original":"2/24/2013","granularity":"day","time":"2013/02/24 00:00:00 -0500"},"time (mst)":"12:00 PM","snowfall":10.0,"id":"acgvcm3d5qk0","lat":41.24,"source":"park/forest srvc","state":"WY","location":"6 SW Centennial"},"type":"Feature","geometry":{"type":"Point","coordinates":[-106.19,41.24]}},{"properties":{"lon":-107.23,"event type":"HEAVY SNOW","county":"Carbon","date":{"end_time":"2013/02/25 00:00:00 -0500","original":"2/24/2013","granularity":"day","time":"2013/02/24 00:00:00 -0500"},"time (mst)":"12:00 PM","snowfall":30.0,"id":"acgvclsutlq8","lat":41.28,"source":"park/forest srvc","state":"WY","location":"35 S Rawlins"},"type":"Feature","geometry":{"type":"Point","coordinates":[-107.23,41.28]}},{"properties":{"lon":-106.48,"event type":"SNOW","county":"Carbon","date":{"end_time":"2013/02/25 00:00:00 -0500","original":"2/24/2013","granularity":"day","time":"2013/02/24 00:00:00 -0500"},"time (mst)":"12:00 PM","snowfall":4.0,"id":"acgvclpd402w","lat":41.31,"source":"park/forest srvc","state":"WY","location":"17 ENE Riverside"},"type":"Feature","geometry":{"type":"Point","coordinates":[-106.48,41.31]}},{"properties":{"lon":-106.12,"event type":"SNOW","county":"Carbon","date":{"end_time":"2013/02/25 00:00:00 -0500","original":"2/24/2013","granularity":"day","time":"2013/02/24 00:00:00 -0500"},"time (mst)":"12:00 PM","snowfall":6.0,"id":"acgvcm2p4b0e","lat":41.48,"source":"park/forest srvc","state":"WY","location":"30 WNW Laramie"},"type":"Feature","geometry":{"type":"Point","coordinates":[-106.12,41.48]}},{"properties":{"lon":-104.18,"event type":"SNOW","county":"Goshen","date":{"end_time":"2013/02/25 00:00:00 -0500","original":"2/24/2013","granularity":"day","time":"2013/02/24 00:00:00 -0500"},"time (mst)":"12:00 PM","snowfall":3.0,"id":"acgvcm16iywt","lat":42.07,"source":"law enforcement","state":"WY","location":"Torrington"},"type":"Feature","geometry":{"type":"Point","coordinates":[-104.18,42.07]}},{"properties":{"lon":-105.53,"event type":"SNOW","county":"Converse","date":{"end_time":"2013/02/25 00:00:00 -0500","original":"2/24/2013","granularity":"day","time":"2013/02/24 00:00:00 -0500"},"time (mst)":"12:00 PM","snowfall":8.0,"id":"acgvclvupre7","lat":42.29,"source":"park/forest srvc","state":"WY","location":"12 SW Esterbrook"},"type":"Feature","geometry":{"type":"Point","coordinates":[-105.53,42.29]}},{"properties":{"lon":-105.92,"event type":"SNOW","county":"Albany","date":{"end_time":"2013/02/25 00:00:00 -0500","original":"2/24/2013","granularity":"day","time":"2013/02/24 00:00:00 -0500"},"time (mst)":"12:00 PM","snowfall":12.0,"id":"acgvclz3dpz6","lat":42.37,"source":"park/forest srvc","state":"WY","location":"38 SW Douglas"},"type":"Feature","geometry":{"type":"Point","coordinates":[-105.92,42.37]}},{"properties":{"lon":-105.39,"event type":"SNOW","county":"Converse","date":{"end_time":"2013/02/25 00:00:00 -0500","original":"2/24/2013","granularity":"day","time":"2013/02/24 00:00:00 -0500"},"time (mst)":"12:00 PM","snowfall":4.0,"id":"acgvclx0naew","lat":42.76,"source":"law enforcement","state":"WY","location":"Douglas"},"type":"Feature","geometry":{"type":"Point","coordinates":[-105.39,42.76]}},{"properties":{"lon":-104.45,"event type":"SNOW","county":"Niobrara","date":{"end_time":"2013/02/25 00:00:00 -0500","original":"2/24/2013","granularity":"day","time":"2013/02/24 00:00:00 -0500"},"time (mst)":"12:00 PM","snowfall":2.0,"id":"acgvclrdb8dw","lat":42.76,"source":"law enforcement","state":"WY","location":"Lusk"},"type":"Feature","geometry":{"type":"Point","coordinates":[-104.45,42.76]}},{"properties":{"lon":-105.11,"event type":"HEAVY SNOW","county":"Boulder","date":{"end_time":"2013/02/25 00:00:00 -0500","original":"2/24/2013","granularity":"day","time":"2013/02/24 00:00:00 -0500"},"time (mst)":"12:05 PM","snowfall":8.0,"id":"acgvcm1h2s0l","lat":40.17,"source":"trained spotter","state":"CO","location":"N Longmont"},"type":"Feature","geometry":{"type":"Point","coordinates":[-105.11,40.17]}},{"properties":{"lon":-104.66,"event type":"SNOW","county":"El Paso","date":{"end_time":"2013/02/25 00:00:00 -0500","original":"2/24/2013","granularity":"day","time":"2013/02/24 00:00:00 -0500"},"time (mst)":"12:08 PM","snowfall":3.2,"id":"acgvclv1bv4h","lat":39.05,"source":"trained spotter","state":"CO","location":"3 NE Black Forest"},"type":"Feature","geometry":{"type":"Point","coordinates":[-104.66,39.05]}},{"properties":{"lon":-104.66,"event type":"SNOW","county":"Pueblo","date":{"end_time":"2013/02/25 00:00:00 -0500","original":"2/24/2013","granularity":"day","time":"2013/02/24 00:00:00 -0500"},"time (mst)":"12:15 PM","snowfall":2.5,"id":"acgvcluseao8","lat":38.24,"source":"trained spotter","state":"CO","location":"3 SW Pueblo"},"type":"Feature","geometry":{"type":"Point","coordinates":[-104.66,38.24]}},{"properties":{"lon":-104.31,"event type":"HEAVY SNOW","county":"El Paso","date":{"end_time":"2013/02/25 00:00:00 -0500","original":"2/24/2013","granularity":"day","time":"2013/02/24 00:00:00 -0500"},"time (mst)":"12:15 PM","snowfall":2.5,"id":"acgvclqlwfmg","lat":39.03,"source":"trained spotter","state":"CO","location":"1 W Calhan"},"type":"Feature","geometry":{"type":"Point","coordinates":[-104.31,39.03]}},{"properties":{"lon":-105.21,"event type":"HEAVY SNOW","county":"Jefferson","date":{"end_time":"2013/02/25 00:00:00 -0500","original":"2/24/2013","granularity":"day","time":"2013/02/24 00:00:00 -0500"},"time (mst)":"12:25 PM","snowfall":8.0,"id":"acgvclqlvfd8","lat":39.74,"source":"trained spotter","state":"CO","location":"Golden"},"type":"Feature","geometry":{"type":"Point","coordinates":[-105.21,39.74]}},{"properties":{"lon":-105.12,"event type":"HEAVY SNOW","county":"Larimer","date":{"end_time":"2013/02/25 00:00:00 -0500","original":"2/24/2013","granularity":"day","time":"2013/02/24 00:00:00 -0500"},"time (mst)":"12:25 PM","snowfall":8.0,"id":"acgvcltfityf","lat":40.44,"source":"trained spotter","state":"CO","location":"3 WNW Loveland"},"type":"Feature","geometry":{"type":"Point","coordinates":[-105.12,40.44]}},{"properties":{"lon":-102.59,"event type":"HEAVY SNOW","county":"Phillips","date":{"end_time":"2013/02/25 00:00:00 -0500","original":"2/24/2013","granularity":"day","time":"2013/02/24 00:00:00 -0500"},"time (mst)":"12:25 PM","snowfall":7.0,"id":"acgvclpmb1yb","lat":40.53,"source":"trained spotter","state":"CO","location":"Highland Center"},"type":"Feature","geometry":{"type":"Point","coordinates":[-102.59,40.53]}},{"properties":{"lon":-105.36,"event type":"HEAVY SNOW","county":"Jefferson","date":{"end_time":"2013/02/25 00:00:00 -0500","original":"2/24/2013","granularity":"day","time":"2013/02/24 00:00:00 -0500"},"time (mst)":"12:30 PM","snowfall":10.0,"id":"acgvclw9dn3i","lat":39.69,"source":"trained spotter","state":"CO","location":"Bergen Park"},"type":"Feature","geometry":{"type":"Point","coordinates":[-105.36,39.69]}},{"properties":{"lon":-105.16,"event type":"HEAVY SNOW","county":"Boulder","date":{"end_time":"2013/02/25 00:00:00 -0500","original":"2/24/2013","granularity":"day","time":"2013/02/24 00:00:00 -0500"},"time (mst)":"12:30 PM","snowfall":7.0,"id":"acgvclwqxi2p","lat":40.03,"source":"trained spotter","state":"CO","location":"5 E Boulder"},"type":"Feature","geometry":{"type":"Point","coordinates":[-105.16,40.03]}},{"properties":{"lon":-105.17,"event type":"HEAVY SNOW","county":"Boulder","date":{"end_time":"2013/02/25 00:00:00 -0500","original":"2/24/2013","granularity":"day","time":"2013/02/24 00:00:00 -0500"},"time (mst)":"12:46 PM","snowfall":6.0,"id":"acgvcltdjtpy","lat":40.1,"source":"trained spotter","state":"CO","location":"1 NW Niwot"},"type":"Feature","geometry":{"type":"Point","coordinates":[-105.17,40.1]}},{"properties":{"lon":-106.33,"event type":"SNOW","county":"Chaffee","date":{"end_time":"2013/02/25 00:00:00 -0500","original":"2/24/2013","granularity":"day","time":"2013/02/24 00:00:00 -0500"},"time (mst)":"12:53 PM","snowfall":10.0,"id":"acgvclr8f1w6","lat":38.51,"source":"public","state":"CO","location":"1 NNW Monarch Pass"},"type":"Feature","geometry":{"type":"Point","coordinates":[-106.33,38.51]}},{"properties":{"lon":-104.88,"event type":"SNOW","county":"Douglas","date":{"end_time":"2013/02/25 00:00:00 -0500","original":"2/24/2013","granularity":"day","time":"2013/02/24 00:00:00 -0500"},"time (mst)":"1:14 PM","snowfall":5.3,"id":"acgvclou6ewj","lat":39.43,"source":"trained spotter","state":"CO","location":"4 NNW Castle Rock"},"type":"Feature","geometry":{"type":"Point","coordinates":[-104.88,39.43]}},{"properties":{"lon":-104.67,"event type":"SNOW","county":"Pueblo","date":{"end_time":"2013/02/25 00:00:00 -0500","original":"2/24/2013","granularity":"day","time":"2013/02/24 00:00:00 -0500"},"time (mst)":"1:15 PM","snowfall":3.5,"id":"acgvclxrjv84","lat":38.24,"source":"trained spotter","state":"CO","location":"4 SW Pueblo"},"type":"Feature","geometry":{"type":"Point","coordinates":[-104.67,38.24]}},{"properties":{"lon":-104.97,"event type":"HEAVY SNOW","county":"Douglas","date":{"end_time":"2013/02/25 00:00:00 -0500","original":"2/24/2013","granularity":"day","time":"2013/02/24 00:00:00 -0500"},"time (mst)":"1:15 PM","snowfall":9.0,"id":"acgvclr72vrq","lat":39.55,"source":"trained spotter","state":"CO","location":"Highlands Ranch"},"type":"Feature","geometry":{"type":"Point","coordinates":[-104.97,39.55]}},{"properties":{"lon":-105.01,"event type":"HEAVY SNOW","county":"Arapahoe","date":{"end_time":"2013/02/25 00:00:00 -0500","original":"2/24/2013","granularity":"day","time":"2013/02/24 00:00:00 -0500"},"time (mst)":"1:15 PM","snowfall":7.7,"id":"acgvclwjns13","lat":39.59,"source":"trained spotter","state":"CO","location":"Littleton"},"type":"Feature","geometry":{"type":"Point","coordinates":[-105.01,39.59]}},{"properties":{"lon":-104.86,"event type":"SNOW","county":"El Paso","date":{"end_time":"2013/02/25 00:00:00 -0500","original":"2/24/2013","granularity":"day","time":"2013/02/24 00:00:00 -0500"},"time (mst)":"1:23 PM","snowfall":1.0,"id":"acgvclvukmnw","lat":38.82,"source":"nws employee","state":"CO","location":"3 WSW Colorado Springs"},"type":"Feature","geometry":{"type":"Point","coordinates":[-104.86,38.82]}},{"properties":{"lon":-104.63,"event type":"SNOW","county":"Pueblo","date":{"end_time":"2013/02/25 00:00:00 -0500","original":"2/24/2013","granularity":"day","time":"2013/02/24 00:00:00 -0500"},"time (mst)":"1:35 PM","snowfall":2.1,"id":"acgvclyntnnj","lat":38.24,"source":"trained spotter","state":"CO","location":"2 SSW Pueblo"},"type":"Feature","geometry":{"type":"Point","coordinates":[-104.63,38.24]}},{"properties":{"lon":-104.19,"event type":"BLIZZARD","county":"Elbert","date":{"end_time":"2013/02/25 00:00:00 -0500","original":"2/24/2013","granularity":"day","time":"2013/02/24 00:00:00 -0500"},"time (mst)":"1:45 PM","snowfall":0.0,"id":"acgvclybpr1q","lat":39.39,"source":"trained spotter","state":"CO","location":"14 WSW Agate"},"type":"Feature","geometry":{"type":"Point","coordinates":[-104.19,39.39]}},{"properties":{"lon":-105.08,"event type":"SNOW","county":"Custer","date":{"end_time":"2013/02/25 00:00:00 -0500","original":"2/24/2013","granularity":"day","time":"2013/02/24 00:00:00 -0500"},"time (mst)":"1:53 PM","snowfall":4.0,"id":"acgvclyda8ec","lat":38.23,"source":"public","state":"CO","location":"Wetmore"},"type":"Feature","geometry":{"type":"Point","coordinates":[-105.08,38.23]}},{"properties":{"lon":-102.17,"event type":"HEAVY SNOW","county":"Cheyenne","date":{"end_time":"2013/02/25 00:00:00 -0500","original":"2/24/2013","granularity":"day","time":"2013/02/24 00:00:00 -0500"},"time (mst)":"2:00 PM","snowfall":9.5,"id":"acgvcm40xjyq","lat":38.85,"source":"trained spotter","state":"CO","location":"Arapahoe"},"type":"Feature","geometry":{"type":"Point","coordinates":[-102.17,38.85]}},{"properties":{"lon":-105.11,"event type":"HEAVY SNOW","county":"Jefferson","date":{"end_time":"2013/02/25 00:00:00 -0500","original":"2/24/2013","granularity":"day","time":"2013/02/24 00:00:00 -0500"},"time (mst)":"2:00 PM","snowfall":10.8,"id":"acgvcm5577s8","lat":39.58,"source":"trained spotter","state":"CO","location":"N KEN Caryl"},"type":"Feature","geometry":{"type":"Point","coordinates":[-105.11,39.58]}},{"properties":{"lon":-105.39,"event type":"HEAVY SNOW","county":"Jefferson","date":{"end_time":"2013/02/25 00:00:00 -0500","original":"2/24/2013","granularity":"day","time":"2013/02/24 00:00:00 -0500"},"time (mst)":"2:00 PM","snowfall":19.5,"id":"acgvclp7833a","lat":39.87,"source":"trained spotter","state":"CO","location":"13 NW Golden"},"type":"Feature","geometry":{"type":"Point","coordinates":[-105.39,39.87]}},{"properties":{"lon":-105.06,"event type":"HEAVY SNOW","county":"Broomfield","date":{"end_time":"2013/02/25 00:00:00 -0500","original":"2/24/2013","granularity":"day","time":"2013/02/24 00:00:00 -0500"},"time (mst)":"2:00 PM","snowfall":10.5,"id":"acgvcm2zeifb","lat":39.94,"source":"trained spotter","state":"CO","location":"Broomfield"},"type":"Feature","geometry":{"type":"Point","coordinates":[-105.06,39.94]}},{"properties":{"lon":-105.25,"event type":"HEAVY SNOW","county":"Boulder","date":{"end_time":"2013/02/25 00:00:00 -0500","original":"2/24/2013","granularity":"day","time":"2013/02/24 00:00:00 -0500"},"time (mst)":"2:00 PM","snowfall":7.1,"id":"acgvcludm8ta","lat":40.0,"source":"trained spotter","state":"CO","location":"2 S Boulder"},"type":"Feature","geometry":{"type":"Point","coordinates":[-105.25,40.0]}},{"properties":{"lon":-105.21,"event type":"SNOW","county":"Fremont","date":{"end_time":"2013/02/25 00:00:00 -0500","original":"2/24/2013","granularity":"day","time":"2013/02/24 00:00:00 -0500"},"time (mst)":"2:12 PM","snowfall":1.0,"id":"acgvcm1s2muz","lat":38.45,"source":"trained spotter","state":"CO","location":"1 ESE Canon City"},"type":"Feature","geometry":{"type":"Point","coordinates":[-105.21,38.45]}},{"properties":{"lon":-106.22,"event type":"SNOW","county":"Chaffee","date":{"end_time":"2013/02/25 00:00:00 -0500","original":"2/24/2013","granularity":"day","time":"2013/02/24 00:00:00 -0500"},"time (mst)":"2:14 PM","snowfall":2.0,"id":"acgvcm0azymt","lat":38.54,"source":"trained spotter","state":"CO","location":"Maysville"},"type":"Feature","geometry":{"type":"Point","coordinates":[-106.22,38.54]}},{"properties":{"lon":-105.17,"event type":"HEAVY SNOW","county":"Larimer","date":{"end_time":"2013/02/25 00:00:00 -0500","original":"2/24/2013","granularity":"day","time":"2013/02/24 00:00:00 -0500"},"time (mst)":"2:14 PM","snowfall":9.5,"id":"acgvclw15243","lat":40.52,"source":"trained spotter","state":"CO","location":"3 NNE Masonville"},"type":"Feature","geometry":{"type":"Point","coordinates":[-105.17,40.52]}},{"properties":{"lon":-104.64,"event type":"SNOW","county":"Pueblo","date":{"end_time":"2013/02/25 00:00:00 -0500","original":"2/24/2013","granularity":"day","time":"2013/02/24 00:00:00 -0500"},"time (mst)":"2:15 PM","snowfall":3.5,"id":"acgvclxynv0q","lat":38.38,"source":"trained spotter","state":"CO","location":"5 ENE Pueblo West"},"type":"Feature","geometry":{"type":"Point","coordinates":[-104.64,38.38]}},{"properties":{"lon":-104.84,"event type":"HEAVY SNOW","county":"Arapahoe","date":{"end_time":"2013/02/25 00:00:00 -0500","original":"2/24/2013","granularity":"day","time":"2013/02/24 00:00:00 -0500"},"time (mst)":"2:15 PM","snowfall":7.5,"id":"acgvclz58nbe","lat":39.71,"source":"trained spotter","state":"CO","location":"1 WNW Aurora"},"type":"Feature","geometry":{"type":"Point","coordinates":[-104.84,39.71]}},{"properties":{"lon":-103.07,"event type":"SNOW","county":"Logan","date":{"end_time":"2013/02/25 00:00:00 -0500","original":"2/24/2013","granularity":"day","time":"2013/02/24 00:00:00 -0500"},"time (mst)":"2:15 PM","snowfall":4.5,"id":"acgvcls1ro7i","lat":40.76,"source":"trained spotter","state":"CO","location":"NNW Iliff"},"type":"Feature","geometry":{"type":"Point","coordinates":[-103.07,40.76]}},{"properties":{"lon":-103.04,"event type":"SNOW","county":"Dawes","date":{"end_time":"2013/02/25 00:00:00 -0500","original":"2/24/2013","granularity":"day","time":"2013/02/24 00:00:00 -0500"},"time (mst)":"2:15 PM","snowfall":2.0,"id":"acgvcls6xxja","lat":42.8,"source":"co-op observer","state":"NE","location":"3 SW Chadron"},"type":"Feature","geometry":{"type":"Point","coordinates":[-103.04,42.8]}},{"properties":{"lon":-104.51,"event type":"SNOW","county":"Pueblo","date":{"end_time":"2013/02/25 00:00:00 -0500","original":"2/24/2013","granularity":"day","time":"2013/02/24 00:00:00 -0500"},"time (mst)":"2:22 PM","snowfall":1.1,"id":"acgvcly8ecyh","lat":38.23,"source":"trained spotter","state":"CO","location":"2 ESE Blende"},"type":"Feature","geometry":{"type":"Point","coordinates":[-104.51,38.23]}},{"properties":{"lon":-105.15,"event type":"HEAVY SNOW","county":"Larimer","date":{"end_time":"2013/02/25 00:00:00 -0500","original":"2/24/2013","granularity":"day","time":"2013/02/24 00:00:00 -0500"},"time (mst)":"2:30 PM","snowfall":8.5,"id":"acgvclu9fkn5","lat":40.28,"source":"trained spotter","state":"CO","location":"4 WSW Berthoud"},"type":"Feature","geometry":{"type":"Point","coordinates":[-105.15,40.28]}},{"properties":{"lon":-102.87,"event type":"SNOW","county":"Box Butte","date":{"end_time":"2013/02/25 00:00:00 -0500","original":"2/24/2013","granularity":"day","time":"2013/02/24 00:00:00 -0500"},"time (mst)":"2:30 PM","snowfall":0.0,"id":"acgvcm2vu5et","lat":42.1,"source":"trained spotter","state":"NE","location":"Alliance"},"type":"Feature","geometry":{"type":"Point","coordinates":[-102.87,42.1]}},{"properties":{"lon":-105.07,"event type":"HEAVY SNOW","county":"Jefferson","date":{"end_time":"2013/02/25 00:00:00 -0500","original":"2/24/2013","granularity":"day","time":"2013/02/24 00:00:00 -0500"},"time (mst)":"2:31 PM","snowfall":10.5,"id":"acgvclwa3j78","lat":39.55,"source":"trained spotter","state":"CO","location":"4 SW Littleton"},"type":"Feature","geometry":{"type":"Point","coordinates":[-105.07,39.55]}},{"properties":{"lon":-105.09,"event type":"HEAVY SNOW","county":"Larimer","date":{"end_time":"2013/02/25 00:00:00 -0500","original":"2/24/2013","granularity":"day","time":"2013/02/24 00:00:00 -0500"},"time (mst)":"2:31 PM","snowfall":8.5,"id":"acgvcm2vi0i7","lat":40.4,"source":"trained spotter","state":"CO","location":"2 SW Loveland"},"type":"Feature","geometry":{"type":"Point","coordinates":[-105.09,40.4]}},{"properties":{"lon":-102.97,"event type":"SNOW","county":"Cheyenne","date":{"end_time":"2013/02/25 00:00:00 -0500","original":"2/24/2013","granularity":"day","time":"2013/02/24 00:00:00 -0500"},"time (mst)":"2:31 PM","snowfall":4.0,"id":"acgvclt5hxdp","lat":41.13,"source":"law enforcement","state":"NE","location":"Sidney"},"type":"Feature","geometry":{"type":"Point","coordinates":[-102.97,41.13]}},{"properties":{"lon":-104.07,"event type":"SNOW","county":"Laramie","date":{"end_time":"2013/02/25 00:00:00 -0500","original":"2/24/2013","granularity":"day","time":"2013/02/24 00:00:00 -0500"},"time (mst)":"2:31 PM","snowfall":4.0,"id":"acgvclrkgyai","lat":41.18,"source":"law enforcement","state":"WY","location":"Pine Bluffs"},"type":"Feature","geometry":{"type":"Point","coordinates":[-104.07,41.18]}},{"properties":{"lon":-103.66,"event type":"SNOW","county":"Kimball","date":{"end_time":"2013/02/25 00:00:00 -0500","original":"2/24/2013","granularity":"day","time":"2013/02/24 00:00:00 -0500"},"time (mst)":"2:31 PM","snowfall":4.0,"id":"acgvclv858a6","lat":41.23,"source":"law enforcement","state":"NE","location":"Kimball"},"type":"Feature","geometry":{"type":"Point","coordinates":[-103.66,41.23]}},{"properties":{"lon":-105.42,"event type":"SNOW","county":"Albany","date":{"end_time":"2013/02/25 00:00:00 -0500","original":"2/24/2013","granularity":"day","time":"2013/02/24 00:00:00 -0500"},"time (mst)":"2:35 PM","snowfall":5.0,"id":"acgvclz6kitb","lat":41.11,"source":"trained spotter","state":"WY","location":"6 W Buford"},"type":"Feature","geometry":{"type":"Point","coordinates":[-105.42,41.11]}},{"properties":{"lon":-105.58,"event type":"SNOW","county":"Albany","date":{"end_time":"2013/02/25 00:00:00 -0500","original":"2/24/2013","granularity":"day","time":"2013/02/24 00:00:00 -0500"},"time (mst)":"2:35 PM","snowfall":2.0,"id":"acgvcm32ip8p","lat":41.31,"source":"law enforcement","state":"WY","location":"Laramie"},"type":"Feature","geometry":{"type":"Point","coordinates":[-105.58,41.31]}},{"properties":{"lon":-106.81,"event type":"SNOW","county":"Carbon","date":{"end_time":"2013/02/25 00:00:00 -0500","original":"2/24/2013","granularity":"day","time":"2013/02/24 00:00:00 -0500"},"time (mst)":"2:40 PM","snowfall":4.0,"id":"acgvclyrbz6h","lat":41.45,"source":"law enforcement","state":"WY","location":"Saratoga"},"type":"Feature","geometry":{"type":"Point","coordinates":[-106.81,41.45]}},{"properties":{"lon":-107.23,"event type":"SNOW","county":"Carbon","date":{"end_time":"2013/02/25 00:00:00 -0500","original":"2/24/2013","granularity":"day","time":"2013/02/24 00:00:00 -0500"},"time (mst)":"2:40 PM","snowfall":2.0,"id":"acgvcm1fr85q","lat":41.78,"source":"law enforcement","state":"WY","location":"Rawlins"},"type":"Feature","geometry":{"type":"Point","coordinates":[-107.23,41.78]}},{"properties":{"lon":-105.1,"event type":"HEAVY SNOW","county":"Boulder","date":{"end_time":"2013/02/25 00:00:00 -0500","original":"2/24/2013","granularity":"day","time":"2013/02/24 00:00:00 -0500"},"time (mst)":"2:41 PM","snowfall":5.5,"id":"acgvcm50t0zv","lat":39.99,"source":"trained spotter","state":"CO","location":"1 SSW Lafayette"},"type":"Feature","geometry":{"type":"Point","coordinates":[-105.1,39.99]}},{"properties":{"lon":-104.62,"event type":"SNOW","county":"Pueblo","date":{"end_time":"2013/02/25 00:00:00 -0500","original":"2/24/2013","granularity":"day","time":"2013/02/24 00:00:00 -0500"},"time (mst)":"2:43 PM","snowfall":2.0,"id":"acgvcm0bm1vg","lat":38.32,"source":"public","state":"CO","location":"4 N Pueblo"},"type":"Feature","geometry":{"type":"Point","coordinates":[-104.62,38.32]}},{"properties":{"lon":-105.39,"event type":"HEAVY SNOW","county":"Jefferson","date":{"end_time":"2013/02/25 00:00:00 -0500","original":"2/24/2013","granularity":"day","time":"2013/02/24 00:00:00 -0500"},"time (mst)":"2:43 PM","snowfall":15.0,"id":"acgvclyeou3o","lat":39.52,"source":"trained spotter","state":"CO","location":"5 W Conifer"},"type":"Feature","geometry":{"type":"Point","coordinates":[-105.39,39.52]}},{"properties":{"lon":-103.1,"event type":"SNOW","county":"Morrill","date":{"end_time":"2013/02/25 00:00:00 -0500","original":"2/24/2013","granularity":"day","time":"2013/02/24 00:00:00 -0500"},"time (mst)":"2:43 PM","snowfall":1.0,"id":"acgvcluthri9","lat":41.68,"source":"trained spotter","state":"NE","location":"1 N Bridgeport"},"type":"Feature","geometry":{"type":"Point","coordinates":[-103.1,41.68]}},{"properties":{"lon":-105.15,"event type":"HEAVY SNOW","county":"Boulder","date":{"end_time":"2013/02/25 00:00:00 -0500","original":"2/24/2013","granularity":"day","time":"2013/02/24 00:00:00 -0500"},"time (mst)":"2:46 PM","snowfall":7.9,"id":"acgvclr42hk4","lat":39.99,"source":"trained spotter","state":"CO","location":"1 NNW Louisville"},"type":"Feature","geometry":{"type":"Point","coordinates":[-105.15,39.99]}},{"properties":{"lon":-105.14,"event type":"SNOW","county":"Teller","date":{"end_time":"2013/02/25 00:00:00 -0500","original":"2/24/2013","granularity":"day","time":"2013/02/24 00:00:00 -0500"},"time (mst)":"2:50 PM","snowfall":4.0,"id":"acgvcltxt2lh","lat":38.71,"source":"public","state":"CO","location":"Victor"},"type":"Feature","geometry":{"type":"Point","coordinates":[-105.14,38.71]}},{"properties":{"lon":-105.22,"event type":"SNOW","county":"Teller","date":{"end_time":"2013/02/25 00:00:00 -0500","original":"2/24/2013","granularity":"day","time":"2013/02/24 00:00:00 -0500"},"time (mst)":"2:50 PM","snowfall":6.0,"id":"acgvclqgndve","lat":38.96,"source":"trained spotter","state":"CO","location":"4 WNW Divide"},"type":"Feature","geometry":{"type":"Point","coordinates":[-105.22,38.96]}},{"properties":{"lon":-103.74,"event type":"SNOW","county":"Banner","date":{"end_time":"2013/02/25 00:00:00 -0500","original":"2/24/2013","granularity":"day","time":"2013/02/24 00:00:00 -0500"},"time (mst)":"2:50 PM","snowfall":5.0,"id":"acgvclpeup88","lat":41.55,"source":"law enforcement","state":"NE","location":"Harrisburg"},"type":"Feature","geometry":{"type":"Point","coordinates":[-103.74,41.55]}},{"properties":{"lon":-103.42,"event type":"SNOW","county":"Banner","date":{"end_time":"2013/02/25 00:00:00 -0500","original":"2/24/2013","granularity":"day","time":"2013/02/24 00:00:00 -0500"},"time (mst)":"2:50 PM","snowfall":5.0,"id":"acgvclus6xlg","lat":41.57,"source":"co-op observer","state":"NE","location":"18 WSW Bridgeport"},"type":"Feature","geometry":{"type":"Point","coordinates":[-103.42,41.57]}},{"properties":{"lon":-103.1,"event type":"SNOW","county":"Morrill","date":{"end_time":"2013/02/25 00:00:00 -0500","original":"2/24/2013","granularity":"day","time":"2013/02/24 00:00:00 -0500"},"time (mst)":"2:50 PM","snowfall":2.0,"id":"acgvclwxatfa","lat":41.67,"source":"trained spotter","state":"NE","location":"Bridgeport"},"type":"Feature","geometry":{"type":"Point","coordinates":[-103.1,41.67]}},{"properties":{"lon":-104.75,"event type":"SNOW","county":"Pueblo","date":{"end_time":"2013/02/25 00:00:00 -0500","original":"2/24/2013","granularity":"day","time":"2013/02/24 00:00:00 -0500"},"time (mst)":"2:52 PM","snowfall":1.9,"id":"acgvclvdsckr","lat":38.3,"source":"nws employee","state":"CO","location":"3 N Pueblo Reservoir"},"type":"Feature","geometry":{"type":"Point","coordinates":[-104.75,38.3]}},{"properties":{"lon":-105.07,"event type":"SNOW","county":"Teller","date":{"end_time":"2013/02/25 00:00:00 -0500","original":"2/24/2013","granularity":"day","time":"2013/02/24 00:00:00 -0500"},"time (mst)":"2:53 PM","snowfall":4.0,"id":"acgvcluxcscy","lat":38.99,"source":"trained spotter","state":"CO","location":"1 WSW Woodland Park"},"type":"Feature","geometry":{"type":"Point","coordinates":[-105.07,38.99]}},{"properties":{"lon":-107.2,"event type":"SNOW","county":"Hinsdale","date":{"end_time":"2013/02/25 00:00:00 -0500","original":"2/24/2013","granularity":"day","time":"2013/02/24 00:00:00 -0500"},"time (mst)":"3:11 PM","snowfall":3.0,"id":"acgvclxbqs4u","lat":37.99,"source":"mesonet","state":"CO","location":"1 ENE Slumgullion Pass"},"type":"Feature","geometry":{"type":"Point","coordinates":[-107.2,37.99]}},{"properties":{"lon":-105.35,"event type":"HEAVY SNOW","county":"Jefferson","date":{"end_time":"2013/02/25 00:00:00 -0500","original":"2/24/2013","granularity":"day","time":"2013/02/24 00:00:00 -0500"},"time (mst)":"3:15 PM","snowfall":21.5,"id":"acgvclv6koqh","lat":39.5,"source":"trained spotter","state":"CO","location":"3 WSW Conifer"},"type":"Feature","geometry":{"type":"Point","coordinates":[-105.35,39.5]}},{"properties":{"lon":-105.49,"event type":"HEAVY SNOW","county":"Gilpin","date":{"end_time":"2013/02/25 00:00:00 -0500","original":"2/24/2013","granularity":"day","time":"2013/02/24 00:00:00 -0500"},"time (mst)":"3:15 PM","snowfall":9.9,"id":"acgvclrapnw9","lat":39.84,"source":"trained spotter","state":"CO","location":"3 N Black Hawk"},"type":"Feature","geometry":{"type":"Point","coordinates":[-105.49,39.84]}},{"properties":{"lon":-105.07,"event type":"HEAVY SNOW","county":"Boulder","date":{"end_time":"2013/02/25 00:00:00 -0500","original":"2/24/2013","granularity":"day","time":"2013/02/24 00:00:00 -0500"},"time (mst)":"3:15 PM","snowfall":8.0,"id":"acgvclrqtpt8","lat":40.18,"source":"trained spotter","state":"CO","location":"2 E Longmont"},"type":"Feature","geometry":{"type":"Point","coordinates":[-105.07,40.18]}},{"properties":{"lon":-105.29,"event type":"SNOW","county":"Teller","date":{"end_time":"2013/02/25 00:00:00 -0500","original":"2/24/2013","granularity":"day","time":"2013/02/24 00:00:00 -0500"},"time (mst)":"3:17 PM","snowfall":4.0,"id":"acgvcm2bh8p6","lat":39.0,"source":"trained spotter","state":"CO","location":"4 N Florissant"},"type":"Feature","geometry":{"type":"Point","coordinates":[-105.29,39.0]}},{"properties":{"lon":-104.9,"event type":"HEAVY SNOW","county":"Douglas","date":{"end_time":"2013/02/25 00:00:00 -0500","original":"2/24/2013","granularity":"day","time":"2013/02/24 00:00:00 -0500"},"time (mst)":"3:23 PM","snowfall":7.5,"id":"acgvclqjs8ib","lat":39.43,"source":"trained spotter","state":"CO","location":"ESE Castle Pines"},"type":"Feature","geometry":{"type":"Point","coordinates":[-104.9,39.43]}},{"properties":{"lon":-104.99,"event type":"HEAVY SNOW","county":"Denver","date":{"end_time":"2013/02/25 00:00:00 -0500","original":"2/24/2013","granularity":"day","time":"2013/02/24 00:00:00 -0500"},"time (mst)":"3:23 PM","snowfall":8.0,"id":"acgvclwxw7n8","lat":39.72,"source":"trained spotter","state":"CO","location":"2 WSW Denver"},"type":"Feature","geometry":{"type":"Point","coordinates":[-104.99,39.72]}},{"properties":{"lon":-104.79,"event type":"SNOW","county":"Laramie","date":{"end_time":"2013/02/25 00:00:00 -0500","original":"2/24/2013","granularity":"day","time":"2013/02/24 00:00:00 -0500"},"time (mst)":"3:25 PM","snowfall":2.6,"id":"acgvclra1d9f","lat":41.15,"source":"co-op observer","state":"WY","location":"Cheyenne"},"type":"Feature","geometry":{"type":"Point","coordinates":[-104.79,41.15]}},{"properties":{"lon":-104.61,"event type":"SNOW","county":"Pueblo","date":{"end_time":"2013/02/25 00:00:00 -0500","original":"2/24/2013","granularity":"day","time":"2013/02/24 00:00:00 -0500"},"time (mst)":"3:29 PM","snowfall":3.5,"id":"acgvclr5pz8h","lat":38.26,"source":"trained spotter","state":"CO","location":"1 SSE Pueblo"},"type":"Feature","geometry":{"type":"Point","coordinates":[-104.61,38.26]}},{"properties":{"lon":-104.31,"event type":"SNOW","county":"El Paso","date":{"end_time":"2013/02/25 00:00:00 -0500","original":"2/24/2013","granularity":"day","time":"2013/02/24 00:00:00 -0500"},"time (mst)":"3:36 PM","snowfall":5.0,"id":"acgvcm58brd9","lat":39.03,"source":"trained spotter","state":"CO","location":"1 W Calhan"},"type":"Feature","geometry":{"type":"Point","coordinates":[-104.31,39.03]}},{"properties":{"lon":-104.87,"event type":"HEAVY SNOW","county":"Arapahoe","date":{"end_time":"2013/02/25 00:00:00 -0500","original":"2/24/2013","granularity":"day","time":"2013/02/24 00:00:00 -0500"},"time (mst)":"3:39 PM","snowfall":9.5,"id":"acgvcm0j4znj","lat":39.6,"source":"trained spotter","state":"CO","location":"E Centennial"},"type":"Feature","geometry":{"type":"Point","coordinates":[-104.87,39.6]}},{"properties":{"lon":-105.11,"event type":"HEAVY SNOW","county":"Jefferson","date":{"end_time":"2013/02/25 00:00:00 -0500","original":"2/24/2013","granularity":"day","time":"2013/02/24 00:00:00 -0500"},"time (mst)":"3:46 PM","snowfall":9.0,"id":"acgvclp6cxj7","lat":39.82,"source":"nws employee","state":"CO","location":"Arvada"},"type":"Feature","geometry":{"type":"Point","coordinates":[-105.11,39.82]}},{"properties":{"lon":-105.45,"event type":"HEAVY SNOW","county":"Boulder","date":{"end_time":"2013/02/25 00:00:00 -0500","original":"2/24/2013","granularity":"day","time":"2013/02/24 00:00:00 -0500"},"time (mst)":"3:46 PM","snowfall":12.5,"id":"acgvcltwon9p","lat":39.99,"source":"trained spotter","state":"CO","location":"4 ENE Nederland"},"type":"Feature","geometry":{"type":"Point","coordinates":[-105.45,39.99]}},{"properties":{"lon":-104.49,"event type":"BLIZZARD","county":"Arapahoe","date":{"end_time":"2013/02/25 00:00:00 -0500","original":"2/24/2013","granularity":"day","time":"2013/02/24 00:00:00 -0500"},"time (mst)":"4:00 PM","snowfall":0.0,"id":"acgvclq86s8o","lat":39.67,"source":"trained spotter","state":"CO","location":"8 SE Watkins"},"type":"Feature","geometry":{"type":"Point","coordinates":[-104.49,39.67]}},{"properties":{"lon":-104.93,"event type":"HEAVY SNOW","county":"Denver","date":{"end_time":"2013/02/25 00:00:00 -0500","original":"2/24/2013","granularity":"day","time":"2013/02/24 00:00:00 -0500"},"time (mst)":"4:15 PM","snowfall":8.5,"id":"acgvclv4csav","lat":39.68,"source":"trained spotter","state":"CO","location":"4 SSE Denver"},"type":"Feature","geometry":{"type":"Point","coordinates":[-104.93,39.68]}},{"properties":{"lon":-105.3,"event type":"SNOW","county":"Teller","date":{"end_time":"2013/02/25 00:00:00 -0500","original":"2/24/2013","granularity":"day","time":"2013/02/24 00:00:00 -0500"},"time (mst)":"4:18 PM","snowfall":9.5,"id":"acgvclzqnbgv","lat":38.99,"source":"broadcast media","state":"CO","location":"3 N Florissant"},"type":"Feature","geometry":{"type":"Point","coordinates":[-105.3,38.99]}},{"properties":{"lon":-105.58,"event type":"SNOW","county":"Custer","date":{"end_time":"2013/02/25 00:00:00 -0500","original":"2/24/2013","granularity":"day","time":"2013/02/24 00:00:00 -0500"},"time (mst)":"4:30 PM","snowfall":4.0,"id":"acgvclwq1o0f","lat":38.13,"source":"trained spotter","state":"CO","location":"11 NNE Crestone"},"type":"Feature","geometry":{"type":"Point","coordinates":[-105.58,38.13]}},{"properties":{"lon":-105.36,"event type":"HEAVY SNOW","county":"Jefferson","date":{"end_time":"2013/02/25 00:00:00 -0500","original":"2/24/2013","granularity":"day","time":"2013/02/24 00:00:00 -0500"},"time (mst)":"4:30 PM","snowfall":10.8,"id":"acgvclrxigf4","lat":39.69,"source":"trained spotter","state":"CO","location":"Bergen Park"},"type":"Feature","geometry":{"type":"Point","coordinates":[-105.36,39.69]}},{"properties":{"lon":-105.07,"event type":"HEAVY SNOW","county":"Larimer","date":{"end_time":"2013/02/25 00:00:00 -0500","original":"2/24/2013","granularity":"day","time":"2013/02/24 00:00:00 -0500"},"time (mst)":"4:30 PM","snowfall":7.3,"id":"acgvclqgyzwh","lat":40.45,"source":"trained spotter","state":"CO","location":"2 N Loveland"},"type":"Feature","geometry":{"type":"Point","coordinates":[-105.07,40.45]}},{"properties":{"lon":-105.07,"event type":"HEAVY SNOW","county":"Larimer","date":{"end_time":"2013/02/25 00:00:00 -0500","original":"2/24/2013","granularity":"day","time":"2013/02/24 00:00:00 -0500"},"time (mst)":"4:30 PM","snowfall":8.2,"id":"acgvclvcpkmw","lat":40.5,"source":"trained spotter","state":"CO","location":"4 S Fort Collins"},"type":"Feature","geometry":{"type":"Point","coordinates":[-105.07,40.5]}},{"properties":{"lon":-104.3,"event type":"HEAVY SNOW","county":"Arapahoe","date":{"end_time":"2013/02/25 00:00:00 -0500","original":"2/24/2013","granularity":"day","time":"2013/02/24 00:00:00 -0500"},"time (mst)":"4:40 PM","snowfall":6.0,"id":"acgvcluwv77z","lat":39.74,"source":"trained spotter","state":"CO","location":"Strasburg"},"type":"Feature","geometry":{"type":"Point","coordinates":[-104.3,39.74]}},{"properties":{"lon":-106.61,"event type":"SNOW","county":"Gunnison","date":{"end_time":"2013/02/25 00:00:00 -0500","original":"2/24/2013","granularity":"day","time":"2013/02/24 00:00:00 -0500"},"time (mst)":"5:00 PM","snowfall":3.4,"id":"acgvclqzbd6g","lat":38.82,"source":"co-op observer","state":"CO","location":"Almont"},"type":"Feature","geometry":{"type":"Point","coordinates":[-106.61,38.82]}},{"properties":{"lon":-104.73,"event type":"HEAVY SNOW","county":"Arapahoe","date":{"end_time":"2013/02/25 00:00:00 -0500","original":"2/24/2013","granularity":"day","time":"2013/02/24 00:00:00 -0500"},"time (mst)":"5:00 PM","snowfall":11.9,"id":"acgvclqx7s2o","lat":39.61,"source":"trained spotter","state":"CO","location":"3 SW Arapahoe Park"},"type":"Feature","geometry":{"type":"Point","coordinates":[-104.73,39.61]}},{"properties":{"lon":-105.06,"event type":"HEAVY SNOW","county":"Broomfield","date":{"end_time":"2013/02/25 00:00:00 -0500","original":"2/24/2013","granularity":"day","time":"2013/02/24 00:00:00 -0500"},"time (mst)":"5:00 PM","snowfall":8.0,"id":"acgvclqmkj56","lat":39.94,"source":"nws employee","state":"CO","location":"Broomfield"},"type":"Feature","geometry":{"type":"Point","coordinates":[-105.06,39.94]}},{"properties":{"lon":-105.25,"event type":"HEAVY SNOW","county":"Boulder","date":{"end_time":"2013/02/25 00:00:00 -0500","original":"2/24/2013","granularity":"day","time":"2013/02/24 00:00:00 -0500"},"time (mst)":"5:00 PM","snowfall":8.0,"id":"acgvclzy9rno","lat":40.03,"source":"co-op observer","state":"CO","location":"Boulder"},"type":"Feature","geometry":{"type":"Point","coordinates":[-105.25,40.03]}},{"properties":{"lon":-104.82,"event type":"HEAVY SNOW","county":"Weld","date":{"end_time":"2013/02/25 00:00:00 -0500","original":"2/24/2013","granularity":"day","time":"2013/02/24 00:00:00 -0500"},"time (mst)":"5:00 PM","snowfall":9.0,"id":"acgvclu2rz21","lat":40.42,"source":"trained spotter","state":"CO","location":"4 W Greeley"},"type":"Feature","geometry":{"type":"Point","coordinates":[-104.82,40.42]}},{"properties":{"lon":-105.93,"event type":"HEAVY SNOW","county":"Park","date":{"end_time":"2013/02/25 00:00:00 -0500","original":"2/24/2013","granularity":"day","time":"2013/02/24 00:00:00 -0500"},"time (mst)":"5:05 PM","snowfall":5.0,"id":"acgvclviyg78","lat":38.92,"source":"trained spotter","state":"CO","location":"2 E Antero Junction"},"type":"Feature","geometry":{"type":"Point","coordinates":[-105.93,38.92]}},{"properties":{"lon":-106.2,"event type":"SNOW","county":"Chaffee","date":{"end_time":"2013/02/25 00:00:00 -0500","original":"2/24/2013","granularity":"day","time":"2013/02/24 00:00:00 -0500"},"time (mst)":"5:29 PM","snowfall":3.0,"id":"acgvcm32824b","lat":38.86,"source":"trained spotter","state":"CO","location":"4 WNW Buena Vista"},"type":"Feature","geometry":{"type":"Point","coordinates":[-106.2,38.86]}},{"properties":{"lon":-104.65,"event type":"HEAVY SNOW","county":"Elbert","date":{"end_time":"2013/02/25 00:00:00 -0500","original":"2/24/2013","granularity":"day","time":"2013/02/24 00:00:00 -0500"},"time (mst)":"5:30 PM","snowfall":9.0,"id":"acgvcm4a1ghz","lat":39.4,"source":"trained spotter","state":"CO","location":"4 NW Elizabeth"},"type":"Feature","geometry":{"type":"Point","coordinates":[-104.65,39.4]}},{"properties":{"lon":-104.65,"event type":"HEAVY SNOW","county":"Elbert","date":{"end_time":"2013/02/25 00:00:00 -0500","original":"2/24/2013","granularity":"day","time":"2013/02/24 00:00:00 -0500"},"time (mst)":"5:30 PM","snowfall":11.1,"id":"acgvclqbou4m","lat":39.51,"source":"trained spotter","state":"CO","location":"6 E Parker"},"type":"Feature","geometry":{"type":"Point","coordinates":[-104.65,39.51]}},{"properties":{"lon":-104.97,"event type":"HEAVY SNOW","county":"Arapahoe","date":{"end_time":"2013/02/25 00:00:00 -0500","original":"2/24/2013","granularity":"day","time":"2013/02/24 00:00:00 -0500"},"time (mst)":"5:30 PM","snowfall":9.5,"id":"acgvclw0g6ni","lat":39.58,"source":"trained spotter","state":"CO","location":"2 N Highlands Ranch"},"type":"Feature","geometry":{"type":"Point","coordinates":[-104.97,39.58]}},{"properties":{"lon":-105.44,"event type":"HEAVY SNOW","county":"Clear Creek","date":{"end_time":"2013/02/25 00:00:00 -0500","original":"2/24/2013","granularity":"day","time":"2013/02/24 00:00:00 -0500"},"time (mst)":"5:30 PM","snowfall":10.0,"id":"acgvclsnj7gz","lat":39.63,"source":"trained spotter","state":"CO","location":"5 W Evergreen"},"type":"Feature","geometry":{"type":"Point","coordinates":[-105.44,39.63]}},{"properties":{"lon":-105.11,"event type":"HEAVY SNOW","county":"Boulder","date":{"end_time":"2013/02/25 00:00:00 -0500","original":"2/24/2013","granularity":"day","time":"2013/02/24 00:00:00 -0500"},"time (mst)":"5:30 PM","snowfall":8.3,"id":"acgvclq6xwlw","lat":40.2,"source":"trained spotter","state":"CO","location":"2 N Longmont"},"type":"Feature","geometry":{"type":"Point","coordinates":[-105.11,40.2]}},{"properties":{"lon":-105.11,"event type":"HEAVY SNOW","county":"Larimer","date":{"end_time":"2013/02/25 00:00:00 -0500","original":"2/24/2013","granularity":"day","time":"2013/02/24 00:00:00 -0500"},"time (mst)":"5:30 PM","snowfall":10.5,"id":"acgvclp0gdwj","lat":40.52,"source":"trained spotter","state":"CO","location":"3 SW Fort Collins"},"type":"Feature","geometry":{"type":"Point","coordinates":[-105.11,40.52]}},{"properties":{"lon":-105.34,"event type":"HEAVY SNOW","county":"Jefferson","date":{"end_time":"2013/02/25 00:00:00 -0500","original":"2/24/2013","granularity":"day","time":"2013/02/24 00:00:00 -0500"},"time (mst)":"5:35 PM","snowfall":12.0,"id":"acgvcm2j7m7p","lat":39.62,"source":"trained spotter","state":"CO","location":"1 S Evergreen"},"type":"Feature","geometry":{"type":"Point","coordinates":[-105.34,39.62]}},{"properties":{"lon":-104.96,"event type":"HEAVY SNOW","county":"Weld","date":{"end_time":"2013/02/25 00:00:00 -0500","original":"2/24/2013","granularity":"day","time":"2013/02/24 00:00:00 -0500"},"time (mst)":"5:38 PM","snowfall":7.0,"id":"acgvclq1t9t7","lat":40.12,"source":"nws employee","state":"CO","location":"2 NW Frederick"},"type":"Feature","geometry":{"type":"Point","coordinates":[-104.96,40.12]}},{"properties":{"lon":-105.36,"event type":"HEAVY SNOW","county":"Jefferson","date":{"end_time":"2013/02/25 00:00:00 -0500","original":"2/24/2013","granularity":"day","time":"2013/02/24 00:00:00 -0500"},"time (mst)":"5:46 PM","snowfall":19.0,"id":"acgvclxgms4f","lat":39.51,"source":"trained spotter","state":"CO","location":"3 W Conifer"},"type":"Feature","geometry":{"type":"Point","coordinates":[-105.36,39.51]}},{"properties":{"lon":-104.72,"event type":"SNOW","county":"Las Animas","date":{"end_time":"2013/02/25 00:00:00 -0500","original":"2/24/2013","granularity":"day","time":"2013/02/24 00:00:00 -0500"},"time (mst)":"6:00 PM","snowfall":4.0,"id":"acgvclr0m9ha","lat":37.21,"source":"trained spotter","state":"CO","location":"1 WSW Boncarbo"},"type":"Feature","geometry":{"type":"Point","coordinates":[-104.72,37.21]}},{"properties":{"lon":-105.48,"event type":"HEAVY SNOW","county":"Gilpin","date":{"end_time":"2013/02/25 00:00:00 -0500","original":"2/24/2013","granularity":"day","time":"2013/02/24 00:00:00 -0500"},"time (mst)":"6:01 PM","snowfall":10.2,"id":"acgvclraop6m","lat":39.84,"source":"trained spotter","state":"CO","location":"NNW Aspen Springs"},"type":"Feature","geometry":{"type":"Point","coordinates":[-105.48,39.84]}},{"properties":{"lon":-104.79,"event type":"HEAVY SNOW","county":"Arapahoe","date":{"end_time":"2013/02/25 00:00:00 -0500","original":"2/24/2013","granularity":"day","time":"2013/02/24 00:00:00 -0500"},"time (mst)":"6:05 PM","snowfall":12.2,"id":"acgvclp5lgwm","lat":39.67,"source":"trained spotter","state":"CO","location":"3 SSE Aurora"},"type":"Feature","geometry":{"type":"Point","coordinates":[-104.79,39.67]}},{"properties":{"lon":-107.8,"event type":"SNOW","county":"Delta","date":{"end_time":"2013/02/25 00:00:00 -0500","original":"2/24/2013","granularity":"day","time":"2013/02/24 00:00:00 -0500"},"time (mst)":"6:13 PM","snowfall":2.2,"id":"acgvclsijh75","lat":38.84,"source":"trained spotter","state":"CO","location":"4 NNW Lazear"},"type":"Feature","geometry":{"type":"Point","coordinates":[-107.8,38.84]}},{"properties":{"lon":-104.9,"event type":"HEAVY SNOW","county":"Douglas","date":{"end_time":"2013/02/25 00:00:00 -0500","original":"2/24/2013","granularity":"day","time":"2013/02/24 00:00:00 -0500"},"time (mst)":"6:13 PM","snowfall":8.0,"id":"acgvclvngf0m","lat":39.43,"source":"trained spotter","state":"CO","location":"ESE Castle Pines"},"type":"Feature","geometry":{"type":"Point","coordinates":[-104.9,39.43]}},{"properties":{"lon":-105.07,"event type":"SNOW","county":"Larimer","date":{"end_time":"2013/02/25 00:00:00 -0500","original":"2/24/2013","granularity":"day","time":"2013/02/24 00:00:00 -0500"},"time (mst)":"6:15 PM","snowfall":5.0,"id":"acgvcluakw5e","lat":40.55,"source":"trained spotter","state":"CO","location":"1 SSW Fort Collins"},"type":"Feature","geometry":{"type":"Point","coordinates":[-105.07,40.55]}},{"properties":{"lon":-104.91,"event type":"SNOW","county":"El Paso","date":{"end_time":"2013/02/25 00:00:00 -0500","original":"2/24/2013","granularity":"day","time":"2013/02/24 00:00:00 -0500"},"time (mst)":"6:26 PM","snowfall":14.0,"id":"acgvclt9hla3","lat":39.11,"source":"broadcast media","state":"CO","location":"1 SE Palmer Lake"},"type":"Feature","geometry":{"type":"Point","coordinates":[-104.91,39.11]}},{"properties":{"lon":-105.34,"event type":"HEAVY SNOW","county":"Jefferson","date":{"end_time":"2013/02/25 00:00:00 -0500","original":"2/24/2013","granularity":"day","time":"2013/02/24 00:00:00 -0500"},"time (mst)":"6:44 PM","snowfall":18.0,"id":"acgvclq37nu3","lat":39.91,"source":"trained spotter","state":"CO","location":"4 WSW Eldorado Springs"},"type":"Feature","geometry":{"type":"Point","coordinates":[-105.34,39.91]}},{"properties":{"lon":-108.38,"event type":"SNOW","county":"Garfield","date":{"end_time":"2013/02/25 00:00:00 -0500","original":"2/24/2013","granularity":"day","time":"2013/02/24 00:00:00 -0500"},"time (mst)":"7:00 PM","snowfall":1.7,"id":"acgvclwln424","lat":39.5,"source":"co-op observer","state":"CO","location":"DE Beque"},"type":"Feature","geometry":{"type":"Point","coordinates":[-108.38,39.5]}},{"properties":{"lon":-104.92,"event type":"SNOW","county":"El Paso","date":{"end_time":"2013/02/25 00:00:00 -0500","original":"2/24/2013","granularity":"day","time":"2013/02/24 00:00:00 -0500"},"time (mst)":"7:07 PM","snowfall":7.0,"id":"acgvcm3xswvz","lat":39.12,"source":"broadcast media","state":"CO","location":"Palmer Lake"},"type":"Feature","geometry":{"type":"Point","coordinates":[-104.92,39.12]}},{"properties":{"lon":-105.07,"event type":"HEAVY SNOW","county":"Larimer","date":{"end_time":"2013/02/25 00:00:00 -0500","original":"2/24/2013","granularity":"day","time":"2013/02/24 00:00:00 -0500"},"time (mst)":"7:10 PM","snowfall":11.0,"id":"acgvclrwvhmm","lat":40.42,"source":"trained spotter","state":"CO","location":"Loveland"},"type":"Feature","geometry":{"type":"Point","coordinates":[-105.07,40.42]}},{"properties":{"lon":-104.98,"event type":"SNOW","county":"Pueblo","date":{"end_time":"2013/02/25 00:00:00 -0500","original":"2/24/2013","granularity":"day","time":"2013/02/24 00:00:00 -0500"},"time (mst)":"7:15 PM","snowfall":6.5,"id":"acgvcm3nm2v2","lat":38.07,"source":"trained spotter","state":"CO","location":"1 S Beulah"},"type":"Feature","geometry":{"type":"Point","coordinates":[-104.98,38.07]}},{"properties":{"lon":-104.9,"event type":"HEAVY SNOW","county":"Adams","date":{"end_time":"2013/02/25 00:00:00 -0500","original":"2/24/2013","granularity":"day","time":"2013/02/24 00:00:00 -0500"},"time (mst)":"7:30 PM","snowfall":8.0,"id":"acgvcm3vg5qx","lat":39.93,"source":"nws employee","state":"CO","location":"4 NE Thornton"},"type":"Feature","geometry":{"type":"Point","coordinates":[-104.9,39.93]}},{"properties":{"lon":-105.44,"event type":"HEAVY SNOW","county":"Boulder","date":{"end_time":"2013/02/25 00:00:00 -0500","original":"2/24/2013","granularity":"day","time":"2013/02/24 00:00:00 -0500"},"time (mst)":"7:40 PM","snowfall":15.2,"id":"acgvclsuk0l0","lat":40.11,"source":"trained spotter","state":"CO","location":"3 W Jamestown"},"type":"Feature","geometry":{"type":"Point","coordinates":[-105.44,40.11]}},{"properties":{"lon":-101.25,"event type":"SNOW","county":"Logan","date":{"end_time":"2013/02/25 00:00:00 -0500","original":"2/24/2013","granularity":"day","time":"2013/02/24 00:00:00 -0500"},"time (mst)":"7:59 PM","snowfall":0.0,"id":"acgvclxwqqm7","lat":39.06,"source":"broadcast media","state":"KS","location":"Winona"},"type":"Feature","geometry":{"type":"Point","coordinates":[-101.25,39.06]}},{"properties":{"lon":-101.71,"event type":"SNOW","county":"Sherman","date":{"end_time":"2013/02/25 00:00:00 -0500","original":"2/24/2013","granularity":"day","time":"2013/02/24 00:00:00 -0500"},"time (mst)":"7:59 PM","snowfall":0.6,"id":"acgvclv685cz","lat":39.38,"source":"official nws obs","state":"KS","location":"2 N Goodland"},"type":"Feature","geometry":{"type":"Point","coordinates":[-101.71,39.38]}},{"properties":{"lon":-104.93,"event type":"HEAVY SNOW","county":"Denver","date":{"end_time":"2013/02/25 00:00:00 -0500","original":"2/24/2013","granularity":"day","time":"2013/02/24 00:00:00 -0500"},"time (mst)":"7:59 PM","snowfall":8.9,"id":"acgvclwcyvz1","lat":39.69,"source":"trained spotter","state":"CO","location":"3 SE Denver"},"type":"Feature","geometry":{"type":"Point","coordinates":[-104.93,39.69]}},{"properties":{"lon":-102.23,"event type":"SNOW","county":"Yuma","date":{"end_time":"2013/02/25 00:00:00 -0500","original":"2/24/2013","granularity":"day","time":"2013/02/24 00:00:00 -0500"},"time (mst)":"7:59 PM","snowfall":0.5,"id":"acgvclpafmh9","lat":40.08,"source":"public","state":"CO","location":"Wray"},"type":"Feature","geometry":{"type":"Point","coordinates":[-102.23,40.08]}},{"properties":{"lon":-106.03,"event type":"SNOW","county":"Summit","date":{"end_time":"2013/02/25 00:00:00 -0500","original":"2/24/2013","granularity":"day","time":"2013/02/24 00:00:00 -0500"},"time (mst)":"8:01 PM","snowfall":5.9,"id":"acgvcm2mm5jl","lat":39.47,"source":"trained spotter","state":"CO","location":"2 SSE Breckenridge"},"type":"Feature","geometry":{"type":"Point","coordinates":[-106.03,39.47]}},{"properties":{"lon":-105.0,"event type":"HEAVY SNOW","county":"Arapahoe","date":{"end_time":"2013/02/25 00:00:00 -0500","original":"2/24/2013","granularity":"day","time":"2013/02/24 00:00:00 -0500"},"time (mst)":"8:01 PM","snowfall":10.0,"id":"acgvclt1cl9n","lat":39.57,"source":"trained spotter","state":"CO","location":"2 SSE Littleton"},"type":"Feature","geometry":{"type":"Point","coordinates":[-105.0,39.57]}},{"properties":{"lon":-104.71,"event type":"HEAVY SNOW","county":"Arapahoe","date":{"end_time":"2013/02/25 00:00:00 -0500","original":"2/24/2013","granularity":"day","time":"2013/02/24 00:00:00 -0500"},"time (mst)":"8:01 PM","snowfall":14.3,"id":"acgvclrnh622","lat":39.57,"source":"trained spotter","state":"CO","location":"5 SSW Arapahoe Park"},"type":"Feature","geometry":{"type":"Point","coordinates":[-104.71,39.57]}},{"properties":{"lon":-101.05,"event type":"SNOW","county":"Thomas","date":{"end_time":"2013/02/25 00:00:00 -0500","original":"2/24/2013","granularity":"day","time":"2013/02/24 00:00:00 -0500"},"time (mst)":"8:11 PM","snowfall":1.5,"id":"acgvcm2nfzcc","lat":39.39,"source":"amateur radio","state":"KS","location":"Colby"},"type":"Feature","geometry":{"type":"Point","coordinates":[-101.05,39.39]}},{"properties":{"lon":-104.96,"event type":"SNOW","county":"Adams","date":{"end_time":"2013/02/25 00:00:00 -0500","original":"2/24/2013","granularity":"day","time":"2013/02/24 00:00:00 -0500"},"time (mst)":"8:22 PM","snowfall":5.5,"id":"acgvcm2vl77j","lat":39.91,"source":"trained spotter","state":"CO","location":"1 ENE Northglenn"},"type":"Feature","geometry":{"type":"Point","coordinates":[-104.96,39.91]}},{"properties":{"lon":-104.99,"event type":"HEAVY SNOW","county":"Adams","date":{"end_time":"2013/02/25 00:00:00 -0500","original":"2/24/2013","granularity":"day","time":"2013/02/24 00:00:00 -0500"},"time (mst)":"8:23 PM","snowfall":6.2,"id":"acgvcm0pqbue","lat":39.91,"source":"trained spotter","state":"CO","location":"1 W Northglenn"},"type":"Feature","geometry":{"type":"Point","coordinates":[-104.99,39.91]}},{"properties":{"lon":-105.07,"event type":"HEAVY SNOW","county":"Jefferson","date":{"end_time":"2013/02/25 00:00:00 -0500","original":"2/24/2013","granularity":"day","time":"2013/02/24 00:00:00 -0500"},"time (mst)":"8:44 PM","snowfall":10.6,"id":"acgvcm1xym4q","lat":39.87,"source":"trained spotter","state":"CO","location":"1 SW Westminster"},"type":"Feature","geometry":{"type":"Point","coordinates":[-105.07,39.87]}},{"properties":{"lon":-104.94,"event type":"SNOW","county":"Pueblo","date":{"end_time":"2013/02/25 00:00:00 -0500","original":"2/24/2013","granularity":"day","time":"2013/02/24 00:00:00 -0500"},"time (mst)":"8:51 PM","snowfall":7.3,"id":"acgvclxxzfh3","lat":37.91,"source":"nws employee","state":"CO","location":"1 SSW RYE"},"type":"Feature","geometry":{"type":"Point","coordinates":[-104.94,37.91]}},{"properties":{"lon":-104.9,"event type":"SNOW","county":"Adams","date":{"end_time":"2013/02/25 00:00:00 -0500","original":"2/24/2013","granularity":"day","time":"2013/02/24 00:00:00 -0500"},"time (mst)":"9:00 PM","snowfall":7.0,"id":"acgvcm4rydmp","lat":39.97,"source":"nws employee","state":"CO","location":"6 NE Northglenn"},"type":"Feature","geometry":{"type":"Point","coordinates":[-104.9,39.97]}},{"properties":{"lon":-105.48,"event type":"HEAVY SNOW","county":"Gilpin","date":{"end_time":"2013/02/25 00:00:00 -0500","original":"2/24/2013","granularity":"day","time":"2013/02/24 00:00:00 -0500"},"time (mst)":"9:01 PM","snowfall":10.6,"id":"acgvcm3rjgaz","lat":39.84,"source":"trained spotter","state":"CO","location":"NNW Aspen Springs"},"type":"Feature","geometry":{"type":"Point","coordinates":[-105.48,39.84]}},{"properties":{"lon":-105.07,"event type":"SNOW","county":"Larimer","date":{"end_time":"2013/02/25 00:00:00 -0500","original":"2/24/2013","granularity":"day","time":"2013/02/24 00:00:00 -0500"},"time (mst)":"9:01 PM","snowfall":4.4,"id":"acgvcltmtswx","lat":40.56,"source":"co-op observer","state":"CO","location":"Fort Collins"},"type":"Feature","geometry":{"type":"Point","coordinates":[-105.07,40.56]}},{"properties":{"lon":-105.38,"event type":"HEAVY SNOW","county":"Jefferson","date":{"end_time":"2013/02/25 00:00:00 -0500","original":"2/24/2013","granularity":"day","time":"2013/02/24 00:00:00 -0500"},"time (mst)":"9:19 PM","snowfall":23.9,"id":"acgvcltcfmtt","lat":39.86,"source":"trained spotter","state":"CO","location":"12 NW Golden"},"type":"Feature","geometry":{"type":"Point","coordinates":[-105.38,39.86]}},{"properties":{"lon":-104.84,"event type":"SNOW","county":"El Paso","date":{"end_time":"2013/02/25 00:00:00 -0500","original":"2/24/2013","granularity":"day","time":"2013/02/24 00:00:00 -0500"},"time (mst)":"9:22 PM","snowfall":11.0,"id":"acgvcm39zdzx","lat":39.11,"source":"trained spotter","state":"CO","location":"2 ENE Monument"},"type":"Feature","geometry":{"type":"Point","coordinates":[-104.84,39.11]}},{"properties":{"lon":-104.2,"event type":"HEAVY SNOW","county":"Elbert","date":{"end_time":"2013/02/25 00:00:00 -0500","original":"2/24/2013","granularity":"day","time":"2013/02/24 00:00:00 -0500"},"time (mst)":"9:22 PM","snowfall":11.5,"id":"acgvcm2hfnls","lat":39.42,"source":"trained spotter","state":"CO","location":"14 WSW Agate"},"type":"Feature","geometry":{"type":"Point","coordinates":[-104.2,39.42]}},{"properties":{"lon":-105.31,"event type":"HEAVY SNOW","county":"Jefferson","date":{"end_time":"2013/02/25 00:00:00 -0500","original":"2/24/2013","granularity":"day","time":"2013/02/24 00:00:00 -0500"},"time (mst)":"10:01 PM","snowfall":17.0,"id":"acgvcm55izz8","lat":39.57,"source":"trained spotter","state":"CO","location":"3 N Conifer"},"type":"Feature","geometry":{"type":"Point","coordinates":[-105.31,39.57]}},{"properties":{"lon":-105.26,"event type":"HEAVY SNOW","county":"Jefferson","date":{"end_time":"2013/02/25 00:00:00 -0500","original":"2/24/2013","granularity":"day","time":"2013/02/24 00:00:00 -0500"},"time (mst)":"10:01 PM","snowfall":12.7,"id":"acgvclyyovaq","lat":39.69,"source":"trained spotter","state":"CO","location":"2 NW Idledale"},"type":"Feature","geometry":{"type":"Point","coordinates":[-105.26,39.69]}},{"properties":{"lon":-105.39,"event type":"HEAVY SNOW","county":"Jefferson","date":{"end_time":"2013/02/25 00:00:00 -0500","original":"2/24/2013","granularity":"day","time":"2013/02/24 00:00:00 -0500"},"time (mst)":"10:12 PM","snowfall":27.2,"id":"acgvclxsgsq6","lat":39.88,"source":"trained spotter","state":"CO","location":"4 SSE Pinecliffe"},"type":"Feature","geometry":{"type":"Point","coordinates":[-105.39,39.88]}},{"properties":{"lon":-105.27,"event type":"HEAVY SNOW","county":"Jefferson","date":{"end_time":"2013/02/25 00:00:00 -0500","original":"2/24/2013","granularity":"day","time":"2013/02/24 00:00:00 -0500"},"time (mst)":"10:15 PM","snowfall":14.3,"id":"acgvclyow2pg","lat":39.69,"source":"trained spotter","state":"CO","location":"Genesee"},"type":"Feature","geometry":{"type":"Point","coordinates":[-105.27,39.69]}},{"properties":{"lon":-104.87,"event type":"SNOW","county":"Huerfano","date":{"end_time":"2013/02/25 00:00:00 -0500","original":"2/24/2013","granularity":"day","time":"2013/02/24 00:00:00 -0500"},"time (mst)":"10:25 PM","snowfall":2.0,"id":"acgvcm1r876d","lat":37.59,"source":"trained spotter","state":"CO","location":"5 WSW Walsenburg"},"type":"Feature","geometry":{"type":"Point","coordinates":[-104.87,37.59]}},{"properties":{"lon":-105.12,"event type":"HEAVY SNOW","county":"Jefferson","date":{"end_time":"2013/02/25 00:00:00 -0500","original":"2/24/2013","granularity":"day","time":"2013/02/24 00:00:00 -0500"},"time (mst)":"10:30 PM","snowfall":10.1,"id":"acgvcluqvtvk","lat":39.77,"source":"co-op observer","state":"CO","location":"1 W Wheat Ridge"},"type":"Feature","geometry":{"type":"Point","coordinates":[-105.12,39.77]}},{"properties":{"lon":-105.05,"event type":"SNOW","county":"Teller","date":{"end_time":"2013/02/25 00:00:00 -0500","original":"2/24/2013","granularity":"day","time":"2013/02/24 00:00:00 -0500"},"time (mst)":"10:50 PM","snowfall":5.5,"id":"acgvcltqm898","lat":38.99,"source":"trained spotter","state":"CO","location":"Woodland Park"},"type":"Feature","geometry":{"type":"Point","coordinates":[-105.05,38.99]}},{"properties":{"lon":-104.98,"event type":"HEAVY SNOW","county":"Denver","date":{"end_time":"2013/02/25 00:00:00 -0500","original":"2/24/2013","granularity":"day","time":"2013/02/24 00:00:00 -0500"},"time (mst)":"11:19 PM","snowfall":7.5,"id":"acgvcm2vgu23","lat":39.68,"source":"trained spotter","state":"CO","location":"3 SSW Denver"},"type":"Feature","geometry":{"type":"Point","coordinates":[-104.98,39.68]}},{"properties":{"lon":-106.27,"event type":"SNOW","county":"Lake","date":{"end_time":"2013/02/26 00:00:00 -0500","original":"2/25/2013","granularity":"day","time":"2013/02/25 00:00:00 -0500"},"time (mst)":"12:00 AM","snowfall":1.9,"id":"acgvcm42oli8","lat":39.27,"source":"trained spotter","state":"CO","location":"2 NE Leadville"},"type":"Feature","geometry":{"type":"Point","coordinates":[-106.27,39.27]}},{"properties":{"lon":-104.67,"event type":"SNOW","county":"Denver","date":{"end_time":"2013/02/26 00:00:00 -0500","original":"2/25/2013","granularity":"day","time":"2013/02/25 00:00:00 -0500"},"time (mst)":"12:05 AM","snowfall":9.1,"id":"acgvcm0zbvpy","lat":39.87,"source":"official nws obs","state":"CO","location":"Denver Intl Airport"},"type":"Feature","geometry":{"type":"Point","coordinates":[-104.67,39.87]}},{"properties":{"lon":-104.76,"event type":"SNOW","county":"El Paso","date":{"end_time":"2013/02/26 00:00:00 -0500","original":"2/25/2013","granularity":"day","time":"2013/02/25 00:00:00 -0500"},"time (mst)":"12:30 AM","snowfall":8.5,"id":"acgvclr4c0df","lat":39.1,"source":"trained spotter","state":"CO","location":"6 E Monument"},"type":"Feature","geometry":{"type":"Point","coordinates":[-104.76,39.1]}},{"properties":{"lon":-104.9,"event type":"HEAVY SNOW","county":"Adams","date":{"end_time":"2013/02/26 00:00:00 -0500","original":"2/25/2013","granularity":"day","time":"2013/02/25 00:00:00 -0500"},"time (mst)":"5:33 AM","snowfall":6.9,"id":"acgvclpkoqzg","lat":39.93,"source":"trained spotter","state":"CO","location":"4 NE Thornton"},"type":"Feature","geometry":{"type":"Point","coordinates":[-104.9,39.93]}},{"properties":{"lon":-104.91,"event type":"HEAVY SNOW","county":"Denver","date":{"end_time":"2013/02/26 00:00:00 -0500","original":"2/25/2013","granularity":"day","time":"2013/02/25 00:00:00 -0500"},"time (mst)":"6:30 AM","snowfall":9.1,"id":"acgvcm1qh0zv","lat":39.69,"source":"trained spotter","state":"CO","location":"4 S Denver"},"type":"Feature","geometry":{"type":"Point","coordinates":[-104.91,39.69]}},{"properties":{"lon":-102.8,"event type":"SNOW","county":"Logan","date":{"end_time":"2013/02/26 00:00:00 -0500","original":"2/25/2013","granularity":"day","time":"2013/02/25 00:00:00 -0500"},"time (mst)":"6:30 AM","snowfall":2.0,"id":"acgvcly8r9ra","lat":40.86,"source":"co-op observer","state":"CO","location":"Crook"},"type":"Feature","geometry":{"type":"Point","coordinates":[-102.8,40.86]}},{"properties":{"lon":-103.83,"event type":"SNOW","county":"Weld","date":{"end_time":"2013/02/26 00:00:00 -0500","original":"2/25/2013","granularity":"day","time":"2013/02/25 00:00:00 -0500"},"time (mst)":"6:40 AM","snowfall":4.1,"id":"acgvclpnn9ll","lat":40.91,"source":"co-op observer","state":"CO","location":"21 N NEW Raymer"},"type":"Feature","geometry":{"type":"Point","coordinates":[-103.83,40.91]}},{"properties":{"lon":-105.37,"event type":"SNOW","county":"Park","date":{"end_time":"2013/02/26 00:00:00 -0500","original":"2/25/2013","granularity":"day","time":"2013/02/25 00:00:00 -0500"},"time (mst)":"6:45 AM","snowfall":3.5,"id":"acgvcm59ah3o","lat":38.98,"source":"co-op observer","state":"CO","location":"Lake George"},"type":"Feature","geometry":{"type":"Point","coordinates":[-105.37,38.98]}},{"properties":{"lon":-102.3,"event type":"SNOW","county":"Phillips","date":{"end_time":"2013/02/26 00:00:00 -0500","original":"2/25/2013","granularity":"day","time":"2013/02/25 00:00:00 -0500"},"time (mst)":"6:45 AM","snowfall":2.1,"id":"acgvclvoloux","lat":40.58,"source":"co-op observer","state":"CO","location":"Holyoke"},"type":"Feature","geometry":{"type":"Point","coordinates":[-102.3,40.58]}},{"properties":{"lon":-106.05,"event type":"SNOW","county":"Larimer","date":{"end_time":"2013/02/26 00:00:00 -0500","original":"2/25/2013","granularity":"day","time":"2013/02/25 00:00:00 -0500"},"time (mst)":"7:05 AM","snowfall":4.5,"id":"acgvclz5j8yq","lat":40.95,"source":"co-op observer","state":"CO","location":"13 NNW Glendevey"},"type":"Feature","geometry":{"type":"Point","coordinates":[-106.05,40.95]}}],"is_temporal":true,"author":{"url":"","metadata":"","contact_name":"","contact_address":"","source":"","contact_phone":""},"source":"","pagination":{"sort":null,"start":0,"total":162,"limit":1000000},"state":"complete","tags":"colorado,national,reports,service,snowfall,storm,weather","published":"2014-08-16T18:55:28-04:00","id":324852}