{"type":"FeatureCollection","data_type":"Dataset","url_type":null,"permissions":[{"permissions":{"download":true,"view":true},"group_id":"everyone"}],"classification":null,"title":"puntos a poligonos","count":8,"stream_id":325871,"contributor":{"url":"http://geocommons.com/users/63358","name":"pennywise82"},"data_attributes":null,"calculation_params":null,"icon_link":null,"link":"http://geocommons.com/overlays/325871.json","extent":[77.7333,-58.8333,77.7333,-58.8333],"geometry_types":["point"],"unique_name":null,"name":"puntos a poligonos","feature_count":8,"description":"","next_feature":null,"is_raster":false,"short_classification":"Y","stats":{},"features":[{"properties":{"city":"Buenos Aires","store number":"Punto 1","store name":"Plano 01","country":"Argentina","geo_score":0.857,"id":"aciwdipgw7a8","address":"vieytes 1600","geo_precision":"zip","state":"Buenos Aires"},"type":"Feature","geometry":{"type":"Point","coordinates":[77.7333333,-58.8333333]}},{"properties":{"city":"Buenos Aires","store number":"Punto 2","store name":"Plano 01","country":"Argentina","geo_score":0.857,"id":"aciwdihu6grr","address":"herrera 1600","geo_precision":"zip","state":"Buenos Aires"},"type":"Feature","geometry":{"type":"Point","coordinates":[77.7333333,-58.8333333]}},{"properties":{"city":"Buenos Aires","store number":"Punto 3","store name":"Plano 01","country":"Argentina","geo_score":0.857,"id":"aciwdid4acr7","address":"garibaldi 1900","geo_precision":"zip","state":"Buenos Aires"},"type":"Feature","geometry":{"type":"Point","coordinates":[77.7333333,-58.8333333]}},{"properties":{"city":"Buenos Aires","store number":"Punto 4","store name":"Plano 01","country":"Argentina","geo_score":0.857,"id":"aciwdijnqu0s","address":"gral. D. cerri 600","geo_precision":"zip","state":"Buenos Aires"},"type":"Feature","geometry":{"type":"Point","coordinates":[77.7333333,-58.8333333]}},{"properties":{"city":"Buenos Aires","store number":"Punto 1","store name":"Plano 02","country":"Argentina","geo_score":0.857,"id":"aciwdijjbkxn","address":"gral. Hornos 1000","geo_precision":"zip","state":"Buenos Aires"},"type":"Feature","geometry":{"type":"Point","coordinates":[77.7333333,-58.8333333]}},{"properties":{"city":"Buenos Aires","store number":"Punto 2","store name":"Plano 02","country":"Argentina","geo_score":0.857,"id":"aciwdiivzml1","address":"chacabuco 1100","geo_precision":"zip","state":"Buenos Aires"},"type":"Feature","geometry":{"type":"Point","coordinates":[77.7333333,-58.8333333]}},{"properties":{"city":"Buenos Aires","store number":"Punto 3","store name":"Plano 02","country":"Argentina","geo_score":0.857,"id":"aciwdipgfdqv","address":"Av. A. Moreau de Justo 1800","geo_precision":"zip","state":"Buenos Aires"},"type":"Feature","geometry":{"type":"Point","coordinates":[77.7333333,-58.8333333]}},{"properties":{"city":"Buenos Aires","store number":"Punto 4","store name":"Plano 02","country":"Argentina","geo_score":0.857,"id":"aciwdih2ffax","address":"olavarria 100","geo_precision":"zip","state":"Buenos Aires"},"type":"Feature","geometry":{"type":"Point","coordinates":[77.7333333,-58.8333333]}}],"is_temporal":false,"author":{"url":"","metadata":"","contact_name":"","contact_address":"","source":"","contact_phone":""},"source":"","pagination":{"sort":null,"start":0,"total":8,"limit":1000000},"state":"complete","tags":"","published":"2014-08-16T20:10:07-04:00","id":325871}