{"type":"FeatureCollection","data_type":"Dataset","url_type":null,"permissions":[{"permissions":{"download":true,"view":true},"group_id":"everyone"}],"classification":null,"title":"15 Most Liberal Cities With Violent Crime Index","count":15,"stream_id":326420,"contributor":{"url":"http://geocommons.com/users/45691","name":"CalebChase"},"data_attributes":null,"calculation_params":null,"icon_link":null,"link":"http://geocommons.com/overlays/326420.json","extent":[-122.419,33.9617,-71.1097,43.0125],"geometry_types":["point"],"unique_name":null,"name":"15 Most Liberal Cities With Violent Crime Index","feature_count":15,"description":"15 Most Liberal Cities With Violent Crime Index","next_feature":null,"is_raster":false,"short_classification":"Y","stats":{"latitude":{"max":43.0125274,"variance":5.96698546108836,"mean":40.0755189266667,"stdev":2.44274138235884,"min":33.9616801,"median":40.9167654},"longitude":{"max":-71.1097335,"variance":420.828250010514,"mean":-89.3204780266667,"stdev":20.5140988105867,"min":-122.4194155,"median":-81.6954088}},"features":[{"properties":{"city":"Detroit","latitude":42.331427,"longitude":-83.0457538,"id":"acjsxi6ofqy1","violent crimes per 1000 residents":"24 violent crimes","full report":"Full Report","state":"Michigan"},"type":"Feature","geometry":{"type":"Point","coordinates":[-83.0457538,42.331427]}},{"properties":{"city":"Gary","latitude":41.5933696,"longitude":-87.3464271,"id":"acjsxi2olt62","violent crimes per 1000 residents":"15 violent crimes","full report":"Full Report","state":"Indiana"},"type":"Feature","geometry":{"type":"Point","coordinates":[-87.3464271,41.5933696]}},{"properties":{"city":"Berkeley","latitude":37.8715926,"longitude":-122.272747,"id":"acjsxi0an6b5","violent crimes per 1000 residents":"5 violent crimes","full report":"Full Report","state":"California"},"type":"Feature","geometry":{"type":"Point","coordinates":[-122.272747,37.8715926]}},{"properties":{"city":"Washington","latitude":38.8951118,"longitude":-77.0363658,"id":"acjsxi9qjxbx","violent crimes per 1000 residents":"13 violent crimes","full report":"Full Report","state":"DC"},"type":"Feature","geometry":{"type":"Point","coordinates":[-77.0363658,38.8951118]}},{"properties":{"city":"Oakland","latitude":37.8043637,"longitude":-122.2711137,"id":"acjsxi30fa4q","violent crimes per 1000 residents":"16 violent crimes","full report":"Full Report","state":"California"},"type":"Feature","geometry":{"type":"Point","coordinates":[-122.2711137,37.8043637]}},{"properties":{"city":"Inglewood","latitude":33.9616801,"longitude":-118.3531311,"id":"acjsxidpcmkw","violent crimes per 1000 residents":"8 violent crimes","full report":"Full Report","state":"California"},"type":"Feature","geometry":{"type":"Point","coordinates":[-118.3531311,33.9616801]}},{"properties":{"city":"Newark","latitude":40.735657,"longitude":-74.1723667,"id":"acjsxi8ixzqm","violent crimes per 1000 residents":"11 violent crimes","full report":"Full Report","state":"New Jersey"},"type":"Feature","geometry":{"type":"Point","coordinates":[-74.1723667,40.735657]}},{"properties":{"city":"Cambridge","latitude":42.3736158,"longitude":-71.1097335,"id":"acjsxi1g1fgj","violent crimes per 1000 residents":"5 violent crimes","full report":"Full Report","state":"Massachusetts"},"type":"Feature","geometry":{"type":"Point","coordinates":[-71.1097335,42.3736158]}},{"properties":{"city":"San Francisco","latitude":37.7749295,"longitude":-122.4194155,"id":"acjsxi4k8rp2","violent crimes per 1000 residents":"7 violent crimes","full report":"Full Report","state":"California"},"type":"Feature","geometry":{"type":"Point","coordinates":[-122.4194155,37.7749295]}},{"properties":{"city":"Flint","latitude":43.0125274,"longitude":-83.6874562,"id":"acjsxhztqitu","violent crimes per 1000 residents":"24 violent crimes","full report":"Full Report","state":"Michigan"},"type":"Feature","geometry":{"type":"Point","coordinates":[-83.6874562,43.0125274]}},{"properties":{"city":"Cleveland","latitude":41.4994954,"longitude":-81.6954088,"id":"acjsxi643ckh","violent crimes per 1000 residents":"14 violent crimes","full report":"Full Report","state":"Ohio"},"type":"Feature","geometry":{"type":"Point","coordinates":[-81.6954088,41.4994954]}},{"properties":{"city":"Hartford","latitude":41.7637111,"longitude":-72.6850932,"id":"acjsxici801e","violent crimes per 1000 residents":"13 violent crimes","full report":"Full Report","state":"Connecticut"},"type":"Feature","geometry":{"type":"Point","coordinates":[-72.6850932,41.7637111]}},{"properties":{"city":"Paterson","latitude":40.9167654,"longitude":-74.171811,"id":"acjsxiandmnu","violent crimes per 1000 residents":"11 violent crimes","full report":"Full Report","state":"New Jersey"},"type":"Feature","geometry":{"type":"Point","coordinates":[-74.171811,40.9167654]}},{"properties":{"city":"Baltimore","latitude":39.2903848,"longitude":-76.6121893,"id":"acjsxhz0yv5i","violent crimes per 1000 residents":"15 violent crimes","full report":"Full Report","state":"Maryland"},"type":"Feature","geometry":{"type":"Point","coordinates":[-76.6121893,39.2903848]}},{"properties":{"city":"New Haven","latitude":41.3081527,"longitude":-72.9281577,"id":"acjsxi5ltbwx","violent crimes per 1000 residents":"15 violent crimes","full report":"Full Report","state":"Connecticut"},"type":"Feature","geometry":{"type":"Point","coordinates":[-72.9281577,41.3081527]}}],"is_temporal":false,"author":{"url":"http://www.examiner.com/article/crime-rates-liberal-cities-shockingly-higher-than-conservative-cities","metadata":"","contact_name":"","contact_address":"","source":"Examiner.com","contact_phone":""},"source":"http://www.examiner.com/article/crime-rates-liberal-cities-shockingly-higher-than-conservative-cities","pagination":{"sort":null,"start":0,"total":15,"limit":1000000},"state":"complete","tags":"crime,liberal","published":"2014-08-16T20:53:25-04:00","id":326420}