{"type":"FeatureCollection","data_type":"Dataset","url_type":null,"permissions":[{"permissions":{"download":true,"view":true},"group_id":"everyone"}],"classification":null,"title":"Washington State Department of Health, Farmers Markets, Washington, 2008","count":75,"stream_id":3280,"contributor":{"url":"http://geocommons.com/users/139","name":"Burkey"},"data_attributes":null,"calculation_params":null,"icon_link":null,"link":"http://geocommons.com/overlays/3280.json","extent":[-123.431,45.6273,-117.044,48.7484],"geometry_types":["point"],"unique_name":null,"name":"Washington State Department of Health, Farmers Markets, Washington, 2008","feature_count":75,"description":"Abstract: DOH approved Farmers Markets for the WIC program.\nPurpose:\n    This dataset was made as part of a project to map Washington's Health System.","next_feature":null,"is_raster":false,"short_classification":"Y","stats":{"AV_SCORE":{"max":100,"mean":59.76,"variance":1564.99567567568,"stdev":39.560026234517,"min":0,"median":70}},"features":[{"properties":{"CITY":"ANACORTES","ZIP":"98221","AV_SCORE":70,"FM_NAME":"Anacortes FM","ACCURACY":"Approximate","id":"a677o8nwnx96","ADDRESS":"7TH ST AT R AVE","SOURCE":"Centrus"},"type":"Feature","geometry":{"type":"Point","coordinates":[-122.6095,48.5166999990496]}},{"properties":{"CITY":"BAINBRIDGE ISLAND","ZIP":"98110","AV_SCORE":0,"FM_NAME":"Bainbridge Island FM","ACCURACY":"","id":"a677o8oyn1r0","ADDRESS":"MARKET SQ AT MADISON &amp; WINSLOW","SOURCE":""},"type":"Feature","geometry":{"type":"Point","coordinates":[-122.52192,47.6278799990442]}},{"properties":{"CITY":"SEATTLE","ZIP":"98107","AV_SCORE":100,"FM_NAME":"Ballard FM","ACCURACY":"Close-Original","id":"a677o8vwzwin","ADDRESS":"5300 BALLARD AVE NW","SOURCE":"Local Roads"},"type":"Feature","geometry":{"type":"Point","coordinates":[-122.383180610183,47.6664998260025]}},{"properties":{"CITY":"LANGLEY","ZIP":"98260","AV_SCORE":0,"FM_NAME":"Bayview FM","ACCURACY":"","id":"a677o8pfb80a","ADDRESS":"NEXT TO BAYVIEW FARM &amp; GARDEN","SOURCE":""},"type":"Feature","geometry":{"type":"Point","coordinates":[-122.46377,48.0098499990465]}},{"properties":{"CITY":"BELLEVUE","ZIP":"98004","AV_SCORE":100,"FM_NAME":"Bellevue FM","ACCURACY":"Close-Original","id":"a677o8ye0xbc","ADDRESS":"1717 BELLEVUE WAY NE","SOURCE":"Local Roads"},"type":"Feature","geometry":{"type":"Point","coordinates":[-122.201931548885,47.626141071814]}},{"properties":{"CITY":"BELLINGHAM","ZIP":"98225","AV_SCORE":0,"FM_NAME":"Bellingham FM","ACCURACY":"","id":"a677o90je292","ADDRESS":"RR AT CHESTNUT STS","SOURCE":""},"type":"Feature","geometry":{"type":"Point","coordinates":[-122.47953,48.7484099990511]}},{"properties":{"CITY":"BRIDGEPORT","ZIP":"98813","AV_SCORE":0,"FM_NAME":"Bridgeport FM","ACCURACY":"","id":"a677o8u5ysz6","ADDRESS":"173RD &amp; 26TH STREET","SOURCE":""},"type":"Feature","geometry":{"type":"Point","coordinates":[-119.66598,48.0010799990464]}},{"properties":{"CITY":"SEATTLE","ZIP":"98102","AV_SCORE":0,"FM_NAME":"Broadway Sunday FM","ACCURACY":"","id":"a677o8uewjhn","ADDRESS":"BROADWAY &amp; EAST THOMAS, CAPITOL H","SOURCE":""},"type":"Feature","geometry":{"type":"Point","coordinates":[-122.3209,47.6213099990442]}},{"properties":{"CITY":"BURIEN","ZIP":"98166","AV_SCORE":70,"FM_NAME":"Burien FM","ACCURACY":"Approximate","id":"a677o8wq8py5","ADDRESS":"SW 152ND ST AT 5TH AVE SW","SOURCE":"Centrus"},"type":"Feature","geometry":{"type":"Point","coordinates":[-122.3405,47.4667999990433]}},{"properties":{"CITY":"CARNATION","ZIP":"98014","AV_SCORE":0,"FM_NAME":"Carnation FM","ACCURACY":"","id":"a677o90253ud","ADDRESS":"SR 203, TOLT AVE &amp; BIRD STREET","SOURCE":""},"type":"Feature","geometry":{"type":"Point","coordinates":[-121.91388,47.6487399990443]}},{"properties":{"CITY":"CHENEY","ZIP":"99004","AV_SCORE":70,"FM_NAME":"Cheney FM","ACCURACY":"Approximate","id":"a677o8p06i3w","ADDRESS":"1ST ST AT COLLEGE AVE","SOURCE":"Centrus"},"type":"Feature","geometry":{"type":"Point","coordinates":[-117.5752,47.4875999990434]}},{"properties":{"CITY":"CLARKSTON","ZIP":"99403","AV_SCORE":70,"FM_NAME":"Clarkston FM","ACCURACY":"Approximate","id":"a677o8qmb05e","ADDRESS":"5TH ST AT SYCAMORE ST","SOURCE":"Centrus"},"type":"Feature","geometry":{"type":"Point","coordinates":[-117.0442,46.4126999990579]}},{"properties":{"CITY":"MOSES LAKE","ZIP":"98837","AV_SCORE":70,"FM_NAME":"Columbia Basin FM","ACCURACY":"Approximate","id":"a677o8yqkdu3","ADDRESS":"E 5TH AVE AT S BALSAM ST","SOURCE":"Centrus"},"type":"Feature","geometry":{"type":"Point","coordinates":[-119.274,47.1296499990594]}},{"properties":{"CITY":"SEATTLE","ZIP":"98118","AV_SCORE":100,"FM_NAME":"Columbia City FM","ACCURACY":"Close-Original","id":"a677o8ok0o5u","ADDRESS":"4801 RAINIER AVE S","SOURCE":"Local Roads"},"type":"Feature","geometry":{"type":"Point","coordinates":[-122.285848908656,47.559126895534]}},{"properties":{"CITY":"COLVILLE","ZIP":"99114","AV_SCORE":70,"FM_NAME":"Colville FM","ACCURACY":"Approximate","id":"a677o8lu8mix","ADDRESS":"E 3RD AVE AT N OAK ST","SOURCE":"Centrus"},"type":"Feature","geometry":{"type":"Point","coordinates":[-117.9046,48.5465999990498]}},{"properties":{"CITY":"CHEHALIS","ZIP":"98532","AV_SCORE":0,"FM_NAME":"Community FM","ACCURACY":"","id":"a677o8zwmiu5","ADDRESS":"BOISTFORT SQUARE","SOURCE":""},"type":"Feature","geometry":{"type":"Point","coordinates":[-122.96174,46.6633099990584]}},{"properties":{"CITY":"BOTHELL","ZIP":"98021","AV_SCORE":100,"FM_NAME":"Country Village FM","ACCURACY":"Close-Original","id":"a677o8vo1ik0","ADDRESS":"23732 BOTHELL EVERETT HWY","SOURCE":"NAVTECH"},"type":"Feature","geometry":{"type":"Point","coordinates":[-122.220443721287,47.7832678502297]}},{"properties":{"CITY":"COUPEVILLE","ZIP":"98239","AV_SCORE":77,"FM_NAME":"Coupeville FM","ACCURACY":"Approximate-Original","id":"a677o8w81adn","ADDRESS":"788 NW ALEXANDER ST","SOURCE":"NAVTECH"},"type":"Feature","geometry":{"type":"Point","coordinates":[-122.688232977471,48.2193784837272]}},{"properties":{"CITY":"LONGVIEW","ZIP":"98632","AV_SCORE":70,"FM_NAME":"Cowlitz FM","ACCURACY":"Approximate","id":"a677o8zk2z1e","ADDRESS":"7TH AVE AT NEW YORK ST","SOURCE":"Centrus"},"type":"Feature","geometry":{"type":"Point","coordinates":[-122.9246,46.1405999990575]}},{"properties":{"CITY":"DAYTON","ZIP":"99328","AV_SCORE":100,"FM_NAME":"Dayton FM","ACCURACY":"Close-Original","id":"a677o8pmi7sc","ADDRESS":"218 W MAIN ST","SOURCE":"NAVTECH"},"type":"Feature","geometry":{"type":"Point","coordinates":[-117.984299229575,46.3180904259516]}},{"properties":{"CITY":"WALLA WALLA","ZIP":"99362","AV_SCORE":70,"FM_NAME":"Downtown Walla Walla FM","ACCURACY":"Approximate","id":"a677o8m355g6","ADDRESS":"N 4TH AVE AT W MAIN ST","SOURCE":"Centrus"},"type":"Feature","geometry":{"type":"Point","coordinates":[-118.3419,46.0655999990574]}},{"properties":{"CITY":"EATONVILLE","ZIP":"98328","AV_SCORE":70,"FM_NAME":"Eatonville FM","ACCURACY":"Approximate","id":"a677o8orruje","ADDRESS":"104 N WASHINGTON AVE","SOURCE":"Centrus"},"type":"Feature","geometry":{"type":"Point","coordinates":[-122.265519,46.8670689990588]}},{"properties":{"CITY":"EPHRATA","ZIP":"98823","AV_SCORE":0,"FM_NAME":"Ephrata FM","ACCURACY":"","id":"a677o8r33mbc","ADDRESS":"35TH \"C\" STREET NW","SOURCE":""},"type":"Feature","geometry":{"type":"Point","coordinates":[-119.55197,47.3229099990426]}},{"properties":{"CITY":"EVERETT","ZIP":"98201","AV_SCORE":100,"FM_NAME":"Everett FM","ACCURACY":"Close-Original","id":"a677o8ndnqqq","ADDRESS":"1600 W MARINE VIEW DR","SOURCE":"NAVTECH"},"type":"Feature","geometry":{"type":"Point","coordinates":[-122.213913515213,47.9964705071543]}},{"properties":{"CITY":"FEDERAL WAY","ZIP":"98003","AV_SCORE":70,"FM_NAME":"Federal Way FM","ACCURACY":"Approximate","id":"a677o8t7g15u","ADDRESS":"S 320TH ST AT PACIFIC HWY S","SOURCE":"Centrus"},"type":"Feature","geometry":{"type":"Point","coordinates":[-122.3134,47.3151999990425]}},{"properties":{"CITY":"GIG HARBOR","ZIP":"98335","AV_SCORE":100,"FM_NAME":"Gig Harbor FM","ACCURACY":"Close-Original","id":"a677o8m07yzu","ADDRESS":"3500 HUNT ST NW","SOURCE":"NAVTECH"},"type":"Feature","geometry":{"type":"Point","coordinates":[-122.586913580782,47.3160407347356]}},{"properties":{"CITY":"SPOKANE","ZIP":"99205","AV_SCORE":100,"FM_NAME":"Humble Earth FM","ACCURACY":"Close-Original","id":"a677o918u8sq","ADDRESS":"4726 N OAK ST","SOURCE":"Local Roads"},"type":"Feature","geometry":{"type":"Point","coordinates":[-117.437710819358,47.7009682458696]}},{"properties":{"CITY":"ISSAQUAH","ZIP":"98027","AV_SCORE":100,"FM_NAME":"Issaquah FM","ACCURACY":"Close-Original","id":"a677o8nzezfd","ADDRESS":"1730 - 10TH AVENUE NW","SOURCE":"NAVTECH"},"type":"Feature","geometry":{"type":"Point","coordinates":[-122.05006907169,47.5498473677574]}},{"properties":{"CITY":"KENNEWICK","ZIP":"99336","AV_SCORE":100,"FM_NAME":"Kennewick FM","ACCURACY":"Close-Original","id":"a677o8otz0k3","ADDRESS":"23 W KENNEWICK AVE","SOURCE":"NAVTECH"},"type":"Feature","geometry":{"type":"Point","coordinates":[-119.117314653554,46.20861905063]}},{"properties":{"CITY":"KENT","ZIP":"98032","AV_SCORE":70,"FM_NAME":"Kent FM","ACCURACY":"Approximate","id":"a677o8nwkghd","ADDRESS":"4TH AVE N AT W SMITH ST","SOURCE":"Centrus"},"type":"Feature","geometry":{"type":"Point","coordinates":[-122.2374,47.3830999990429]}},{"properties":{"CITY":"KINGSTON","ZIP":"98346","AV_SCORE":70,"FM_NAME":"Kingston FM","ACCURACY":"Approximate","id":"a677o8xe6r88","ADDRESS":"CENTRAL AVE S AT WASHINGTON BLVD","SOURCE":"Centrus"},"type":"Feature","geometry":{"type":"Point","coordinates":[-122.4983,47.7967999990452]}},{"properties":{"CITY":"KIRKLAND","ZIP":"98033","AV_SCORE":0,"FM_NAME":"Kirkland FM","ACCURACY":"","id":"a677o90efyk2","ADDRESS":"PARK LANE E BETWEEN 3RD &amp; MAIN","SOURCE":""},"type":"Feature","geometry":{"type":"Point","coordinates":[-122.20427,47.6765199990445]}},{"properties":{"CITY":"KITTITAS","ZIP":"98926","AV_SCORE":70,"FM_NAME":"Kittitas FM","ACCURACY":"Approximate","id":"a677o91ek0ox","ADDRESS":"W 4TH AVE AT N PEARL ST","SOURCE":"Centrus"},"type":"Feature","geometry":{"type":"Point","coordinates":[-120.5472,46.9954999990591]}},{"properties":{"CITY":"LACEY","ZIP":"98503","AV_SCORE":100,"FM_NAME":"Lacey FM","ACCURACY":"Close-Original","id":"a677o8t7xs38","ADDRESS":"618 WOODLAND SQUARE LOOP SE","SOURCE":"NAVTECH"},"type":"Feature","geometry":{"type":"Point","coordinates":[-122.824436666667,47.0412941153226]}},{"properties":{"CITY":"SEATTLE","ZIP":"98125","AV_SCORE":70,"FM_NAME":"Lake City FM","ACCURACY":"Approximate","id":"a677o8qojj07","ADDRESS":"NE 127TH ST AT 30TH AVE NE","SOURCE":"Centrus"},"type":"Feature","geometry":{"type":"Point","coordinates":[-122.2963,47.7210999990448]}},{"properties":{"CITY":"LAKE FOREST PARK","ZIP":"98155","AV_SCORE":100,"FM_NAME":"Lake Forest FM","ACCURACY":"Close-Original","id":"a677o8ptc398","ADDRESS":"17171 BOTHELL WAY NE","SOURCE":"Local Roads"},"type":"Feature","geometry":{"type":"Point","coordinates":[-122.277612932559,47.7531891531154]}},{"properties":{"CITY":"LIBERTY LAKE","ZIP":"99019","AV_SCORE":0,"FM_NAME":"Liberty Lake FM","ACCURACY":"","id":"a677o8s5z3o1","ADDRESS":"1421 N MEADOWWOOD LN","SOURCE":""},"type":"Feature","geometry":{"type":"Point","coordinates":[-117.0837,47.6465999990443]}},{"properties":{"CITY":"SEATTLE","ZIP":"98199","AV_SCORE":100,"FM_NAME":"Magnolia FM","ACCURACY":"Close-Original","id":"a677o8zwt2h2","ADDRESS":"2550 34TH AVE W","SOURCE":"Local Parcels"},"type":"Feature","geometry":{"type":"Point","coordinates":[-122.399604820248,47.6420052890297]}},{"properties":{"CITY":"MOUNT VERNON","ZIP":"98273","AV_SCORE":70,"FM_NAME":"Mount Vernon FM","ACCURACY":"Approximate","id":"a677o8sejv22","ADDRESS":"W GATES ST AT MAIN ST","SOURCE":"Centrus"},"type":"Feature","geometry":{"type":"Point","coordinates":[-122.3388,48.419699999049]}},{"properties":{"CITY":"MUKILTEO","ZIP":"98275","AV_SCORE":100,"FM_NAME":"Mukilteo FM","ACCURACY":"Close-Original","id":"a677o8tvyy7q","ADDRESS":"304 LINCOLN AVE","SOURCE":"Local Parcels"},"type":"Feature","geometry":{"type":"Point","coordinates":[-122.302948141963,47.9460808443153]}},{"properties":{"CITY":"COLVILLE","ZIP":"99114","AV_SCORE":70,"FM_NAME":"NE Washington FM","ACCURACY":"Approximate","id":"a677o8tlumum","ADDRESS":"E ASTOR AVE AT S MAIN ST","SOURCE":"Centrus"},"type":"Feature","geometry":{"type":"Point","coordinates":[-117.9061,48.5433999990498]}},{"properties":{"CITY":"NORTH BEND","ZIP":"98045","AV_SCORE":100,"FM_NAME":"North Bend FM","ACCURACY":"Close-Original","id":"a677o8znkpn7","ADDRESS":"400 SE ORCHARD DR","SOURCE":"Local Parcels"},"type":"Feature","geometry":{"type":"Point","coordinates":[-121.783212399497,47.4907877632721]}},{"properties":{"CITY":"OAK HARBOR","ZIP":"98277","AV_SCORE":0,"FM_NAME":"Oak Harbor FM","ACCURACY":"","id":"a677o8vc6f61","ADDRESS":"HWY 2, NEXT TO VISITOR'S CENTER","SOURCE":""},"type":"Feature","geometry":{"type":"Point","coordinates":[-122.64815,48.3033699990483]}},{"properties":{"CITY":"OKANOGAN","ZIP":"98841","AV_SCORE":0,"FM_NAME":"Okanogan FM","ACCURACY":"","id":"a677o8yss71a","ADDRESS":"LEGION PARK","SOURCE":""},"type":"Feature","geometry":{"type":"Point","coordinates":[-119.52962,48.4110699990489]}},{"properties":{"CITY":"BATTLE GROUND","ZIP":"98604","AV_SCORE":100,"FM_NAME":"Old Town FM","ACCURACY":"Close-Original","id":"a677o8menin7","ADDRESS":"710 E MAIN ST","SOURCE":"Local Roads"},"type":"Feature","geometry":{"type":"Point","coordinates":[-122.529986622365,45.7810350962463]}},{"properties":{"CITY":"OLYMPIA","ZIP":"98501","AV_SCORE":100,"FM_NAME":"Olympia FM","ACCURACY":"Close-Original","id":"a677o8m2vr7x","ADDRESS":"700 CAPITOL WAY S","SOURCE":"NAVTECH"},"type":"Feature","geometry":{"type":"Point","coordinates":[-122.901165197039,47.0420973130212]}},{"properties":{"CITY":"PASCO","ZIP":"99301","AV_SCORE":70,"FM_NAME":"Othello FM","ACCURACY":"Approximate","id":"a677o8ynyahk","ADDRESS":"MAIN ST AT 4TH ST","SOURCE":"Centrus"},"type":"Feature","geometry":{"type":"Point","coordinates":[-119.0147,46.1991999990576]}},{"properties":{"CITY":"PASCO","ZIP":"99301","AV_SCORE":70,"FM_NAME":"Pasco FM","ACCURACY":"Approximate","id":"a677o8wxcfsg","ADDRESS":"S 4TH AVE AT W COLUMBIA ST","SOURCE":"Centrus"},"type":"Feature","geometry":{"type":"Point","coordinates":[-119.0916,46.2295999990577]}},{"properties":{"CITY":"NEWPORT","ZIP":"99156","AV_SCORE":70,"FM_NAME":"Pend Oreille FM","ACCURACY":"Approximate","id":"a677o8z2gnop","ADDRESS":"CALISPEL TRL AT HIGHWAY 2","SOURCE":"Centrus"},"type":"Feature","geometry":{"type":"Point","coordinates":[-117.0526,48.1760999990474]}},{"properties":{"CITY":"SILVERDALE","ZIP":"98383","AV_SCORE":0,"FM_NAME":"Peninsula FM","ACCURACY":"","id":"a677o8mjog00","ADDRESS":"BUCKLIN HILL","SOURCE":""},"type":"Feature","geometry":{"type":"Point","coordinates":[-122.69102,47.6506999990444]}},{"properties":{"CITY":"SEATTLE","ZIP":"98101","AV_SCORE":70,"FM_NAME":"Pike Place FM","ACCURACY":"Approximate","id":"a677o8vslzj0","ADDRESS":"PIKE PL AT PIKE ST","SOURCE":"Centrus"},"type":"Feature","geometry":{"type":"Point","coordinates":[-122.3407,47.6087999990441]}},{"properties":{"CITY":"PORT ANGELES","ZIP":"98362","AV_SCORE":100,"FM_NAME":"Port Angeles FM","ACCURACY":"Close-Original","id":"a677o8zewu89","ADDRESS":"221 N LINCOLN ST","SOURCE":"NAVTECH"},"type":"Feature","geometry":{"type":"Point","coordinates":[-123.43065221676,48.1191672656396]}},{"properties":{"CITY":"PORT ORCHARD","ZIP":"98366","AV_SCORE":0,"FM_NAME":"Port Orchard FM","ACCURACY":"","id":"a677o8qdbrv1","ADDRESS":"BEHIND BAY STREET","SOURCE":""},"type":"Feature","geometry":{"type":"Point","coordinates":[-122.6385,47.5424399990437]}},{"properties":{"CITY":"PORT TOWNSEND","ZIP":"98370","AV_SCORE":0,"FM_NAME":"Port Townsend FM","ACCURACY":"","id":"a677o904ndsl","ADDRESS":"TYLER ST BETWEEN LAWRENCE &amp; CLAY","SOURCE":""},"type":"Feature","geometry":{"type":"Point","coordinates":[-122.76029,48.1170599990471]}},{"properties":{"CITY":"POULSBO","ZIP":"98370","AV_SCORE":75,"FM_NAME":"Poulsbo FM","ACCURACY":"Approximate-Original","id":"a677o8nwchp1","ADDRESS":"19034 - 7TH AVENUE &amp; IVERSON","SOURCE":"TIGER 2000"},"type":"Feature","geometry":{"type":"Point","coordinates":[-122.640423631257,47.7387426033375]}},{"properties":{"CITY":"TACOMA","ZIP":"98407","AV_SCORE":70,"FM_NAME":"Proctor FM","ACCURACY":"Approximate","id":"a677o8qspzto","ADDRESS":"N 27TH ST AT N PROCTOR ST","SOURCE":"Centrus"},"type":"Feature","geometry":{"type":"Point","coordinates":[-122.4889,47.2719999990423]}},{"properties":{"CITY":"PROSSER","ZIP":"99350","AV_SCORE":70,"FM_NAME":"Prosser FM","ACCURACY":"Approximate","id":"a677o8zp1ptj","ADDRESS":"7TH ST AT SOMMERS ST","SOURCE":"Centrus"},"type":"Feature","geometry":{"type":"Point","coordinates":[-119.7658,46.2040999990576]}},{"properties":{"CITY":"PUYALLUP","ZIP":"98371","AV_SCORE":100,"FM_NAME":"Puyallup FM","ACCURACY":"Close-Original","id":"a677o8wfxm6i","ADDRESS":"330 S MERIDIAN","SOURCE":"Local Roads"},"type":"Feature","geometry":{"type":"Point","coordinates":[-122.293723470052,47.189577190411]}},{"properties":{"CITY":"REDMOND","ZIP":"98052","AV_SCORE":100,"FM_NAME":"Redmond FM","ACCURACY":"Close-Original","id":"a677o8ujtdh6","ADDRESS":"7730 LEARY WAY NE","SOURCE":"Local Roads"},"type":"Feature","geometry":{"type":"Point","coordinates":[-122.123637717774,47.6725640349563]}},{"properties":{"CITY":"RENTON","ZIP":"98005","AV_SCORE":0,"FM_NAME":"Renton FM","ACCURACY":"","id":"a677o8se43wo","ADDRESS":"S. THIRD STREET","SOURCE":""},"type":"Feature","geometry":{"type":"Point","coordinates":[-122.20852,47.4798099990434]}},{"properties":{"CITY":"ROSLYN","ZIP":"98922","AV_SCORE":0,"FM_NAME":"Roslyn FM","ACCURACY":"","id":"a677o922rrci","ADDRESS":"PENNSYLVANIA AVENUE","SOURCE":""},"type":"Feature","geometry":{"type":"Point","coordinates":[-120.9955,47.225419999042]}},{"properties":{"CITY":"FRIDAY HARBOR","ZIP":"98250","AV_SCORE":0,"FM_NAME":"San Juan FM","ACCURACY":"","id":"a677o8yw8l5w","ADDRESS":"SECOND STREET","SOURCE":""},"type":"Feature","geometry":{"type":"Point","coordinates":[-123.01723,48.5345199990497]}},{"properties":{"CITY":"SEDRO WOOLLEY","ZIP":"98284","AV_SCORE":70,"FM_NAME":"Sedro Woolley FM","ACCURACY":"Approximate","id":"a677o8z2vs6v","ADDRESS":"FERRY ST AT METCALF ST","SOURCE":"Centrus"},"type":"Feature","geometry":{"type":"Point","coordinates":[-122.2386,48.5053999990496]}},{"properties":{"CITY":"SEQUIM","ZIP":"98382","AV_SCORE":70,"FM_NAME":"Sequim FM","ACCURACY":"Approximate","id":"a677o8x0ovu5","ADDRESS":"W CEDAR ST AT N 2ND AVE","SOURCE":"Centrus"},"type":"Feature","geometry":{"type":"Point","coordinates":[-123.105,48.0804999990469]}},{"properties":{"CITY":"SHELTON","ZIP":"98584","AV_SCORE":100,"FM_NAME":"Shelton FM","ACCURACY":"Close-Original","id":"a677o8oaerev","ADDRESS":"120 E HARVARD AVE","SOURCE":"NAVTECH"},"type":"Feature","geometry":{"type":"Point","coordinates":[-123.101161618118,47.2065740307788]}},{"properties":{"CITY":"SOUTH WHIDBEY","ZIP":"98260","AV_SCORE":70,"FM_NAME":"South Whidbey Tilth","ACCURACY":"Approximate","id":"a677o8ocw0dx","ADDRESS":"STATE ROUTE 525 AT THOMPSON RD","SOURCE":"Centrus"},"type":"Feature","geometry":{"type":"Point","coordinates":[-122.4732,48.0079999990465]}},{"properties":{"CITY":"SPOKANE","ZIP":"99201","AV_SCORE":0,"FM_NAME":"Spokane FM","ACCURACY":"","id":"a677o8qpd7xo","ADDRESS":"2ND AVE BETWEEN DIVISION &amp; BROWNE","SOURCE":""},"type":"Feature","geometry":{"type":"Point","coordinates":[-117.41126,47.6546499990444]}},{"properties":{"CITY":"TACOMA","ZIP":"98402","AV_SCORE":0,"FM_NAME":"Tacoma FM","ACCURACY":"","id":"a677o91zu3k1","ADDRESS":"BROADWAY BETWEEN 9TH &amp; 11TH","SOURCE":""},"type":"Feature","geometry":{"type":"Point","coordinates":[-122.43981,47.2535499990422]}},{"properties":{"CITY":"UNIVERSITY PLACE","ZIP":"98466","AV_SCORE":100,"FM_NAME":"The Harvest Event FM","ACCURACY":"Close-Original","id":"a677o8ndpnvw","ADDRESS":"3715 BRIDGEPORT WAY W","SOURCE":"Local Parcels"},"type":"Feature","geometry":{"type":"Point","coordinates":[-122.53618,47.223999999042]}},{"properties":{"CITY":"SEATTLE","ZIP":"98105","AV_SCORE":70,"FM_NAME":"University District FM","ACCURACY":"Approximate","id":"a677o8zcozj5","ADDRESS":"NE 50TH ST AT UNIVERSITY WAY NE","SOURCE":"Centrus"},"type":"Feature","geometry":{"type":"Point","coordinates":[-122.3131,47.6648999990445]}},{"properties":{"CITY":"VANCOUVER","ZIP":"98660","AV_SCORE":70,"FM_NAME":"Vancouver FM","ACCURACY":"Approximate","id":"a677o8r4agw7","ADDRESS":"ESTHER ST AT W 8TH ST","SOURCE":"Centrus"},"type":"Feature","geometry":{"type":"Point","coordinates":[-122.676,45.627299999057]}},{"properties":{"CITY":"WENATCHEE","ZIP":"98801","AV_SCORE":0,"FM_NAME":"Wenatchee Valley FM","ACCURACY":"","id":"a677o8wpuwlz","ADDRESS":"5TH STREET","SOURCE":""},"type":"Feature","geometry":{"type":"Point","coordinates":[-120.33587,47.4299999990431]}},{"properties":{"CITY":"SEATTLE","ZIP":"98116","AV_SCORE":70,"FM_NAME":"West Seattle FM","ACCURACY":"Approximate","id":"a677o90ee4mg","ADDRESS":"CALIFORNIA AVE SW AT SW ALASKA ST","SOURCE":"Centrus"},"type":"Feature","geometry":{"type":"Point","coordinates":[-122.3868,47.5610999990439]}},{"properties":{"CITY":"WOODINVILLE","ZIP":"98072","AV_SCORE":100,"FM_NAME":"Woodinville FM","ACCURACY":"Close-Original","id":"a677o90xyw91","ADDRESS":"13203 NE 175TH ST","SOURCE":"Local Roads"},"type":"Feature","geometry":{"type":"Point","coordinates":[-122.163139761202,47.7543116360397]}},{"properties":{"CITY":"YAKIMA","ZIP":"98901","AV_SCORE":70,"FM_NAME":"Yakima FM","ACCURACY":"Approximate","id":"a677o8v3u47b","ADDRESS":"S 3RD ST AT E YAKIMA AVE","SOURCE":"Centrus"},"type":"Feature","geometry":{"type":"Point","coordinates":[-120.503,46.6028999990583]}}],"is_temporal":false,"author":{"url":"http://ww4.doh.wa.gov/gis/gisdata.htm","metadata":"http://ww4.doh.wa.gov/gis/metadata/farmers_markets.htm","contact_name":"","contact_address":"","source":"Washington State Department of Health","contact_phone":""},"source":"http://ww4.doh.wa.gov/gis/gisdata.htm","pagination":{"sort":null,"start":0,"total":75,"limit":1000000},"state":"complete","tags":"agriculture,health,washington","published":"2008-03-20T12:00:00Z","id":3280}