{"type":"FeatureCollection","data_type":"Dataset","url_type":null,"permissions":[{"permissions":{"download":true,"view":true},"group_id":"everyone"}],"classification":null,"title":"Child Psychiatric Facility","count":15,"stream_id":328490,"contributor":{"url":"http://geocommons.com/users/64114","name":"shuse"},"data_attributes":null,"calculation_params":null,"icon_link":null,"link":"http://geocommons.com/overlays/328490.json","extent":[-72.6331,41.9262,-70.7659,42.849],"geometry_types":["point"],"unique_name":null,"name":"Child Psychiatric Facility","feature_count":15,"description":"","next_feature":null,"is_raster":false,"short_classification":"Y","stats":{"# beds":{"max":37,"variance":53.8857142857143,"mean":18.2,"stdev":7.34068895170707,"min":10,"median":16}},"features":[{"properties":{"city":"Amesbury","hospital":"Anna Jaques Hospital","geo_score":0.883,"zip code":"01913","note":"Ages 4 to 17 on 12-bed locked unit.","# beds":12,"id":"acn2wz0w85ss","address":"24 Morrill Place","geo_precision":"range","state":"MA"},"type":"Feature","geometry":{"type":"Point","coordinates":[-70.932608,42.84899]}},{"properties":{"city":"Boston","hospital":"Arbour Hospital","geo_score":0.745,"zip code":"02130","note":"12 to 18 years on 22-bed unit","# beds":22,"id":"acn2wypwa4bh","address":"49 Robinwood Road","geo_precision":"range","state":"MA"},"type":"Feature","geometry":{"type":"Point","coordinates":[-71.112073,42.316164]}},{"properties":{"city":"Brookline","hospital":"Bournewood Hospital","geo_score":0.512,"zip code":"02467","note":"10 to 18 years on 14-bed secure unit","# beds":14,"id":"acn2wz2vo9rm","address":"300 South Street","geo_precision":"street","state":"MA"},"type":"Feature","geometry":{"type":"Point","coordinates":[-71.15099,42.29774]}},{"properties":{"city":"Cambridge","hospital":"Cambridge Health Alliance","geo_score":0.885,"zip code":"02139","note":"3 to 19 years on 2 secured units at Cambridge campus","# beds":27,"id":"acn2wz0itbgy","address":"1493 Cambridge Street","geo_precision":"range","state":"MA"},"type":"Feature","geometry":{"type":"Point","coordinates":[-71.103176,42.374099]}},{"properties":{"city":"Dorchester","hospital":"Caritas Carney Hospital","geo_score":0.862,"zip code":"02124","note":"12 to 19 years on a 14-bed locked unit","# beds":14,"id":"acn2wytbjf35","address":"2100 Dorchester Avenue","geo_precision":"range","state":"MA"},"type":"Feature","geometry":{"type":"Point","coordinates":[-71.066409,42.277984]}},{"properties":{"city":"Boston","hospital":"Children's Hosptal","geo_score":0.78,"zip code":"02115","note":"Boys and girls, 8 through 17 years on a 16-bed locked unit.","# beds":16,"id":"acn2wyq8lrug","address":"300 Longwood Avenue","geo_precision":"range","state":"MA"},"type":"Feature","geometry":{"type":"Point","coordinates":[-71.100306,42.335941]}},{"properties":{"city":"Brighton","hospital":"Franciscan Children's Hospital","geo_score":0.883,"zip code":"02135","note":null,"# beds":24,"id":"acn2wyonyl9w","address":"30 Warren Street","geo_precision":"range","state":"MA"},"type":"Feature","geometry":{"type":"Point","coordinates":[-71.144568,42.349865]}},{"properties":{"city":"Lowell","hospital":"Lowell Youth Treatment Center","geo_score":0.756,"zip code":"01854","note":"13 to 18 years on 10-bed unit.","# beds":10,"id":"acn2wytdvfgx","address":"391 Varnum Avenue","geo_precision":"range","state":"MA"},"type":"Feature","geometry":{"type":"Point","coordinates":[-71.344356,42.645677]}},{"properties":{"city":"Natick","hospital":"Metrowest Medical Center","geo_score":0.878,"zip code":"01760","note":"3 to 17 years on 12-bed locked unit.","# beds":12,"id":"acn2wyo97aey","address":"67 Union Street","geo_precision":"range","state":"MA"},"type":"Feature","geometry":{"type":"Point","coordinates":[-71.330694,42.279514]}},{"properties":{"city":"Lynn","hospital":"North Shore Medical Center","geo_score":0.87,"zip code":"01904","note":"17 years and younger on 20-bed DMH licensed unit in Danvers. 17-bed DMH unit in Lynn at NSMC Union Hospital campus.","# beds":37,"id":"acn2wyyzxy2v","address":"500 Lynnfield St.","geo_precision":"range","state":"MA"},"type":"Feature","geometry":{"type":"Point","coordinates":[-70.978403,42.501384]}},{"properties":{"city":"Pembroke","hospital":"Pembroke Hospital","geo_score":0.883,"zip code":"02359","note":"13 to 18 years, 18 bed total.","# beds":18,"id":"acn2wys3a1z1","address":"199 Oak Street","geo_precision":"range","state":"MA"},"type":"Feature","geometry":{"type":"Point","coordinates":[-70.765868,42.1003]}},{"properties":{"city":"Holyoke","hospital":"Providence Hospital (Mercy)","geo_score":0.881,"zip code":"01040","note":"12-bed latency unit and a 12-bed adolescent unit; also a 22-bed acute residential treatment unit of which 5 beds are transitional care unit beds, total of 46 beds.","# beds":24,"id":"acn2wyzssza1","address":"1233 Main Street","geo_precision":"range","state":"MA"},"type":"Feature","geometry":{"type":"Point","coordinates":[-72.633106,42.163429]}},{"properties":{"city":"South Attelboro","hospital":"UHS - Fuller","geo_score":0.885,"zip code":"02703","note":"12 to 18 years on 14-bed locked unit.","# beds":14,"id":"acn2wz362a5o","address":"200 May Street","geo_precision":"range","state":"MA"},"type":"Feature","geometry":{"type":"Point","coordinates":[-71.360516,41.926181]}},{"properties":{"city":"Westwood","hospital":"UHS - Westwood Pembroke","geo_score":0.866,"zip code":"02090","note":"4 to 12 years on 12-bed unit.","# beds":12,"id":"acn2wz0eytqg","address":"45 Clapboard Tree Street","geo_precision":"range","state":"MA"},"type":"Feature","geometry":{"type":"Point","coordinates":[-71.224195,42.208405]}},{"properties":{"city":"Westwood","hospital":"UHS - Westwood Pembroke","geo_score":0.866,"zip code":"02090","note":"13 to 18 years, 17 bed total","# beds":17,"id":"acn2wz0pekow","address":"45 Clapboard Tree Street","geo_precision":"range","state":"MA"},"type":"Feature","geometry":{"type":"Point","coordinates":[-71.224195,42.208405]}}],"is_temporal":false,"author":{"url":"","metadata":"","contact_name":"","contact_address":"","source":"","contact_phone":""},"source":"","pagination":{"sort":null,"start":0,"total":15,"limit":1000000},"state":"complete","tags":"","published":"2014-08-16T23:33:08-04:00","id":328490}