{"type":"FeatureCollection","data_type":"Dataset Analysis","url_type":null,"permissions":[{"permissions":{"download":true,"view":true},"group_id":"everyone"}],"classification":null,"title":"Relationship between level of involvement and level of involvement from Closing the Hunger Gap: Food Security Conference","count":27,"stream_id":328910,"contributor":{"url":"http://geocommons.com/users/61466","name":"wnsw223"},"data_attributes":null,"calculation_params":{"input":{"columns":[{"column":"level of involvement","id":"328870"},{"column":"level of involvement","id":"328870"}]},"calculation":"residual"},"icon_link":null,"link":"http://geocommons.com/overlays/328910.json","extent":[-122.632,29.4192,-72.6667,45.586],"geometry_types":["point"],"unique_name":null,"name":"Relationship between level of involvement and level of involvement from Closing the Hunger Gap: Food Security Conference","feature_count":27,"description":"Dataset derived by applying Refinement module/residual analysis to 'Closing the Hunger Gap: Food Security Conference' ","next_feature":null,"is_raster":false,"short_classification":"Y","stats":{"x_column":"level of involvement","residual_x":{"max":0.0,"variance":0.0,"mean":0.0,"stdev":0.0,"min":0.0,"median":0.0},"residual_y":{"max":0.0,"variance":0.0,"mean":0.0,"stdev":0.0,"min":0.0,"median":0.0},"y_column":"level of involvement","level of involvement":{"max":3,"variance":0.507122507122507,"pearsons":{"level of involvement":1.0},"mean":1.74074074074074,"stdev":0.712125345092075,"min":1,"median":2}},"features":[{"properties":{"city":"Amarillo","residual_x":0.0,"organization name":"High Plains Food Bank","residual_y":0.0,"zipcode":"79102","geo_score":1.0,"url":"http://www.hpfb.org/","level of involvement":1,"contact(s)":"Cara Young","id":"acnttd9p019j","geo_precision":"range","address":"815 Ross Street","track involvement":"N/A","email":"cara@hpfb.org","state":"TX"},"type":"Feature","geometry":{"type":"Point","coordinates":[-101.815688,35.201734]}},{"properties":{"city":"Charleston","residual_x":0.0,"organization name":"Low Country Food Bank","residual_y":0.0,"zipcode":"29405","geo_score":0.963,"url":"http://www.lowcountryfoodbank.org/hope","level of involvement":2,"contact(s)":"Anna Hamilton","id":"acnttdkf8qvc","geo_precision":"range","address":"2864 Azalea Drive","track involvement":"N/A","email":"annahamilton1230@yahoo.com","state":"SC"},"type":"Feature","geometry":{"type":"Point","coordinates":[-79.970705,32.843383]}},{"properties":{"city":"Grove City,","residual_x":0.0,"organization name":"Mid Ohio Food Bank","residual_y":0.0,"zipcode":"43123","geo_score":0.991,"url":"http://www.midohiofoodbank.org/","level of involvement":2,"contact(s)":"Matt Habbash, Bridgett DeCrane","id":"acnttdgdwvdd","geo_precision":"range","address":"3960 Brookham Drive","track involvement":"Evaluation","email":"mhabbash@Midohiofoodbank.org, BDeCrane@Midohiofoodbank.org","state":"OH"},"type":"Feature","geometry":{"type":"Point","coordinates":[-83.050358,39.881461]}},{"properties":{"city":"Chattanooga","residual_x":0.0,"organization name":"Chattanooga Area Food Bank","residual_y":0.0,"zipcode":"37406","geo_score":1.0,"url":"http://www.chattfoodbank.org/","level of involvement":2,"contact(s)":"Jane Mauldin","id":"acnttd5mubhf","geo_precision":"range","address":"2009 Curtain Pole Road","track involvement":"Gardening &amp; Farming, Nutrition &amp; Cooking","email":"jmauldin@chattfoodbank.org","state":"TN"},"type":"Feature","geometry":{"type":"Point","coordinates":[-85.27582,35.060554]}},{"properties":{"city":"Chicago","residual_x":0.0,"organization name":"Greater Chicago Food Depository","residual_y":0.0,"zipcode":"60632","geo_score":0.935,"url":"http://www.chicagosfoodbank.org/site/PageServer","level of involvement":1,"contact(s)":"Kate Maehr","id":"acnttd58zayw","geo_precision":"range","address":"4100 West 42nd Place","track involvement":"N/A","email":"krmaehr@gcfd.org","state":"IL"},"type":"Feature","geometry":{"type":"Point","coordinates":[-87.728179,41.8163]}},{"properties":{"city":"Norfolk","residual_x":0.0,"organization name":"Federation of Virginia Food Banks","residual_y":0.0,"zipcode":"23504","geo_score":1.0,"url":"http://vafoodbanks.org/","level of involvement":1,"contact(s)":"Leslie Van Horn","id":"acnttdj1r5fp","geo_precision":"range","address":"800 Tidewater Drive","track involvement":"N/A","email":"leslie@vafoodbanks.org","state":"VA"},"type":"Feature","geometry":{"type":"Point","coordinates":[-76.275106,36.852858]}},{"properties":{"city":"Lubbock","residual_x":0.0,"organization name":"South Plains Food Bank","residual_y":0.0,"zipcode":"79404","geo_score":1.0,"url":"http://www.spfb.org/","level of involvement":1,"contact(s)":"David Weaver","id":"acnttdbfblec","geo_precision":"range","address":"4612 Locust Avenue","track involvement":"N/A","email":"N/A","state":"TX"},"type":"Feature","geometry":{"type":"Point","coordinates":[-101.823885,33.55102]}},{"properties":{"city":"Fort Worth","residual_x":0.0,"organization name":"Texas Food Bank Network","residual_y":0.0,"zipcode":"76103","geo_score":0.513,"url":"http://tfbn.org/","level of involvement":1,"contact(s)":"Summer Stringer","id":"acnttd80goqu","geo_precision":"street","address":"2001 Beach St # 630","track involvement":"N/A","email":"sstringer@tfbn.org","state":"TX"},"type":"Feature","geometry":{"type":"Point","coordinates":[-97.288631,32.755817]}},{"properties":{"city":"Denver","residual_x":0.0,"organization name":"Food Bank of the Rockies","residual_y":0.0,"zipcode":"80239","geo_score":0.941,"url":"http://www.foodbankrockies.org/","level of involvement":1,"contact(s)":"Kevin Seggelke","id":"acnttdfvefa1","geo_precision":"range","address":"10700 East 45th Avenue","track involvement":"N/A","email":"kseggelke@foodbankrockies.org","state":"CO"},"type":"Feature","geometry":{"type":"Point","coordinates":[-104.861316,39.778859]}},{"properties":{"city":"Phoenix","residual_x":0.0,"organization name":"St. Mary's Food Bank","residual_y":0.0,"zipcode":"85009","geo_score":0.614,"url":"http://www.firstfoodbank.org/","level of involvement":1,"contact(s)":"Kimberly Roland","id":"acnttdj3cn3k","geo_precision":"street","address":"2831 N. 31st Avenue","track involvement":"Nutrition &amp; Cooking","email":"kbroland@firstfoodbank.org","state":"AZ"},"type":"Feature","geometry":{"type":"Point","coordinates":[-112.126014,33.44764]}},{"properties":{"city":"Lincoln","residual_x":0.0,"organization name":"Food Bank of Lincoln","residual_y":0.0,"zipcode":"68504","geo_score":0.625,"url":"http://www.lincolnfoodbank.org/","level of involvement":2,"contact(s)":"Scott Young","id":"acnttdgirwz9","geo_precision":"street","address":"4840 Doris Bair Cr. Ste. A","track involvement":"N/A","email":"scottyoung@lincolnfoodbank.org","state":"NE"},"type":"Feature","geometry":{"type":"Point","coordinates":[-96.673695,40.857166]}},{"properties":{"city":"San Antonio","residual_x":0.0,"organization name":"San Antonio Food Bank","residual_y":0.0,"zipcode":"78227","geo_score":0.941,"url":"http://www.safoodbank.org/","level of involvement":3,"contact(s)":"Eric Cooper","id":"acnttd8839zr","geo_precision":"range","address":"5200 Old Hwy 90 W","track involvement":"Nutrition &amp; Cooking, National Framing","email":"gmacias@safoodbank.org","state":"TX"},"type":"Feature","geometry":{"type":"Point","coordinates":[-98.590238,29.419194]}},{"properties":{"city":"Duquesne","residual_x":0.0,"organization name":"Greater Pittsburgh Community Food Bank","residual_y":0.0,"zipcode":"15110","geo_score":0.973,"url":"http://www.pittsburghfoodbank.org/","level of involvement":2,"contact(s)":"Lisa Scales, Laura Randolph","id":"acnttddp41df","geo_precision":"range","address":"1 North Linden Street","track involvement":"Youth Leadership &amp; School Partnerships","email":"LScales@pittsburghfoodbank.org, lrandolph@pittsburghfoodbank.org","state":"PA"},"type":"Feature","geometry":{"type":"Point","coordinates":[-79.840841,40.370438]}},{"properties":{"city":"Bloomfield","residual_x":0.0,"organization name":"Foodshare","residual_y":0.0,"zipcode":"6002","geo_score":1.0,"url":"http://site.foodshare.org/site/PageServer?pagename=index","level of involvement":2,"contact(s)":"Gloria McAdams","id":"acnttdjgyhnl","geo_precision":"range","address":"450 Woodland Avenue","track involvement":"Government Partnerships","email":"gmcadam@foodshare.org","state":"CT"},"type":"Feature","geometry":{"type":"Point","coordinates":[-72.727759,41.861673]}},{"properties":{"city":"San Diego","residual_x":0.0,"organization name":"Jacobs &amp; Cushman San Diego Food Bank","residual_y":0.0,"zipcode":"92121","geo_score":1.0,"url":"http://sandiegofoodbank.org/","level of involvement":1,"contact(s)":"Lisa Bacon","id":"acnttdaq2r7e","geo_precision":"range","address":"9850 Distribution Avenue","track involvement":"N/A","email":"lbacon@sandiegofoodbank.org","state":"CA"},"type":"Feature","geometry":{"type":"Point","coordinates":[-117.16324,32.886159]}},{"properties":{"city":"Colorado Springs","residual_x":0.0,"organization name":"Care and Share Food Bank","residual_y":0.0,"zipcode":"80915","geo_score":0.585,"url":"http://careandshare.org/","level of involvement":1,"contact(s)":"Jennifer Mariano","id":"acnttd4wa5mm","geo_precision":"zip","address":"2605 Preamble Point","track involvement":"N/A","email":"Jennifer@careandshare.org","state":"CO"},"type":"Feature","geometry":{"type":"Point","coordinates":[-104.751515,38.874436]}},{"properties":{"city":"Raleigh","residual_x":0.0,"organization name":"Interfaith Food Shuttle","residual_y":0.0,"zipcode":"27603","geo_score":1.0,"url":"http://www.foodshuttle.org/","level of involvement":1,"contact(s)":"Katherine Andrew, Kia Baker","id":"acnttdazzv7u","geo_precision":"range","address":"1001 Blair Drive","track involvement":"N/A","email":"N/A","state":"NC"},"type":"Feature","geometry":{"type":"Point","coordinates":[-78.668198,35.770052]}},{"properties":{"city":"Downingtown","residual_x":0.0,"organization name":"Chester County Food Bank","residual_y":0.0,"zipcode":"19335","geo_score":1.0,"url":"http://chestercountyfoodbank.org/","level of involvement":2,"contact(s)":"Phoebe Kitson","id":"acnttdhhtfu0","geo_precision":"range","address":"1208 Horseshoe Pike","track involvement":"N/A","email":"pkitson@chestercountyfoodbank.org","state":"PA"},"type":"Feature","geometry":{"type":"Point","coordinates":[-75.765588,40.034008]}},{"properties":{"city":"Elmira","residual_x":0.0,"organization name":"Food Bank of Southern Tier","residual_y":0.0,"zipcode":"14903","geo_score":1.0,"url":"http://www.foodbankst.org/","level of involvement":2,"contact(s)":"Natasha Thompson, Matt Griffin","id":"acnttdd0hfyy","geo_precision":"range","address":"388 Upper Oakwood Avenue","track involvement":"N/A","email":"nrthompson@feedingamerica.org, mgriffin@feedingamerica.org","state":"NY"},"type":"Feature","geometry":{"type":"Point","coordinates":[-76.825439,42.136458]}},{"properties":{"city":"Santa Barbara","residual_x":0.0,"organization name":"Food Bank of Santa Barbara County","residual_y":0.0,"zipcode":"93110","geo_score":1.0,"url":"http://www.foodbanksbc.org/","level of involvement":3,"contact(s)":"Erik Talkin, Serena Fuller","id":"acnttdfxopyt","geo_precision":"range","address":"4554 Hollister Ave.","track involvement":"Nutrition &amp; Cooking, National Framing","email":"etalkin@foodbanksbc.org, sfuller@foodbanksbc.org","state":"CA"},"type":"Feature","geometry":{"type":"Point","coordinates":[-119.781539,34.438184]}},{"properties":{"city":"Oklahoma City","residual_x":0.0,"organization name":"Regional Food Bank of Oklahoma","residual_y":0.0,"zipcode":"73137","geo_score":0.805,"url":"http://www.regionalfoodbank.org/","level of involvement":3,"contact(s)":"Mason Weaver","id":"acnttdck9jz6","geo_precision":"range","address":"3355 South Purdue Avenue","track involvement":"Gardening &amp; Farming","email":"mweaver@regionalfoodbank.org","state":"OK"},"type":"Feature","geometry":{"type":"Point","coordinates":[-97.613717,35.42831]}},{"properties":{"city":"Portland","residual_x":0.0,"organization name":"Oregon Food Bank","residual_y":0.0,"zipcode":"97211","geo_score":0.82,"url":"http://www.oregonfoodbank.org/?c=130039703102560263","level of involvement":2,"contact(s)":"Sharon Thornberry","id":"acnttda5ud8x","geo_precision":"range","address":"7900 Northeast 33rd Drive","track involvement":"Policy &amp; Partnerships","email":"sthornberry@oregonfoodbank.org","state":"OR"},"type":"Feature","geometry":{"type":"Point","coordinates":[-122.632017,45.585969]}},{"properties":{"city":"Watsonville","residual_x":0.0,"organization name":"Second Harvest Food Bank of Santa Cruz County","residual_y":0.0,"zipcode":"95076","geo_score":0.505,"url":"http://www.thefoodbank.org/","level of involvement":3,"contact(s)":"Willy McCrae","id":"acnttdfjdpw0","geo_precision":"street","address":"800 Ohlone Parkway","track involvement":"National Framing","email":"willy@thefoodbank.org","state":"CA"},"type":"Feature","geometry":{"type":"Point","coordinates":[-122.03307,37.088955]}},{"properties":{"city":"Huntsville","residual_x":0.0,"organization name":"Food Bank of Northern Alabama","residual_y":0.0,"zipcode":"35804","geo_score":0.286,"url":"http://fbofna.org/","level of involvement":2,"contact(s)":"Katheryn Strickland","id":"acnttdhdpeat","geo_precision":"street","address":"P.O. Box 18607","track involvement":"Economic Development","email":"kstickland@fbofna.org","state":"AL"},"type":"Feature","geometry":{"type":"Point","coordinates":[-86.548847,34.60346]}},{"properties":{"city":"Rochester","residual_x":0.0,"organization name":"Foodlink","residual_y":0.0,"zipcode":"14615","geo_score":1.0,"url":"http://foodlinkny.org/","level of involvement":2,"contact(s)":"Laura Sugarwala, Jeanette Batiste","id":"acnttdgwvhq6","geo_precision":"range","address":"1999 Mount Read Boulevard","track involvement":"Economic Development","email":"lsugarwala@foodlinkny.org, jbatiste@foodlinkny.org","state":"NY"},"type":"Feature","geometry":{"type":"Point","coordinates":[-77.659542,43.193911]}},{"properties":{"city":"Barre","residual_x":0.0,"organization name":"Vermont Food Bank","residual_y":0.0,"zipcode":"5641","geo_score":0.617,"url":"http://www.vtfoodbank.org/","level of involvement":2,"contact(s)":"Michele Wallace","id":"acnttdco0o4e","geo_precision":"street","address":"33 Parker Road","track involvement":"Gardening &amp; Farming, National Framing","email":"mwallace@vtfoodbank.org","state":"VT"},"type":"Feature","geometry":{"type":"Point","coordinates":[-72.666691,44.631099]}},{"properties":{"city":"Phoenix","residual_x":0.0,"organization name":"Desert Mission Food Bank","residual_y":0.0,"zipcode":"85020","geo_score":0.625,"url":"http://www.jcl.com/desert-mission/food-bank","level of involvement":1,"contact(s)":"Ed Debiec","id":"acnttdhnbhp1","geo_precision":"street","address":"9229 N. Fourth St","track involvement":"N/A","email":"Ed.Debiec@jcl.com","state":"AZ"},"type":"Feature","geometry":{"type":"Point","coordinates":[-112.068842,33.55467]}}],"is_temporal":false,"author":{"url":null,"metadata":null,"contact_name":null,"contact_address":null,"source":null,"contact_phone":null},"source":null,"pagination":{"sort":null,"start":0,"total":27,"limit":1000000},"state":"complete","tags":"","published":"2014-08-17T00:00:34-04:00","id":328910}