{"type":"FeatureCollection","data_type":"Dataset","url_type":null,"permissions":[{"permissions":{"download":true,"view":true},"group_id":"everyone"}],"classification":null,"title":"Hawaii Statewide GIS Program, Emergency Shelters, Hawaii, 2006","count":194,"stream_id":3300,"contributor":{"url":"http://geocommons.com/users/140","name":"Brendan"},"data_attributes":null,"calculation_params":null,"icon_link":null,"link":"http://geocommons.com/overlays/3300.json","extent":[-159.716,19.2025,-154.927,22.2123],"geometry_types":["point"],"unique_name":null,"name":"Hawaii Statewide GIS Program, Emergency Shelters, Hawaii, 2006","feature_count":194,"description":"Emergency Shelter locations for the State of Hawaii.\n\t\t\nSource(s):\tPacific Disaster Center.  Dated: 07/01/2005.\n\t\tMaui County.  Dated:  11/21/06.\ncont. with metadata link\nThis dataset was collected from the Hawaii Statewide GIS Program: The Office of Planning GIS Program leads a multi-agency effort to establish, promote, and coordinate the use of geographic information systems (GIS) technology among Hawaii State Government agencies. The State Office of Planning is responsible for the planning and coordination of activities that are critical to the Stateâ€™s enterprise GIS. The primary goal of the Statewide GIS Program is to improve overall efficiency and effectiveness in government decision-making. To find similar datasets please search with the following unique identifier: Hawaii-gis.","next_feature":null,"is_raster":false,"short_classification":"Y","stats":{"SCHOOL_COD":{"max":464,"mean":25.9226804123711,"variance":11238.7349233481,"stdev":106.012899796903,"min":0,"median":0},"HIGH":{"max":1,"mean":0.0154639175257732,"variance":0.0153036696757652,"stdev":0.123708001664262,"min":0,"median":0},"PHONE":{"max":null,"min":null,"median":null},"ZIPCODE":{"max":null,"min":null,"median":null},"MIDDLE":{"max":1,"mean":0.00515463917525773,"variance":0.00515463917525772,"stdev":0.0717958158617738,"min":0,"median":0},"ELEMENTARY":{"max":1,"mean":0.0360824742268041,"variance":0.0349607392767481,"stdev":0.186977911200088,"min":0,"median":0},"EVAC_ZONE":{"max":5.0,"mean":0.201030927835052,"variance":0.62777095240639,"stdev":0.792319981072287,"min":0.0,"median":0.0},"OBJECTID":{"max":219,"mean":103.427835051546,"variance":4148.00771860477,"stdev":64.405028674823,"min":1,"median":98},"CAPACITY":{"max":2649,"mean":106.788659793814,"variance":171592.032824101,"stdev":414.236686960609,"min":0,"median":0},"W_UPGRADE":{"max":784.0,"mean":16.9278350515464,"variance":8321.42481705038,"stdev":91.2218439687029,"min":0.0,"median":0.0},"SPACE":{"max":2649.0,"mean":121.943298969072,"variance":190500.468270926,"stdev":436.463593293789,"min":0.0,"median":0.0}},"features":[{"properties":{"SCHOOL_COD":0,"HIGH":0,"PHONE":"6721100","ZIPCODE":"96707","MIDDLE":0,"BUSNAME":"Mauka Lani ES","CONTACT":"","TYPE":"","ELEMENTARY":0,"EVAC_ZONE":0.0,"PLACENAME":"Kapolei","OBJECTID":1,"CAPACITY":0,"id":"a66ldxycnbws","ADDRESS":"92-1300 Panana St","W_UPGRADE":0.0,"SPACE":0.0},"type":"Feature","geometry":{"type":"Point","coordinates":[-158.083648103096,21.358432686565]}},{"properties":{"SCHOOL_COD":0,"HIGH":0,"PHONE":"6721122","ZIPCODE":"96707","MIDDLE":0,"BUSNAME":"Makakilo ES","CONTACT":"","TYPE":"","ELEMENTARY":0,"EVAC_ZONE":0.0,"PLACENAME":"Kapolei","OBJECTID":2,"CAPACITY":0,"id":"a66ldxrdjil8","ADDRESS":"92-675 Anipeahi St","W_UPGRADE":0.0,"SPACE":0.0},"type":"Feature","geometry":{"type":"Point","coordinates":[-158.084755615268,21.3443202232819]}},{"properties":{"SCHOOL_COD":0,"HIGH":0,"PHONE":"6937000","ZIPCODE":"96707","MIDDLE":0,"BUSNAME":"Kapolei ES","CONTACT":"","TYPE":"","ELEMENTARY":0,"EVAC_ZONE":0.0,"PLACENAME":"Kapolei","OBJECTID":3,"CAPACITY":0,"id":"a66ldxmre4m7","ADDRESS":"91-1119 Kamaaha Lp","W_UPGRADE":0.0,"SPACE":0.0},"type":"Feature","geometry":{"type":"Point","coordinates":[-158.064471452386,21.3339748018369]}},{"properties":{"SCHOOL_COD":0,"HIGH":0,"PHONE":"6891250","ZIPCODE":"96706","MIDDLE":0,"BUSNAME":"Ilima IS","CONTACT":"","TYPE":"","ELEMENTARY":0,"EVAC_ZONE":0.0,"PLACENAME":"Ewa Beach","OBJECTID":4,"CAPACITY":0,"id":"a66ldxog62ft","ADDRESS":"91-884 Fort Weaver Rd","W_UPGRADE":0.0,"SPACE":0.0},"type":"Feature","geometry":{"type":"Point","coordinates":[-158.010941450775,21.3172439601582]}},{"properties":{"SCHOOL_COD":0,"HIGH":0,"PHONE":"6891280","ZIPCODE":"96706","MIDDLE":0,"BUSNAME":"Kaimiloa ES","CONTACT":"","TYPE":"","ELEMENTARY":0,"EVAC_ZONE":0.0,"PLACENAME":"Ewa Beach","OBJECTID":5,"CAPACITY":0,"id":"a66ldxopt0ie","ADDRESS":"91-1028 Kaunolu St","W_UPGRADE":0.0,"SPACE":0.0},"type":"Feature","geometry":{"type":"Point","coordinates":[-158.009184612373,21.3192640669609]}},{"properties":{"SCHOOL_COD":0,"HIGH":0,"PHONE":"6891290","ZIPCODE":"96706","MIDDLE":0,"BUSNAME":"Pohakea ES","CONTACT":"","TYPE":"","ELEMENTARY":0,"EVAC_ZONE":0.0,"PLACENAME":"Ewa Beach","OBJECTID":6,"CAPACITY":0,"id":"a66ldxmt5wti","ADDRESS":"91-750 Fort Weaver Rd","W_UPGRADE":0.0,"SPACE":0.0},"type":"Feature","geometry":{"type":"Point","coordinates":[-158.009930351893,21.3136423626021]}},{"properties":{"SCHOOL_COD":0,"HIGH":0,"PHONE":"6891200","ZIPCODE":"96706","MIDDLE":0,"BUSNAME":"Campbell HS","CONTACT":"","TYPE":"","ELEMENTARY":0,"EVAC_ZONE":0.0,"PLACENAME":"Ewa Beach","OBJECTID":7,"CAPACITY":0,"id":"a66ldxn9k7ts","ADDRESS":"91-980 North Rd","W_UPGRADE":0.0,"SPACE":0.0},"type":"Feature","geometry":{"type":"Point","coordinates":[-158.008438820045,21.315910216072]}},{"properties":{"SCHOOL_COD":0,"HIGH":0,"PHONE":"6750266","ZIPCODE":"96797","MIDDLE":0,"BUSNAME":"Kaleiopuu ES","CONTACT":"","TYPE":"","ELEMENTARY":0,"EVAC_ZONE":0.0,"PLACENAME":"Waipahu","OBJECTID":8,"CAPACITY":0,"id":"a66ldxxsobfk","ADDRESS":"94-665 Kaaholo St","W_UPGRADE":0.0,"SPACE":0.0},"type":"Feature","geometry":{"type":"Point","coordinates":[-158.028282527328,21.3907734785823]}},{"properties":{"SCHOOL_COD":0,"HIGH":0,"PHONE":"6750165","ZIPCODE":"96797","MIDDLE":0,"BUSNAME":"Honowai ES","CONTACT":"","TYPE":"","ELEMENTARY":0,"EVAC_ZONE":0.0,"PLACENAME":"Waipahu","OBJECTID":9,"CAPACITY":0,"id":"a66ldxnt6pmp","ADDRESS":"94-600 Honowai St","W_UPGRADE":0.0,"SPACE":0.0},"type":"Feature","geometry":{"type":"Point","coordinates":[-158.026224155628,21.3835928682178]}},{"properties":{"SCHOOL_COD":0,"HIGH":0,"PHONE":"6750150","ZIPCODE":"96796","MIDDLE":0,"BUSNAME":"Waipahu ES","CONTACT":"","TYPE":"","ELEMENTARY":0,"EVAC_ZONE":0.0,"PLACENAME":"Waipahu","OBJECTID":10,"CAPACITY":0,"id":"a66ldxuuahlw","ADDRESS":"94-465 Waipahu St","W_UPGRADE":0.0,"SPACE":0.0},"type":"Feature","geometry":{"type":"Point","coordinates":[-158.01533276981,21.3846901855186]}},{"properties":{"SCHOOL_COD":0,"HIGH":0,"PHONE":"6750177","ZIPCODE":"96796","MIDDLE":0,"BUSNAME":"Waipahu IS","CONTACT":"","TYPE":"","ELEMENTARY":0,"EVAC_ZONE":0.0,"PLACENAME":"Waipahu","OBJECTID":11,"CAPACITY":0,"id":"a66ldxwf7j8z","ADDRESS":"94-455 Farrington Hwy","W_UPGRADE":0.0,"SPACE":0.0},"type":"Feature","geometry":{"type":"Point","coordinates":[-158.012901403405,21.3803778583843]}},{"properties":{"SCHOOL_COD":0,"HIGH":0,"PHONE":"6750202","ZIPCODE":"96797","MIDDLE":0,"BUSNAME":"August Ahrens ES","CONTACT":"","TYPE":"","ELEMENTARY":0,"EVAC_ZONE":0.0,"PLACENAME":"Waipahu","OBJECTID":12,"CAPACITY":0,"id":"a66ldxxs8cqr","ADDRESS":"94-1170 Waipahu St","W_UPGRADE":0.0,"SPACE":0.0},"type":"Feature","geometry":{"type":"Point","coordinates":[-158.001787804815,21.393549461595]}},{"properties":{"SCHOOL_COD":0,"HIGH":0,"PHONE":"6750222","ZIPCODE":"96796","MIDDLE":0,"BUSNAME":"Waipahu HS","CONTACT":"","TYPE":"","ELEMENTARY":0,"EVAC_ZONE":0.0,"PLACENAME":"Waipahu","OBJECTID":13,"CAPACITY":0,"id":"a66ldxsfrjua","ADDRESS":"94-1211 Farrington Hwy","W_UPGRADE":0.0,"SPACE":0.0},"type":"Feature","geometry":{"type":"Point","coordinates":[-157.993702790056,21.3876673080863]}},{"properties":{"SCHOOL_COD":0,"HIGH":0,"PHONE":"4550611","ZIPCODE":"96782","MIDDLE":0,"BUSNAME":"Leeward CC","CONTACT":"","TYPE":"","ELEMENTARY":0,"EVAC_ZONE":0.0,"PLACENAME":"Pearl City","OBJECTID":14,"CAPACITY":0,"id":"a66ldxuwe8g8","ADDRESS":"96-045 Ala Ike","W_UPGRADE":0.0,"SPACE":0.0},"type":"Feature","geometry":{"type":"Point","coordinates":[-157.983837397608,21.3928995908416]}},{"properties":{"SCHOOL_COD":0,"HIGH":0,"PHONE":"6750195","ZIPCODE":"96797","MIDDLE":0,"BUSNAME":"Kanoelani ES","CONTACT":"","TYPE":"","ELEMENTARY":0,"EVAC_ZONE":0.0,"PLACENAME":"Waipahu","OBJECTID":15,"CAPACITY":0,"id":"a66ldxq9mvg0","ADDRESS":"94-1091 Oli Loop","W_UPGRADE":0.0,"SPACE":0.0},"type":"Feature","geometry":{"type":"Point","coordinates":[-157.998276401582,21.4161275085204]}},{"properties":{"SCHOOL_COD":0,"HIGH":0,"PHONE":"4536490","ZIPCODE":"96782","MIDDLE":0,"BUSNAME":"Lehua ES","CONTACT":"","TYPE":"","ELEMENTARY":0,"EVAC_ZONE":0.0,"PLACENAME":"Pearl City","OBJECTID":16,"CAPACITY":0,"id":"a66ldy0zbpsd","ADDRESS":"791 Lehua Ave","W_UPGRADE":0.0,"SPACE":0.0},"type":"Feature","geometry":{"type":"Point","coordinates":[-157.971178750495,21.3887208985061]}},{"properties":{"SCHOOL_COD":0,"HIGH":0,"PHONE":"4536430","ZIPCODE":"96782","MIDDLE":0,"BUSNAME":"Manana ES","CONTACT":"","TYPE":"","ELEMENTARY":0,"EVAC_ZONE":0.0,"PLACENAME":"Pearl City","OBJECTID":17,"CAPACITY":0,"id":"a66ldxlwfp95","ADDRESS":"1147 Kumano St","W_UPGRADE":0.0,"SPACE":0.0},"type":"Feature","geometry":{"type":"Point","coordinates":[-157.971436541212,21.4084914066953]}},{"properties":{"SCHOOL_COD":0,"HIGH":0,"PHONE":"4536455","ZIPCODE":"96782","MIDDLE":0,"BUSNAME":"Pearl City Highlands ES","CONTACT":"","TYPE":"","ELEMENTARY":0,"EVAC_ZONE":0.0,"PLACENAME":"Pearl City","OBJECTID":18,"CAPACITY":0,"id":"a66ldxs2g5o5","ADDRESS":"1090 Waimano Home Rd","W_UPGRADE":0.0,"SPACE":0.0},"type":"Feature","geometry":{"type":"Point","coordinates":[-157.96533535035,21.4032502057264]}},{"properties":{"SCHOOL_COD":0,"HIGH":0,"PHONE":"4537550","ZIPCODE":"96782","MIDDLE":0,"BUSNAME":"Pearl City District Park","CONTACT":"","TYPE":"","ELEMENTARY":0,"EVAC_ZONE":0.0,"PLACENAME":"Pearl City","OBJECTID":19,"CAPACITY":0,"id":"a66ldxm3evi5","ADDRESS":"785 Hoomaemae St","W_UPGRADE":0.0,"SPACE":0.0},"type":"Feature","geometry":{"type":"Point","coordinates":[-157.963664909542,21.402354544118]}},{"properties":{"SCHOOL_COD":0,"HIGH":0,"PHONE":"4536470","ZIPCODE":"96782","MIDDLE":0,"BUSNAME":"Pearl City Highlands IS","CONTACT":"","TYPE":"","ELEMENTARY":0,"EVAC_ZONE":0.0,"PLACENAME":"Pearl City","OBJECTID":20,"CAPACITY":0,"id":"a66ldxqzz91u","ADDRESS":"1419 Waimano Home Rd","W_UPGRADE":0.0,"SPACE":0.0},"type":"Feature","geometry":{"type":"Point","coordinates":[-157.96254178914,21.4009676340816]}},{"properties":{"SCHOOL_COD":0,"HIGH":0,"PHONE":"4536530","ZIPCODE":"96782","MIDDLE":0,"BUSNAME":"Waiau ES","CONTACT":"","TYPE":"","ELEMENTARY":0,"EVAC_ZONE":0.0,"PLACENAME":"Pearl City","OBJECTID":21,"CAPACITY":0,"id":"a66ldy1t1552","ADDRESS":"98-450 Hookanike St","W_UPGRADE":0.0,"SPACE":0.0},"type":"Feature","geometry":{"type":"Point","coordinates":[-157.953481248587,21.3987386112747]}},{"properties":{"SCHOOL_COD":0,"HIGH":0,"PHONE":"4536444","ZIPCODE":"96782","MIDDLE":0,"BUSNAME":"Momilani ES","CONTACT":"","TYPE":"","ELEMENTARY":0,"EVAC_ZONE":0.0,"PLACENAME":"Pearl City","OBJECTID":22,"CAPACITY":0,"id":"a66ldxy12h34","ADDRESS":"2130 Hookiekie St","W_UPGRADE":0.0,"SPACE":0.0},"type":"Feature","geometry":{"type":"Point","coordinates":[-157.954054390439,21.4131741336449]}},{"properties":{"SCHOOL_COD":0,"HIGH":0,"PHONE":"4536500","ZIPCODE":"96782","MIDDLE":0,"BUSNAME":"Pearl City HS","CONTACT":"","TYPE":"","ELEMENTARY":0,"EVAC_ZONE":0.0,"PLACENAME":"Pearl City","OBJECTID":23,"CAPACITY":0,"id":"a66ldxm1oaj1","ADDRESS":"2100 Hookiekie St","W_UPGRADE":0.0,"SPACE":0.0},"type":"Feature","geometry":{"type":"Point","coordinates":[-157.950274492893,21.411551469669]}},{"properties":{"SCHOOL_COD":0,"HIGH":0,"PHONE":"4837210","ZIPCODE":"96701","MIDDLE":0,"BUSNAME":"Waimalu ES","CONTACT":"","TYPE":"","ELEMENTARY":0,"EVAC_ZONE":0.0,"PLACENAME":"Aiea","OBJECTID":24,"CAPACITY":0,"id":"a66ldxwh2ry1","ADDRESS":"98-825 Moanalua Rd","W_UPGRADE":0.0,"SPACE":0.0},"type":"Feature","geometry":{"type":"Point","coordinates":[-157.950327019231,21.3900100355252]}},{"properties":{"SCHOOL_COD":0,"HIGH":0,"PHONE":"4837250","ZIPCODE":"96701","MIDDLE":0,"BUSNAME":"Pearlridge ES","CONTACT":"","TYPE":"","ELEMENTARY":0,"EVAC_ZONE":0.0,"PLACENAME":"Aiea","OBJECTID":25,"CAPACITY":0,"id":"a66ldxrphlin","ADDRESS":"98-940 Moanalua Rd","W_UPGRADE":0.0,"SPACE":0.0},"type":"Feature","geometry":{"type":"Point","coordinates":[-157.944856645867,21.3887312579592]}},{"properties":{"SCHOOL_COD":0,"HIGH":0,"PHONE":"4837300","ZIPCODE":"96701","MIDDLE":0,"BUSNAME":"Aiea HS","CONTACT":"","TYPE":"","ELEMENTARY":0,"EVAC_ZONE":0.0,"PLACENAME":"Aiea","OBJECTID":26,"CAPACITY":0,"id":"a66ldxxfhyad","ADDRESS":"98-1276 Ulune St","W_UPGRADE":0.0,"SPACE":0.0},"type":"Feature","geometry":{"type":"Point","coordinates":[-157.929933040859,21.3847746515659]}},{"properties":{"SCHOOL_COD":0,"HIGH":0,"PHONE":"4837200","ZIPCODE":"96701","MIDDLE":0,"BUSNAME":"Aiea ES","CONTACT":"","TYPE":"","ELEMENTARY":0,"EVAC_ZONE":0.0,"PLACENAME":"Aiea","OBJECTID":27,"CAPACITY":0,"id":"a66ldxmy6bkv","ADDRESS":"99-370 Moanalua Rd","W_UPGRADE":0.0,"SPACE":0.0},"type":"Feature","geometry":{"type":"Point","coordinates":[-157.927685044332,21.3756675225847]}},{"properties":{"SCHOOL_COD":0,"HIGH":0,"PHONE":"4837230","ZIPCODE":"96701","MIDDLE":0,"BUSNAME":"Aiea IS","CONTACT":"","TYPE":"","ELEMENTARY":0,"EVAC_ZONE":0.0,"PLACENAME":"Aiea","OBJECTID":28,"CAPACITY":0,"id":"a66ldy18qsex","ADDRESS":"99-600 Kulawea St","W_UPGRADE":0.0,"SPACE":0.0},"type":"Feature","geometry":{"type":"Point","coordinates":[-157.923730841338,21.3803308709404]}},{"properties":{"SCHOOL_COD":0,"HIGH":0,"PHONE":"4837240","ZIPCODE":"96701","MIDDLE":0,"BUSNAME":"Webling ES","CONTACT":"","TYPE":"","ELEMENTARY":0,"EVAC_ZONE":0.0,"PLACENAME":"Aiea","OBJECTID":29,"CAPACITY":0,"id":"a66ldxzasgtv","ADDRESS":"99-370 Paihi St","W_UPGRADE":0.0,"SPACE":0.0},"type":"Feature","geometry":{"type":"Point","coordinates":[-157.920528837725,21.3813650201773]}},{"properties":{"SCHOOL_COD":0,"HIGH":0,"PHONE":"4837852","ZIPCODE":"","MIDDLE":0,"BUSNAME":"Halawa District Park","CONTACT":"","TYPE":"","ELEMENTARY":0,"EVAC_ZONE":0.0,"PLACENAME":"Aiea","OBJECTID":30,"CAPACITY":0,"id":"a66ldxrnofux","ADDRESS":"99-795 Iwaiwa St","W_UPGRADE":0.0,"SPACE":0.0},"type":"Feature","geometry":{"type":"Point","coordinates":[-157.915657870528,21.3740070064207]}},{"properties":{"SCHOOL_COD":0,"HIGH":0,"PHONE":"6957900","ZIPCODE":"96792","MIDDLE":0,"BUSNAME":"Makaha ES","CONTACT":"","TYPE":"","ELEMENTARY":0,"EVAC_ZONE":0.0,"PLACENAME":"Waianae","OBJECTID":31,"CAPACITY":0,"id":"a66ldxqcpvw2","ADDRESS":"84-200 Ala Naauao Pl","W_UPGRADE":0.0,"SPACE":0.0},"type":"Feature","geometry":{"type":"Point","coordinates":[-158.21212763037,21.4706095051258]}},{"properties":{"SCHOOL_COD":0,"HIGH":0,"PHONE":"6977110","ZIPCODE":"96792","MIDDLE":0,"BUSNAME":"Kamaile ES","CONTACT":"","TYPE":"","ELEMENTARY":0,"EVAC_ZONE":0.0,"PLACENAME":"Waianae","OBJECTID":32,"CAPACITY":0,"id":"a66ldxuga5mv","ADDRESS":"85-180 Ala Akau St","W_UPGRADE":0.0,"SPACE":0.0},"type":"Feature","geometry":{"type":"Point","coordinates":[-158.195348233121,21.457147280344]}},{"properties":{"SCHOOL_COD":0,"HIGH":0,"PHONE":"6977121","ZIPCODE":"96792","MIDDLE":0,"BUSNAME":"Waianae IS","CONTACT":"","TYPE":"","ELEMENTARY":0,"EVAC_ZONE":0.0,"PLACENAME":"Waianae","OBJECTID":33,"CAPACITY":0,"id":"a66ldy00m4e7","ADDRESS":"85-626 Farrington Hwy","W_UPGRADE":0.0,"SPACE":0.0},"type":"Feature","geometry":{"type":"Point","coordinates":[-158.192721234652,21.4527890449145]}},{"properties":{"SCHOOL_COD":0,"HIGH":0,"PHONE":"6977083","ZIPCODE":"96792","MIDDLE":0,"BUSNAME":"Waianae ES","CONTACT":"","TYPE":"","ELEMENTARY":0,"EVAC_ZONE":0.0,"PLACENAME":"Waianae","OBJECTID":34,"CAPACITY":0,"id":"a66ldy1edfyo","ADDRESS":"85-220 McArthur St","W_UPGRADE":0.0,"SPACE":0.0},"type":"Feature","geometry":{"type":"Point","coordinates":[-158.185167806393,21.4465999533356]}},{"properties":{"SCHOOL_COD":0,"HIGH":0,"PHONE":"6977150","ZIPCODE":"96792","MIDDLE":0,"BUSNAME":"Maili ES","CONTACT":"","TYPE":"","ELEMENTARY":0,"EVAC_ZONE":0.0,"PLACENAME":"Waianae","OBJECTID":35,"CAPACITY":0,"id":"a66ldxyh2514","ADDRESS":"87-360 Kulaaupuni St","W_UPGRADE":0.0,"SPACE":0.0},"type":"Feature","geometry":{"type":"Point","coordinates":[-158.171899068278,21.4201428773398]}},{"properties":{"SCHOOL_COD":0,"HIGH":0,"PHONE":"6378200","ZIPCODE":"96791","MIDDLE":0,"BUSNAME":"Waialua HS &amp; IS","CONTACT":"","TYPE":"","ELEMENTARY":0,"EVAC_ZONE":0.0,"PLACENAME":"Waialua","OBJECTID":36,"CAPACITY":0,"id":"a66ldxubjfzr","ADDRESS":"67-160 Farrington Hwy","W_UPGRADE":0.0,"SPACE":0.0},"type":"Feature","geometry":{"type":"Point","coordinates":[-158.126665264411,21.5655508444262]}},{"properties":{"SCHOOL_COD":0,"HIGH":0,"PHONE":"6226336","ZIPCODE":"96786","MIDDLE":0,"BUSNAME":"Helemano ES","CONTACT":"","TYPE":"","ELEMENTARY":0,"EVAC_ZONE":0.0,"PLACENAME":"Wahiawa","OBJECTID":37,"CAPACITY":0,"id":"a66ldxx0mgrr","ADDRESS":"1001 Ihi Ihi Ave","W_UPGRADE":0.0,"SPACE":0.0},"type":"Feature","geometry":{"type":"Point","coordinates":[-158.023406399469,21.5142829828414]}},{"properties":{"SCHOOL_COD":0,"HIGH":0,"PHONE":"6226411","ZIPCODE":"96786","MIDDLE":0,"BUSNAME":"Iliahi ES","CONTACT":"","TYPE":"","ELEMENTARY":0,"EVAC_ZONE":0.0,"PLACENAME":"Wahiawa","OBJECTID":38,"CAPACITY":0,"id":"a66ldxogfuen","ADDRESS":"2035 California Ave","W_UPGRADE":0.0,"SPACE":0.0},"type":"Feature","geometry":{"type":"Point","coordinates":[-157.998812317717,21.5048886601874]}},{"properties":{"SCHOOL_COD":0,"HIGH":0,"PHONE":"6226550","ZIPCODE":"96786","MIDDLE":0,"BUSNAME":"Leilehua HS","CONTACT":"","TYPE":"","ELEMENTARY":0,"EVAC_ZONE":0.0,"PLACENAME":"Wahiawa","OBJECTID":39,"CAPACITY":0,"id":"a66ldxm8p1c9","ADDRESS":"1515 California Ave","W_UPGRADE":0.0,"SPACE":0.0},"type":"Feature","geometry":{"type":"Point","coordinates":[-158.012063036079,21.5003647038083]}},{"properties":{"SCHOOL_COD":0,"HIGH":0,"PHONE":"6226393","ZIPCODE":"96786","MIDDLE":0,"BUSNAME":"Wahiawa ES","CONTACT":"","TYPE":"","ELEMENTARY":0,"EVAC_ZONE":0.0,"PLACENAME":"Wahiawa","OBJECTID":40,"CAPACITY":0,"id":"a66ldxpyo4zy","ADDRESS":"1402 Glen Ave","W_UPGRADE":0.0,"SPACE":0.0},"type":"Feature","geometry":{"type":"Point","coordinates":[-158.017877684909,21.5047285977377]}},{"properties":{"SCHOOL_COD":0,"HIGH":0,"PHONE":"6226500","ZIPCODE":"96786","MIDDLE":0,"BUSNAME":"Wahiawa IS","CONTACT":"","TYPE":"","ELEMENTARY":0,"EVAC_ZONE":0.0,"PLACENAME":"Wahiawa","OBJECTID":41,"CAPACITY":0,"id":"a66ldy2as0fz","ADDRESS":"275 Rose St","W_UPGRADE":0.0,"SPACE":0.0},"type":"Feature","geometry":{"type":"Point","coordinates":[-158.0188230994,21.4939429034495]}},{"properties":{"SCHOOL_COD":0,"HIGH":0,"PHONE":"6277747","ZIPCODE":"96789","MIDDLE":0,"BUSNAME":"Mililani HS","CONTACT":"","TYPE":"","ELEMENTARY":0,"EVAC_ZONE":0.0,"PLACENAME":"Mililani","OBJECTID":42,"CAPACITY":0,"id":"a66ldxv37k66","ADDRESS":"95-1200 Meheula Pkwy","W_UPGRADE":0.0,"SPACE":0.0},"type":"Feature","geometry":{"type":"Point","coordinates":[-158.01267566825,21.4524603473887]}},{"properties":{"SCHOOL_COD":0,"HIGH":0,"PHONE":"6277303","ZIPCODE":"96789","MIDDLE":0,"BUSNAME":"Mililani Uka ES","CONTACT":"","TYPE":"","ELEMENTARY":0,"EVAC_ZONE":0.0,"PLACENAME":"Mililani","OBJECTID":43,"CAPACITY":0,"id":"a66ldy0x7p2c","ADDRESS":"94-380 Kuahelani Ave","W_UPGRADE":0.0,"SPACE":0.0},"type":"Feature","geometry":{"type":"Point","coordinates":[-158.014756022352,21.437268106276]}},{"properties":{"SCHOOL_COD":0,"HIGH":0,"PHONE":"6250735","ZIPCODE":"96789","MIDDLE":0,"BUSNAME":"Hanalani Schools","CONTACT":"","TYPE":"","ELEMENTARY":0,"EVAC_ZONE":0.0,"PLACENAME":"Mililani","OBJECTID":44,"CAPACITY":0,"id":"a66ldxm9oqyw","ADDRESS":"94-294 Anania Dr","W_UPGRADE":0.0,"SPACE":0.0},"type":"Feature","geometry":{"type":"Point","coordinates":[-158.009031782008,21.4408118428723]}},{"properties":{"SCHOOL_COD":0,"HIGH":0,"PHONE":"2393101","ZIPCODE":"96744","MIDDLE":0,"BUSNAME":"Kahaluu ES","CONTACT":"","TYPE":"","ELEMENTARY":0,"EVAC_ZONE":0.0,"PLACENAME":"Kaneohe","OBJECTID":45,"CAPACITY":0,"id":"a66ldxpcfc1c","ADDRESS":"47-280 Waihee Rd","W_UPGRADE":0.0,"SPACE":0.0},"type":"Feature","geometry":{"type":"Point","coordinates":[-157.845920822638,21.4573780588798]}},{"properties":{"SCHOOL_COD":0,"HIGH":0,"PHONE":"","ZIPCODE":"","MIDDLE":0,"BUSNAME":"Kahaluu Community Center","CONTACT":"","TYPE":"all","ELEMENTARY":0,"EVAC_ZONE":3.0,"PLACENAME":"","OBJECTID":46,"CAPACITY":0,"id":"a66ldxwakiw3","ADDRESS":"","W_UPGRADE":187.0,"SPACE":1470.0},"type":"Feature","geometry":{"type":"Point","coordinates":[-157.841131113438,21.4593097862203]}},{"properties":{"SCHOOL_COD":0,"HIGH":0,"PHONE":"2393111","ZIPCODE":"96744","MIDDLE":0,"BUSNAME":"Waiahole ES &amp; IS","CONTACT":"","TYPE":"","ELEMENTARY":0,"EVAC_ZONE":0.0,"PLACENAME":"Kaneohe","OBJECTID":47,"CAPACITY":0,"id":"a66ldxvefxhp","ADDRESS":"48-215 Waiahole Valley Rd","W_UPGRADE":0.0,"SPACE":0.0},"type":"Feature","geometry":{"type":"Point","coordinates":[-157.85178502974,21.4834018373911]}},{"properties":{"SCHOOL_COD":0,"HIGH":0,"PHONE":"2397160","ZIPCODE":"96744","MIDDLE":0,"BUSNAME":"Ahuimanu ES","CONTACT":"","TYPE":"","ELEMENTARY":0,"EVAC_ZONE":0.0,"PLACENAME":"Kaneohe","OBJECTID":48,"CAPACITY":0,"id":"a66ldxz1i7te","ADDRESS":"47-470 Hui Aeko Place","W_UPGRADE":0.0,"SPACE":0.0},"type":"Feature","geometry":{"type":"Point","coordinates":[-157.830412956755,21.4348417659766]}},{"properties":{"SCHOOL_COD":0,"HIGH":0,"PHONE":"2335677","ZIPCODE":"96744","MIDDLE":0,"BUSNAME":"Heeia ES","CONTACT":"","TYPE":"","ELEMENTARY":0,"EVAC_ZONE":0.0,"PLACENAME":"Kaneohe","OBJECTID":49,"CAPACITY":0,"id":"a66ldxrmcsj7","ADDRESS":"46-202 Haiku Rd","W_UPGRADE":0.0,"SPACE":0.0},"type":"Feature","geometry":{"type":"Point","coordinates":[-157.80848399859,21.4181937954881]}},{"properties":{"SCHOOL_COD":0,"HIGH":0,"PHONE":"2335660","ZIPCODE":"96744","MIDDLE":0,"BUSNAME":"Puohala ES","CONTACT":"","TYPE":"","ELEMENTARY":0,"EVAC_ZONE":0.0,"PLACENAME":"Kaneohe","OBJECTID":50,"CAPACITY":0,"id":"a66ldxqyjlyc","ADDRESS":"45-233 Kulauli St","W_UPGRADE":0.0,"SPACE":0.0},"type":"Feature","geometry":{"type":"Point","coordinates":[-157.791178808135,21.4093951980417]}},{"properties":{"SCHOOL_COD":0,"HIGH":0,"PHONE":"2335600","ZIPCODE":"96744","MIDDLE":0,"BUSNAME":"Castle HS","CONTACT":"","TYPE":"","ELEMENTARY":0,"EVAC_ZONE":0.0,"PLACENAME":"Kaneohe","OBJECTID":51,"CAPACITY":0,"id":"a66ldxvmah9p","ADDRESS":"45-386 Kaneohe Bay Dr","W_UPGRADE":0.0,"SPACE":0.0},"type":"Feature","geometry":{"type":"Point","coordinates":[-157.794465242444,21.4031652880515]}},{"properties":{"SCHOOL_COD":0,"HIGH":0,"PHONE":"2335633","ZIPCODE":"96744","MIDDLE":0,"BUSNAME":"Kaneohe ES","CONTACT":"","TYPE":"","ELEMENTARY":0,"EVAC_ZONE":0.0,"PLACENAME":"Kaneohe","OBJECTID":52,"CAPACITY":0,"id":"a66ldxm50bln","ADDRESS":"45-495 Kamehameha Hwy","W_UPGRADE":0.0,"SPACE":0.0},"type":"Feature","geometry":{"type":"Point","coordinates":[-157.795760125689,21.3959724629609]}},{"properties":{"SCHOOL_COD":0,"HIGH":0,"PHONE":"2667900","ZIPCODE":"96734","MIDDLE":0,"BUSNAME":"Kailua HS","CONTACT":"","TYPE":"","ELEMENTARY":0,"EVAC_ZONE":0.0,"PLACENAME":"Kailua","OBJECTID":53,"CAPACITY":0,"id":"a66ldy08za1r","ADDRESS":"451 Ulumanu Dr","W_UPGRADE":0.0,"SPACE":0.0},"type":"Feature","geometry":{"type":"Point","coordinates":[-157.748326810845,21.3832670494736]}},{"properties":{"SCHOOL_COD":0,"HIGH":0,"PHONE":"2667834","ZIPCODE":"96734","MIDDLE":0,"BUSNAME":"Kainalu ES","CONTACT":"","TYPE":"","ELEMENTARY":0,"EVAC_ZONE":0.0,"PLACENAME":"Kailua","OBJECTID":54,"CAPACITY":0,"id":"a66ldxpnecid","ADDRESS":"165 Kaiholu St","W_UPGRADE":0.0,"SPACE":0.0},"type":"Feature","geometry":{"type":"Point","coordinates":[-157.748424424955,21.4129454393799]}},{"properties":{"SCHOOL_COD":0,"HIGH":0,"PHONE":"2335727","ZIPCODE":"96744","MIDDLE":0,"BUSNAME":"King IS","CONTACT":"","TYPE":"","ELEMENTARY":0,"EVAC_ZONE":0.0,"PLACENAME":"Kaneohe","OBJECTID":55,"CAPACITY":0,"id":"a66ldy01335p","ADDRESS":"46-155 Kamehameha Hwy","W_UPGRADE":0.0,"SPACE":0.0},"type":"Feature","geometry":{"type":"Point","coordinates":[-157.806499186058,21.4284103605997]}},{"properties":{"SCHOOL_COD":0,"HIGH":0,"PHONE":"2547900","ZIPCODE":"96734","MIDDLE":0,"BUSNAME":"Kalaheo HS","CONTACT":"","TYPE":"","ELEMENTARY":0,"EVAC_ZONE":0.0,"PLACENAME":"Kailua","OBJECTID":56,"CAPACITY":0,"id":"a66ldxuoz46r","ADDRESS":"730 Iliaina St","W_UPGRADE":0.0,"SPACE":0.0},"type":"Feature","geometry":{"type":"Point","coordinates":[-157.755469795703,21.4120900477663]}},{"properties":{"SCHOOL_COD":0,"HIGH":0,"PHONE":"2667800","ZIPCODE":"96734","MIDDLE":0,"BUSNAME":"Enchanted Lake ES","CONTACT":"","TYPE":"","ELEMENTARY":0,"EVAC_ZONE":0.0,"PLACENAME":"Kailua","OBJECTID":57,"CAPACITY":0,"id":"a66ldxxsus53","ADDRESS":"770 Keolu Dr","W_UPGRADE":0.0,"SPACE":0.0},"type":"Feature","geometry":{"type":"Point","coordinates":[-157.731871513879,21.3825223913332]}},{"properties":{"SCHOOL_COD":0,"HIGH":0,"PHONE":"2335650","ZIPCODE":"96744","MIDDLE":0,"BUSNAME":"Kapunahala ES","CONTACT":"","TYPE":"","ELEMENTARY":0,"EVAC_ZONE":0.0,"PLACENAME":"Kaneohe","OBJECTID":58,"CAPACITY":0,"id":"a66ldxnzhe0g","ADDRESS":"45-828 Anoi Rd","W_UPGRADE":0.0,"SPACE":0.0},"type":"Feature","geometry":{"type":"Point","coordinates":[-157.803796028804,21.4078845121256]}},{"properties":{"SCHOOL_COD":0,"HIGH":0,"PHONE":"2547964","ZIPCODE":"96734","MIDDLE":0,"BUSNAME":"Mokapu ES","CONTACT":"","TYPE":"","ELEMENTARY":0,"EVAC_ZONE":0.0,"PLACENAME":"Kailua","OBJECTID":59,"CAPACITY":0,"id":"a66ldxsfefn6","ADDRESS":"1193 Mokapu Rd","W_UPGRADE":0.0,"SPACE":0.0},"type":"Feature","geometry":{"type":"Point","coordinates":[-157.748543628134,21.4455033443626]}},{"properties":{"SCHOOL_COD":0,"HIGH":0,"PHONE":"2590460","ZIPCODE":"96795","MIDDLE":0,"BUSNAME":"Waimanalo ES &amp; IS","CONTACT":"","TYPE":"","ELEMENTARY":0,"EVAC_ZONE":0.0,"PLACENAME":"Waimanalo","OBJECTID":60,"CAPACITY":0,"id":"a66ldxuw0fjl","ADDRESS":"41-1330 Kalanianaole Hwy","W_UPGRADE":0.0,"SPACE":0.0},"type":"Feature","geometry":{"type":"Point","coordinates":[-157.715195274956,21.3456356814859]}},{"properties":{"SCHOOL_COD":0,"HIGH":0,"PHONE":"2590450","ZIPCODE":"96795","MIDDLE":0,"BUSNAME":"Pope ES","CONTACT":"","TYPE":"","ELEMENTARY":0,"EVAC_ZONE":0.0,"PLACENAME":"Waimanalo","OBJECTID":61,"CAPACITY":0,"id":"a66ldxtmnsrv","ADDRESS":"41-133 Huli St","W_UPGRADE":0.0,"SPACE":0.0},"type":"Feature","geometry":{"type":"Point","coordinates":[-157.695155888059,21.328181987133]}},{"properties":{"SCHOOL_COD":0,"HIGH":0,"PHONE":"3975800","ZIPCODE":"96825","MIDDLE":0,"BUSNAME":"Kamiloiki ES","CONTACT":"","TYPE":"","ELEMENTARY":0,"EVAC_ZONE":0.0,"PLACENAME":"Honolulu","OBJECTID":62,"CAPACITY":0,"id":"a66ldxnfa2yv","ADDRESS":"7788 Hawaii Kai Dr","W_UPGRADE":0.0,"SPACE":0.0},"type":"Feature","geometry":{"type":"Point","coordinates":[-157.684847378094,21.2943004274158]}},{"properties":{"SCHOOL_COD":0,"HIGH":0,"PHONE":"3975811","ZIPCODE":"96825","MIDDLE":0,"BUSNAME":"Kokohead ES","CONTACT":"","TYPE":"","ELEMENTARY":0,"EVAC_ZONE":0.0,"PLACENAME":"Honolulu","OBJECTID":63,"CAPACITY":0,"id":"a66ldxuhgkk7","ADDRESS":"189 Lunalilo Home Rd","W_UPGRADE":0.0,"SPACE":0.0},"type":"Feature","geometry":{"type":"Point","coordinates":[-157.70448451542,21.2747888270647]}},{"properties":{"SCHOOL_COD":0,"HIGH":0,"PHONE":"3975822","ZIPCODE":"96825","MIDDLE":0,"BUSNAME":"Hahaione ES","CONTACT":"","TYPE":"","ELEMENTARY":0,"EVAC_ZONE":0.0,"PLACENAME":"Honolulu","OBJECTID":64,"CAPACITY":0,"id":"a66ldxwmft4q","ADDRESS":"595 Pepeekeo","W_UPGRADE":0.0,"SPACE":0.0},"type":"Feature","geometry":{"type":"Point","coordinates":[-157.710145379408,21.2962893926091]}},{"properties":{"SCHOOL_COD":0,"HIGH":0,"PHONE":"3772440","ZIPCODE":"96821","MIDDLE":0,"BUSNAME":"Niu Valley IS","CONTACT":"","TYPE":"","ELEMENTARY":0,"EVAC_ZONE":0.0,"PLACENAME":"Honolulu","OBJECTID":65,"CAPACITY":0,"id":"a66ldxy86afl","ADDRESS":"310 Halemaumau St","W_UPGRADE":0.0,"SPACE":0.0},"type":"Feature","geometry":{"type":"Point","coordinates":[-157.740389144753,21.2852873438551]}},{"properties":{"SCHOOL_COD":0,"HIGH":0,"PHONE":"3777744","ZIPCODE":"96821","MIDDLE":0,"BUSNAME":"Kalani HS","CONTACT":"","TYPE":"","ELEMENTARY":0,"EVAC_ZONE":0.0,"PLACENAME":"Honolulu","OBJECTID":66,"CAPACITY":0,"id":"a66ldxt8h0vk","ADDRESS":"4680 Kalanianaole Hwy","W_UPGRADE":0.0,"SPACE":0.0},"type":"Feature","geometry":{"type":"Point","coordinates":[-157.77424405509,21.2785066933559]}},{"properties":{"SCHOOL_COD":0,"HIGH":0,"PHONE":"7334740","ZIPCODE":"96816","MIDDLE":0,"BUSNAME":"Wilson ES","CONTACT":"","TYPE":"","ELEMENTARY":0,"EVAC_ZONE":0.0,"PLACENAME":"Honolulu","OBJECTID":67,"CAPACITY":0,"id":"a66ldy0shydc","ADDRESS":"4945 Kilauea Ave","W_UPGRADE":0.0,"SPACE":0.0},"type":"Feature","geometry":{"type":"Point","coordinates":[-157.784591253413,21.2824820441647]}},{"properties":{"SCHOOL_COD":0,"HIGH":0,"PHONE":"7334700","ZIPCODE":"96816","MIDDLE":0,"BUSNAME":"Palolo ES","CONTACT":"","TYPE":"","ELEMENTARY":0,"EVAC_ZONE":0.0,"PLACENAME":"Honolulu","OBJECTID":68,"CAPACITY":0,"id":"a66ldy1nn1qx","ADDRESS":"2106 10th Ave","W_UPGRADE":0.0,"SPACE":0.0},"type":"Feature","geometry":{"type":"Point","coordinates":[-157.792736980209,21.2994632672418]}},{"properties":{"SCHOOL_COD":0,"HIGH":0,"PHONE":"7338465","ZIPCODE":"96816","MIDDLE":0,"BUSNAME":"Anuenue Complex","CONTACT":"","TYPE":"","ELEMENTARY":0,"EVAC_ZONE":0.0,"PLACENAME":"Honolulu","OBJECTID":69,"CAPACITY":0,"id":"a66ldxoxu4ze","ADDRESS":"2528 10th Ave","W_UPGRADE":0.0,"SPACE":0.0},"type":"Feature","geometry":{"type":"Point","coordinates":[-157.790027139495,21.3039358637081]}},{"properties":{"SCHOOL_COD":0,"HIGH":0,"PHONE":"7334800","ZIPCODE":"96816","MIDDLE":0,"BUSNAME":"Kaimuki IS","CONTACT":"","TYPE":"","ELEMENTARY":0,"EVAC_ZONE":0.0,"PLACENAME":"Honolulu","OBJECTID":70,"CAPACITY":0,"id":"a66ldxu9c2bl","ADDRESS":"631 18th Ave","W_UPGRADE":0.0,"SPACE":0.0},"type":"Feature","geometry":{"type":"Point","coordinates":[-157.796724107083,21.270007619322]}},{"properties":{"SCHOOL_COD":0,"HIGH":0,"PHONE":"7334880","ZIPCODE":"96816","MIDDLE":0,"BUSNAME":"Waialae ES","CONTACT":"","TYPE":"","ELEMENTARY":0,"EVAC_ZONE":0.0,"PLACENAME":"Honolulu","OBJECTID":71,"CAPACITY":0,"id":"a66ldxly8f5a","ADDRESS":"1045 19th Ave","W_UPGRADE":0.0,"SPACE":0.0},"type":"Feature","geometry":{"type":"Point","coordinates":[-157.792421994083,21.2762124453733]}},{"properties":{"SCHOOL_COD":0,"HIGH":0,"PHONE":"9716922","ZIPCODE":"96815","MIDDLE":0,"BUSNAME":"Jefferson ES","CONTACT":"","TYPE":"","ELEMENTARY":0,"EVAC_ZONE":0.0,"PLACENAME":"Honolulu","OBJECTID":72,"CAPACITY":0,"id":"a66ldxq4pthg","ADDRESS":"324 Kapahulu Ave","W_UPGRADE":0.0,"SPACE":0.0},"type":"Feature","geometry":{"type":"Point","coordinates":[-157.818192911014,21.273488594817]}},{"properties":{"SCHOOL_COD":0,"HIGH":0,"PHONE":"7334900","ZIPCODE":"96816","MIDDLE":0,"BUSNAME":"Kaimuki HS","CONTACT":"","TYPE":"","ELEMENTARY":0,"EVAC_ZONE":0.0,"PLACENAME":"Honolulu","OBJECTID":73,"CAPACITY":0,"id":"a66ldxwccm41","ADDRESS":"2705 Kaimuki Ave","W_UPGRADE":0.0,"SPACE":0.0},"type":"Feature","geometry":{"type":"Point","coordinates":[-157.817217686664,21.2860659714919]}},{"properties":{"SCHOOL_COD":0,"HIGH":0,"PHONE":"9730085","ZIPCODE":"96826","MIDDLE":0,"BUSNAME":"Kuhio ES","CONTACT":"","TYPE":"","ELEMENTARY":0,"EVAC_ZONE":0.0,"PLACENAME":"Honolulu","OBJECTID":74,"CAPACITY":0,"id":"a66ldxv4sk41","ADDRESS":"2759 South King St","W_UPGRADE":0.0,"SPACE":0.0},"type":"Feature","geometry":{"type":"Point","coordinates":[-157.819626774533,21.2896941882397]}},{"properties":{"SCHOOL_COD":0,"HIGH":0,"PHONE":"9716900","ZIPCODE":"96815","MIDDLE":0,"BUSNAME":"Waikiki ES","CONTACT":"","TYPE":"","ELEMENTARY":0,"EVAC_ZONE":0.0,"PLACENAME":"Honolulu","OBJECTID":75,"CAPACITY":0,"id":"a66ldxolxopw","ADDRESS":"3710 Leahi Ave","W_UPGRADE":0.0,"SPACE":0.0},"type":"Feature","geometry":{"type":"Point","coordinates":[-157.814612851129,21.2681627945433]}},{"properties":{"SCHOOL_COD":0,"HIGH":0,"PHONE":"9730177","ZIPCODE":"96826","MIDDLE":0,"BUSNAME":"Washington IS","CONTACT":"","TYPE":"","ELEMENTARY":0,"EVAC_ZONE":0.0,"PLACENAME":"Honolulu","OBJECTID":76,"CAPACITY":0,"id":"a66ldxql2p7e","ADDRESS":"1633 S King St","W_UPGRADE":0.0,"SPACE":0.0},"type":"Feature","geometry":{"type":"Point","coordinates":[-157.835285998768,21.2958379256789]}},{"properties":{"SCHOOL_COD":0,"HIGH":0,"PHONE":"9730270","ZIPCODE":"96823","MIDDLE":0,"BUSNAME":"Lunalilo ES","CONTACT":"","TYPE":"","ELEMENTARY":0,"EVAC_ZONE":0.0,"PLACENAME":"Honolulu","OBJECTID":77,"CAPACITY":0,"id":"a66ldxrzhggh","ADDRESS":"810 Pumehana St","W_UPGRADE":0.0,"SPACE":0.0},"type":"Feature","geometry":{"type":"Point","coordinates":[-157.833192504845,21.2924673238084]}},{"properties":{"SCHOOL_COD":0,"HIGH":0,"PHONE":"9568111","ZIPCODE":"96822","MIDDLE":0,"BUSNAME":"University of Hawaii-Manoa","CONTACT":"","TYPE":"","ELEMENTARY":0,"EVAC_ZONE":0.0,"PLACENAME":"Honolulu","OBJECTID":78,"CAPACITY":0,"id":"a66ldy1qh06c","ADDRESS":"2444 Dole St","W_UPGRADE":0.0,"SPACE":0.0},"type":"Feature","geometry":{"type":"Point","coordinates":[-157.816475423036,21.2944283962356]}},{"properties":{"SCHOOL_COD":0,"HIGH":0,"PHONE":"5874600","ZIPCODE":"96822","MIDDLE":0,"BUSNAME":"Roosevelt HS","CONTACT":"","TYPE":"","ELEMENTARY":0,"EVAC_ZONE":0.0,"PLACENAME":"Honolulu","OBJECTID":79,"CAPACITY":0,"id":"a66ldxuoazuq","ADDRESS":"1120 Nehoa St","W_UPGRADE":0.0,"SPACE":0.0},"type":"Feature","geometry":{"type":"Point","coordinates":[-157.838275989276,21.3114059773554]}},{"properties":{"SCHOOL_COD":0,"HIGH":0,"PHONE":"5874520","ZIPCODE":"96822","MIDDLE":0,"BUSNAME":"Stevenson IS","CONTACT":"","TYPE":"","ELEMENTARY":0,"EVAC_ZONE":0.0,"PLACENAME":"Honolulu","OBJECTID":80,"CAPACITY":0,"id":"a66ldy1vf8to","ADDRESS":"1202 Prospect St","W_UPGRADE":0.0,"SPACE":0.0},"type":"Feature","geometry":{"type":"Point","coordinates":[-157.840632773882,21.3111421890474]}},{"properties":{"SCHOOL_COD":0,"HIGH":0,"PHONE":"5227082","ZIPCODE":"","MIDDLE":0,"BUSNAME":"Makiki District Park","CONTACT":"","TYPE":"","ELEMENTARY":0,"EVAC_ZONE":0.0,"PLACENAME":"Honolulu","OBJECTID":81,"CAPACITY":0,"id":"a66ldxmzy74s","ADDRESS":"1527 Keeaumoku St","W_UPGRADE":0.0,"SPACE":0.0},"type":"Feature","geometry":{"type":"Point","coordinates":[-157.836418297813,21.3033823168653]}},{"properties":{"SCHOOL_COD":0,"HIGH":0,"PHONE":"5940400","ZIPCODE":"96814","MIDDLE":0,"BUSNAME":"McKinley HS","CONTACT":"","TYPE":"","ELEMENTARY":0,"EVAC_ZONE":0.0,"PLACENAME":"Honolulu","OBJECTID":82,"CAPACITY":0,"id":"a66ldxmzauhc","ADDRESS":"1039 S King St","W_UPGRADE":0.0,"SPACE":0.0},"type":"Feature","geometry":{"type":"Point","coordinates":[-157.848092409486,21.2992934761514]}},{"properties":{"SCHOOL_COD":0,"HIGH":0,"PHONE":"9881868","ZIPCODE":"96822","MIDDLE":0,"BUSNAME":"Manoa ES","CONTACT":"","TYPE":"","ELEMENTARY":0,"EVAC_ZONE":0.0,"PLACENAME":"Honolulu","OBJECTID":83,"CAPACITY":0,"id":"a66ldxsec3p4","ADDRESS":"3155 Manoa Rd","W_UPGRADE":0.0,"SPACE":0.0},"type":"Feature","geometry":{"type":"Point","coordinates":[-157.807986215836,21.3159932679873]}},{"properties":{"SCHOOL_COD":0,"HIGH":0,"PHONE":"9881858","ZIPCODE":"96822","MIDDLE":0,"BUSNAME":"Noelani ES","CONTACT":"","TYPE":"","ELEMENTARY":0,"EVAC_ZONE":0.0,"PLACENAME":"Honolulu","OBJECTID":84,"CAPACITY":0,"id":"a66ldxmrefxe","ADDRESS":"2655 Woodlawn Dr","W_UPGRADE":0.0,"SPACE":0.0},"type":"Feature","geometry":{"type":"Point","coordinates":[-157.811735529151,21.3058544565475]}},{"properties":{"SCHOOL_COD":0,"HIGH":0,"PHONE":"5874300","ZIPCODE":"96813","MIDDLE":0,"BUSNAME":"Pauoa ES","CONTACT":"","TYPE":"","ELEMENTARY":0,"EVAC_ZONE":0.0,"PLACENAME":"Honolulu","OBJECTID":85,"CAPACITY":0,"id":"a66ldxymjopz","ADDRESS":"2301 Pauoa Rd","W_UPGRADE":0.0,"SPACE":0.0},"type":"Feature","geometry":{"type":"Point","coordinates":[-157.84391279711,21.3187103534078]}},{"properties":{"SCHOOL_COD":0,"HIGH":0,"PHONE":"5955422","ZIPCODE":"96817","MIDDLE":0,"BUSNAME":"Nuuanu ES","CONTACT":"","TYPE":"","ELEMENTARY":0,"EVAC_ZONE":0.0,"PLACENAME":"Honolulu","OBJECTID":86,"CAPACITY":0,"id":"a66ldxpf6321","ADDRESS":"3055 Puiwa Ln","W_UPGRADE":0.0,"SPACE":0.0},"type":"Feature","geometry":{"type":"Point","coordinates":[-157.834804745479,21.3356041084166]}},{"properties":{"SCHOOL_COD":0,"HIGH":0,"PHONE":"5955400","ZIPCODE":"96817","MIDDLE":0,"BUSNAME":"Maemae ES","CONTACT":"","TYPE":"","ELEMENTARY":0,"EVAC_ZONE":0.0,"PLACENAME":"Honolulu","OBJECTID":87,"CAPACITY":0,"id":"a66ldxti24lw","ADDRESS":"319 Wyllie St","W_UPGRADE":0.0,"SPACE":0.0},"type":"Feature","geometry":{"type":"Point","coordinates":[-157.847610863007,21.3284223685295]}},{"properties":{"SCHOOL_COD":0,"HIGH":0,"PHONE":"5874466","ZIPCODE":"96817","MIDDLE":0,"BUSNAME":"Lanakila ES","CONTACT":"","TYPE":"","ELEMENTARY":0,"EVAC_ZONE":0.0,"PLACENAME":"Honolulu","OBJECTID":88,"CAPACITY":0,"id":"a66ldxmcm34a","ADDRESS":"717 North Kuakini St","W_UPGRADE":0.0,"SPACE":0.0},"type":"Feature","geometry":{"type":"Point","coordinates":[-157.860503712072,21.3265499025472]}},{"properties":{"SCHOOL_COD":0,"HIGH":0,"PHONE":"8327820","ZIPCODE":"96817","MIDDLE":0,"BUSNAME":"Lanakila District Park","CONTACT":"","TYPE":"","ELEMENTARY":0,"EVAC_ZONE":0.0,"PLACENAME":"Honolulu","OBJECTID":89,"CAPACITY":0,"id":"a66ldy1izg6c","ADDRESS":"1701 Lanakila Ave","W_UPGRADE":0.0,"SPACE":0.0},"type":"Feature","geometry":{"type":"Point","coordinates":[-157.862029391874,21.3264089213063]}},{"properties":{"SCHOOL_COD":0,"HIGH":0,"PHONE":"5874430","ZIPCODE":"96813","MIDDLE":0,"BUSNAME":"Kawananakoa IS","CONTACT":"","TYPE":"","ELEMENTARY":0,"EVAC_ZONE":0.0,"PLACENAME":"Honolulu","OBJECTID":90,"CAPACITY":0,"id":"a66ldxv404wr","ADDRESS":"49 Funchal St","W_UPGRADE":0.0,"SPACE":0.0},"type":"Feature","geometry":{"type":"Point","coordinates":[-157.851892018615,21.3189434471651]}},{"properties":{"SCHOOL_COD":0,"HIGH":0,"PHONE":"2874450","ZIPCODE":"96817","MIDDLE":0,"BUSNAME":"Kauluwela ES","CONTACT":"","TYPE":"","ELEMENTARY":0,"EVAC_ZONE":0.0,"PLACENAME":"Honolulu","OBJECTID":91,"CAPACITY":0,"id":"a66ldxozsu9r","ADDRESS":"1486 Aala St","W_UPGRADE":0.0,"SPACE":0.0},"type":"Feature","geometry":{"type":"Point","coordinates":[-157.859340846655,21.3193555100316]}},{"properties":{"SCHOOL_COD":0,"HIGH":0,"PHONE":"5874510","ZIPCODE":"96813","MIDDLE":0,"BUSNAME":"Royal ES","CONTACT":"","TYPE":"","ELEMENTARY":0,"EVAC_ZONE":0.0,"PLACENAME":"Honolulu","OBJECTID":92,"CAPACITY":0,"id":"a66ldxr9nlwg","ADDRESS":"1519 Queen Emma St","W_UPGRADE":0.0,"SPACE":0.0},"type":"Feature","geometry":{"type":"Point","coordinates":[-157.853602352324,21.3117731274036]}},{"properties":{"SCHOOL_COD":0,"HIGH":0,"PHONE":"8459211","ZIPCODE":"96817","MIDDLE":0,"BUSNAME":"Honolulu CC","CONTACT":"","TYPE":"","ELEMENTARY":0,"EVAC_ZONE":0.0,"PLACENAME":"Honolulu","OBJECTID":93,"CAPACITY":0,"id":"a66ldxz9qwtv","ADDRESS":"874 Dillingham Blvd","W_UPGRADE":0.0,"SPACE":0.0},"type":"Feature","geometry":{"type":"Point","coordinates":[-157.871110926768,21.3214856573137]}},{"properties":{"SCHOOL_COD":0,"HIGH":0,"PHONE":"8323160","ZIPCODE":"96817","MIDDLE":0,"BUSNAME":"Kaiulani ES","CONTACT":"","TYPE":"","ELEMENTARY":0,"EVAC_ZONE":0.0,"PLACENAME":"Honolulu","OBJECTID":94,"CAPACITY":0,"id":"a66ldxxemgan","ADDRESS":"783 North King St","W_UPGRADE":0.0,"SPACE":0.0},"type":"Feature","geometry":{"type":"Point","coordinates":[-157.867729685325,21.3212686838692]}},{"properties":{"SCHOOL_COD":0,"HIGH":0,"PHONE":"8323322","ZIPCODE":"96817","MIDDLE":0,"BUSNAME":"Kalihi Kai ES","CONTACT":"","TYPE":"","ELEMENTARY":0,"EVAC_ZONE":0.0,"PLACENAME":"Honolulu","OBJECTID":95,"CAPACITY":0,"id":"a66ldxn0qqkg","ADDRESS":"626 McNeill St","W_UPGRADE":0.0,"SPACE":0.0},"type":"Feature","geometry":{"type":"Point","coordinates":[-157.877971144879,21.3265883583435]}},{"properties":{"SCHOOL_COD":0,"HIGH":0,"PHONE":"8323130","ZIPCODE":"96819","MIDDLE":0,"BUSNAME":"Kalakaua IS","CONTACT":"","TYPE":"","ELEMENTARY":0,"EVAC_ZONE":0.0,"PLACENAME":"Honolulu","OBJECTID":96,"CAPACITY":0,"id":"a66ldxyvxye1","ADDRESS":"821 Kalihi St","W_UPGRADE":0.0,"SPACE":0.0},"type":"Feature","geometry":{"type":"Point","coordinates":[-157.87649526591,21.3284214335194]}},{"properties":{"SCHOOL_COD":0,"HIGH":0,"PHONE":"8323600","ZIPCODE":"96817","MIDDLE":0,"BUSNAME":"Farrington HS","CONTACT":"","TYPE":"","ELEMENTARY":0,"EVAC_ZONE":0.0,"PLACENAME":"Honolulu","OBJECTID":97,"CAPACITY":0,"id":"a66ldxm7fuv7","ADDRESS":"1564 N King St","W_UPGRADE":0.0,"SPACE":0.0},"type":"Feature","geometry":{"type":"Point","coordinates":[-157.872602825514,21.330728393535]}},{"properties":{"SCHOOL_COD":0,"HIGH":0,"PHONE":"8323190","ZIPCODE":"96819","MIDDLE":0,"BUSNAME":"Puuhale ES","CONTACT":"","TYPE":"","ELEMENTARY":0,"EVAC_ZONE":0.0,"PLACENAME":"Honolulu","OBJECTID":98,"CAPACITY":0,"id":"a66ldxzh6mvx","ADDRESS":"345 Puuhale Rd","W_UPGRADE":0.0,"SPACE":0.0},"type":"Feature","geometry":{"type":"Point","coordinates":[-157.884149957759,21.3267107972471]}},{"properties":{"SCHOOL_COD":0,"HIGH":0,"PHONE":"8323303","ZIPCODE":"96819","MIDDLE":0,"BUSNAME":"Linapuni ES","CONTACT":"","TYPE":"","ELEMENTARY":0,"EVAC_ZONE":0.0,"PLACENAME":"Honolulu","OBJECTID":99,"CAPACITY":0,"id":"a66ldxwjkcz8","ADDRESS":"1434 Linapuni St","W_UPGRADE":0.0,"SPACE":0.0},"type":"Feature","geometry":{"type":"Point","coordinates":[-157.877427224312,21.3388325525229]}},{"properties":{"SCHOOL_COD":0,"HIGH":0,"PHONE":"8323210","ZIPCODE":"96819","MIDDLE":0,"BUSNAME":"Kalihi Waena ES","CONTACT":"","TYPE":"","ELEMENTARY":0,"EVAC_ZONE":0.0,"PLACENAME":"Honolulu","OBJECTID":100,"CAPACITY":0,"id":"a66ldxz1uc5j","ADDRESS":"1240 Gulick Ave","W_UPGRADE":0.0,"SPACE":0.0},"type":"Feature","geometry":{"type":"Point","coordinates":[-157.875573379604,21.3362341847526]}},{"properties":{"SCHOOL_COD":0,"HIGH":0,"PHONE":"8323340","ZIPCODE":"96819","MIDDLE":0,"BUSNAME":"Dole IS","CONTACT":"","TYPE":"","ELEMENTARY":0,"EVAC_ZONE":0.0,"PLACENAME":"Honolulu","OBJECTID":101,"CAPACITY":0,"id":"a66ldxzyts83","ADDRESS":"1803 Kam IV Rd","W_UPGRADE":0.0,"SPACE":0.0},"type":"Feature","geometry":{"type":"Point","coordinates":[-157.870736205287,21.3424961639344]}},{"properties":{"SCHOOL_COD":0,"HIGH":0,"PHONE":"8327811","ZIPCODE":"","MIDDLE":0,"BUSNAME":"Kalihi Valley District Park","CONTACT":"","TYPE":"","ELEMENTARY":0,"EVAC_ZONE":0.0,"PLACENAME":"Honolulu","OBJECTID":102,"CAPACITY":0,"id":"a66ldxptqcxp","ADDRESS":"2239 N School St","W_UPGRADE":0.0,"SPACE":0.0},"type":"Feature","geometry":{"type":"Point","coordinates":[-157.869667548277,21.3433765549383]}},{"properties":{"SCHOOL_COD":0,"HIGH":0,"PHONE":"8323500","ZIPCODE":"96819","MIDDLE":0,"BUSNAME":"Kaewai ES","CONTACT":"","TYPE":"","ELEMENTARY":0,"EVAC_ZONE":0.0,"PLACENAME":"Honolulu","OBJECTID":103,"CAPACITY":0,"id":"a66ldy07k1xj","ADDRESS":"1929 Kam IV Rd","W_UPGRADE":0.0,"SPACE":0.0},"type":"Feature","geometry":{"type":"Point","coordinates":[-157.869106890965,21.3447346562653]}},{"properties":{"SCHOOL_COD":0,"HIGH":0,"PHONE":"8323370","ZIPCODE":"96817","MIDDLE":0,"BUSNAME":"Likelike ES","CONTACT":"","TYPE":"","ELEMENTARY":0,"EVAC_ZONE":0.0,"PLACENAME":"Honolulu","OBJECTID":104,"CAPACITY":0,"id":"a66ldxqf2oy7","ADDRESS":"1618 Palama St","W_UPGRADE":0.0,"SPACE":0.0},"type":"Feature","geometry":{"type":"Point","coordinates":[-157.864039531712,21.3248618960463]}},{"properties":{"SCHOOL_COD":0,"HIGH":0,"PHONE":"7334750","ZIPCODE":"96816","MIDDLE":0,"BUSNAME":"Aliiolani ES","CONTACT":"","TYPE":"","ELEMENTARY":0,"EVAC_ZONE":0.0,"PLACENAME":"Honolulu","OBJECTID":105,"CAPACITY":0,"id":"a66ldy1d9l0j","ADDRESS":"1240 7th Ave","W_UPGRADE":0.0,"SPACE":0.0},"type":"Feature","geometry":{"type":"Point","coordinates":[-157.804770366383,21.2866488316299]}},{"properties":{"SCHOOL_COD":0,"HIGH":0,"PHONE":"7334850","ZIPCODE":"96816","MIDDLE":0,"BUSNAME":"Liholiho ES","CONTACT":"","TYPE":"","ELEMENTARY":0,"EVAC_ZONE":0.0,"PLACENAME":"Honolulu","OBJECTID":106,"CAPACITY":0,"id":"a66ldxr5o7po","ADDRESS":"3430 Maunaloa Ave","W_UPGRADE":0.0,"SPACE":0.0},"type":"Feature","geometry":{"type":"Point","coordinates":[-157.806238049988,21.2789420550626]}},{"properties":{"SCHOOL_COD":0,"HIGH":0,"PHONE":"7334680","ZIPCODE":"96816","MIDDLE":0,"BUSNAME":"Liliuokalani ES","CONTACT":"","TYPE":"","ELEMENTARY":0,"EVAC_ZONE":0.0,"PLACENAME":"Honolulu","OBJECTID":107,"CAPACITY":0,"id":"a66ldxrbnb06","ADDRESS":"3633 Waialae Ave","W_UPGRADE":0.0,"SPACE":0.0},"type":"Feature","geometry":{"type":"Point","coordinates":[-157.797723074261,21.2814674227958]}},{"properties":{"SCHOOL_COD":0,"HIGH":0,"PHONE":"5874414","ZIPCODE":"96814","MIDDLE":0,"BUSNAME":"Kaahumanu ES","CONTACT":"","TYPE":"","ELEMENTARY":0,"EVAC_ZONE":0.0,"PLACENAME":"Honolulu","OBJECTID":108,"CAPACITY":0,"id":"a66ldxug4ryh","ADDRESS":"1141 Kinau St","W_UPGRADE":0.0,"SPACE":0.0},"type":"Feature","geometry":{"type":"Point","coordinates":[-157.843702768316,21.3022829662224]}},{"properties":{"SCHOOL_COD":0,"HIGH":0,"PHONE":"7334789","ZIPCODE":"96816","MIDDLE":0,"BUSNAME":"Hokulani ES","CONTACT":"","TYPE":"","ELEMENTARY":0,"EVAC_ZONE":0.0,"PLACENAME":"Honolulu","OBJECTID":109,"CAPACITY":0,"id":"a66ldy16i1b7","ADDRESS":"2940 Kamakini St","W_UPGRADE":0.0,"SPACE":0.0},"type":"Feature","geometry":{"type":"Point","coordinates":[-157.812800487491,21.2927651219955]}},{"properties":{"SCHOOL_COD":0,"HIGH":0,"PHONE":"8323290","ZIPCODE":"96817","MIDDLE":0,"BUSNAME":"Kapalama ES","CONTACT":"","TYPE":"","ELEMENTARY":0,"EVAC_ZONE":0.0,"PLACENAME":"Honolulu","OBJECTID":110,"CAPACITY":0,"id":"a66ldxzoreld","ADDRESS":"1601 North School St","W_UPGRADE":0.0,"SPACE":0.0},"type":"Feature","geometry":{"type":"Point","coordinates":[-157.869478177782,21.3347455883177]}},{"properties":{"SCHOOL_COD":0,"HIGH":0,"PHONE":"8323310","ZIPCODE":"96819","MIDDLE":0,"BUSNAME":"Kalihi Uka ES","CONTACT":"","TYPE":"","ELEMENTARY":0,"EVAC_ZONE":0.0,"PLACENAME":"Honolulu","OBJECTID":111,"CAPACITY":0,"id":"a66ldxqg3kdb","ADDRESS":"2411 Kalihi St","W_UPGRADE":0.0,"SPACE":0.0},"type":"Feature","geometry":{"type":"Point","coordinates":[-157.861849967002,21.3452118716573]}},{"properties":{"SCHOOL_COD":0,"HIGH":0,"PHONE":"8323560","ZIPCODE":"96819","MIDDLE":0,"BUSNAME":"Shafter ES","CONTACT":"","TYPE":"","ELEMENTARY":0,"EVAC_ZONE":0.0,"PLACENAME":"Honolulu","OBJECTID":112,"CAPACITY":0,"id":"a66ldxst408b","ADDRESS":"2 Fort Shafter","W_UPGRADE":0.0,"SPACE":0.0},"type":"Feature","geometry":{"type":"Point","coordinates":[-157.884714117117,21.3420791147676]}},{"properties":{"SCHOOL_COD":0,"HIGH":0,"PHONE":"8317850","ZIPCODE":"96819","MIDDLE":0,"BUSNAME":"Moanalua IS","CONTACT":"","TYPE":"","ELEMENTARY":0,"EVAC_ZONE":0.0,"PLACENAME":"Honolulu","OBJECTID":113,"CAPACITY":0,"id":"a66ldxrsfweq","ADDRESS":"1289 Mahiole St","W_UPGRADE":0.0,"SPACE":0.0},"type":"Feature","geometry":{"type":"Point","coordinates":[-157.894022981985,21.3501131778747]}},{"properties":{"SCHOOL_COD":0,"HIGH":0,"PHONE":"8378455","ZIPCODE":"96818","MIDDLE":0,"BUSNAME":"Moanalua HS","CONTACT":"","TYPE":"","ELEMENTARY":0,"EVAC_ZONE":0.0,"PLACENAME":"Honolulu","OBJECTID":114,"CAPACITY":0,"id":"a66ldxpbz5fg","ADDRESS":"2825 Ala Ilima St","W_UPGRADE":0.0,"SPACE":0.0},"type":"Feature","geometry":{"type":"Point","coordinates":[-157.900553508769,21.3473374327329]}},{"properties":{"SCHOOL_COD":0,"HIGH":0,"PHONE":"8317870","ZIPCODE":"96818","MIDDLE":0,"BUSNAME":"Salt Lake ES","CONTACT":"","TYPE":"","ELEMENTARY":0,"EVAC_ZONE":0.0,"PLACENAME":"Honolulu","OBJECTID":115,"CAPACITY":0,"id":"a66ldxouu7xd","ADDRESS":"1131 Ala Lilikoi St","W_UPGRADE":0.0,"SPACE":0.0},"type":"Feature","geometry":{"type":"Point","coordinates":[-157.912025347337,21.3517304084393]}},{"properties":{"SCHOOL_COD":0,"HIGH":0,"PHONE":"4214200","ZIPCODE":"96818","MIDDLE":0,"BUSNAME":"Radford HS","CONTACT":"","TYPE":"","ELEMENTARY":0,"EVAC_ZONE":0.0,"PLACENAME":"Honolulu","OBJECTID":116,"CAPACITY":0,"id":"a66ldxowdzpg","ADDRESS":"4361 Salt Lake Blvd","W_UPGRADE":0.0,"SPACE":0.0},"type":"Feature","geometry":{"type":"Point","coordinates":[-157.929027268079,21.3595389878864]}},{"properties":{"SCHOOL_COD":0,"HIGH":0,"PHONE":"4214110","ZIPCODE":"96818","MIDDLE":0,"BUSNAME":"Makalapa ES","CONTACT":"","TYPE":"","ELEMENTARY":0,"EVAC_ZONE":0.0,"PLACENAME":"Honolulu","OBJECTID":117,"CAPACITY":0,"id":"a66ldxv58tm8","ADDRESS":"4435 Salt Lake Blvd","W_UPGRADE":0.0,"SPACE":0.0},"type":"Feature","geometry":{"type":"Point","coordinates":[-157.928568400119,21.3614693534061]}},{"properties":{"SCHOOL_COD":0,"HIGH":0,"PHONE":"8317866","ZIPCODE":"96819","MIDDLE":0,"BUSNAME":"Red Hill ES","CONTACT":"","TYPE":"","ELEMENTARY":0,"EVAC_ZONE":0.0,"PLACENAME":"Honolulu","OBJECTID":118,"CAPACITY":0,"id":"a66ldy0muh0d","ADDRESS":"1265 Ala Kula Pl","W_UPGRADE":0.0,"SPACE":0.0},"type":"Feature","geometry":{"type":"Point","coordinates":[-157.90007935266,21.3684694074203]}},{"properties":{"SCHOOL_COD":0,"HIGH":0,"PHONE":"4214245","ZIPCODE":"96818","MIDDLE":0,"BUSNAME":"Pearl Harbor Kai ES","CONTACT":"","TYPE":"","ELEMENTARY":0,"EVAC_ZONE":0.0,"PLACENAME":"Honolulu","OBJECTID":119,"CAPACITY":0,"id":"a66ldxvkutu3","ADDRESS":"1 C Ave","W_UPGRADE":0.0,"SPACE":0.0},"type":"Feature","geometry":{"type":"Point","coordinates":[-157.938198975829,21.3492125458081]}},{"properties":{"SCHOOL_COD":0,"HIGH":0,"PHONE":"4214148","ZIPCODE":"96818","MIDDLE":0,"BUSNAME":"Hickam ES","CONTACT":"","TYPE":"","ELEMENTARY":0,"EVAC_ZONE":0.0,"PLACENAME":"Honolulu","OBJECTID":120,"CAPACITY":0,"id":"a66ldxx8vwvj","ADDRESS":"Manzelman Circle","W_UPGRADE":0.0,"SPACE":0.0},"type":"Feature","geometry":{"type":"Point","coordinates":[-157.963728323147,21.3424744195769]}},{"properties":{"SCHOOL_COD":0,"HIGH":0,"PHONE":"4214280","ZIPCODE":"96818","MIDDLE":0,"BUSNAME":"Aliamanu ES &amp; IS","CONTACT":"","TYPE":"","ELEMENTARY":0,"EVAC_ZONE":0.0,"PLACENAME":"Honolulu","OBJECTID":121,"CAPACITY":0,"id":"a66ldxnx1bao","ADDRESS":"3265 Salt Lake Blvd","W_UPGRADE":0.0,"SPACE":0.0},"type":"Feature","geometry":{"type":"Point","coordinates":[-157.914518827508,21.3425566552391]}},{"properties":{"SCHOOL_COD":0,"HIGH":0,"PHONE":"4214180","ZIPCODE":"96818","MIDDLE":0,"BUSNAME":"Mokulele ES","CONTACT":"","TYPE":"","ELEMENTARY":0,"EVAC_ZONE":0.0,"PLACENAME":"Honolulu","OBJECTID":122,"CAPACITY":0,"id":"a66ldxr1bz7h","ADDRESS":"250 Aupaka St","W_UPGRADE":0.0,"SPACE":0.0},"type":"Feature","geometry":{"type":"Point","coordinates":[-157.940892056172,21.3429802027851]}},{"properties":{"SCHOOL_COD":0,"HIGH":0,"PHONE":"6249500","ZIPCODE":"96786","MIDDLE":0,"BUSNAME":"Solomon ES","CONTACT":"","TYPE":"","ELEMENTARY":0,"EVAC_ZONE":0.0,"PLACENAME":"Wahiawa","OBJECTID":123,"CAPACITY":0,"id":"a66ldxylo1x2","ADDRESS":"1 Schofield Barracks","W_UPGRADE":0.0,"SPACE":0.0},"type":"Feature","geometry":{"type":"Point","coordinates":[-158.072362750731,21.4912697625973]}},{"properties":{"SCHOOL_COD":0,"HIGH":0,"PHONE":"6226366","ZIPCODE":"96786","MIDDLE":0,"BUSNAME":"Kaala ES","CONTACT":"","TYPE":"","ELEMENTARY":0,"EVAC_ZONE":0.0,"PLACENAME":"Wahiawa","OBJECTID":124,"CAPACITY":0,"id":"a66ldxngbohk","ADDRESS":"130 California Ave","W_UPGRADE":0.0,"SPACE":0.0},"type":"Feature","geometry":{"type":"Point","coordinates":[-158.036532121446,21.4943215269272]}},{"properties":{"SCHOOL_COD":0,"HIGH":0,"PHONE":"6685813","ZIPCODE":"96792","MIDDLE":0,"BUSNAME":"Nanakuli ES","CONTACT":"","TYPE":"","ELEMENTARY":0,"EVAC_ZONE":0.0,"PLACENAME":"Waianae","OBJECTID":125,"CAPACITY":0,"id":"a66ldxmog36o","ADDRESS":"89-778 Haleakala Ave","W_UPGRADE":0.0,"SPACE":0.0},"type":"Feature","geometry":{"type":"Point","coordinates":[-158.135548451439,21.3865385954859]}},{"properties":{"SCHOOL_COD":0,"HIGH":0,"PHONE":"6685823","ZIPCODE":"96792","MIDDLE":0,"BUSNAME":"Nanakuli HS &amp; IS","CONTACT":"","TYPE":"","ELEMENTARY":0,"EVAC_ZONE":0.0,"PLACENAME":"Waianae","OBJECTID":126,"CAPACITY":0,"id":"a66ldxvtqna3","ADDRESS":"89-980 Nanakuli Ave","W_UPGRADE":0.0,"SPACE":0.0},"type":"Feature","geometry":{"type":"Point","coordinates":[-158.132748848522,21.3882429527382]}},{"properties":{"SCHOOL_COD":0,"HIGH":0,"PHONE":"6977100","ZIPCODE":"96792","MIDDLE":0,"BUSNAME":"Leihoku ES","CONTACT":"","TYPE":"","ELEMENTARY":0,"EVAC_ZONE":0.0,"PLACENAME":"Waianae","OBJECTID":127,"CAPACITY":0,"id":"a66ldxsr21x3","ADDRESS":"86-285 Leihoku St","W_UPGRADE":0.0,"SPACE":0.0},"type":"Feature","geometry":{"type":"Point","coordinates":[-158.174462635054,21.4386807248159]}},{"properties":{"SCHOOL_COD":0,"HIGH":0,"PHONE":"6226400","ZIPCODE":"96786","MIDDLE":0,"BUSNAME":"Wheeler ES","CONTACT":"","TYPE":"","ELEMENTARY":0,"EVAC_ZONE":0.0,"PLACENAME":"Wahiawa","OBJECTID":128,"CAPACITY":0,"id":"a66ldxxqca5w","ADDRESS":"1 Wheeler Army Airfield","W_UPGRADE":0.0,"SPACE":0.0},"type":"Feature","geometry":{"type":"Point","coordinates":[-158.038030265825,21.4876990854393]}},{"properties":{"SCHOOL_COD":0,"HIGH":0,"PHONE":"6226525","ZIPCODE":"96786","MIDDLE":0,"BUSNAME":"Wheeler IS","CONTACT":"","TYPE":"","ELEMENTARY":0,"EVAC_ZONE":0.0,"PLACENAME":"Wahiawa","OBJECTID":129,"CAPACITY":0,"id":"a66ldy19imw6","ADDRESS":"2 Wheeler Army Airfield","W_UPGRADE":0.0,"SPACE":0.0},"type":"Feature","geometry":{"type":"Point","coordinates":[-158.038680756911,21.4866661604639]}},{"properties":{"SCHOOL_COD":0,"HIGH":0,"PHONE":"3772419","ZIPCODE":"96821","MIDDLE":0,"BUSNAME":"Aina Haina ES","CONTACT":"","TYPE":"","ELEMENTARY":0,"EVAC_ZONE":0.0,"PLACENAME":"Honolulu","OBJECTID":130,"CAPACITY":0,"id":"a66ldxptvsdg","ADDRESS":"801 Hind Dr","W_UPGRADE":0.0,"SPACE":0.0},"type":"Feature","geometry":{"type":"Point","coordinates":[-157.756988294814,21.2794642531843]}},{"properties":{"SCHOOL_COD":0,"HIGH":0,"PHONE":"3946650","ZIPCODE":"96825","MIDDLE":0,"BUSNAME":"Kaiser HS","CONTACT":"Judy Nakamura","TYPE":"","ELEMENTARY":0,"EVAC_ZONE":0.0,"PLACENAME":"Honolulu","OBJECTID":131,"CAPACITY":0,"id":"a66ldxnmsou4","ADDRESS":"511 LUNALILO HOME RD","W_UPGRADE":0.0,"SPACE":0.0},"type":"Feature","geometry":{"type":"Point","coordinates":[-157.69595819293,21.2848135510745]}},{"properties":{"SCHOOL_COD":0,"HIGH":0,"PHONE":"2667844","ZIPCODE":"96734","MIDDLE":0,"BUSNAME":"Lanikai ES","CONTACT":"","TYPE":"","ELEMENTARY":0,"EVAC_ZONE":0.0,"PLACENAME":"Kailua","OBJECTID":132,"CAPACITY":0,"id":"a66ldxmiusbu","ADDRESS":"140 Alala Rd","W_UPGRADE":0.0,"SPACE":0.0},"type":"Feature","geometry":{"type":"Point","coordinates":[-157.72609739981,21.3939828723431]}},{"properties":{"SCHOOL_COD":0,"HIGH":0,"PHONE":"2667878","ZIPCODE":"96734","MIDDLE":0,"BUSNAME":"Kailua ES","CONTACT":"","TYPE":"","ELEMENTARY":0,"EVAC_ZONE":0.0,"PLACENAME":"Kailua","OBJECTID":133,"CAPACITY":0,"id":"a66ldxr9e4d2","ADDRESS":"315 Kuulei Rd","W_UPGRADE":0.0,"SPACE":0.0},"type":"Feature","geometry":{"type":"Point","coordinates":[-157.741191350904,21.3950205621064]}},{"properties":{"SCHOOL_COD":0,"HIGH":0,"PHONE":"2631500","ZIPCODE":"96734","MIDDLE":0,"BUSNAME":"Kailua IS","CONTACT":"","TYPE":"","ELEMENTARY":0,"EVAC_ZONE":0.0,"PLACENAME":"Kailua","OBJECTID":134,"CAPACITY":0,"id":"a66ldxm4af4n","ADDRESS":"145 S Kainalu Dr","W_UPGRADE":0.0,"SPACE":0.0},"type":"Feature","geometry":{"type":"Point","coordinates":[-157.736328998379,21.3939970719287]}},{"properties":{"SCHOOL_COD":0,"HIGH":0,"PHONE":"2933211","ZIPCODE":"96762","MIDDLE":0,"BUSNAME":"Brigham Young University","CONTACT":"","TYPE":"","ELEMENTARY":0,"EVAC_ZONE":0.0,"PLACENAME":"Laie","OBJECTID":135,"CAPACITY":0,"id":"a66ldxpawdyt","ADDRESS":"55-220 Kulanui Street","W_UPGRADE":0.0,"SPACE":0.0},"type":"Feature","geometry":{"type":"Point","coordinates":[-157.925453295397,21.6418261973628]}},{"properties":{"SCHOOL_COD":0,"HIGH":0,"PHONE":"2938950","ZIPCODE":"96731","MIDDLE":0,"BUSNAME":"Kahuku HS &amp; IS","CONTACT":"","TYPE":"","ELEMENTARY":0,"EVAC_ZONE":0.0,"PLACENAME":"Kahuku","OBJECTID":136,"CAPACITY":0,"id":"a66ldxomfwvd","ADDRESS":"56-490 Kamehameha Hwy","W_UPGRADE":0.0,"SPACE":0.0},"type":"Feature","geometry":{"type":"Point","coordinates":[-157.947625357401,21.6751447802624]}},{"properties":{"SCHOOL_COD":0,"HIGH":0,"PHONE":"5874400","ZIPCODE":"96813","MIDDLE":0,"BUSNAME":"Central MS","CONTACT":"","TYPE":"","ELEMENTARY":0,"EVAC_ZONE":0.0,"PLACENAME":"Honolulu","OBJECTID":137,"CAPACITY":0,"id":"a66ldxzx58u0","ADDRESS":"1302 Queen Emma St","W_UPGRADE":0.0,"SPACE":0.0},"type":"Feature","geometry":{"type":"Point","coordinates":[-157.85684463776,21.3107225626802]}},{"properties":{"SCHOOL_COD":0,"HIGH":0,"PHONE":"9433500","ZIPCODE":"96815","MIDDLE":0,"BUSNAME":"Hawaii Convention Center","CONTACT":"","TYPE":"","ELEMENTARY":0,"EVAC_ZONE":0.0,"PLACENAME":"Honolulu","OBJECTID":138,"CAPACITY":0,"id":"a66ldxvjry4y","ADDRESS":"1801 Kalakaua Ave","W_UPGRADE":0.0,"SPACE":0.0},"type":"Feature","geometry":{"type":"Point","coordinates":[-157.834382690747,21.288304916235]}},{"properties":{"SCHOOL_COD":0,"HIGH":0,"PHONE":"7334999","ZIPCODE":"96815","MIDDLE":0,"BUSNAME":"Hawaii School of Hearing and Vision","CONTACT":"","TYPE":"","ELEMENTARY":0,"EVAC_ZONE":0.0,"PLACENAME":"Honolulu","OBJECTID":139,"CAPACITY":0,"id":"a66ldxq46cge","ADDRESS":"3440 Leahi Ave","W_UPGRADE":0.0,"SPACE":0.0},"type":"Feature","geometry":{"type":"Point","coordinates":[-157.815564544264,21.2729113716758]}},{"properties":{"SCHOOL_COD":0,"HIGH":0,"PHONE":"7349000","ZIPCODE":"96816","MIDDLE":0,"BUSNAME":"Kapiolani Community College","CONTACT":"","TYPE":"","ELEMENTARY":0,"EVAC_ZONE":0.0,"PLACENAME":"Honolulu","OBJECTID":140,"CAPACITY":0,"id":"a66ldxoqnh0y","ADDRESS":"4303 Diamond Head Rd","W_UPGRADE":0.0,"SPACE":0.0},"type":"Feature","geometry":{"type":"Point","coordinates":[-157.801677799893,21.2701720846516]}},{"properties":{"SCHOOL_COD":0,"HIGH":0,"PHONE":"4214125","ZIPCODE":"96818","MIDDLE":0,"BUSNAME":"Pearl Harbor ES","CONTACT":"","TYPE":"","ELEMENTARY":0,"EVAC_ZONE":0.0,"PLACENAME":"Honolulu","OBJECTID":141,"CAPACITY":0,"id":"a66ldxtzmg18","ADDRESS":"1 Moanalua Ridge","W_UPGRADE":0.0,"SPACE":0.0},"type":"Feature","geometry":{"type":"Point","coordinates":[-157.930473504918,21.3493540576976]}},{"properties":{"SCHOOL_COD":0,"HIGH":0,"PHONE":"6277322","ZIPCODE":"96789","MIDDLE":0,"BUSNAME":"Kipapa ES","CONTACT":"","TYPE":"","ELEMENTARY":0,"EVAC_ZONE":0.0,"PLACENAME":"Mililani","OBJECTID":142,"CAPACITY":0,"id":"a66ldxryx4ck","ADDRESS":"95-076 Kipapa Dr","W_UPGRADE":0.0,"SPACE":0.0},"type":"Feature","geometry":{"type":"Point","coordinates":[-158.012688784857,21.4619806375329]}},{"properties":{"SCHOOL_COD":0,"HIGH":0,"PHONE":"6263000","ZIPCODE":"96789","MIDDLE":0,"BUSNAME":"Mililani Mauka ES","CONTACT":"","TYPE":"","ELEMENTARY":0,"EVAC_ZONE":0.0,"PLACENAME":"Mililani","OBJECTID":143,"CAPACITY":0,"id":"a66ldxycfowd","ADDRESS":"95-1111 Makaikai St","W_UPGRADE":0.0,"SPACE":0.0},"type":"Feature","geometry":{"type":"Point","coordinates":[-157.988220145238,21.4805485515873]}},{"properties":{"SCHOOL_COD":0,"HIGH":0,"PHONE":"2667818","ZIPCODE":"96734","MIDDLE":0,"BUSNAME":"Keolu ES","CONTACT":"","TYPE":"","ELEMENTARY":0,"EVAC_ZONE":0.0,"PLACENAME":"Kailua","OBJECTID":144,"CAPACITY":0,"id":"a66ldxz8wleh","ADDRESS":"1416 Keolu Dr","W_UPGRADE":0.0,"SPACE":0.0},"type":"Feature","geometry":{"type":"Point","coordinates":[-157.734970075227,21.3713406350173]}},{"properties":{"SCHOOL_COD":0,"HIGH":0,"PHONE":"6267355","ZIPCODE":"96789","MIDDLE":0,"BUSNAME":"Mililani MS","CONTACT":"","TYPE":"","ELEMENTARY":0,"EVAC_ZONE":0.0,"PLACENAME":"Mililani","OBJECTID":145,"CAPACITY":0,"id":"a66ldxnor3jl","ADDRESS":"95-1140 Lehiwa Dr","W_UPGRADE":0.0,"SPACE":0.0},"type":"Feature","geometry":{"type":"Point","coordinates":[-157.978241358633,21.4809888616659]}},{"properties":{"SCHOOL_COD":0,"HIGH":0,"PHONE":"4536550","ZIPCODE":"96782","MIDDLE":0,"BUSNAME":"Palisades ES","CONTACT":"","TYPE":"","ELEMENTARY":0,"EVAC_ZONE":0.0,"PLACENAME":"Pearl City","OBJECTID":146,"CAPACITY":0,"id":"a66ldxwd5jxz","ADDRESS":"2306 Auhuhu St","W_UPGRADE":0.0,"SPACE":0.0},"type":"Feature","geometry":{"type":"Point","coordinates":[-157.952735201923,21.4252826363415]}},{"properties":{"SCHOOL_COD":0,"HIGH":0,"PHONE":"2335686","ZIPCODE":"96744","MIDDLE":0,"BUSNAME":"Benjamin Parker ES","CONTACT":"","TYPE":"","ELEMENTARY":0,"EVAC_ZONE":0.0,"PLACENAME":"Kaneohe","OBJECTID":147,"CAPACITY":0,"id":"a66ldxvoa1vi","ADDRESS":"45-259 Waikalua Rd","W_UPGRADE":0.0,"SPACE":0.0},"type":"Feature","geometry":{"type":"Point","coordinates":[-157.79709163168,21.4135581307241]}},{"properties":{"SCHOOL_COD":0,"HIGH":0,"PHONE":"6928200","ZIPCODE":"96707","MIDDLE":0,"BUSNAME":"Kapolei HS","CONTACT":"","TYPE":"","ELEMENTARY":0,"EVAC_ZONE":0.0,"PLACENAME":"Kapolei","OBJECTID":148,"CAPACITY":0,"id":"a66ldxti91o3","ADDRESS":"91-5007 Kapolei Pkwy","W_UPGRADE":0.0,"SPACE":0.0},"type":"Feature","geometry":{"type":"Point","coordinates":[-158.070938354887,21.331090444311]}},{"properties":{"SCHOOL_COD":0,"HIGH":0,"PHONE":"3326801","ZIPCODE":"96741","MIDDLE":0,"BUSNAME":"Kalaheo Elementary","CONTACT":"","TYPE":"","ELEMENTARY":0,"EVAC_ZONE":0.0,"PLACENAME":"Kalaheo","OBJECTID":174,"CAPACITY":1164,"id":"a66ldxnc5o35","ADDRESS":"4400 Maka Road","W_UPGRADE":0.0,"SPACE":1164.0},"type":"Feature","geometry":{"type":"Point","coordinates":[-159.520551926381,21.9229842874899]}},{"properties":{"SCHOOL_COD":455,"HIGH":1,"PHONE":"8214400","ZIPCODE":"96746","MIDDLE":0,"BUSNAME":"Kapaa High","CONTACT":"","TYPE":"all","ELEMENTARY":0,"EVAC_ZONE":4.0,"PLACENAME":"Kapaa","OBJECTID":175,"CAPACITY":1870,"id":"a66ldxu0ds1w","ADDRESS":"4695 Mailihuna Rd","W_UPGRADE":751.0,"SPACE":1870.0},"type":"Feature","geometry":{"type":"Point","coordinates":[-159.312234125255,22.0915994437336]}},{"properties":{"SCHOOL_COD":456,"HIGH":1,"PHONE":"2743160","ZIPCODE":"96766","MIDDLE":0,"BUSNAME":"Kauai High","CONTACT":"","TYPE":"all","ELEMENTARY":0,"EVAC_ZONE":3.0,"PLACENAME":"Lihue","OBJECTID":176,"CAPACITY":2283,"id":"a66ldxz3oze3","ADDRESS":"3577 Lala Rd","W_UPGRADE":477.0,"SPACE":2283.0},"type":"Feature","geometry":{"type":"Point","coordinates":[-159.360381885312,21.9584783168721]}},{"properties":{"SCHOOL_COD":458,"HIGH":0,"PHONE":"3377655","ZIPCODE":"96752","MIDDLE":0,"BUSNAME":"Kekaha Elementary","CONTACT":"","TYPE":"all","ELEMENTARY":1,"EVAC_ZONE":1.0,"PLACENAME":"Kekaha","OBJECTID":177,"CAPACITY":830,"id":"a66ldxr1svji","ADDRESS":"8140 Kekaha Rd","W_UPGRADE":0.0,"SPACE":830.0},"type":"Feature","geometry":{"type":"Point","coordinates":[-159.715826375453,21.9718743458843]}},{"properties":{"SCHOOL_COD":463,"HIGH":0,"PHONE":"2743150","ZIPCODE":"96766","MIDDLE":0,"BUSNAME":"Wilcox Elementary","CONTACT":"","TYPE":"all","ELEMENTARY":1,"EVAC_ZONE":3.0,"PLACENAME":"Lihue","OBJECTID":178,"CAPACITY":268,"id":"a66ldxvvntro","ADDRESS":"4319 Hardy St","W_UPGRADE":0.0,"SPACE":268.0},"type":"Feature","geometry":{"type":"Point","coordinates":[-159.364169929594,21.9753440173058]}},{"properties":{"SCHOOL_COD":454,"HIGH":0,"PHONE":"8218244","ZIPCODE":"96746","MIDDLE":0,"BUSNAME":"Kapaa Elementary","CONTACT":"","TYPE":"all","ELEMENTARY":1,"EVAC_ZONE":4.0,"PLACENAME":"Kapaa","OBJECTID":179,"CAPACITY":1346,"id":"a66ldxolwp94","ADDRESS":"4886 Kawaihau Rd","W_UPGRADE":0.0,"SPACE":1346.0},"type":"Feature","geometry":{"type":"Point","coordinates":[-159.314549722333,22.0908835506464]}},{"properties":{"SCHOOL_COD":447,"HIGH":0,"PHONE":"8214460","ZIPCODE":"96746","MIDDLE":1,"BUSNAME":"Kapaa Middle","CONTACT":"","TYPE":"all","ELEMENTARY":0,"EVAC_ZONE":4.0,"PLACENAME":"Kapaa","OBJECTID":180,"CAPACITY":467,"id":"a66ldxmic5sf","ADDRESS":"4867 Olohena Rd","W_UPGRADE":84.0,"SPACE":467.0},"type":"Feature","geometry":{"type":"Point","coordinates":[-159.327737274207,22.0784467341989]}},{"properties":{"SCHOOL_COD":0,"HIGH":0,"PHONE":"2413150","ZIPCODE":"96766","MIDDLE":0,"BUSNAME":"King Kaumualii Elementary","CONTACT":"","TYPE":"","ELEMENTARY":0,"EVAC_ZONE":0.0,"PLACENAME":"Lihue","OBJECTID":181,"CAPACITY":2245,"id":"a66ldxyfrvdx","ADDRESS":"4380 Hanamaula Rd","W_UPGRADE":0.0,"SPACE":2245.0},"type":"Feature","geometry":{"type":"Point","coordinates":[-159.35099703787,21.9953726650141]}},{"properties":{"SCHOOL_COD":459,"HIGH":0,"PHONE":"8281212","ZIPCODE":"96754","MIDDLE":0,"BUSNAME":"Kilauea Elementary","CONTACT":"","TYPE":"tsunami only","ELEMENTARY":1,"EVAC_ZONE":5.0,"PLACENAME":"Kilauea","OBJECTID":182,"CAPACITY":380,"id":"a66ldxxa56tn","ADDRESS":"2440 Kolo Rd","W_UPGRADE":257.0,"SPACE":380.0},"type":"Feature","geometry":{"type":"Point","coordinates":[-159.40922106454,22.2063071588002]}},{"properties":{"SCHOOL_COD":451,"HIGH":0,"PHONE":"3352111","ZIPCODE":"96705","MIDDLE":0,"BUSNAME":"Eleele Elementary","CONTACT":"","TYPE":"all","ELEMENTARY":1,"EVAC_ZONE":2.0,"PLACENAME":"Eleele","OBJECTID":183,"CAPACITY":1197,"id":"a66ldxpe470w","ADDRESS":"4570  Uliuli'i Rd","W_UPGRADE":252.0,"SPACE":1197.0},"type":"Feature","geometry":{"type":"Point","coordinates":[-159.584369579682,21.9106549235222]}},{"properties":{"SCHOOL_COD":460,"HIGH":0,"PHONE":"7428460","ZIPCODE":"96756","MIDDLE":0,"BUSNAME":"Koloa Elementary","CONTACT":"","TYPE":"all","ELEMENTARY":1,"EVAC_ZONE":2.0,"PLACENAME":"Koloa","OBJECTID":184,"CAPACITY":855,"id":"a66ldxzno0cv","ADDRESS":"3223 Poipu Rd","W_UPGRADE":0.0,"SPACE":855.0},"type":"Feature","geometry":{"type":"Point","coordinates":[-159.466775148434,21.8987799404386]}},{"properties":{"SCHOOL_COD":462,"HIGH":1,"PHONE":"3386800","ZIPCODE":"96796","MIDDLE":0,"BUSNAME":"Waimea High","CONTACT":"","TYPE":"all","ELEMENTARY":0,"EVAC_ZONE":1.0,"PLACENAME":"Waimea","OBJECTID":185,"CAPACITY":1923,"id":"a66ldxzm7r7e","ADDRESS":"9707 Tsuchiya Rd","W_UPGRADE":784.0,"SPACE":1923.0},"type":"Feature","geometry":{"type":"Point","coordinates":[-159.668323428615,21.9578120126016]}},{"properties":{"SCHOOL_COD":464,"HIGH":0,"PHONE":"3386830","ZIPCODE":"96796","MIDDLE":0,"BUSNAME":"Waimea Canyon Elementary","CONTACT":"","TYPE":"all","ELEMENTARY":1,"EVAC_ZONE":1.0,"PLACENAME":"Waimea","OBJECTID":186,"CAPACITY":2649,"id":"a66ldxys4bn9","ADDRESS":"9555 Huakai Rd","W_UPGRADE":118.0,"SPACE":2649.0},"type":"Feature","geometry":{"type":"Point","coordinates":[-159.672949038882,21.9613480561783]}},{"properties":{"SCHOOL_COD":0,"HIGH":0,"PHONE":"2458311","ZIPCODE":"96766","MIDDLE":0,"BUSNAME":"Kaui Community College","CONTACT":"","TYPE":"","ELEMENTARY":0,"EVAC_ZONE":0.0,"PLACENAME":"Lihue","OBJECTID":187,"CAPACITY":1470,"id":"a66ldxy1qk8z","ADDRESS":"3-1901 Kaumualii Hwy","W_UPGRADE":0.0,"SPACE":1470.0},"type":"Feature","geometry":{"type":"Point","coordinates":[-159.396393903045,21.9698488641196]}},{"properties":{"SCHOOL_COD":0,"HIGH":0,"PHONE":"8280438","ZIPCODE":"96754","MIDDLE":0,"BUSNAME":"Kilauea Theater &amp; Community Event Center","CONTACT":"","TYPE":"","ELEMENTARY":0,"EVAC_ZONE":0.0,"PLACENAME":"Kilauea","OBJECTID":188,"CAPACITY":0,"id":"a66ldxpxcex7","ADDRESS":"2490 KENEKE ST","W_UPGRADE":0.0,"SPACE":0.0},"type":"Feature","geometry":{"type":"Point","coordinates":[-159.406914166458,22.2123155958294]}},{"properties":{"SCHOOL_COD":0,"HIGH":0,"PHONE":"6320610","ZIPCODE":"96766","MIDDLE":0,"BUSNAME":"Kauai Humane Society","CONTACT":"","TYPE":"","ELEMENTARY":0,"EVAC_ZONE":0.0,"PLACENAME":"Lihue","OBJECTID":189,"CAPACITY":300,"id":"a66ldxwlbf2x","ADDRESS":"3-825 Kaumualii Hwy","W_UPGRADE":0.0,"SPACE":300.0},"type":"Feature","geometry":{"type":"Point","coordinates":[-159.429899600013,21.9645233615607]}},{"properties":{"SCHOOL_COD":0,"HIGH":0,"PHONE":"2413200","ZIPCODE":"96766","MIDDLE":0,"BUSNAME":"Kamakahele Middle School","CONTACT":"","TYPE":"","ELEMENTARY":0,"EVAC_ZONE":0.0,"PLACENAME":"Lihue","OBJECTID":190,"CAPACITY":0,"id":"a66ldxmrcxbl","ADDRESS":"4431 Nohu St","W_UPGRADE":0.0,"SPACE":0.0},"type":"Feature","geometry":{"type":"Point","coordinates":[-159.380843150296,21.9677054029577]}},{"properties":{"SCHOOL_COD":0,"HIGH":0,"PHONE":"3389431","ZIPCODE":"96796","MIDDLE":0,"BUSNAME":"West Kauai Medical Center","CONTACT":"","TYPE":"all","ELEMENTARY":0,"EVAC_ZONE":3.0,"PLACENAME":"Waimea","OBJECTID":191,"CAPACITY":1470,"id":"a66ldxpxox78","ADDRESS":"","W_UPGRADE":187.0,"SPACE":1470.0},"type":"Feature","geometry":{"type":"Point","coordinates":[-159.670706488577,21.9596635784988]}},{"properties":{"SCHOOL_COD":0,"HIGH":0,"PHONE":"8224961","ZIPCODE":"96746","MIDDLE":0,"BUSNAME":"Mahelona Medical Center","CONTACT":"","TYPE":"","ELEMENTARY":0,"EVAC_ZONE":0.0,"PLACENAME":"Kapaa","OBJECTID":192,"CAPACITY":0,"id":"a66ldxp08qjz","ADDRESS":"4800 Kawaihau Rd","W_UPGRADE":0.0,"SPACE":0.0},"type":"Feature","geometry":{"type":"Point","coordinates":[-159.318486659488,22.0929084792639]}},{"properties":{"SCHOOL_COD":0,"HIGH":0,"PHONE":"9744021","ZIPCODE":"96720","MIDDLE":0,"BUSNAME":"Hilo High","CONTACT":"","TYPE":"","ELEMENTARY":0,"EVAC_ZONE":0.0,"PLACENAME":"Hilo","OBJECTID":193,"CAPACITY":0,"id":"a66ldxteobgb","ADDRESS":"556 Waianuenue Ave","W_UPGRADE":0.0,"SPACE":0.0},"type":"Feature","geometry":{"type":"Point","coordinates":[-155.096755157339,19.7219246290076]}},{"properties":{"SCHOOL_COD":0,"HIGH":0,"PHONE":"3224800","ZIPCODE":"96725","MIDDLE":0,"BUSNAME":"Holualoa Elementary","CONTACT":"","TYPE":"","ELEMENTARY":0,"EVAC_ZONE":0.0,"PLACENAME":"Holualoa","OBJECTID":194,"CAPACITY":0,"id":"a66ldxohg5l5","ADDRESS":"76-5957 Mamalahoa Hwy","W_UPGRADE":0.0,"SPACE":0.0},"type":"Feature","geometry":{"type":"Point","coordinates":[-155.948493701311,19.6168952223816]}},{"properties":{"SCHOOL_COD":0,"HIGH":0,"PHONE":"3282727","ZIPCODE":"96704","MIDDLE":0,"BUSNAME":"Honaunau Elementary","CONTACT":"","TYPE":"","ELEMENTARY":0,"EVAC_ZONE":0.0,"PLACENAME":"Captian Cook","OBJECTID":195,"CAPACITY":0,"id":"a66ldxv5pvle","ADDRESS":"83-5360 Mamalahoa Hwy","W_UPGRADE":0.0,"SPACE":0.0},"type":"Feature","geometry":{"type":"Point","coordinates":[-155.878694259692,19.4502871955525]}},{"properties":{"SCHOOL_COD":0,"HIGH":0,"PHONE":"3282710","ZIPCODE":"96704","MIDDLE":0,"BUSNAME":"Hookena Elementary","CONTACT":"","TYPE":"","ELEMENTARY":0,"EVAC_ZONE":0.0,"PLACENAME":"Captain Cook","OBJECTID":196,"CAPACITY":0,"id":"a66ldxzzdpak","ADDRESS":"86-4355 Mamalahoa Hwy","W_UPGRADE":0.0,"SPACE":0.0},"type":"Feature","geometry":{"type":"Point","coordinates":[-155.878694461486,19.3866805653578]}},{"properties":{"SCHOOL_COD":0,"HIGH":0,"PHONE":"9282088","ZIPCODE":"96777","MIDDLE":0,"BUSNAME":"Kau High and Pahala Elementary","CONTACT":"","TYPE":"","ELEMENTARY":0,"EVAC_ZONE":0.0,"PLACENAME":"Pahala","OBJECTID":197,"CAPACITY":0,"id":"a66ldxx3er8d","ADDRESS":"PO Box 100","W_UPGRADE":0.0,"SPACE":0.0},"type":"Feature","geometry":{"type":"Point","coordinates":[-155.479258040177,19.2025196051647]}},{"properties":{"SCHOOL_COD":0,"HIGH":0,"PHONE":"9744190","ZIPCODE":"96720","MIDDLE":0,"BUSNAME":"Kaumana Elementary","CONTACT":"","TYPE":"","ELEMENTARY":0,"EVAC_ZONE":0.0,"PLACENAME":"Hilo","OBJECTID":198,"CAPACITY":0,"id":"a66ldy09ghro","ADDRESS":"1710 Kaumana Dr","W_UPGRADE":0.0,"SPACE":0.0},"type":"Feature","geometry":{"type":"Point","coordinates":[-155.134810480339,19.6869283012517]}},{"properties":{"SCHOOL_COD":0,"HIGH":0,"PHONE":"8897100","ZIPCODE":"96755","MIDDLE":0,"BUSNAME":"Kohala Elementary","CONTACT":"","TYPE":"","ELEMENTARY":0,"EVAC_ZONE":0.0,"PLACENAME":"Kapaau","OBJECTID":199,"CAPACITY":0,"id":"a66ldy28uys0","ADDRESS":"PO Box 814","W_UPGRADE":0.0,"SPACE":0.0},"type":"Feature","geometry":{"type":"Point","coordinates":[-155.818403246823,20.2382956656807]}},{"properties":{"SCHOOL_COD":0,"HIGH":0,"PHONE":"9817200","ZIPCODE":"96720","MIDDLE":0,"BUSNAME":"Waiakea-Waena Elementary","CONTACT":"","TYPE":"","ELEMENTARY":0,"EVAC_ZONE":0.0,"PLACENAME":"Hilo","OBJECTID":200,"CAPACITY":0,"id":"a66ldxm41y82","ADDRESS":"2420 Kilauea Ave","W_UPGRADE":0.0,"SPACE":0.0},"type":"Feature","geometry":{"type":"Point","coordinates":[-155.068241317032,19.6835547404918]}},{"properties":{"SCHOOL_COD":0,"HIGH":0,"PHONE":"9744955","ZIPCODE":"96720","MIDDLE":0,"BUSNAME":"Hilo Intermediate","CONTACT":"","TYPE":"","ELEMENTARY":0,"EVAC_ZONE":0.0,"PLACENAME":"Hilo","OBJECTID":201,"CAPACITY":0,"id":"a66ldxxvarmg","ADDRESS":"587 Waianuenue Ave","W_UPGRADE":0.0,"SPACE":0.0},"type":"Feature","geometry":{"type":"Point","coordinates":[-155.09587825339,19.7202817977673]}},{"properties":{"SCHOOL_COD":0,"HIGH":0,"PHONE":"9824200","ZIPCODE":"96749","MIDDLE":0,"BUSNAME":"Keaau Middle","CONTACT":"","TYPE":"","ELEMENTARY":0,"EVAC_ZONE":0.0,"PLACENAME":"Keaau","OBJECTID":202,"CAPACITY":0,"id":"a66ldxnp30h4","ADDRESS":"16-565 Keaau-Pahoa Rd","W_UPGRADE":0.0,"SPACE":0.0},"type":"Feature","geometry":{"type":"Point","coordinates":[-155.037943093668,19.6216678845912]}},{"properties":{"SCHOOL_COD":0,"HIGH":0,"PHONE":"9652150","ZIPCODE":"96778","MIDDLE":0,"BUSNAME":"Pahoa High &amp; Intermediate","CONTACT":"","TYPE":"","ELEMENTARY":0,"EVAC_ZONE":0.0,"PLACENAME":"Pahoa","OBJECTID":203,"CAPACITY":0,"id":"a66ldxniyspm","ADDRESS":"15-3038 Puna Rd","W_UPGRADE":0.0,"SPACE":0.0},"type":"Feature","geometry":{"type":"Point","coordinates":[-154.941846947269,19.4912729188705]}},{"properties":{"SCHOOL_COD":0,"HIGH":0,"PHONE":"9817215","ZIPCODE":"96720","MIDDLE":0,"BUSNAME":"Waiakea Elementary","CONTACT":"","TYPE":"","ELEMENTARY":0,"EVAC_ZONE":0.0,"PLACENAME":"Hilo","OBJECTID":204,"CAPACITY":0,"id":"a66ldxwxeodc","ADDRESS":"180 W. Puainako St","W_UPGRADE":0.0,"SPACE":0.0},"type":"Feature","geometry":{"type":"Point","coordinates":[-155.074998991899,19.6950279917724]}},{"properties":{"SCHOOL_COD":0,"HIGH":0,"PHONE":"3274314","ZIPCODE":"96740","MIDDLE":0,"BUSNAME":"Kealakehe Intermediate","CONTACT":"","TYPE":"","ELEMENTARY":0,"EVAC_ZONE":0.0,"PLACENAME":"Kailua-Kona","OBJECTID":205,"CAPACITY":0,"id":"a66ldxwpgn36","ADDRESS":"74-5062 Onipaa St","W_UPGRADE":0.0,"SPACE":0.0},"type":"Feature","geometry":{"type":"Point","coordinates":[-155.984440471316,19.6703738969058]}},{"properties":{"SCHOOL_COD":0,"HIGH":0,"PHONE":"3274308","ZIPCODE":"96740","MIDDLE":0,"BUSNAME":"Kealakehe Elementary","CONTACT":"","TYPE":"","ELEMENTARY":0,"EVAC_ZONE":0.0,"PLACENAME":"Kailua-Kona","OBJECTID":206,"CAPACITY":0,"id":"a66ldxw81xk8","ADDRESS":"74-5118 Kealakaa St","W_UPGRADE":0.0,"SPACE":0.0},"type":"Feature","geometry":{"type":"Point","coordinates":[-155.982688367164,19.6684893677912]}},{"properties":{"SCHOOL_COD":0,"HIGH":0,"PHONE":"8877636","ZIPCODE":"96743","MIDDLE":0,"BUSNAME":"Waimea Elementary &amp; Intermediate","CONTACT":"","TYPE":"","ELEMENTARY":0,"EVAC_ZONE":0.0,"PLACENAME":"Kamuela","OBJECTID":207,"CAPACITY":0,"id":"a66ldxyuy6og","ADDRESS":"67-1225 Mamalahoa Hwy","W_UPGRADE":0.0,"SPACE":0.0},"type":"Feature","geometry":{"type":"Point","coordinates":[-155.669660046136,20.0188680430004]}},{"properties":{"SCHOOL_COD":0,"HIGH":0,"PHONE":"3234500","ZIPCODE":"96750","MIDDLE":0,"BUSNAME":"Konawaena High","CONTACT":"","TYPE":"","ELEMENTARY":0,"EVAC_ZONE":0.0,"PLACENAME":"Kealakekua","OBJECTID":208,"CAPACITY":0,"id":"a66ldy1sb7xe","ADDRESS":"81-1043 Konawaena School Rd","W_UPGRADE":0.0,"SPACE":0.0},"type":"Feature","geometry":{"type":"Point","coordinates":[-155.914215025447,19.5096155762432]}},{"properties":{"SCHOOL_COD":0,"HIGH":0,"PHONE":"8897117","ZIPCODE":"96755","MIDDLE":0,"BUSNAME":"Kohala High &amp; Inter","CONTACT":"","TYPE":"","ELEMENTARY":0,"EVAC_ZONE":0.0,"PLACENAME":"Kapaau","OBJECTID":209,"CAPACITY":0,"id":"a66ldy0mbdv9","ADDRESS":"PO Box 273","W_UPGRADE":0.0,"SPACE":0.0},"type":"Feature","geometry":{"type":"Point","coordinates":[-155.817728170076,20.2373424812891]}},{"properties":{"SCHOOL_COD":0,"HIGH":0,"PHONE":"7758800","ZIPCODE":"96727","MIDDLE":0,"BUSNAME":"Honokaa High &amp; Intermediate","CONTACT":"","TYPE":"","ELEMENTARY":0,"EVAC_ZONE":0.0,"PLACENAME":"Honokaa","OBJECTID":210,"CAPACITY":0,"id":"a66ldxx2ylmt","ADDRESS":"45-527 Pakalana St","W_UPGRADE":0.0,"SPACE":0.0},"type":"Feature","geometry":{"type":"Point","coordinates":[-155.462551550185,20.0758466242824]}},{"properties":{"SCHOOL_COD":0,"HIGH":0,"PHONE":"9744855","ZIPCODE":"96720","MIDDLE":0,"BUSNAME":"DeSilva Elementary","CONTACT":"","TYPE":"","ELEMENTARY":0,"EVAC_ZONE":0.0,"PLACENAME":"Hilo","OBJECTID":211,"CAPACITY":0,"id":"a66ldxvtmabd","ADDRESS":"278 Ainako Ave","W_UPGRADE":0.0,"SPACE":0.0},"type":"Feature","geometry":{"type":"Point","coordinates":[-155.114622948776,19.7105029404194]}},{"properties":{"SCHOOL_COD":0,"HIGH":0,"PHONE":"3274313","ZIPCODE":"96740","MIDDLE":0,"BUSNAME":"Kahakai Elementary","CONTACT":"","TYPE":"","ELEMENTARY":0,"EVAC_ZONE":0.0,"PLACENAME":"Kailua-Kona","OBJECTID":212,"CAPACITY":0,"id":"a66ldy2anrgk","ADDRESS":"76-147 Royal Poinciana Dr","W_UPGRADE":0.0,"SPACE":0.0},"type":"Feature","geometry":{"type":"Point","coordinates":[-155.978066096477,19.6141197810745]}},{"properties":{"SCHOOL_COD":0,"HIGH":0,"PHONE":"9682300","ZIPCODE":"96771","MIDDLE":0,"BUSNAME":"Mountain View Elementary","CONTACT":"","TYPE":"","ELEMENTARY":0,"EVAC_ZONE":0.0,"PLACENAME":"Mountain View","OBJECTID":213,"CAPACITY":0,"id":"a66ldxxw6u4x","ADDRESS":"PO Box 9","W_UPGRADE":0.0,"SPACE":0.0},"type":"Feature","geometry":{"type":"Point","coordinates":[-155.102299712299,19.5543798280739]}},{"properties":{"SCHOOL_COD":0,"HIGH":0,"PHONE":"9744888","ZIPCODE":"96720","MIDDLE":0,"BUSNAME":"Waiakea High","CONTACT":"","TYPE":"","ELEMENTARY":0,"EVAC_ZONE":0.0,"PLACENAME":"Hilo","OBJECTID":214,"CAPACITY":0,"id":"a66ldxo8guv9","ADDRESS":"155 W. Kawili St","W_UPGRADE":0.0,"SPACE":0.0},"type":"Feature","geometry":{"type":"Point","coordinates":[-155.075844913327,19.6997551916748]}},{"properties":{"SCHOOL_COD":0,"HIGH":0,"PHONE":"9652131","ZIPCODE":"96778","MIDDLE":0,"BUSNAME":"Keonepoko Elementary","CONTACT":"","TYPE":"","ELEMENTARY":0,"EVAC_ZONE":0.0,"PLACENAME":"Pahoa","OBJECTID":215,"CAPACITY":0,"id":"a66ldxsf9ymg","ADDRESS":"15-890 Kahakai Blvd","W_UPGRADE":0.0,"SPACE":0.0},"type":"Feature","geometry":{"type":"Point","coordinates":[-154.926869887555,19.5254775712145]}},{"properties":{"SCHOOL_COD":0,"HIGH":0,"PHONE":"3274300","ZIPCODE":"96740","MIDDLE":0,"BUSNAME":"Kealakehe High","CONTACT":"","TYPE":"","ELEMENTARY":0,"EVAC_ZONE":0.0,"PLACENAME":"Kailua-Kona","OBJECTID":216,"CAPACITY":0,"id":"a66ldxw97gc6","ADDRESS":"74-5000 Puohulihuli St","W_UPGRADE":0.0,"SPACE":0.0},"type":"Feature","geometry":{"type":"Point","coordinates":[-155.997934090929,19.6686434167794]}},{"properties":{"SCHOOL_COD":0,"HIGH":0,"PHONE":"9824220","ZIPCODE":"96749","MIDDLE":0,"BUSNAME":"Keaau High","CONTACT":"","TYPE":"","ELEMENTARY":0,"EVAC_ZONE":0.0,"PLACENAME":"Keaau","OBJECTID":217,"CAPACITY":0,"id":"a66ldy16gfv8","ADDRESS":"16-725 Keaau-Pahoa Rd","W_UPGRADE":0.0,"SPACE":0.0},"type":"Feature","geometry":{"type":"Point","coordinates":[-155.033942539866,19.6145755174298]}},{"properties":{"SCHOOL_COD":0,"HIGH":0,"PHONE":"9652141","ZIPCODE":"96778","MIDDLE":0,"BUSNAME":"Pahoa Elementary","CONTACT":"","TYPE":"","ELEMENTARY":0,"EVAC_ZONE":0.0,"PLACENAME":"Pahoa","OBJECTID":218,"CAPACITY":0,"id":"a66ldy0xyxez","ADDRESS":"15-3030 Puna Rd","W_UPGRADE":0.0,"SPACE":0.0},"type":"Feature","geometry":{"type":"Point","coordinates":[-154.943307097641,19.4918107891938]}},{"properties":{"SCHOOL_COD":0,"HIGH":0,"PHONE":"","ZIPCODE":"","MIDDLE":0,"BUSNAME":"Waimea State Offices &amp; Courthouse","CONTACT":"","TYPE":"all","ELEMENTARY":0,"EVAC_ZONE":3.0,"PLACENAME":"","OBJECTID":219,"CAPACITY":0,"id":"a66ldxyi7zud","ADDRESS":"","W_UPGRADE":187.0,"SPACE":1470.0},"type":"Feature","geometry":{"type":"Point","coordinates":[-155.668870800666,20.0200218054525]}}],"is_temporal":false,"author":{"url":"http://hawaii.gov/dbedt/gis/emergency_shelters.htm","metadata":"http://hawaii.gov/dbedt/gis/data/emergency_shelters_sum.txt","contact_name":"Joan Delos Santos, Office of Planning, State of Hawaii","contact_address":"PO Box 2359, Honolulu, Hi.  96804\nemail:  JDelos_Santos@dbedt.hawaii.gov\n","source":"Hawaii Statewide GIS Program","contact_phone":"(808) 587-2895"},"source":"http://hawaii.gov/dbedt/gis/emergency_shelters.htm","pagination":{"sort":null,"start":0,"total":194,"limit":1000000},"state":"complete","tags":"emergency,hawaii,hawaii-gis,hazard,kauai,lanai,maui,oahu,shelter","published":"2006-11-21T12:00:00Z","id":3300}