{"type":"FeatureCollection","data_type":"Dataset","url_type":null,"permissions":[{"permissions":{"download":true,"view":true},"group_id":"everyone"}],"classification":null,"title":"DPCmapnew","count":62,"stream_id":33229,"contributor":{"url":"http://geocommons.com/users/11204","name":"joegravellese"},"data_attributes":null,"calculation_params":null,"icon_link":null,"link":"http://geocommons.com/overlays/33229.json","extent":[-73.2481,41.6718,-70.4386,42.8535],"geometry_types":["point"],"unique_name":null,"name":"DPCmapnew","feature_count":62,"description":"","next_feature":null,"is_raster":false,"short_classification":"Y","stats":{"Governor":{"max":43.0,"mean":3.7,"variance":86.4315789473684,"stdev":9.29685855261703,"min":1.0,"median":1.0},"DPC fund":{"max":42.0,"mean":4.07142857142857,"variance":119.456043956044,"stdev":10.9295948669676,"min":1.0,"median":1.0},"Local Press":{"max":1.0,"mean":0.666666666666667,"variance":0.266666666666667,"stdev":0.516397779494322,"min":0.0,"median":1.0},"Jobs":{"max":12.0,"mean":1.71428571428571,"variance":6.01428571428571,"stdev":2.45240406831454,"min":0.0,"median":1.0},"Labor/jobsite":{"max":1.0,"mean":0.857142857142857,"variance":0.142857142857143,"stdev":0.377964473009227,"min":0.0,"median":1.0},"State House":{"max":51.0,"mean":25.5,"variance":1300.5,"stdev":36.0624458405139,"min":0.0,"median":51.0},"Seniors":{"max":1.0,"mean":0.5,"variance":0.5,"stdev":0.707106781186548,"min":0.0,"median":1.0},"Field Event":{"max":9.0,"mean":1.35714285714286,"variance":2.46031746031746,"stdev":1.56853991352387,"min":0.0,"median":1.0},"Advocacy":{"max":5.0,"mean":1.42857142857143,"variance":2.61904761904762,"stdev":1.61834718742537,"min":0.0,"median":1.0},"Boston Press":{"max":22.0,"mean":11.0,"variance":242.0,"stdev":15.556349186104,"min":0.0,"median":22.0},"School Visits":{"max":2.0,"mean":1.0,"variance":0.444444444444444,"stdev":0.666666666666667,"min":0.0,"median":1.0},"Teachers":{"max":1.0,"mean":0.75,"variance":0.25,"stdev":0.5,"min":0.0,"median":1.0}},"features":[{"properties":{"Governor":null,"City":"Agawam","Mapped":null,"DPC fund":null,"Local Press":null,"geo_score":0.857,"Jobs":1.0,"Total Visits":null,"Labor/jobsite":null,"State House":null,"State":"Massachusetts","Seniors":null,"id":"a6t5haauza7c","geo_precision":"city","Field Event":null,"Advocacy":1.0,"Boston Press":null,"School Visits":null,"Teachers":null},"type":"Feature","geometry":{"type":"Point","coordinates":[-72.788661,42.140549]}},{"properties":{"Governor":1.0,"City":"Amesbury","Mapped":null,"DPC fund":null,"Local Press":null,"geo_score":0.857,"Jobs":null,"Total Visits":null,"Labor/jobsite":null,"State House":null,"State":"Massachusetts","Seniors":null,"id":"a6t5ha65abk1","geo_precision":"city","Field Event":null,"Advocacy":null,"Boston Press":null,"School Visits":null,"Teachers":null},"type":"Feature","geometry":{"type":"Point","coordinates":[-70.948211,42.853539]}},{"properties":{"Governor":null,"City":"Andover","Mapped":null,"DPC fund":null,"Local Press":null,"geo_score":0.857,"Jobs":null,"Total Visits":null,"Labor/jobsite":null,"State House":null,"State":"Massachusetts","Seniors":null,"id":"a6t5ha1l8lqp","geo_precision":"city","Field Event":1.0,"Advocacy":null,"Boston Press":null,"School Visits":null,"Teachers":null},"type":"Feature","geometry":{"type":"Point","coordinates":[-71.165685,42.647991]}},{"properties":{"Governor":null,"City":"Arlington","Mapped":null,"DPC fund":null,"Local Press":null,"geo_score":0.857,"Jobs":null,"Total Visits":null,"Labor/jobsite":null,"State House":null,"State":"Massachusetts","Seniors":null,"id":"a6t5ha2mqucv","geo_precision":"city","Field Event":1.0,"Advocacy":null,"Boston Press":null,"School Visits":1.0,"Teachers":null},"type":"Feature","geometry":{"type":"Point","coordinates":[-71.167083,42.417695]}},{"properties":{"Governor":null,"City":"Attleboro","Mapped":null,"DPC fund":1.0,"Local Press":null,"geo_score":0.857,"Jobs":null,"Total Visits":null,"Labor/jobsite":null,"State House":null,"State":"Massachusetts","Seniors":null,"id":"a6t5h9vnuxu9","geo_precision":"city","Field Event":null,"Advocacy":null,"Boston Press":null,"School Visits":null,"Teachers":null},"type":"Feature","geometry":{"type":"Point","coordinates":[-71.302297,41.938976]}},{"properties":{"Governor":null,"City":"Bedford","Mapped":null,"DPC fund":null,"Local Press":null,"geo_score":0.786,"Jobs":1.0,"Total Visits":null,"Labor/jobsite":null,"State House":null,"State":"Massachusetts","Seniors":null,"id":"a6t5ha2vbqin","geo_precision":"city","Field Event":null,"Advocacy":null,"Boston Press":null,"School Visits":null,"Teachers":null},"type":"Feature","geometry":{"type":"Point","coordinates":[-71.270891,42.516205]}},{"properties":{"Governor":null,"City":"Belmont","Mapped":null,"DPC fund":null,"Local Press":null,"geo_score":0.857,"Jobs":null,"Total Visits":null,"Labor/jobsite":null,"State House":null,"State":"Massachusetts","Seniors":null,"id":"a6t5ha7o55wt","geo_precision":"city","Field Event":1.0,"Advocacy":null,"Boston Press":null,"School Visits":null,"Teachers":null},"type":"Feature","geometry":{"type":"Point","coordinates":[-71.459405,42.446396]}},{"properties":{"Governor":43.0,"City":"Boston","Mapped":null,"DPC fund":42.0,"Local Press":0.0,"geo_score":0.857,"Jobs":12.0,"Total Visits":null,"Labor/jobsite":1.0,"State House":51.0,"State":"Massachusetts","Seniors":null,"id":"a6t5ha8j0h41","geo_precision":"city","Field Event":9.0,"Advocacy":5.0,"Boston Press":22.0,"School Visits":2.0,"Teachers":1.0},"type":"Feature","geometry":{"type":"Point","coordinates":[-71.059773,42.358431]}},{"properties":{"Governor":2.0,"City":"Brockton","Mapped":null,"DPC fund":null,"Local Press":1.0,"geo_score":0.857,"Jobs":null,"Total Visits":null,"Labor/jobsite":1.0,"State House":null,"State":"Massachusetts","Seniors":null,"id":"a6t5h9ywkvq8","geo_precision":"city","Field Event":1.0,"Advocacy":null,"Boston Press":null,"School Visits":2.0,"Teachers":null},"type":"Feature","geometry":{"type":"Point","coordinates":[-71.018379,42.083434]}},{"properties":{"Governor":1.0,"City":"Brookline","Mapped":null,"DPC fund":null,"Local Press":null,"geo_score":0.857,"Jobs":null,"Total Visits":null,"Labor/jobsite":null,"State House":null,"State":"Massachusetts","Seniors":null,"id":"a6t5ha6l6crg","geo_precision":"city","Field Event":1.0,"Advocacy":null,"Boston Press":null,"School Visits":null,"Teachers":null},"type":"Feature","geometry":{"type":"Point","coordinates":[-71.088745,42.308198]}},{"properties":{"Governor":null,"City":"Burlington","Mapped":null,"DPC fund":null,"Local Press":null,"geo_score":0.857,"Jobs":1.0,"Total Visits":null,"Labor/jobsite":null,"State House":null,"State":"Massachusetts","Seniors":null,"id":"a6t5ha9tv0jc","geo_precision":"city","Field Event":null,"Advocacy":null,"Boston Press":null,"School Visits":null,"Teachers":null},"type":"Feature","geometry":{"type":"Point","coordinates":[-71.201539,42.504844]}},{"properties":{"Governor":2.0,"City":"Cambridge","Mapped":null,"DPC fund":1.0,"Local Press":null,"geo_score":0.813,"Jobs":1.0,"Total Visits":null,"Labor/jobsite":null,"State House":null,"State":"Massachusetts","Seniors":null,"id":"a6t5ha58q2ee","geo_precision":"city","Field Event":1.0,"Advocacy":1.0,"Boston Press":null,"School Visits":null,"Teachers":null},"type":"Feature","geometry":{"type":"Point","coordinates":[-71.103663,42.358431]}},{"properties":{"Governor":null,"City":"Canton","Mapped":null,"DPC fund":null,"Local Press":null,"geo_score":0.857,"Jobs":null,"Total Visits":null,"Labor/jobsite":null,"State House":null,"State":"Massachusetts","Seniors":null,"id":"a6t5h9z7g0da","geo_precision":"city","Field Event":1.0,"Advocacy":null,"Boston Press":null,"School Visits":null,"Teachers":null},"type":"Feature","geometry":{"type":"Point","coordinates":[-71.121185,42.179146]}},{"properties":{"Governor":null,"City":"Chelmsford","Mapped":null,"DPC fund":null,"Local Press":null,"geo_score":0.857,"Jobs":null,"Total Visits":null,"Labor/jobsite":null,"State House":null,"State":"Massachusetts","Seniors":null,"id":"a6t5ha07wbd7","geo_precision":"city","Field Event":1.0,"Advocacy":null,"Boston Press":null,"School Visits":null,"Teachers":null},"type":"Feature","geometry":{"type":"Point","coordinates":[-71.459405,42.446396]}},{"properties":{"Governor":null,"City":"Chelsea","Mapped":null,"DPC fund":null,"Local Press":null,"geo_score":0.857,"Jobs":null,"Total Visits":null,"Labor/jobsite":null,"State House":null,"State":"Massachusetts","Seniors":null,"id":"a6t5ha7wv83b","geo_precision":"city","Field Event":2.0,"Advocacy":null,"Boston Press":null,"School Visits":null,"Teachers":null},"type":"Feature","geometry":{"type":"Point","coordinates":[-71.038894,42.378197]}},{"properties":{"Governor":1.0,"City":"Clinton","Mapped":null,"DPC fund":null,"Local Press":null,"geo_score":0.857,"Jobs":null,"Total Visits":null,"Labor/jobsite":null,"State House":null,"State":"Massachusetts","Seniors":null,"id":"a6t5h9zbb6wi","geo_precision":"city","Field Event":null,"Advocacy":null,"Boston Press":null,"School Visits":null,"Teachers":null},"type":"Feature","geometry":{"type":"Point","coordinates":[-71.687523,42.413972]}},{"properties":{"Governor":null,"City":"Concord","Mapped":null,"DPC fund":1.0,"Local Press":null,"geo_score":0.857,"Jobs":null,"Total Visits":null,"Labor/jobsite":null,"State House":null,"State":"Massachusetts","Seniors":null,"id":"a6t5haa5tutu","geo_precision":"city","Field Event":null,"Advocacy":null,"Boston Press":null,"School Visits":null,"Teachers":null},"type":"Feature","geometry":{"type":"Point","coordinates":[-71.459405,42.446396]}},{"properties":{"Governor":null,"City":"Danvers","Mapped":null,"DPC fund":null,"Local Press":null,"geo_score":0.805,"Jobs":1.0,"Total Visits":null,"Labor/jobsite":null,"State House":null,"State":"Massachusetts","Seniors":null,"id":"a6t5h9zxkuxd","geo_precision":"city","Field Event":1.0,"Advocacy":null,"Boston Press":null,"School Visits":null,"Teachers":null},"type":"Feature","geometry":{"type":"Point","coordinates":[-70.920328,42.548428]}},{"properties":{"Governor":null,"City":"Easthampton","Mapped":null,"DPC fund":null,"Local Press":null,"geo_score":0.857,"Jobs":null,"Total Visits":null,"Labor/jobsite":null,"State House":null,"State":"Massachusetts","Seniors":null,"id":"a6t5h9xkwad1","geo_precision":"city","Field Event":1.0,"Advocacy":null,"Boston Press":null,"School Visits":null,"Teachers":null},"type":"Feature","geometry":{"type":"Point","coordinates":[-72.768839,42.368303]}},{"properties":{"Governor":1.0,"City":"Fall River","Mapped":null,"DPC fund":1.0,"Local Press":null,"geo_score":0.857,"Jobs":null,"Total Visits":null,"Labor/jobsite":null,"State House":null,"State":"Massachusetts","Seniors":null,"id":"a6t5haaiuti0","geo_precision":"city","Field Event":1.0,"Advocacy":null,"Boston Press":null,"School Visits":null,"Teachers":null},"type":"Feature","geometry":{"type":"Point","coordinates":[-71.165971,41.819766]}},{"properties":{"Governor":1.0,"City":"Framingham","Mapped":null,"DPC fund":null,"Local Press":1.0,"geo_score":0.804,"Jobs":null,"Total Visits":null,"Labor/jobsite":null,"State House":null,"State":"Massachusetts","Seniors":null,"id":"a6t5h9zr4glz","geo_precision":"city","Field Event":null,"Advocacy":null,"Boston Press":null,"School Visits":1.0,"Teachers":null},"type":"Feature","geometry":{"type":"Point","coordinates":[-71.437006,42.297318]}},{"properties":{"Governor":null,"City":"Grafton","Mapped":null,"DPC fund":null,"Local Press":null,"geo_score":0.857,"Jobs":null,"Total Visits":null,"Labor/jobsite":null,"State House":null,"State":"Massachusetts","Seniors":null,"id":"a6t5ha13e9no","geo_precision":"city","Field Event":1.0,"Advocacy":null,"Boston Press":null,"School Visits":null,"Teachers":null},"type":"Feature","geometry":{"type":"Point","coordinates":[-71.682862,42.203944]}},{"properties":{"Governor":null,"City":"Greenfield","Mapped":null,"DPC fund":null,"Local Press":null,"geo_score":0.752,"Jobs":null,"Total Visits":null,"Labor/jobsite":1.0,"State House":null,"State":"Massachusetts","Seniors":null,"id":"a6t5ha9fgsi2","geo_precision":"city","Field Event":null,"Advocacy":null,"Boston Press":null,"School Visits":null,"Teachers":null},"type":"Feature","geometry":{"type":"Point","coordinates":[-72.87871,42.067316]}},{"properties":{"Governor":null,"City":"Holyoke","Mapped":null,"DPC fund":null,"Local Press":null,"geo_score":0.857,"Jobs":null,"Total Visits":null,"Labor/jobsite":null,"State House":null,"State":"Massachusetts","Seniors":null,"id":"a6t5ha75c4kz","geo_precision":"city","Field Event":1.0,"Advocacy":null,"Boston Press":null,"School Visits":null,"Teachers":null},"type":"Feature","geometry":{"type":"Point","coordinates":[-72.64207,42.198291]}},{"properties":{"Governor":1.0,"City":"Lawrence","Mapped":null,"DPC fund":null,"Local Press":null,"geo_score":0.857,"Jobs":null,"Total Visits":null,"Labor/jobsite":null,"State House":null,"State":"Massachusetts","Seniors":null,"id":"a6t5ha7r8gc0","geo_precision":"city","Field Event":null,"Advocacy":null,"Boston Press":null,"School Visits":null,"Teachers":null},"type":"Feature","geometry":{"type":"Point","coordinates":[-71.161052,42.70734]}},{"properties":{"Governor":null,"City":"Leominster","Mapped":null,"DPC fund":null,"Local Press":1.0,"geo_score":0.857,"Jobs":null,"Total Visits":null,"Labor/jobsite":1.0,"State House":null,"State":"Massachusetts","Seniors":null,"id":"a6t5haap3o2o","geo_precision":"city","Field Event":null,"Advocacy":null,"Boston Press":null,"School Visits":null,"Teachers":null},"type":"Feature","geometry":{"type":"Point","coordinates":[-71.837509,42.471316]}},{"properties":{"Governor":null,"City":"Lexington","Mapped":null,"DPC fund":1.0,"Local Press":null,"geo_score":0.857,"Jobs":null,"Total Visits":null,"Labor/jobsite":1.0,"State House":null,"State":"Massachusetts","Seniors":null,"id":"a6t5ha61y0oc","geo_precision":"city","Field Event":1.0,"Advocacy":null,"Boston Press":null,"School Visits":null,"Teachers":null},"type":"Feature","geometry":{"type":"Point","coordinates":[-71.459405,42.446396]}},{"properties":{"Governor":null,"City":"Lowell","Mapped":null,"DPC fund":null,"Local Press":null,"geo_score":0.857,"Jobs":1.0,"Total Visits":null,"Labor/jobsite":null,"State House":null,"State":"Massachusetts","Seniors":null,"id":"a6t5h9w5jvf1","geo_precision":"city","Field Event":null,"Advocacy":null,"Boston Press":null,"School Visits":null,"Teachers":null},"type":"Feature","geometry":{"type":"Point","coordinates":[-71.459405,42.446396]}},{"properties":{"Governor":null,"City":"Ludlow","Mapped":null,"DPC fund":null,"Local Press":null,"geo_score":0.857,"Jobs":null,"Total Visits":null,"Labor/jobsite":null,"State House":null,"State":"Massachusetts","Seniors":null,"id":"a6t5ha7noig2","geo_precision":"city","Field Event":1.0,"Advocacy":null,"Boston Press":null,"School Visits":null,"Teachers":null},"type":"Feature","geometry":{"type":"Point","coordinates":[-72.627038,42.173276]}},{"properties":{"Governor":1.0,"City":"Lynn","Mapped":null,"DPC fund":null,"Local Press":null,"geo_score":0.857,"Jobs":1.0,"Total Visits":null,"Labor/jobsite":null,"State House":null,"State":"Massachusetts","Seniors":null,"id":"a6t5h9zubdeg","geo_precision":"city","Field Event":null,"Advocacy":null,"Boston Press":null,"School Visits":0.0,"Teachers":null},"type":"Feature","geometry":{"type":"Point","coordinates":[-70.946743,42.461246]}},{"properties":{"Governor":null,"City":"Malden","Mapped":null,"DPC fund":null,"Local Press":null,"geo_score":0.857,"Jobs":null,"Total Visits":null,"Labor/jobsite":null,"State House":null,"State":"Massachusetts","Seniors":null,"id":"a6t5ha3xzsa7","geo_precision":"city","Field Event":1.0,"Advocacy":null,"Boston Press":null,"School Visits":null,"Teachers":null},"type":"Feature","geometry":{"type":"Point","coordinates":[-71.085396,42.436545]}},{"properties":{"Governor":null,"City":"Marlborough","Mapped":null,"DPC fund":null,"Local Press":null,"geo_score":0.818,"Jobs":1.0,"Total Visits":null,"Labor/jobsite":null,"State House":null,"State":"Massachusetts","Seniors":null,"id":"a6t5ha4w6sbd","geo_precision":"city","Field Event":null,"Advocacy":null,"Boston Press":null,"School Visits":null,"Teachers":null},"type":"Feature","geometry":{"type":"Point","coordinates":[-70.97311,42.716759]}},{"properties":{"Governor":null,"City":"Maynard","Mapped":null,"DPC fund":null,"Local Press":null,"geo_score":0.857,"Jobs":1.0,"Total Visits":null,"Labor/jobsite":null,"State House":null,"State":"Massachusetts","Seniors":null,"id":"a6t5h9xhk5f1","geo_precision":"city","Field Event":null,"Advocacy":null,"Boston Press":null,"School Visits":null,"Teachers":null},"type":"Feature","geometry":{"type":"Point","coordinates":[-71.459405,42.446396]}},{"properties":{"Governor":null,"City":"Medford","Mapped":null,"DPC fund":1.0,"Local Press":null,"geo_score":0.781,"Jobs":null,"Total Visits":null,"Labor/jobsite":null,"State House":null,"State":"Massachusetts","Seniors":null,"id":"a6t5haajsqe3","geo_precision":"city","Field Event":null,"Advocacy":null,"Boston Press":null,"School Visits":null,"Teachers":null},"type":"Feature","geometry":{"type":"Point","coordinates":[-71.125331,42.412596]}},{"properties":{"Governor":null,"City":"Melrose","Mapped":null,"DPC fund":null,"Local Press":null,"geo_score":0.857,"Jobs":1.0,"Total Visits":null,"Labor/jobsite":null,"State House":null,"State":"Massachusetts","Seniors":null,"id":"a6t5ha1103oc","geo_precision":"city","Field Event":null,"Advocacy":null,"Boston Press":null,"School Visits":null,"Teachers":null},"type":"Feature","geometry":{"type":"Point","coordinates":[-71.053095,42.458995]}},{"properties":{"Governor":1.0,"City":"Milton","Mapped":null,"DPC fund":3.0,"Local Press":null,"geo_score":0.786,"Jobs":null,"Total Visits":null,"Labor/jobsite":null,"State House":null,"State":"Massachusetts","Seniors":null,"id":"a6t5h9vloigu","geo_precision":"city","Field Event":null,"Advocacy":null,"Boston Press":null,"School Visits":null,"Teachers":null},"type":"Feature","geometry":{"type":"Point","coordinates":[-71.085396,42.436545]}},{"properties":{"Governor":null,"City":"Natick","Mapped":null,"DPC fund":null,"Local Press":null,"geo_score":0.857,"Jobs":null,"Total Visits":null,"Labor/jobsite":null,"State House":null,"State":"Massachusetts","Seniors":1.0,"id":"a6t5h9yur65i","geo_precision":"city","Field Event":null,"Advocacy":null,"Boston Press":null,"School Visits":null,"Teachers":null},"type":"Feature","geometry":{"type":"Point","coordinates":[-71.459405,42.446396]}},{"properties":{"Governor":null,"City":"Needham","Mapped":null,"DPC fund":null,"Local Press":null,"geo_score":0.857,"Jobs":null,"Total Visits":null,"Labor/jobsite":null,"State House":null,"State":"Massachusetts","Seniors":null,"id":"a6t5h9z6pm84","geo_precision":"city","Field Event":null,"Advocacy":null,"Boston Press":null,"School Visits":null,"Teachers":1.0},"type":"Feature","geometry":{"type":"Point","coordinates":[-71.08923,42.180048]}},{"properties":{"Governor":3.0,"City":"New Bedford","Mapped":null,"DPC fund":null,"Local Press":1.0,"geo_score":0.755,"Jobs":3.0,"Total Visits":null,"Labor/jobsite":null,"State House":null,"State":"Massachusetts","Seniors":null,"id":"a6t5ha7j3snl","geo_precision":"city","Field Event":null,"Advocacy":null,"Boston Press":null,"School Visits":1.0,"Teachers":null},"type":"Feature","geometry":{"type":"Point","coordinates":[-71.270891,42.516205]}},{"properties":{"Governor":null,"City":"Newburyport","Mapped":null,"DPC fund":1.0,"Local Press":null,"geo_score":0.857,"Jobs":null,"Total Visits":null,"Labor/jobsite":null,"State House":null,"State":"Massachusetts","Seniors":null,"id":"a6t5h9y7up1y","geo_precision":"city","Field Event":null,"Advocacy":null,"Boston Press":null,"School Visits":null,"Teachers":null},"type":"Feature","geometry":{"type":"Point","coordinates":[-70.873196,42.80965]}},{"properties":{"Governor":3.0,"City":"Newton","Mapped":null,"DPC fund":1.0,"Local Press":0.0,"geo_score":0.837,"Jobs":0.0,"Total Visits":null,"Labor/jobsite":0.0,"State House":0.0,"State":"Massachusetts","Seniors":0.0,"id":"a6t5ha2ckmn1","geo_precision":"city","Field Event":0.0,"Advocacy":0.0,"Boston Press":0.0,"School Visits":0.0,"Teachers":0.0},"type":"Feature","geometry":{"type":"Point","coordinates":[-70.438637,41.671776]}},{"properties":{"Governor":null,"City":"North Andover","Mapped":null,"DPC fund":null,"Local Press":null,"geo_score":0.786,"Jobs":1.0,"Total Visits":null,"Labor/jobsite":null,"State House":null,"State":"Massachusetts","Seniors":null,"id":"a6t5h9x6q7it","geo_precision":"city","Field Event":null,"Advocacy":null,"Boston Press":null,"School Visits":null,"Teachers":null},"type":"Feature","geometry":{"type":"Point","coordinates":[-71.357837,42.301485]}},{"properties":{"Governor":null,"City":"North Chelmsford","Mapped":null,"DPC fund":null,"Local Press":null,"geo_score":0.857,"Jobs":null,"Total Visits":null,"Labor/jobsite":null,"State House":null,"State":"Massachusetts","Seniors":null,"id":"a6t5ha18qb4o","geo_precision":"city","Field Event":null,"Advocacy":null,"Boston Press":null,"School Visits":1.0,"Teachers":null},"type":"Feature","geometry":{"type":"Point","coordinates":[-71.459405,42.446396]}},{"properties":{"Governor":null,"City":"Northampton","Mapped":null,"DPC fund":null,"Local Press":null,"geo_score":0.857,"Jobs":null,"Total Visits":null,"Labor/jobsite":null,"State House":null,"State":"Massachusetts","Seniors":null,"id":"a6t5ha668j5v","geo_precision":"city","Field Event":1.0,"Advocacy":null,"Boston Press":null,"School Visits":null,"Teachers":null},"type":"Feature","geometry":{"type":"Point","coordinates":[-72.76927,42.415154]}},{"properties":{"Governor":1.0,"City":"Pittsfield","Mapped":null,"DPC fund":null,"Local Press":null,"geo_score":0.857,"Jobs":null,"Total Visits":null,"Labor/jobsite":null,"State House":null,"State":"Massachusetts","Seniors":null,"id":"a6t5ha9d5359","geo_precision":"city","Field Event":null,"Advocacy":null,"Boston Press":null,"School Visits":null,"Teachers":null},"type":"Feature","geometry":{"type":"Point","coordinates":[-73.24807,42.479475]}},{"properties":{"Governor":null,"City":"Plymouth","Mapped":null,"DPC fund":null,"Local Press":null,"geo_score":0.857,"Jobs":null,"Total Visits":null,"Labor/jobsite":1.0,"State House":null,"State":"Massachusetts","Seniors":null,"id":"a6t5ha00aflr","geo_precision":"city","Field Event":null,"Advocacy":null,"Boston Press":null,"School Visits":null,"Teachers":null},"type":"Feature","geometry":{"type":"Point","coordinates":[-70.638717,41.886207]}},{"properties":{"Governor":1.0,"City":"Quincy","Mapped":null,"DPC fund":null,"Local Press":null,"geo_score":0.857,"Jobs":1.0,"Total Visits":null,"Labor/jobsite":null,"State House":null,"State":"Massachusetts","Seniors":null,"id":"a6t5ha7ujrxv","geo_precision":"city","Field Event":null,"Advocacy":null,"Boston Press":null,"School Visits":null,"Teachers":null},"type":"Feature","geometry":{"type":"Point","coordinates":[-71.006042,42.241799]}},{"properties":{"Governor":null,"City":"Revere","Mapped":null,"DPC fund":null,"Local Press":null,"geo_score":0.857,"Jobs":3.0,"Total Visits":null,"Labor/jobsite":null,"State House":null,"State":"Massachusetts","Seniors":null,"id":"a6t5ha0yd189","geo_precision":"city","Field Event":null,"Advocacy":null,"Boston Press":null,"School Visits":null,"Teachers":null},"type":"Feature","geometry":{"type":"Point","coordinates":[-71.020494,42.366303]}},{"properties":{"Governor":null,"City":"Saugus","Mapped":null,"DPC fund":null,"Local Press":null,"geo_score":0.857,"Jobs":null,"Total Visits":null,"Labor/jobsite":null,"State House":null,"State":"Massachusetts","Seniors":null,"id":"a6t5ha5xomz3","geo_precision":"city","Field Event":1.0,"Advocacy":null,"Boston Press":null,"School Visits":null,"Teachers":null},"type":"Feature","geometry":{"type":"Point","coordinates":[-70.997794,42.472112]}},{"properties":{"Governor":2.0,"City":"Springfield","Mapped":null,"DPC fund":null,"Local Press":null,"geo_score":0.857,"Jobs":1.0,"Total Visits":null,"Labor/jobsite":null,"State House":null,"State":"Massachusetts","Seniors":null,"id":"a6t5ha1frghc","geo_precision":"city","Field Event":3.0,"Advocacy":null,"Boston Press":null,"School Visits":null,"Teachers":null},"type":"Feature","geometry":{"type":"Point","coordinates":[-72.589811,42.101483]}},{"properties":{"Governor":null,"City":"Sturbridge","Mapped":null,"DPC fund":null,"Local Press":null,"geo_score":0.857,"Jobs":1.0,"Total Visits":null,"Labor/jobsite":null,"State House":null,"State":"Massachusetts","Seniors":null,"id":"a6t5ha3kpzr0","geo_precision":"city","Field Event":null,"Advocacy":null,"Boston Press":null,"School Visits":null,"Teachers":null},"type":"Feature","geometry":{"type":"Point","coordinates":[-72.080996,42.10273]}},{"properties":{"Governor":null,"City":"Swampscott","Mapped":null,"DPC fund":null,"Local Press":null,"geo_score":0.857,"Jobs":null,"Total Visits":null,"Labor/jobsite":null,"State House":null,"State":"Massachusetts","Seniors":null,"id":"a6t5h9vzzdmw","geo_precision":"city","Field Event":1.0,"Advocacy":null,"Boston Press":null,"School Visits":null,"Teachers":null},"type":"Feature","geometry":{"type":"Point","coordinates":[-70.905893,42.513295]}},{"properties":{"Governor":3.0,"City":"Taunton","Mapped":null,"DPC fund":1.0,"Local Press":null,"geo_score":0.857,"Jobs":1.0,"Total Visits":null,"Labor/jobsite":null,"State House":null,"State":"Massachusetts","Seniors":null,"id":"a6t5ha2snsr4","geo_precision":"city","Field Event":1.0,"Advocacy":1.0,"Boston Press":null,"School Visits":1.0,"Teachers":1.0},"type":"Feature","geometry":{"type":"Point","coordinates":[-71.092827,41.858851]}},{"properties":{"Governor":null,"City":"Walpole","Mapped":null,"DPC fund":null,"Local Press":null,"geo_score":0.857,"Jobs":null,"Total Visits":null,"Labor/jobsite":null,"State House":null,"State":"Massachusetts","Seniors":null,"id":"a6t5h9v95ztn","geo_precision":"city","Field Event":1.0,"Advocacy":null,"Boston Press":null,"School Visits":null,"Teachers":null},"type":"Feature","geometry":{"type":"Point","coordinates":[-71.255533,42.148624]}},{"properties":{"Governor":1.0,"City":"Waltham","Mapped":null,"DPC fund":1.0,"Local Press":null,"geo_score":0.857,"Jobs":2.0,"Total Visits":null,"Labor/jobsite":null,"State House":null,"State":"Massachusetts","Seniors":null,"id":"a6t5ha279xif","geo_precision":"city","Field Event":1.0,"Advocacy":1.0,"Boston Press":null,"School Visits":null,"Teachers":null},"type":"Feature","geometry":{"type":"Point","coordinates":[-71.2398,42.388938]}},{"properties":{"Governor":null,"City":"Watertown","Mapped":null,"DPC fund":null,"Local Press":null,"geo_score":0.857,"Jobs":null,"Total Visits":null,"Labor/jobsite":null,"State House":null,"State":"Massachusetts","Seniors":null,"id":"a6t5haaqi1xs","geo_precision":"city","Field Event":1.0,"Advocacy":1.0,"Boston Press":null,"School Visits":null,"Teachers":null},"type":"Feature","geometry":{"type":"Point","coordinates":[-71.177998,42.372596]}},{"properties":{"Governor":null,"City":"Wellesley","Mapped":null,"DPC fund":1.0,"Local Press":null,"geo_score":0.857,"Jobs":null,"Total Visits":null,"Labor/jobsite":null,"State House":null,"State":"Massachusetts","Seniors":null,"id":"a6t5h9xzidub","geo_precision":"city","Field Event":null,"Advocacy":null,"Boston Press":null,"School Visits":null,"Teachers":null},"type":"Feature","geometry":{"type":"Point","coordinates":[-71.27875,42.300596]}},{"properties":{"Governor":null,"City":"Westford","Mapped":null,"DPC fund":null,"Local Press":null,"geo_score":0.81,"Jobs":1.0,"Total Visits":null,"Labor/jobsite":null,"State House":null,"State":"Massachusetts","Seniors":null,"id":"a6t5hab631v6","geo_precision":"city","Field Event":null,"Advocacy":null,"Boston Press":null,"School Visits":null,"Teachers":null},"type":"Feature","geometry":{"type":"Point","coordinates":[-72.714814,42.309811]}},{"properties":{"Governor":null,"City":"Westwood","Mapped":null,"DPC fund":1.0,"Local Press":null,"geo_score":0.857,"Jobs":null,"Total Visits":null,"Labor/jobsite":null,"State House":null,"State":"Massachusetts","Seniors":null,"id":"a6t5h9v5hv9g","geo_precision":"city","Field Event":null,"Advocacy":null,"Boston Press":null,"School Visits":null,"Teachers":null},"type":"Feature","geometry":{"type":"Point","coordinates":[-71.199238,42.220548]}},{"properties":{"Governor":1.0,"City":"Woburn","Mapped":null,"DPC fund":null,"Local Press":null,"geo_score":0.857,"Jobs":null,"Total Visits":null,"Labor/jobsite":null,"State House":null,"State":"Massachusetts","Seniors":null,"id":"a6t5ha81l8iq","geo_precision":"city","Field Event":null,"Advocacy":null,"Boston Press":null,"School Visits":null,"Teachers":null},"type":"Feature","geometry":{"type":"Point","coordinates":[-71.157271,42.488595]}},{"properties":{"Governor":4.0,"City":"Worcester","Mapped":null,"DPC fund":null,"Local Press":null,"geo_score":0.857,"Jobs":null,"Total Visits":null,"Labor/jobsite":null,"State House":null,"State":"Massachusetts","Seniors":null,"id":"a6t5ha41q028","geo_precision":"city","Field Event":1.0,"Advocacy":null,"Boston Press":null,"School Visits":1.0,"Teachers":null},"type":"Feature","geometry":{"type":"Point","coordinates":[-71.802293,42.262593]}},{"properties":{"Governor":null,"City":"Hartford","Mapped":null,"DPC fund":null,"Local Press":null,"geo_score":0.857,"Jobs":null,"Total Visits":null,"Labor/jobsite":null,"State House":null,"State":"Connecticut","Seniors":null,"id":"a6t5ha1o1y9h","geo_precision":"city","Field Event":null,"Advocacy":null,"Boston Press":null,"School Visits":null,"Teachers":null},"type":"Feature","geometry":{"type":"Point","coordinates":[-72.685093,41.763711]}}],"is_temporal":false,"author":{"url":"","metadata":"","contact_name":"","contact_address":"","source":"","contact_phone":""},"source":"","pagination":{"sort":null,"start":0,"total":62,"limit":1000000},"state":"complete","tags":"","published":"2014-08-10T13:59:19-04:00","id":33229}