{"type":"FeatureCollection","data_type":"Dataset","url_type":null,"permissions":[{"permissions":{"download":true,"view":true},"group_id":"everyone"}],"classification":null,"title":"Office List","count":595,"stream_id":332683,"contributor":{"url":"http://geocommons.com/users/65967","name":"presidentdave"},"data_attributes":null,"calculation_params":null,"icon_link":null,"link":"http://geocommons.com/overlays/332683.json","extent":[-157.961,21.3099,-70.2774,61.1953],"geometry_types":["point"],"unique_name":null,"name":"Office List","feature_count":595,"description":"","next_feature":null,"is_raster":false,"short_classification":"Y","stats":{},"features":[{"properties":{"city":"Calgary","geo_score":0.0,"zip code":"T1Y 5V7","address 1":"#8, 2611-37 Avenue Northeast","id":"acviq9bpd1jx","geo_precision":"unmatched","date opened":"01/05/11","state":"AB"},"type":"Feature","geometry":null},{"properties":{"city":"Calgary","geo_score":0.0,"zip code":"T2H 2A7","address 1":"6712 Fisher Street SE, Suite 95","id":"acviq9bcco0b","geo_precision":"unmatched","date opened":"05/31/04","state":"AB"},"type":"Feature","geometry":null},{"properties":{"city":"Edmonton","geo_score":0.0,"zip code":"T6E5K4","address 1":"9426 51st Avenue, Unit 104","id":"acviq9edbt8r","geo_precision":"unmatched","date opened":"05/04/09","state":"AB"},"type":"Feature","geometry":null},{"properties":{"city":"Edmonton","geo_score":0.0,"zip code":"T5P 4M8","address 1":"11096 156th Street","id":"acviq9jq2rbd","geo_precision":"unmatched","date opened":"01/03/05","state":"AB"},"type":"Feature","geometry":null},{"properties":{"city":"Anchorage","geo_score":1.0,"zip code":"99503","address 1":"2505 Fairbanks Street","id":"acviq9oyec52","geo_precision":"range","date opened":"09/29/08","state":"AK"},"type":"Feature","geometry":{"type":"Point","coordinates":[-149.872422,61.195318]}},{"properties":{"city":"Birmingham","geo_score":1.0,"zip code":"35242","address 1":"470 Cahaba Park Circle","id":"acviq9nltg3c","geo_precision":"range","date opened":"06/26/06","state":"AL"},"type":"Feature","geometry":{"type":"Point","coordinates":[-86.706775,33.428654]}},{"properties":{"city":"Dothan","geo_score":0.633,"zip code":"36303","address 1":"3702 Ross Clark Circle, Suite 3","id":"acviq9dhmrdr","geo_precision":"street","date opened":"01/05/09","state":"AL"},"type":"Feature","geometry":{"type":"Point","coordinates":[-85.53199,31.241733]}},{"properties":{"city":"Huntsville","geo_score":0.657,"zip code":"35805","address 1":"5650 Sanderson Street, Suite P.","id":"acviq9kpge4j","geo_precision":"street","date opened":"12/31/12","state":"AL"},"type":"Feature","geometry":{"type":"Point","coordinates":[-86.662753,34.735406]}},{"properties":{"city":"Mobile","geo_score":0.755,"zip code":"36608","address 1":"3662 Dauphin Street, Suite B","id":"acviq9jyly5k","geo_precision":"street","date opened":"07/10/06","state":"AL"},"type":"Feature","geometry":{"type":"Point","coordinates":[-88.220325,30.696651]}},{"properties":{"city":"Summerdale","geo_score":0.714,"zip code":"36580","address 1":"20210 State Highway 59, Suite 3","id":"acviq9gimr52","geo_precision":"street","date opened":"03/11/13","state":"AL"},"type":"Feature","geometry":{"type":"Point","coordinates":[-87.708396,30.501751]}},{"properties":{"city":"Tuscaloosa","geo_score":0.67,"zip code":"35401","address 1":"514 Hargrove Road East, Suite E","id":"acviq9in82d7","geo_precision":"street","date opened":"03/12/90","state":"AL"},"type":"Feature","geometry":{"type":"Point","coordinates":[-87.537447,33.189535]}},{"properties":{"city":"Ft. Smith","geo_score":0.6,"zip code":"72903","address 1":"1217 South Waldron Road, Suite H","id":"acviq9eai775","geo_precision":"street","date opened":"06/29/83","state":"AR"},"type":"Feature","geometry":{"type":"Point","coordinates":[-94.372608,35.371461]}},{"properties":{"city":"Hot Springs","geo_score":0.706,"zip code":"71913","address 1":"4328 Central Avenue, Suite D290","id":"acviq9adloe6","geo_precision":"street","date opened":"02/12/07","state":"AR"},"type":"Feature","geometry":{"type":"Point","coordinates":[-93.152362,34.511648]}},{"properties":{"city":"Jonesboro","geo_score":0.67,"zip code":"72401","address 1":"2510 East Nettleton, Suite 2","id":"acviq9alwh41","geo_precision":"street","date opened":"02/16/04","state":"AR"},"type":"Feature","geometry":{"type":"Point","coordinates":[-90.718468,35.828861]}},{"properties":{"city":"Little Rock","geo_score":0.625,"zip code":"72212","address 1":"11121 North Rodney Parham Rd., Suite 39B","id":"acviq9m5tqld","geo_precision":"street","date opened":"03/02/98","state":"AR"},"type":"Feature","geometry":{"type":"Point","coordinates":[-92.402892,34.772484]}},{"properties":{"city":"Paragould","geo_score":0.714,"zip code":"72450","address 1":"517 North 14th Street, Suite 1","id":"acviq9fpbar4","geo_precision":"street","date opened":"07/30/07","state":"AR"},"type":"Feature","geometry":{"type":"Point","coordinates":[-90.503453,36.055395]}},{"properties":{"city":"Pine Bluff","geo_score":0.941,"zip code":"71601-7857","address 1":"2608 Olive Street","id":"acviq9qcutwk","geo_precision":"range","date opened":"12/01/88","state":"AR"},"type":"Feature","geometry":{"type":"Point","coordinates":[-92.007116,34.202288]}},{"properties":{"city":"Russellville","geo_score":0.667,"zip code":"72801","address 1":"700 East Main Complex, Suite 18","id":"acviq9ff0a8u","geo_precision":"street","date opened":"06/12/00","state":"AR"},"type":"Feature","geometry":{"type":"Point","coordinates":[-93.134258,35.261457]}},{"properties":{"city":"Siloam Springs","geo_score":0.585,"zip code":"72761","address 1":"1020 South Maxwell","id":"acviq9b5zst2","geo_precision":"zip","date opened":"11/02/89","state":"AR"},"type":"Feature","geometry":{"type":"Point","coordinates":[-94.358822,36.169246]}},{"properties":{"city":"Springdale","geo_score":0.786,"zip code":"72764","address 1":"4618 South Thompson, Suite D","id":"acviq9j18jro","geo_precision":"street","date opened":"03/13/85","state":"AR"},"type":"Feature","geometry":{"type":"Point","coordinates":[-94.130894,36.197888]}},{"properties":{"city":"Texarkana","geo_score":1.0,"zip code":"71854","address 1":"3206 Jefferson Avenue","id":"acviq9fdh8r7","geo_precision":"range","date opened":"07/10/89","state":"AR"},"type":"Feature","geometry":{"type":"Point","coordinates":[-94.029236,33.453113]}},{"properties":{"city":"Mesa","geo_score":0.598,"zip code":"85210","address 1":"1660 S. Alma School Road, Suite 207","id":"acviq9nxw7uq","geo_precision":"street","date opened":"09/25/06","state":"AZ"},"type":"Feature","geometry":{"type":"Point","coordinates":[-111.856625,33.414232]}},{"properties":{"city":"Phoenix","geo_score":0.571,"zip code":"85040","address 1":"3230 East Broadway Road, Suite B-110","id":"acviq9jyno7s","geo_precision":"street","date opened":"08/18/03","state":"AZ"},"type":"Feature","geometry":{"type":"Point","coordinates":[-112.071084,33.406723]}},{"properties":{"city":"Tempe","geo_score":0.61,"zip code":"85284","address 1":"1342 West Warner Road, Suite 102","id":"acviq9mktygn","geo_precision":"street","date opened":"04/04/94","state":"AZ"},"type":"Feature","geometry":{"type":"Point","coordinates":[-111.939636,33.334626]}},{"properties":{"city":"Tucson","geo_score":0.604,"zip code":"85714","address 1":"1020 East Palmdale, Suite 160","id":"acviq9mff2ju","geo_precision":"street","date opened":"06/01/09","state":"AZ"},"type":"Feature","geometry":{"type":"Point","coordinates":[-110.968234,32.175033]}},{"properties":{"city":"Burnaby","geo_score":0.0,"zip code":"V5H 4C2","address 1":"5050 Kingsway,  #405","id":"acviq9pslvm6","geo_precision":"unmatched","date opened":"01/07/08","state":"BC"},"type":"Feature","geometry":null},{"properties":{"city":"Coquitlam","geo_score":0.0,"zip code":"V3B 2P7","address 1":"103-2973 Glen Drive","id":"acviq9di0no4","geo_precision":"unmatched","date opened":"02/15/99","state":"BC"},"type":"Feature","geometry":null},{"properties":{"city":"Delta","geo_score":0.0,"zip code":"V4C 6R6","address 1":"8891 120th Street","id":"acviq9m9odq7","geo_precision":"unmatched","date opened":"07/11/05","state":"BC"},"type":"Feature","geometry":null},{"properties":{"city":"Nanaimo","geo_score":0.0,"zip code":"V9S 5W6","address 1":"2025 Bowen Road, Suite 3","id":"acviq9hacuji","geo_precision":"unmatched","date opened":"09/14/09","state":"BC"},"type":"Feature","geometry":null},{"properties":{"city":"Surrey","geo_score":0.0,"zip code":"V3S 1C7","address 1":"#200 - 17700  56th Avenue","id":"acviq9i1tlsq","geo_precision":"unmatched","date opened":"11/01/04","state":"BC"},"type":"Feature","geometry":null},{"properties":{"city":"Victoria","geo_score":0.0,"zip code":"V8T 4N4","address 1":"2590 Douglas Street, #270","id":"acviq9joe1m3","geo_precision":"unmatched","date opened":"08/28/06","state":"BC"},"type":"Feature","geometry":null},{"properties":{"city":"Bakersfield","geo_score":0.714,"zip code":"93308","address 1":"35315 7th Standard Road, Suite 116","id":"acviq9nqrwlh","geo_precision":"street","date opened":"10/15/07","state":"CA"},"type":"Feature","geometry":{"type":"Point","coordinates":[-119.021315,35.445223]}},{"properties":{"city":"Chico","geo_score":0.625,"zip code":"95973","address 1":"60 Independence Circle, Suite 103","id":"acviq9lxt9px","geo_precision":"street","date opened":"04/03/06","state":"CA"},"type":"Feature","geometry":{"type":"Point","coordinates":[-121.873874,39.772411]}},{"properties":{"city":"Concord","geo_score":0.657,"zip code":"94521","address 1":"5356 Clayton Road, Suite 102","id":"acviq9myugjo","geo_precision":"street","date opened":"11/12/07","state":"CA"},"type":"Feature","geometry":{"type":"Point","coordinates":[-122.001975,37.963865]}},{"properties":{"city":"Corona","geo_score":0.649,"zip code":"92882","address 1":"90 West Grand Avenue, Suite 109","id":"acviq9hz7vmv","geo_precision":"street","date opened":"03/27/06","state":"CA"},"type":"Feature","geometry":{"type":"Point","coordinates":[-117.584436,33.880407]}},{"properties":{"city":"Covina","geo_score":0.637,"zip code":"91723","address 1":"599 South Barranca Avenue, Suite 100","id":"acviq9ft9wsv","geo_precision":"street","date opened":"03/06/06","state":"CA"},"type":"Feature","geometry":{"type":"Point","coordinates":[-117.881335,34.084883]}},{"properties":{"city":"Eureka","geo_score":1.0,"zip code":"95501","address 1":"14 West Wabash Avenue","id":"acviq9d3zbxb","geo_precision":"range","date opened":"04/03/06","state":"CA"},"type":"Feature","geometry":{"type":"Point","coordinates":[-124.17121,40.791546]}},{"properties":{"city":"Fairfield","geo_score":0.703,"zip code":"94534","address 1":"5071 Business Center Drive, Suite 2","id":"acviq9gc71bx","geo_precision":"street","date opened":"11/10/86","state":"CA"},"type":"Feature","geometry":{"type":"Point","coordinates":[-122.141848,38.218042]}},{"properties":{"city":"Fresno","geo_score":0.844,"zip code":"93720","address 1":"7411 North Cedar, Suite 101","id":"acviq9gxk80q","geo_precision":"street","date opened":"03/12/12","state":"CA"},"type":"Feature","geometry":{"type":"Point","coordinates":[-119.75417,36.837544]}},{"properties":{"city":"Irvine","geo_score":0.614,"zip code":"92618","address 1":"13700 Alton Parkway, Suite 156","id":"acviq9knlvoo","geo_precision":"street","date opened":"10/26/09","state":"CA"},"type":"Feature","geometry":{"type":"Point","coordinates":[-117.739578,33.65536]}},{"properties":{"city":"Modesto","geo_score":0.667,"zip code":"95356","address 1":"300 Banner Court, Suite 2","id":"acviq9iqilog","geo_precision":"street","date opened":"12/26/06","state":"CA"},"type":"Feature","geometry":{"type":"Point","coordinates":[-120.996742,37.702863]}},{"properties":{"city":"Morgan Hill","geo_score":0.679,"zip code":"95037","address 1":"16195 Monterey Road, Suite 104","id":"acviq9imd5md","geo_precision":"street","date opened":"12/01/08","state":"CA"},"type":"Feature","geometry":{"type":"Point","coordinates":[-121.736882,37.214185]}},{"properties":{"city":"Napa","geo_score":0.806,"zip code":"94558","address 1":"2201 Jefferson Street","id":"acviq9nfr9ti","geo_precision":"street","date opened":"07/27/92","state":"CA"},"type":"Feature","geometry":{"type":"Point","coordinates":[-122.296238,38.310131]}},{"properties":{"city":"Oceanside","geo_score":0.585,"zip code":"92056","address 1":"1652 Ord Way","id":"acviq9ei2mvy","geo_precision":"zip","date opened":"11/14/05","state":"CA"},"type":"Feature","geometry":{"type":"Point","coordinates":[-116.846046,33.016928]}},{"properties":{"city":"Oxnard","geo_score":0.633,"zip code":"93036","address 1":"445 East Esplanade Drive, Suite 110","id":"acviq9m4d2ch","geo_precision":"street","date opened":"07/31/06","state":"CA"},"type":"Feature","geometry":{"type":"Point","coordinates":[-119.174653,34.230002]}},{"properties":{"city":"Placentia","geo_score":0.652,"zip code":"92870","address 1":"2001 East Orangethorpe Avenue, Suite B","id":"acviq9hwm2fy","geo_precision":"street","date opened":"09/24/07","state":"CA"},"type":"Feature","geometry":{"type":"Point","coordinates":[-117.871211,33.862733]}},{"properties":{"city":"Pleasanton","geo_score":0.571,"zip code":"94588","address 1":"4900 Hopyard Road, Suite 255","id":"acviq9p69aex","geo_precision":"street","date opened":"06/21/04","state":"CA"},"type":"Feature","geometry":{"type":"Point","coordinates":[-121.894434,37.674379]}},{"properties":{"city":"Rancho Cucamonga","geo_score":0.619,"zip code":"91730","address 1":"7890 Haven Avenue, Suite 18","id":"acviq9fpa2xa","geo_precision":"street","date opened":"01/08/96","state":"CA"},"type":"Feature","geometry":{"type":"Point","coordinates":[-117.575545,34.163532]}},{"properties":{"city":"Red Bluff","geo_score":1.0,"zip code":"96080","address 1":"243 South Main Street","id":"acviq9av7zk8","geo_precision":"range","date opened":"04/03/06","state":"CA"},"type":"Feature","geometry":{"type":"Point","coordinates":[-122.228351,40.168641]}},{"properties":{"city":"Redding","geo_score":1.0,"zip code":"96002","address 1":"915 Mistletoe Lane","id":"acviq9admxde","geo_precision":"range","date opened":"04/03/06","state":"CA"},"type":"Feature","geometry":{"type":"Point","coordinates":[-122.353724,40.578385]}},{"properties":{"city":"Roseville","geo_score":0.633,"zip code":"95747","address 1":"10002 Foothills Boulevard, Suite 100","id":"acviq9fojadd","geo_precision":"street","date opened":"08/09/04","state":"CA"},"type":"Feature","geometry":{"type":"Point","coordinates":[-121.301961,38.734198]}},{"properties":{"city":"Sacramento","geo_score":0.585,"zip code":"95825","address 1":"1715 Professional Drive","id":"acviq9kculor","geo_precision":"zip","date opened":"07/11/11","state":"CA"},"type":"Feature","geometry":{"type":"Point","coordinates":[-121.402213,38.585804]}},{"properties":{"city":"Sacramento","geo_score":0.637,"zip code":"95815","address 1":"1500 River Park Drive, Suite 109","id":"acviq9babp9g","geo_precision":"street","date opened":"03/05/07","state":"CA"},"type":"Feature","geometry":{"type":"Point","coordinates":[-121.438451,38.596831]}},{"properties":{"city":"San Diego","geo_score":0.429,"zip code":"92121-4311","address 1":"6755 Mira Mesa Boulevard, Suite 219","id":"acviq9flo2fx","geo_precision":"street","date opened":"07/01/97","state":"CA"},"type":"Feature","geometry":{"type":"Point","coordinates":[-117.236055,32.744476]}},{"properties":{"city":"San Jose","geo_score":0.893,"zip code":"95112","address 1":"1735 North 1st Street, Suite 116","id":"acviq9jpa816","geo_precision":"street","date opened":"01/02/07","state":"CA"},"type":"Feature","geometry":{"type":"Point","coordinates":[-121.890566,37.336168]}},{"properties":{"city":"San Marcos","geo_score":1.0,"zip code":"92078","address 1":"744 Grand Avenue, Suite 204","id":"acviq9bquaex","geo_precision":"street","date opened":"07/10/06","state":"CA"},"type":"Feature","geometry":{"type":"Point","coordinates":[-117.179062,33.13715]}},{"properties":{"city":"San Rafael","geo_score":1.0,"zip code":"94903","address 1":"38 Mitchell Boulevard","id":"acviq9dv8he4","geo_precision":"range","date opened":"07/06/09","state":"CA"},"type":"Feature","geometry":{"type":"Point","coordinates":[-122.538829,38.016964]}},{"properties":{"city":"Santa Ana","geo_score":0.633,"zip code":"92704","address 1":"2961 West MacArthur Boulevard, Suite 216","id":"acviq9d0wu7p","geo_precision":"street","date opened":"03/11/13","state":"CA"},"type":"Feature","geometry":{"type":"Point","coordinates":[-117.9217,33.70194]}},{"properties":{"city":"Santa Barbara","geo_score":0.571,"zip code":"93101","address 1":"1025 Chapala Street, Suite 206","id":"acviq9oq6lpj","geo_precision":"street","date opened":"05/14/07","state":"CA"},"type":"Feature","geometry":{"type":"Point","coordinates":[-119.690838,34.411481]}},{"properties":{"city":"Santa Cruz","geo_score":0.7,"zip code":"95062","address 1":"9000 Soquel Avenue, Suite 102","id":"acviq9oe9bkt","geo_precision":"street","date opened":"04/17/89","state":"CA"},"type":"Feature","geometry":{"type":"Point","coordinates":[-122.025821,36.972995]}},{"properties":{"city":"Santa Fe Springs","geo_score":0.649,"zip code":"90670","address 1":"11823 East Slauson Avenue, Unit 8","id":"acviq9ns5htj","geo_precision":"street","date opened":"10/05/09","state":"CA"},"type":"Feature","geometry":{"type":"Point","coordinates":[-118.066295,33.964572]}},{"properties":{"city":"Santa Maria","geo_score":0.619,"zip code":"93458","address 1":"222 West Carmen Lane, Suite 102","id":"acviq9nmbtia","geo_precision":"street","date opened":"06/20/11","state":"CA"},"type":"Feature","geometry":{"type":"Point","coordinates":[-120.436139,34.924811]}},{"properties":{"city":"South Pasadena","geo_score":0.637,"zip code":"91030","address 1":"711 Fair Oaks Avenue, Suite F","id":"acviq9ol1gkj","geo_precision":"street","date opened":"03/05/07","state":"CA"},"type":"Feature","geometry":{"type":"Point","coordinates":[-118.150296,34.120546]}},{"properties":{"city":"Stockton","geo_score":0.602,"zip code":"95207","address 1":"1151 West Robinhood Drive, Suite A-1","id":"acviq9ivo7ee","geo_precision":"street","date opened":"04/03/06","state":"CA"},"type":"Feature","geometry":{"type":"Point","coordinates":[-121.306525,38.002628]}},{"properties":{"city":"Tracy","geo_score":0.905,"zip code":"95376","address 1":"324 East 11th Street, Suite G-2","id":"acviq9f3amrm","geo_precision":"street","date opened":"04/03/06","state":"CA"},"type":"Feature","geometry":{"type":"Point","coordinates":[-121.425874,37.739726]}},{"properties":{"city":"Turlock","geo_score":0.966,"zip code":"95382","address 1":"2350 West Monte Vista Avenue","id":"acviq9atwy6g","geo_precision":"range","date opened":"04/03/06","state":"CA"},"type":"Feature","geometry":{"type":"Point","coordinates":[-120.87522,37.521742]}},{"properties":{"city":"Vacaville","geo_score":0.916,"zip code":"95687","address 1":"177-B  Butcher Road","id":"acviq9nwridz","geo_precision":"range","date opened":"01/03/95","state":"CA"},"type":"Feature","geometry":{"type":"Point","coordinates":[-121.99773,38.343793]}},{"properties":{"city":"Visalia","geo_score":0.679,"zip code":"93277","address 1":"4002 South Demaree, Suite B","id":"acviq9ob7if8","geo_precision":"street","date opened":"06/11/07","state":"CA"},"type":"Feature","geometry":{"type":"Point","coordinates":[-119.331751,36.324038]}},{"properties":{"city":"West Hills","geo_score":0.604,"zip code":"91307","address 1":"6700 Fallbrook Avenue, Suite 220","id":"acviq9kmnev1","geo_precision":"street","date opened":"01/14/08","state":"CA"},"type":"Feature","geometry":{"type":"Point","coordinates":[-118.623358,34.186436]}},{"properties":{"city":"Westlake Village","geo_score":0.679,"zip code":"91361","address 1":"600 Hampshire Road, Suite 110","id":"acviq9emut5k","geo_precision":"street","date opened":"11/14/11","state":"CA"},"type":"Feature","geometry":{"type":"Point","coordinates":[-118.837262,34.167096]}},{"properties":{"city":"Woodland","geo_score":1.0,"zip code":"95695","address 1":"250 West Main Street, Suite 201","id":"acviq9km7p6w","geo_precision":"street","date opened":"07/03/06","state":"CA"},"type":"Feature","geometry":{"type":"Point","coordinates":[-121.784,38.677549]}},{"properties":{"city":"Yuba City","geo_score":0.679,"zip code":"95991","address 1":"870 West Onstott Road, Suite E","id":"acviq9axhnsf","geo_precision":"street","date opened":"01/05/04","state":"CA"},"type":"Feature","geometry":{"type":"Point","coordinates":[-121.635303,39.127313]}},{"properties":{"city":"Aurora","geo_score":0.607,"zip code":"80012","address 1":"13696 E. Alameda Avenue, #A","id":"acviq9n9idmh","geo_precision":"street","date opened":"09/06/84","state":"CO"},"type":"Feature","geometry":{"type":"Point","coordinates":[-104.81656,39.70755]}},{"properties":{"city":"Centennial","geo_score":0.514,"zip code":"80112","address 1":"12200 East Briarwood Avenue, Suite 210","id":"acviq9eej45a","geo_precision":"street","date opened":"06/30/08","state":"CO"},"type":"Feature","geometry":{"type":"Point","coordinates":[-104.909517,39.594792]}},{"properties":{"city":"Colorado Springs","geo_score":1.0,"zip code":"80917","address 1":"3309 North Academy Boulevard","id":"acviq9ki3das","geo_precision":"range","date opened":"03/15/04","state":"CO"},"type":"Feature","geometry":{"type":"Point","coordinates":[-104.756991,38.881304]}},{"properties":{"city":"Colorado Springs","geo_score":1.0,"zip code":"80916","address 1":"2414 South Academy Boulevard","id":"acviq9n949g0","geo_precision":"range","date opened":"01/29/07","state":"CO"},"type":"Feature","geometry":{"type":"Point","coordinates":[-104.757644,38.797816]}},{"properties":{"city":"Denver","geo_score":0.707,"zip code":"80203","address 1":"789 Sherman Street #120","id":"acviq9co4wmv","geo_precision":"range","date opened":"04/30/01","state":"CO"},"type":"Feature","geometry":{"type":"Point","coordinates":[-104.98492,39.719151]}},{"properties":{"city":"Denver","geo_score":0.643,"zip code":"80211","address 1":"2855 North Speer Boulevard, Suite F","id":"acviq9e5krry","geo_precision":"street","date opened":"08/31/98","state":"CO"},"type":"Feature","geometry":{"type":"Point","coordinates":[-105.003164,39.748609]}},{"properties":{"city":"Fort Collins","geo_score":0.414,"zip code":"80525","address 1":"2850 McClelland Drive, Suite 1100","id":"acviq9ab7bwn","geo_precision":"street","date opened":"10/01/86","state":"CO"},"type":"Feature","geometry":{"type":"Point","coordinates":[-105.636861,40.842493]}},{"properties":{"city":"Grand Junction","geo_score":0.732,"zip code":"81501","address 1":"1119 North First, Unit J","id":"acviq9qfijrs","geo_precision":"street","date opened":"04/02/07","state":"CO"},"type":"Feature","geometry":{"type":"Point","coordinates":[-108.570935,39.067311]}},{"properties":{"city":"Greeley","geo_score":0.935,"zip code":"80634","address 1":"2711 West 10th Street","id":"acviq9l8toch","geo_precision":"range","date opened":"06/30/83","state":"CO"},"type":"Feature","geometry":{"type":"Point","coordinates":[-104.725381,40.422955]}},{"properties":{"city":"Littleton","geo_score":1.0,"zip code":"80120","address 1":"1709 West Littleton Boulevard","id":"acviq9nfhodi","geo_precision":"range","date opened":"12/15/97","state":"CO"},"type":"Feature","geometry":{"type":"Point","coordinates":[-105.00911,39.613329]}},{"properties":{"city":"Longmont","geo_score":0.679,"zip code":"80501","address 1":"700 Ken Pratt Boulevard, Suite 109","id":"acviq9lfpz9o","geo_precision":"street","date opened":"06/18/01","state":"CO"},"type":"Feature","geometry":{"type":"Point","coordinates":[-105.106844,40.160153]}},{"properties":{"city":"Northglenn","geo_score":0.552,"zip code":"80234","address 1":"11684 North Huron Street, Suite 105","id":"acviq9pdc2bw","geo_precision":"street","date opened":"05/24/04","state":"CO"},"type":"Feature","geometry":{"type":"Point","coordinates":[-104.996601,39.88527]}},{"properties":{"city":"Pueblo","geo_score":0.619,"zip code":"81003","address 1":"830 N. Main Street, Suite 140","id":"acviq9i947zz","geo_precision":"street","date opened":"09/10/07","state":"CO"},"type":"Feature","geometry":{"type":"Point","coordinates":[-104.608527,38.267879]}},{"properties":{"city":"Fairfield","geo_score":0.434,"zip code":"06825","address 1":"1495 Black Rock Turnpike","id":"acviq9cw9goh","geo_precision":"street","date opened":"02/24/97","state":"CT"},"type":"Feature","geometry":{"type":"Point","coordinates":[-72.510702,41.257777]}},{"properties":{"city":"Meriden","geo_score":1.0,"zip code":"06450","address 1":"1501 East Main Street , Suite 103","id":"acviq9kxlwag","geo_precision":"street","date opened":"08/13/12","state":"CT"},"type":"Feature","geometry":{"type":"Point","coordinates":[-72.80196,41.537915]}},{"properties":{"city":"North Haven","geo_score":1.0,"zip code":"06473","address 1":"30 Washington Avenue","id":"acviq9b5wfjw","geo_precision":"range","date opened":"04/02/07","state":"CT"},"type":"Feature","geometry":{"type":"Point","coordinates":[-72.859599,41.390721]}},{"properties":{"city":"Stamford","geo_score":1.0,"zip code":"06901","address 1":"500 Summer Street, Suite 306","id":"acviq9muanao","geo_precision":"street","date opened":"07/04/11","state":"CT"},"type":"Feature","geometry":{"type":"Point","coordinates":[-73.540843,41.053323]}},{"properties":{"city":"Washington","geo_score":0.508,"zip code":null,"address 1":"Scheduled to Open July 2013","id":"acviq9h3fpcb","geo_precision":"street","date opened":null,"state":"DC"},"type":"Feature","geometry":{"type":"Point","coordinates":[-76.976587,38.866521]}},{"properties":{"city":"New Castle","geo_score":1.0,"zip code":"19720","address 1":"2 Penns Way, Suite 205","id":"acviq9nsxjr5","geo_precision":"street","date opened":"10/10/11","state":"DE"},"type":"Feature","geometry":{"type":"Point","coordinates":[-75.611175,39.68335]}},{"properties":{"city":"Bonita Springs","geo_score":0.663,"zip code":"34134","address 1":"3358 Woods Edge Circle, Suite 102","id":"acviq9oxalqp","geo_precision":"street","date opened":"05/23/05","state":"FL"},"type":"Feature","geometry":{"type":"Point","coordinates":[-81.807785,26.317739]}},{"properties":{"city":"Bradenton","geo_score":0.905,"zip code":"34207","address 1":"6513  14th Street West, Suite 129","id":"acviq9c4vmuq","geo_precision":"street","date opened":"03/10/08","state":"FL"},"type":"Feature","geometry":{"type":"Point","coordinates":[-82.575334,27.462328]}},{"properties":{"city":"Clearwater","geo_score":0.597,"zip code":"33759","address 1":"1590 N. McMullen Booth Road, Suite K2","id":"acviq9bun47c","geo_precision":"street","date opened":"10/07/96","state":"FL"},"type":"Feature","geometry":{"type":"Point","coordinates":[-82.708883,27.965335]}},{"properties":{"city":"Fort Lauderdale","geo_score":1.0,"zip code":"33319","address 1":"6925 West Commercial Boulevard","id":"acviq9hl6xud","geo_precision":"range","date opened":"04/29/92","state":"FL"},"type":"Feature","geometry":{"type":"Point","coordinates":[-80.242923,26.193798]}},{"properties":{"city":"Fort Myers","geo_score":0.643,"zip code":"33919","address 1":"8695 College Parkway, Suite 265","id":"acviq9idmacr","geo_precision":"street","date opened":"07/06/99","state":"FL"},"type":"Feature","geometry":{"type":"Point","coordinates":[-81.876151,26.55642]}},{"properties":{"city":"Gainesville","geo_score":0.657,"zip code":"32606","address 1":"4780 Northwest 39th Avenue, Suite 5","id":"acviq9ktxfg8","geo_precision":"street","date opened":"09/06/11","state":"FL"},"type":"Feature","geometry":{"type":"Point","coordinates":[-82.383254,29.689293]}},{"properties":{"city":"Lakeland","geo_score":0.511,"zip code":null,"address 1":"Scheduled to Open May 2013","id":"acviq9m7g01p","geo_precision":"street","date opened":null,"state":"FL"},"type":"Feature","geometry":{"type":"Point","coordinates":[-81.964953,28.121595]}},{"properties":{"city":"Melbourne","geo_score":0.524,"zip code":"32935","address 1":"397 North Wickham Road, Suite 102","id":"acviq9m2umrw","geo_precision":"street","date opened":"05/28/07","state":"FL"},"type":"Feature","geometry":{"type":"Point","coordinates":[-80.766562,28.435788]}},{"properties":{"city":"Miami","geo_score":0.61,"zip code":"33166","address 1":"3625 Northwest 82nd Avenue, Suite 314","id":"acviq9h9lb71","geo_precision":"street","date opened":"09/14/09","state":"FL"},"type":"Feature","geometry":{"type":"Point","coordinates":[-80.329374,25.809801]}},{"properties":{"city":"Miami Lakes","geo_score":0.614,"zip code":"33014","address 1":"16010 Northwest 57th Avenue, Suite 114","id":"acviq9ccxq8f","geo_precision":"street","date opened":"09/22/08","state":"FL"},"type":"Feature","geometry":{"type":"Point","coordinates":[-80.293971,25.909737]}},{"properties":{"city":"New Port Richey","geo_score":1.0,"zip code":"34652","address 1":"5303 Main Street","id":"acviq9m2tmj5","geo_precision":"range","date opened":"07/10/06","state":"FL"},"type":"Feature","geometry":{"type":"Point","coordinates":[-82.726629,28.250282]}},{"properties":{"city":"Ocala","geo_score":0.748,"zip code":"34474","address 1":"1005 SW 10th Street","id":"acviq9bx3teg","geo_precision":"street","date opened":"03/07/94","state":"FL"},"type":"Feature","geometry":{"type":"Point","coordinates":[-82.144703,29.179122]}},{"properties":{"city":"Orlando","geo_score":0.679,"zip code":"32809","address 1":"6900 South Orange Blossom Trail, Suite 100","id":"acviq9fj0gcv","geo_precision":"street","date opened":"07/12/04","state":"FL"},"type":"Feature","geometry":{"type":"Point","coordinates":[-81.373165,28.489169]}},{"properties":{"city":"Orlando","geo_score":1.0,"zip code":"32818","address 1":"809 Good Homes Road","id":"acviq9gg01id","geo_precision":"range","date opened":"01/03/12","state":"FL"},"type":"Feature","geometry":{"type":"Point","coordinates":[-81.504841,28.553055]}},{"properties":{"city":"Pensacola","geo_score":0.637,"zip code":"32504","address 1":"7100 Plantation Road, Suite 4","id":"acviq9fjel1j","geo_precision":"street","date opened":"01/29/01","state":"FL"},"type":"Feature","geometry":{"type":"Point","coordinates":[-87.226406,30.497601]}},{"properties":{"city":"Pinellas Park","geo_score":0.61,"zip code":"33781","address 1":"4326 Park Boulevard, Suite E","id":"acviq9px77od","geo_precision":"street","date opened":"04/02/12","state":"FL"},"type":"Feature","geometry":{"type":"Point","coordinates":[-82.74641,27.83914]}},{"properties":{"city":"Port Charlotte","geo_score":1.0,"zip code":"33952","address 1":"2394 Tamiami Trail","id":"acviq9kcdnpj","geo_precision":"range","date opened":"03/29/04","state":"FL"},"type":"Feature","geometry":{"type":"Point","coordinates":[-82.118816,26.99675]}},{"properties":{"city":"Tampa","geo_score":0.647,"zip code":"33619","address 1":"9720 Princess Palm Avenue, Suite 122","id":"acviq9c2gete","geo_precision":"street","date opened":"03/12/12","state":"FL"},"type":"Feature","geometry":{"type":"Point","coordinates":[-82.341545,27.979923]}},{"properties":{"city":"Tampa","geo_score":0.935,"zip code":"33617","address 1":"12814 North 56th Street","id":"acviq9easu8l","geo_precision":"range","date opened":"10/25/04","state":"FL"},"type":"Feature","geometry":{"type":"Point","coordinates":[-82.393793,28.062628]}},{"properties":{"city":"Tampa","geo_score":0.598,"zip code":"33618","address 1":"14857 N. Dale Mabry Highway., Suite 200","id":"acviq9jlpijh","geo_precision":"street","date opened":"08/04/03","state":"FL"},"type":"Feature","geometry":{"type":"Point","coordinates":[-82.504823,28.040132]}},{"properties":{"city":"West Palm Beach","geo_score":0.633,"zip code":"33409","address 1":"2541 Metrocentre Boulevard, Suite 5","id":"acviq9g78a8j","geo_precision":"street","date opened":"06/13/94","state":"FL"},"type":"Feature","geometry":{"type":"Point","coordinates":[-80.091196,26.693354]}},{"properties":{"city":"Alpharetta","geo_score":1.0,"zip code":"30005","address 1":"6230 Shiloh Road, Suite 130","id":"acviq9n9rn6a","geo_precision":"street","date opened":"10/09/00","state":"GA"},"type":"Feature","geometry":{"type":"Point","coordinates":[-84.201315,34.115466]}},{"properties":{"city":"Alpharetta","geo_score":0.516,"zip code":"30009","address 1":"2440 Old Milton Parkway, Suite 400","id":"acviq9kw6rpn","geo_precision":"street","date opened":"09/17/12","state":"GA"},"type":"Feature","geometry":{"type":"Point","coordinates":[-84.083525,34.267154]}},{"properties":{"city":"Athens","geo_score":0.857,"zip code":"30606","address 1":"1069 Baxter Street, Suite A","id":"acviq9q742xg","geo_precision":"zip","date opened":"09/18/06","state":"GA"},"type":"Feature","geometry":{"type":"Point","coordinates":[-83.43064,33.951348]}},{"properties":{"city":"Atlanta","geo_score":0.707,"zip code":"30305","address 1":"8 Piedmont Center Northeast","id":"acviq9mbjyqq","geo_precision":"street","date opened":"05/02/05","state":"GA"},"type":"Feature","geometry":{"type":"Point","coordinates":[-84.367772,33.829632]}},{"properties":{"city":"Atlanta","geo_score":0.657,"zip code":"30309","address 1":"1280 West Peachtree Street Northwest, Suite 140","id":"acviq9g0wowr","geo_precision":"street","date opened":"12/01/08","state":"GA"},"type":"Feature","geometry":{"type":"Point","coordinates":[-84.387509,33.780729]}},{"properties":{"city":"Atlanta","geo_score":0.597,"zip code":"30329","address 1":"2250 N. Druid Hills Road, Suite 142","id":"acviq9lxiykn","geo_precision":"street","date opened":"12/06/04","state":"GA"},"type":"Feature","geometry":{"type":"Point","coordinates":[-84.34019,33.833622]}},{"properties":{"city":"Atlanta","geo_score":0.622,"zip code":"30339","address 1":"2675 Paces Ferry Road, Suite 300","id":"acviq9bx4qxm","geo_precision":"street","date opened":"08/16/04","state":"GA"},"type":"Feature","geometry":{"type":"Point","coordinates":[-84.480702,33.863515]}},{"properties":{"city":"Braselton","geo_score":0.679,"zip code":"30517","address 1":"6072 Highway 53, Suite J","id":"acviq9df0bp1","geo_precision":"street","date opened":"05/14/12","state":"GA"},"type":"Feature","geometry":{"type":"Point","coordinates":[-83.761839,34.104952]}},{"properties":{"city":"Brunswick","geo_score":0.688,"zip code":"31520","address 1":"650 Scranton Road, Suite M","id":"acviq9iwanu0","geo_precision":"street","date opened":"12/01/03","state":"GA"},"type":"Feature","geometry":{"type":"Point","coordinates":[-81.499828,31.215847]}},{"properties":{"city":"Griffin","geo_score":1.0,"zip code":"30223","address 1":"712 West Taylor Street","id":"acviq9aywrap","geo_precision":"range","date opened":"02/05/90","state":"GA"},"type":"Feature","geometry":{"type":"Point","coordinates":[-84.274855,33.247289]}},{"properties":{"city":"Griffin","geo_score":1.0,"zip code":"30223","address 1":"712 West Taylor Street","id":"acviq9or3fmh","geo_precision":"range","date opened":"01/12/98","state":"GA"},"type":"Feature","geometry":{"type":"Point","coordinates":[-84.274855,33.247289]}},{"properties":{"city":"La Grange","geo_score":0.684,"zip code":"30240","address 1":"209 Ridley Avenue, Suite A","id":"acviq9lk2oce","geo_precision":"street","date opened":"04/01/96","state":"GA"},"type":"Feature","geometry":{"type":"Point","coordinates":[-85.031108,33.039515]}},{"properties":{"city":"Lawrenceville","geo_score":0.752,"zip code":"30044","address 1":"229 Crogan Street","id":"acviq9d3k2cm","geo_precision":"range","date opened":"09/01/08","state":"GA"},"type":"Feature","geometry":{"type":"Point","coordinates":[-83.990526,33.956258]}},{"properties":{"city":"McDonough","geo_score":0.518,"zip code":"30253","address 1":"1141 Meredith Park Drive","id":"acviq9bc1066","geo_precision":"street","date opened":"01/04/99","state":"GA"},"type":"Feature","geometry":{"type":"Point","coordinates":[-84.278807,33.672702]}},{"properties":{"city":"Newnan","geo_score":0.585,"zip code":"30265","address 1":"8 Amlajack Boulevard","id":"acviq9cer4o6","geo_precision":"zip","date opened":"03/26/07","state":"GA"},"type":"Feature","geometry":{"type":"Point","coordinates":[-84.705681,33.415987]}},{"properties":{"city":"Savannah","geo_score":1.0,"zip code":"31406","address 1":"401 Mall Boulevard, Suite 103E","id":"acviq9p3gis1","geo_precision":"street","date opened":"03/07/05","state":"GA"},"type":"Feature","geometry":{"type":"Point","coordinates":[-81.113974,32.004481]}},{"properties":{"city":"Thomaston","geo_score":0.684,"zip code":"30286","address 1":"1311 Highway 19 North","id":"acviq9obfzcb","geo_precision":"street","date opened":"01/02/95","state":"GA"},"type":"Feature","geometry":{"type":"Point","coordinates":[-84.318381,32.859693]}},{"properties":{"city":"Valdosta","geo_score":0.967,"zip code":"31601","address 1":"1712 Gornto Road","id":"acviq9fho7u4","geo_precision":"range","date opened":"08/09/04","state":"GA"},"type":"Feature","geometry":{"type":"Point","coordinates":[-83.324279,30.845699]}},{"properties":{"city":"Woodstock","geo_score":0.714,"zip code":"30188","address 1":"155 Towne Lake Parkway, Suite 200","id":"acviq9ez0cog","geo_precision":"street","date opened":"01/09/12","state":"GA"},"type":"Feature","geometry":{"type":"Point","coordinates":[-84.446154,34.162957]}},{"properties":{"city":"Honolulu","geo_score":0.7,"zip code":"96817","address 1":"1130 North Nimitz Highway, Suite A135","id":"acviq9k7wnpb","geo_precision":"street","date opened":"03/12/07","state":"HI"},"type":"Feature","geometry":{"type":"Point","coordinates":[-157.864387,21.309941]}},{"properties":{"city":"Pearl City","geo_score":0.857,"zip code":"96782","address 1":"945 Kamehameha Highway, Unit 5","id":"acviq9f2n1ch","geo_precision":"zip","date opened":"04/16/09","state":"HI"},"type":"Feature","geometry":{"type":"Point","coordinates":[-157.960833,21.425556]}},{"properties":{"city":"Cedar Falls","geo_score":1.0,"zip code":"50613","address 1":"3014 Rownd Street","id":"acviq9ohmhqh","geo_precision":"range","date opened":"10/04/99","state":"IA"},"type":"Feature","geometry":{"type":"Point","coordinates":[-92.420876,42.511677]}},{"properties":{"city":"Des Moines","geo_score":0.625,"zip code":"50321","address 1":"4521 Fleur Drive, Suite B","id":"acviq9jrhzs8","geo_precision":"street","date opened":"07/26/10","state":"IA"},"type":"Feature","geometry":{"type":"Point","coordinates":[-93.644812,41.576129]}},{"properties":{"city":"Dubuque","geo_score":0.948,"zip code":"52002","address 1":"1701 John F Kennedy","id":"acviq9e03k8v","geo_precision":"range","date opened":"05/07/07","state":"IA"},"type":"Feature","geometry":{"type":"Point","coordinates":[-90.71566,42.493298]}},{"properties":{"city":"Dyersville","geo_score":0.878,"zip code":"52040","address 1":"1235 16th Avenue Court Southeast","id":"acviq9n48wf2","geo_precision":"range","date opened":"09/26/11","state":"IA"},"type":"Feature","geometry":{"type":"Point","coordinates":[-91.109604,42.470542]}},{"properties":{"city":"Hiawatha","geo_score":1.0,"zip code":"52233","address 1":"1450 Boyson Road","id":"acviq9jzoesc","geo_precision":"range","date opened":"02/12/07","state":"IA"},"type":"Feature","geometry":{"type":"Point","coordinates":[-91.691912,42.044307]}},{"properties":{"city":"Mason City","geo_score":0.935,"zip code":"50401","address 1":"1411 4th Street Southwest","id":"acviq9jm42vb","geo_precision":"range","date opened":"09/27/99","state":"IA"},"type":"Feature","geometry":{"type":"Point","coordinates":[-93.222736,43.14833]}},{"properties":{"city":"Boise","geo_score":0.955,"zip code":"83709","address 1":"9390 West Overland Road","id":"acviq9e404e8","geo_precision":"range","date opened":"02/21/06","state":"ID"},"type":"Feature","geometry":{"type":"Point","coordinates":[-116.297372,43.590267]}},{"properties":{"city":"Caldwell","geo_score":0.633,"zip code":"83605","address 1":"2922 East Cleveland Boulevard, Suite 700","id":"acviq9e9fvqg","geo_precision":"street","date opened":"02/27/06","state":"ID"},"type":"Feature","geometry":{"type":"Point","coordinates":[-116.693956,43.66713]}},{"properties":{"city":"Fruitland","geo_score":0.75,"zip code":"83619","address 1":"211 North Whitley, Suite 2","id":"acviq9c3ghf4","geo_precision":"street","date opened":"02/27/06","state":"ID"},"type":"Feature","geometry":{"type":"Point","coordinates":[-116.923754,44.010959]}},{"properties":{"city":"Idaho Falls","geo_score":0.979,"zip code":"83401","address 1":"677 South Woodruff Avenue","id":"acviq9nr448i","geo_precision":"range","date opened":"07/02/07","state":"ID"},"type":"Feature","geometry":{"type":"Point","coordinates":[-111.999128,43.50194]}},{"properties":{"city":"Lewiston","geo_score":1.0,"zip code":"83501","address 1":"624 Bryden Avenue","id":"acviq9e1v1wu","geo_precision":"range","date opened":"12/02/96","state":"ID"},"type":"Feature","geometry":{"type":"Point","coordinates":[-116.999507,46.380466]}},{"properties":{"city":"Moscow","geo_score":0.902,"zip code":"83843","address 1":"411 South Main","id":"acviq9eosf6o","geo_precision":"range","date opened":"12/18/00","state":"ID"},"type":"Feature","geometry":{"type":"Point","coordinates":[-117.001421,46.731087]}},{"properties":{"city":"Pocatello","geo_score":0.607,"zip code":"83204-3105","address 1":"109 N. Arthur Avenue, Suite 102","id":"acviq9om1xh5","geo_precision":"street","date opened":"01/12/98","state":"ID"},"type":"Feature","geometry":{"type":"Point","coordinates":[-112.4525,42.862216]}},{"properties":{"city":"Post Falls","geo_score":0.905,"zip code":"83854","address 1":"201 East 4th Avenue, Suite 100","id":"acviq9oausjf","geo_precision":"street","date opened":"02/04/08","state":"ID"},"type":"Feature","geometry":{"type":"Point","coordinates":[-116.944985,47.711006]}},{"properties":{"city":"Aurora","geo_score":0.652,"zip code":"60505","address 1":"1885 North Farnsworth Avenue, Suite 2","id":"acviq9le39gy","geo_precision":"street","date opened":"06/20/05","state":"IL"},"type":"Feature","geometry":{"type":"Point","coordinates":[-88.281427,41.750237]}},{"properties":{"city":"Bloomingdale","geo_score":1.0,"zip code":"60108","address 1":"255 East Lake Street, Suite 302","id":"acviq9elow6n","geo_precision":"street","date opened":"03/04/91","state":"IL"},"type":"Feature","geometry":{"type":"Point","coordinates":[-88.081116,41.957716]}},{"properties":{"city":"Bloomington","geo_score":0.67,"zip code":"61704","address 1":"220 North Eldorado Road, Suite D","id":"acviq9iwc9c0","geo_precision":"street","date opened":"07/30/90","state":"IL"},"type":"Feature","geometry":{"type":"Point","coordinates":[-88.951655,40.472989]}},{"properties":{"city":"Brookfield","geo_score":0.643,"zip code":"60513","address 1":"9219 Broadway Avenue, Suite A","id":"acviq9e7suh1","geo_precision":"street","date opened":"09/18/06","state":"IL"},"type":"Feature","geometry":{"type":"Point","coordinates":[-87.850684,41.828219]}},{"properties":{"city":"Carpentersville","geo_score":0.829,"zip code":"60110","address 1":"306 West Main Street","id":"acviq9axlwe3","geo_precision":"street","date opened":"08/21/06","state":"IL"},"type":"Feature","geometry":{"type":"Point","coordinates":[-88.297151,42.107927]}},{"properties":{"city":"Champaign","geo_score":1.0,"zip code":"61821","address 1":"2901 West Springfield Avenue","id":"acviq9pf3u3r","geo_precision":"range","date opened":"03/31/08","state":"IL"},"type":"Feature","geometry":{"type":"Point","coordinates":[-88.293641,40.112931]}},{"properties":{"city":"Chicago","geo_score":0.951,"zip code":"60630","address 1":"5316-G North Milwaukee Avenue","id":"acviq9l4i0zl","geo_precision":"range","date opened":"01/06/03","state":"IL"},"type":"Feature","geometry":{"type":"Point","coordinates":[-87.768839,41.97675]}},{"properties":{"city":"Crystal Lake","geo_score":1.0,"zip code":"60014","address 1":"829D Virginia Road","id":"acviq9djc33r","geo_precision":"range","date opened":"08/11/03","state":"IL"},"type":"Feature","geometry":{"type":"Point","coordinates":[-88.321828,42.221579]}},{"properties":{"city":"Danville","geo_score":0.679,"zip code":"61832","address 1":"3607 North Vermilion Street, Suite 2","id":"acviq9b2aofb","geo_precision":"street","date opened":"01/21/13","state":"IL"},"type":"Feature","geometry":{"type":"Point","coordinates":[-87.64192,40.076049]}},{"properties":{"city":"Decatur","geo_score":1.0,"zip code":"62526","address 1":"655 West Pershing Road","id":"acviq9ffxneo","geo_precision":"range","date opened":"06/06/05","state":"IL"},"type":"Feature","geometry":{"type":"Point","coordinates":[-88.965199,39.876373]}},{"properties":{"city":"Glen Carbon","geo_score":0.955,"zip code":"62034","address 1":"20 Junction Drive West","id":"acviq9dnnyf0","geo_precision":"range","date opened":"07/10/06","state":"IL"},"type":"Feature","geometry":{"type":"Point","coordinates":[-89.957731,38.77746]}},{"properties":{"city":"Libertyville","geo_score":1.0,"zip code":"60048","address 1":"836 South Milwaukee Avenue","id":"acviq9an0m6q","geo_precision":"range","date opened":"07/03/06","state":"IL"},"type":"Feature","geometry":{"type":"Point","coordinates":[-87.951315,42.273743]}},{"properties":{"city":"Lombard","geo_score":0.663,"zip code":"60148","address 1":"477 East Butterfield Road, Suite 100","id":"acviq9h9fmzq","geo_precision":"street","date opened":"09/22/97","state":"IL"},"type":"Feature","geometry":{"type":"Point","coordinates":[-88.0063,41.836718]}},{"properties":{"city":"Mattoon","geo_score":1.0,"zip code":"61938","address 1":"616 Charleston Avenue","id":"acviq9p93azg","geo_precision":"range","date opened":"08/07/06","state":"IL"},"type":"Feature","geometry":{"type":"Point","coordinates":[-88.361382,39.481594]}},{"properties":{"city":"Orland Park","geo_score":0.625,"zip code":"60462","address 1":"9651 West 153rd Street, Suite 51","id":"acviq9ko5q1w","geo_precision":"street","date opened":"06/01/10","state":"IL"},"type":"Feature","geometry":{"type":"Point","coordinates":[-87.792566,41.613535]}},{"properties":{"city":"Peoria Heights","geo_score":0.523,"zip code":"61616","address 1":"4111 N. Prospect Road, Suite 3","id":"acviq9k69t9y","geo_precision":"street","date opened":"10/27/89","state":"IL"},"type":"Feature","geometry":{"type":"Point","coordinates":[-89.574331,40.729988]}},{"properties":{"city":"Rolling Meadows","geo_score":0.633,"zip code":"60008","address 1":"3701 Algonquin Road, Suite 245","id":"acviq9bh9ecp","geo_precision":"street","date opened":"04/26/04","state":"IL"},"type":"Feature","geometry":{"type":"Point","coordinates":[-88.009479,42.059819]}},{"properties":{"city":"Springfield","geo_score":0.585,"zip code":"62703","address 1":"3000 Professional Drive","id":"acviq9j5uhu7","geo_precision":"zip","date opened":"10/01/86","state":"IL"},"type":"Feature","geometry":{"type":"Point","coordinates":[-89.627547,39.762206]}},{"properties":{"city":"Waukegan","geo_score":1.0,"zip code":"60087","address 1":"2037 North Green Bay Road","id":"acviq9kkzdt2","geo_precision":"range","date opened":"01/03/12","state":"IL"},"type":"Feature","geometry":{"type":"Point","coordinates":[-87.884151,42.389496]}},{"properties":{"city":"Bloomington","geo_score":0.714,"zip code":"47404","address 1":"116 South Madison Street, Suite B","id":"acviq9dt2vng","geo_precision":"street","date opened":"03/03/08","state":"IN"},"type":"Feature","geometry":{"type":"Point","coordinates":[-86.527502,39.274128]}},{"properties":{"city":"Elkhart","geo_score":0.571,"zip code":"46517","address 1":"4568 Elkhart Road, Suite 600","id":"acviq9bj4ida","geo_precision":"street","date opened":"09/19/11","state":"IN"},"type":"Feature","geometry":{"type":"Point","coordinates":[-85.906669,41.626699]}},{"properties":{"city":"Evansville","geo_score":0.963,"zip code":"47715","address 1":"1480 North Green River Road","id":"acviq9ir7co2","geo_precision":"range","date opened":"05/16/11","state":"IN"},"type":"Feature","geometry":{"type":"Point","coordinates":[-87.492693,37.988679]}},{"properties":{"city":"Fishers","geo_score":0.951,"zip code":"46038","address 1":"7259 Fishers Landing Drive","id":"acviq9fadl0g","geo_precision":"range","date opened":"10/31/05","state":"IN"},"type":"Feature","geometry":{"type":"Point","coordinates":[-86.043237,39.95598]}},{"properties":{"city":"Greenwood","geo_score":0.571,"zip code":"46143","address 1":"707 South Madison Avenue, Suite Q","id":"acviq9d7nysu","geo_precision":"street","date opened":"07/11/05","state":"IN"},"type":"Feature","geometry":{"type":"Point","coordinates":[-86.13644,39.607559]}},{"properties":{"city":"Indianapolis","geo_score":1.0,"zip code":"46278","address 1":"6233 Corporate Drive","id":"acviq9g9gbvo","geo_precision":"range","date opened":"04/10/95","state":"IN"},"type":"Feature","geometry":{"type":"Point","coordinates":[-86.265796,39.867794]}},{"properties":{"city":"Indianapolis","geo_score":0.905,"zip code":"46220","address 1":"5060 East 62nd Street, Suite 118","id":"acviq9lwuca4","geo_precision":"street","date opened":"09/21/09","state":"IN"},"type":"Feature","geometry":{"type":"Point","coordinates":[-86.155371,39.86786]}},{"properties":{"city":"Lafayette","geo_score":0.688,"zip code":"47905","address 1":"405 Sagamore Parkway South, Suite B6","id":"acviq9lpc8sr","geo_precision":"street","date opened":"02/04/02","state":"IN"},"type":"Feature","geometry":{"type":"Point","coordinates":[-86.898102,40.414564]}},{"properties":{"city":"Lebanon","geo_score":0.897,"zip code":"46052","address 1":"400 Enterprise Drive","id":"acviq9e662qk","geo_precision":"range","date opened":"12/27/04","state":"IN"},"type":"Feature","geometry":{"type":"Point","coordinates":[-86.490585,40.036154]}},{"properties":{"city":"Mishawaka","geo_score":0.679,"zip code":"46545","address 1":"3305 Grape Road, Suite 3","id":"acviq9ehmvol","geo_precision":"street","date opened":"08/29/05","state":"IN"},"type":"Feature","geometry":{"type":"Point","coordinates":[-86.186908,41.684441]}},{"properties":{"city":"Monticello","geo_score":0.902,"zip code":"47960","address 1":"132 South Main","id":"acviq9e7c4jh","geo_precision":"range","date opened":"01/02/07","state":"IN"},"type":"Feature","geometry":{"type":"Point","coordinates":[-86.761994,40.74454]}},{"properties":{"city":"New Albany","geo_score":1.0,"zip code":"47150","address 1":"3423 Grant Line Road","id":"acviq9fw0ska","geo_precision":"range","date opened":null,"state":"IN"},"type":"Feature","geometry":{"type":"Point","coordinates":[-85.819786,38.322922]}},{"properties":{"city":"Terre Haute","geo_score":0.927,"zip code":"47802","address 1":"2229 South Third Street","id":"acviq9dyilxt","geo_precision":"range","date opened":"06/03/96","state":"IN"},"type":"Feature","geometry":{"type":"Point","coordinates":[-87.413758,39.442323]}},{"properties":{"city":"Valparaiso","geo_score":0.857,"zip code":"46385","address 1":"332 West US Highway 30, Suite C","id":"acviq9mhmlxl","geo_precision":"zip","date opened":"03/31/97","state":"IN"},"type":"Feature","geometry":{"type":"Point","coordinates":[-87.078309,41.470567]}},{"properties":{"city":"Derby","geo_score":0.868,"zip code":"67037","address 1":"330 East Madison, Suite 202","id":"acviq9n8w065","geo_precision":"street","date opened":"04/27/09","state":"KS"},"type":"Feature","geometry":{"type":"Point","coordinates":[-97.270102,37.547899]}},{"properties":{"city":"Independence","geo_score":0.61,"zip code":"67301","address 1":"2009 North Penn","id":"acviq9dsmlv4","geo_precision":"street","date opened":"08/09/04","state":"KS"},"type":"Feature","geometry":{"type":"Point","coordinates":[-95.722163,37.228798]}},{"properties":{"city":"Lawrence","geo_score":1.0,"zip code":"66044","address 1":"1000 Iowa Street","id":"acviq9p0ohvp","geo_precision":"range","date opened":"09/13/10","state":"KS"},"type":"Feature","geometry":{"type":"Point","coordinates":[-95.26042,38.965494]}},{"properties":{"city":"Manhattan","geo_score":0.679,"zip code":"66502","address 1":"900 Hayes Drive, Suite D","id":"acviq9bvz5ew","geo_precision":"street","date opened":"07/10/00","state":"KS"},"type":"Feature","geometry":{"type":"Point","coordinates":[-96.555604,39.185176]}},{"properties":{"city":"Olathe","geo_score":0.714,"zip code":"66062","address 1":"701 North Mur-Len, Suite B","id":"acviq9jaim0w","geo_precision":"street","date opened":"07/11/11","state":"KS"},"type":"Feature","geometry":{"type":"Point","coordinates":[-94.779558,38.881347]}},{"properties":{"city":"Pittsburg","geo_score":0.619,"zip code":"66762","address 1":"207 E. 29th Street","id":"acviq9ba46ju","geo_precision":"street","date opened":"06/18/12","state":"KS"},"type":"Feature","geometry":{"type":"Point","coordinates":[-94.704158,37.43673]}},{"properties":{"city":"Salina","geo_score":1.0,"zip code":"67401","address 1":"2326 Planet Avenue","id":"acviq9n3sxkw","geo_precision":"range","date opened":"09/18/06","state":"KS"},"type":"Feature","geometry":{"type":"Point","coordinates":[-97.613286,38.798944]}},{"properties":{"city":"Shawnee","geo_score":0.948,"zip code":"66216","address 1":"6431 Quivira Road","id":"acviq9q5o2we","geo_precision":"range","date opened":"11/12/12","state":"KS"},"type":"Feature","geometry":{"type":"Point","coordinates":[-94.723761,39.011083]}},{"properties":{"city":"Topeka","geo_score":0.707,"zip code":"66611","address 1":"2300 Southwest 29th, Suite 100 &amp; 121","id":"acviq9jxsmlr","geo_precision":"range","date opened":"12/01/08","state":"KS"},"type":"Feature","geometry":{"type":"Point","coordinates":[-95.682791,39.015071]}},{"properties":{"city":"Wichita","geo_score":0.857,"zip code":"67203","address 1":"303 N. West Street, Suite 215","id":"acviq9he1838","geo_precision":"zip","date opened":"01/07/08","state":"KS"},"type":"Feature","geometry":{"type":"Point","coordinates":[-97.395351,37.706514]}},{"properties":{"city":"Bowling Green","geo_score":0.694,"zip code":"42104","address 1":"1549 Scottsville Road, Suite A","id":"acviq9o4qmja","geo_precision":"street","date opened":"10/05/98","state":"KY"},"type":"Feature","geometry":{"type":"Point","coordinates":[-86.435209,36.972276]}},{"properties":{"city":"Elizabethtown","geo_score":1.0,"zip code":"42701","address 1":"935 North Mulberry Street","id":"acviq9pm78zu","geo_precision":"range","date opened":"09/08/97","state":"KY"},"type":"Feature","geometry":{"type":"Point","coordinates":[-85.844544,37.705649]}},{"properties":{"city":"Elizabethtown","geo_score":0.727,"zip code":"42701","address 1":"1107 Crowne Pointe Drive, Suite E","id":"acviq9nwlg4b","geo_precision":"street","date opened":null,"state":"KY"},"type":"Feature","geometry":{"type":"Point","coordinates":[-85.868043,37.742802]}},{"properties":{"city":"Florence","geo_score":0.81,"zip code":"41042","address 1":"8459 US 42, Suite B","id":"acviq9hgozab","geo_precision":"street","date opened":"06/02/03","state":"KY"},"type":"Feature","geometry":{"type":"Point","coordinates":[-84.617356,39.005359]}},{"properties":{"city":"Franklin","geo_score":1.0,"zip code":"42134","address 1":"901 South Main Street","id":"acviq9hcv1kb","geo_precision":"range","date opened":"05/23/07","state":"KY"},"type":"Feature","geometry":{"type":"Point","coordinates":[-86.575982,36.70715]}},{"properties":{"city":"Lexington","geo_score":0.657,"zip code":"40517","address 1":"154 Patchen Drive, Suite 89","id":"acviq9hqmutg","geo_precision":"street","date opened":"06/11/07","state":"KY"},"type":"Feature","geometry":{"type":"Point","coordinates":[-84.454586,38.009173]}},{"properties":{"city":"Louisville","geo_score":0.633,"zip code":"40299","address 1":"11003 Bluegrass Parkway, Suite 400","id":"acviq9h0eki1","geo_precision":"street","date opened":"07/07/03","state":"KY"},"type":"Feature","geometry":{"type":"Point","coordinates":[-85.577069,38.222386]}},{"properties":{"city":"Louisville","geo_score":0.539,"zip code":"40216","address 1":"4919 C Dixie Highway","id":"acviq9dit8f3","geo_precision":"range","date opened":"11/06/06","state":"KY"},"type":"Feature","geometry":{"type":"Point","coordinates":[-85.602857,38.17657]}},{"properties":{"city":"Richmond","geo_score":0.743,"zip code":"40475","address 1":"6019 Atwood Drive, Suites 1 and 2","id":"acviq9m2jduz","geo_precision":"street","date opened":"09/06/88","state":"KY"},"type":"Feature","geometry":{"type":"Point","coordinates":[-84.298184,37.863966]}},{"properties":{"city":"Baton Rouge","geo_score":0.657,"zip code":"70808","address 1":"4626 Jamestown, Suite 3","id":"acviq9mr7x9p","geo_precision":"street","date opened":"08/06/01","state":"LA"},"type":"Feature","geometry":{"type":"Point","coordinates":[-91.118938,30.387608]}},{"properties":{"city":"Covington","geo_score":0.575,"zip code":"70433","address 1":"100 Louis Prima Drive","id":"acviq9e9f91u","geo_precision":"street","date opened":"04/16/01","state":"LA"},"type":"Feature","geometry":{"type":"Point","coordinates":[-90.107967,30.450587]}},{"properties":{"city":"Lafayette","geo_score":0.679,"zip code":"70507","address 1":"100 Beauvais Avenue, Suite A-2","id":"acviq9a9j7ea","geo_precision":"street","date opened":"02/05/07","state":"LA"},"type":"Feature","geometry":{"type":"Point","coordinates":[-92.026506,30.292367]}},{"properties":{"city":"Metairie","geo_score":0.762,"zip code":"70003","address 1":"701 David Drive, Suite A","id":"acviq9abf0ra","geo_precision":"street","date opened":"12/27/10","state":"LA"},"type":"Feature","geometry":{"type":"Point","coordinates":[-90.206779,29.981035]}},{"properties":{"city":"New Orleans","geo_score":1.0,"zip code":"70119","address 1":"3826 Canal Street","id":"acviq9gua9sa","geo_precision":"range","date opened":"07/11/11","state":"LA"},"type":"Feature","geometry":{"type":"Point","coordinates":[-90.098428,29.972855]}},{"properties":{"city":"Shreveport","geo_score":0.905,"zip code":"71105","address 1":"1409 East 70th Street, Suite 120","id":"acviq9lcqstw","geo_precision":"street","date opened":"03/09/98","state":"LA"},"type":"Feature","geometry":{"type":"Point","coordinates":[-93.731954,32.443421]}},{"properties":{"city":"Braintree","geo_score":0.607,"zip code":"02184","address 1":"100 Grandview Road, Suite 213","id":"acviq9owf49d","geo_precision":"street","date opened":"10/26/09","state":"MA"},"type":"Feature","geometry":{"type":"Point","coordinates":[-71.032879,42.2197]}},{"properties":{"city":"Chelmsford","geo_score":0.694,"zip code":"01824","address 1":"229 Billerica Road, Unit 4","id":"acviq9h5ci8w","geo_precision":"street","date opened":"10/02/06","state":"MA"},"type":"Feature","geometry":{"type":"Point","coordinates":[-71.340617,42.61456]}},{"properties":{"city":"Chelsea","geo_score":1.0,"zip code":"02150","address 1":"146 Broadway","id":"acviq9fsi4f8","geo_precision":"range","date opened":"02/11/13","state":"MA"},"type":"Feature","geometry":{"type":"Point","coordinates":[-71.040842,42.388946]}},{"properties":{"city":"Wakefield","geo_score":0.614,"zip code":"01880","address 1":"107 Audubon Road, Suite 105","id":"acviq9p9tyfv","geo_precision":"street","date opened":"04/03/06","state":"MA"},"type":"Feature","geometry":{"type":"Point","coordinates":[-71.041305,42.513805]}},{"properties":{"city":"Worcester","geo_score":0.679,"zip code":"01609","address 1":"43 Lancaster Street, Suite 1","id":"acviq9oaaoqd","geo_precision":"street","date opened":"09/10/12","state":"MA"},"type":"Feature","geometry":{"type":"Point","coordinates":[-71.80323,42.269301]}},{"properties":{"city":"Annapolis","geo_score":1.0,"zip code":"21401","address 1":"2530 Riva Road, Suite 304","id":"acviq9ei5p6t","geo_precision":"street","date opened":"11/05/12","state":"MD"},"type":"Feature","geometry":{"type":"Point","coordinates":[-76.54083,38.983487]}},{"properties":{"city":"Columbia","geo_score":0.679,"zip code":"21045","address 1":"7120 Minstrel Way, Suite 102","id":"acviq9e3o04z","geo_precision":"street","date opened":"08/04/97","state":"MD"},"type":"Feature","geometry":{"type":"Point","coordinates":[-76.84535,39.178171]}},{"properties":{"city":"Easton","geo_score":0.7,"zip code":"21601","address 1":"29466 Pintail Drive, Unit 1","id":"acviq9csaoej","geo_precision":"street","date opened":"02/12/07","state":"MD"},"type":"Feature","geometry":{"type":"Point","coordinates":[-76.054892,38.775507]}},{"properties":{"city":"Greenbelt","geo_score":1.0,"zip code":"20770","address 1":"6411 Ivy Lane, Suite 604","id":"acviq9l2lctb","geo_precision":"street","date opened":"06/11/12","state":"MD"},"type":"Feature","geometry":{"type":"Point","coordinates":[-76.889995,39.007632]}},{"properties":{"city":"Rockville","geo_score":0.429,"zip code":"20852","address 1":"11300 Rockville Pike, Suite 701","id":"acviq9kxo6j0","geo_precision":"street","date opened":"06/04/07","state":"MD"},"type":"Feature","geometry":{"type":"Point","coordinates":[-77.129714,38.962005]}},{"properties":{"city":"Rockville","geo_score":1.0,"zip code":"20850","address 1":"30 West Gude Drive, Suite 115","id":"acviq9fk9mwk","geo_precision":"street","date opened":"04/16/12","state":"MD"},"type":"Feature","geometry":{"type":"Point","coordinates":[-77.15856,39.106563]}},{"properties":{"city":"Salisbury","geo_score":0.619,"zip code":"21804","address 1":"2013 Northwood Drive, Suite 2","id":"acviq9m2mubf","geo_precision":"street","date opened":"10/29/07","state":"MD"},"type":"Feature","geometry":{"type":"Point","coordinates":[-75.584189,38.351276]}},{"properties":{"city":"Towson","geo_score":0.614,"zip code":"21286","address 1":"515 East Jopps Road, Suite 104","id":"acviq9d5vndo","geo_precision":"street","date opened":"02/27/12","state":"MD"},"type":"Feature","geometry":{"type":"Point","coordinates":[-76.582792,39.414258]}},{"properties":{"city":"Portland","geo_score":0.61,"zip code":"04101","address 1":"49 Dartmouth Street, Suite #1","id":"acviq9oal1k9","geo_precision":"range","date opened":"01/15/07","state":"ME"},"type":"Feature","geometry":{"type":"Point","coordinates":[-70.277395,43.667534]}},{"properties":{"city":"Clinton Township","geo_score":0.812,"zip code":"48036","address 1":"44875 Morley Drive","id":"acviq9c3b5qq","geo_precision":"street","date opened":"01/20/97","state":"MI"},"type":"Feature","geometry":{"type":"Point","coordinates":[-82.86771,42.62842]}},{"properties":{"city":"East Lansing","geo_score":0.688,"zip code":"48823","address 1":"1429 West Saginaw Street, Suite 120","id":"acviq9db2jun","geo_precision":"street","date opened":"10/25/00","state":"MI"},"type":"Feature","geometry":{"type":"Point","coordinates":[-84.481112,42.746852]}},{"properties":{"city":"Farmington Hills","geo_score":0.963,"zip code":"48335","address 1":"24387 Halsted Road","id":"acviq9o6p1pi","geo_precision":"range","date opened":"04/28/97","state":"MI"},"type":"Feature","geometry":{"type":"Point","coordinates":[-83.415942,42.471861]}},{"properties":{"city":"Grand Rapids","geo_score":0.941,"zip code":"49548","address 1":"333 44th Street SW","id":"acviq9ptiy5u","geo_precision":"range","date opened":"02/26/96","state":"MI"},"type":"Feature","geometry":{"type":"Point","coordinates":[-85.67366,42.884146]}},{"properties":{"city":"Howell","geo_score":0.672,"zip code":"48843","address 1":"4286 Grand River Avenue, Suite A","id":"acviq9o5lhao","geo_precision":"street","date opened":"10/08/07","state":"MI"},"type":"Feature","geometry":{"type":"Point","coordinates":[-83.930692,42.607552]}},{"properties":{"city":"Kalamazoo","geo_score":0.743,"zip code":"49008","address 1":"3321 Stadium Drive, Suite D","id":"acviq9g4f49r","geo_precision":"street","date opened":"02/04/13","state":"MI"},"type":"Feature","geometry":{"type":"Point","coordinates":[-85.607627,42.282244]}},{"properties":{"city":"Keego Harbor","geo_score":0.67,"zip code":"48320","address 1":"3080 Orchard Lake Road, Suite A and B","id":"acviq9brmmeq","geo_precision":"street","date opened":"07/30/07","state":"MI"},"type":"Feature","geometry":{"type":"Point","coordinates":[-83.339795,42.610475]}},{"properties":{"city":"Midland","geo_score":0.649,"zip code":"48640","address 1":"5800 Eastman Avenue, Suite 203","id":"acviq9p1u26j","geo_precision":"street","date opened":"02/02/04","state":"MI"},"type":"Feature","geometry":{"type":"Point","coordinates":[-84.247281,43.615711]}},{"properties":{"city":"Rochester Hills","geo_score":0.393,"zip code":"48307","address 1":"110 South Boulevard W., Suite 200","id":"acviq9iiegb7","geo_precision":"street","date opened":"02/07/05","state":"MI"},"type":"Feature","geometry":{"type":"Point","coordinates":[-83.325674,42.488033]}},{"properties":{"city":"Rochester Hills","geo_score":0.393,"zip code":"48307","address 1":"110 South Boulevard W, Suite 200","id":"acviq9bpg39f","geo_precision":"street","date opened":"09/21/09","state":"MI"},"type":"Feature","geometry":{"type":"Point","coordinates":[-83.325674,42.488033]}},{"properties":{"city":"Roseville","geo_score":0.679,"zip code":"48066","address 1":"16236 13 Mile Road","id":"acviq9ebh8y1","geo_precision":"street","date opened":"10/08/07","state":"MI"},"type":"Feature","geometry":{"type":"Point","coordinates":[-82.927235,42.527892]}},{"properties":{"city":"Royal Oak","geo_score":0.927,"zip code":"48067","address 1":"1625 East Fourth Street","id":"acviq9glkafz","geo_precision":"range","date opened":"03/11/13","state":"MI"},"type":"Feature","geometry":{"type":"Point","coordinates":[-83.124539,42.487563]}},{"properties":{"city":"Saint Joseph","geo_score":1.0,"zip code":"49085","address 1":"3260 Niles Road","id":"acviq9n42nuy","geo_precision":"range","date opened":"06/11/07","state":"MI"},"type":"Feature","geometry":{"type":"Point","coordinates":[-86.459043,42.059273]}},{"properties":{"city":"Westland","geo_score":1.0,"zip code":"48185","address 1":"38545 Ford Road, Suite 100","id":"acviq9oin39g","geo_precision":"street","date opened":"01/11/10","state":"MI"},"type":"Feature","geometry":{"type":"Point","coordinates":[-83.364841,42.324923]}},{"properties":{"city":"Wixom","geo_score":1.0,"zip code":"48393","address 1":"49175 Pontiac Trail","id":"acviq9a8075o","geo_precision":"range","date opened":"01/06/12","state":"MI"},"type":"Feature","geometry":{"type":"Point","coordinates":[-83.534988,42.524294]}},{"properties":{"city":"Albert Lea","geo_score":1.0,"zip code":"56007","address 1":"1410 West Main Street","id":"acviq9ce1qdf","geo_precision":"range","date opened":"04/01/92","state":"MN"},"type":"Feature","geometry":{"type":"Point","coordinates":[-93.389589,43.646682]}},{"properties":{"city":"Brooklyn Park","geo_score":0.686,"zip code":"55443","address 1":"8500 Edinbrook Parkway, Suite E","id":"acviq9evqyya","geo_precision":"street","date opened":"04/06/09","state":"MN"},"type":"Feature","geometry":{"type":"Point","coordinates":[-93.328662,45.109356]}},{"properties":{"city":"Cannon Falls","geo_score":1.0,"zip code":"55009","address 1":"31265 County 24 Boulevard","id":"acviq9jj3aq7","geo_precision":"range","date opened":"08/26/96","state":"MN"},"type":"Feature","geometry":{"type":"Point","coordinates":[-92.906225,44.492519]}},{"properties":{"city":"Chanhassen","geo_score":0.684,"zip code":"55317","address 1":"7876 Century Boulevard","id":"acviq9i9sn0v","geo_precision":"street","date opened":"12/31/07","state":"MN"},"type":"Feature","geometry":{"type":"Point","coordinates":[-93.590111,44.867066]}},{"properties":{"city":"Duluth","geo_score":0.67,"zip code":"55802","address 1":"414 West Superior Street, Suite 411","id":"acviq9fqadt3","geo_precision":"street","date opened":"02/06/06","state":"MN"},"type":"Feature","geometry":{"type":"Point","coordinates":[-92.09818,46.78695]}},{"properties":{"city":"Eagan","geo_score":0.878,"zip code":"55121","address 1":"1266 Lone Oak Road","id":"acviq9hc5bzl","geo_precision":"range","date opened":"09/04/95","state":"MN"},"type":"Feature","geometry":{"type":"Point","coordinates":[-93.15942,44.84805]}},{"properties":{"city":"Edina","geo_score":0.516,"zip code":"55439","address 1":"5151 Edina Industrial Boulevard, Suite 100","id":"acviq9leksy0","geo_precision":"street","date opened":"01/03/94","state":"MN"},"type":"Feature","geometry":{"type":"Point","coordinates":[-93.353996,44.86409]}},{"properties":{"city":"Grand Rapids","geo_score":0.905,"zip code":"55744","address 1":"102 Northeast 3rd Street, Suite 100","id":"acviq9buueas","geo_precision":"street","date opened":"02/27/08","state":"MN"},"type":"Feature","geometry":{"type":"Point","coordinates":[-93.52675,47.23489]}},{"properties":{"city":"Hibbing","geo_score":0.941,"zip code":"55746","address 1":"3125 14th Avenue East","id":"acviq9hjbl42","geo_precision":"range","date opened":"02/27/08","state":"MN"},"type":"Feature","geometry":{"type":"Point","coordinates":[-92.920983,47.413109]}},{"properties":{"city":"Hopkins","geo_score":0.683,"zip code":"55343","address 1":"821 Main Street","id":"acviq9qg1ij0","geo_precision":"range","date opened":"06/04/07","state":"MN"},"type":"Feature","geometry":{"type":"Point","coordinates":[-94.045517,45.416232]}},{"properties":{"city":"Lakeville","geo_score":0.649,"zip code":"55044","address 1":"20908 Holyoke Avenue, Suite 100","id":"acviq9lf8pne","geo_precision":"street","date opened":"01/03/05","state":"MN"},"type":"Feature","geometry":{"type":"Point","coordinates":[-93.242655,44.666779]}},{"properties":{"city":"Minneapolis","geo_score":0.905,"zip code":"55401","address 1":"330 2nd Avenue South, Suite 2201","id":"acviq9b1hmmj","geo_precision":"street","date opened":"11/29/10","state":"MN"},"type":"Feature","geometry":{"type":"Point","coordinates":[-93.263832,44.982578]}},{"properties":{"city":"North Mankato","geo_score":1.0,"zip code":"56003","address 1":"113 Monroe Avenue","id":"acviq9nsy1r5","geo_precision":"range","date opened":"04/18/11","state":"MN"},"type":"Feature","geometry":{"type":"Point","coordinates":[-94.006048,44.175506]}},{"properties":{"city":"Owatonna","geo_score":0.902,"zip code":"55060","address 1":"812 South Elm Street","id":"acviq9igstw7","geo_precision":"range","date opened":"06/06/85","state":"MN"},"type":"Feature","geometry":{"type":"Point","coordinates":[-93.223579,44.07723]}},{"properties":{"city":"Plymouth","geo_score":0.481,"zip code":"55447","address 1":"3021 Harbor Lane North, Suite 209","id":"acviq9jsja5y","geo_precision":"street","date opened":"05/04/09","state":"MN"},"type":"Feature","geometry":{"type":"Point","coordinates":[-93.463698,44.983303]}},{"properties":{"city":"Red Wing","geo_score":0.816,"zip code":"55066","address 1":"910 Main, Suite 101","id":"acviq9jr5axx","geo_precision":"street","date opened":"03/18/91","state":"MN"},"type":"Feature","geometry":{"type":"Point","coordinates":[-92.532938,44.567722]}},{"properties":{"city":"Rochester","geo_score":1.0,"zip code":"55906","address 1":"2518 North Broadway","id":"acviq9iyox0b","geo_precision":"range","date opened":"06/01/98","state":"MN"},"type":"Feature","geometry":{"type":"Point","coordinates":[-92.455322,44.051716]}},{"properties":{"city":"Rochester","geo_score":1.0,"zip code":"55906","address 1":"2518 North Broadway","id":"acviq9ol24nc","geo_precision":"range","date opened":"06/28/85","state":"MN"},"type":"Feature","geometry":{"type":"Point","coordinates":[-92.455322,44.051716]}},{"properties":{"city":"Rogers","geo_score":0.714,"zip code":"55374","address 1":"20998 134th Avenue North, Suite 105","id":"acviq9ao7y9c","geo_precision":"street","date opened":"01/02/07","state":"MN"},"type":"Feature","geometry":{"type":"Point","coordinates":[-93.54772,45.138934]}},{"properties":{"city":"Savage","geo_score":0.815,"zip code":"55378","address 1":"8718 Egan Drive","id":"acviq9khah3u","geo_precision":"street","date opened":"01/10/11","state":"MN"},"type":"Feature","geometry":{"type":"Point","coordinates":[-93.389714,44.746472]}},{"properties":{"city":"St. Cloud","geo_score":0.639,"zip code":"56301","address 1":"1410 West Saint Germain Street, Suite 103","id":"acviq9ik74qn","geo_precision":"street","date opened":"04/11/05","state":"MN"},"type":"Feature","geometry":{"type":"Point","coordinates":[-94.158099,45.56106]}},{"properties":{"city":"Winona","geo_score":0.649,"zip code":"55987","address 1":"1201 Gilmore Avenue, Suite F7","id":"acviq9omjjjl","geo_precision":"street","date opened":"03/22/93","state":"MN"},"type":"Feature","geometry":{"type":"Point","coordinates":[-91.65597,44.048619]}},{"properties":{"city":"Woodbury","geo_score":1.0,"zip code":"55125","address 1":"8490 Woodbury Crossing","id":"acviq9fj9p8y","geo_precision":"range","date opened":"05/29/01","state":"MN"},"type":"Feature","geometry":{"type":"Point","coordinates":[-92.933085,44.913544]}},{"properties":{"city":"Arnold","geo_score":1.0,"zip code":"63010","address 1":"661 Jeffco Boulevard","id":"acviq9ia1z2y","geo_precision":"range","date opened":"02/27/12","state":"MO"},"type":"Feature","geometry":{"type":"Point","coordinates":[-90.365622,38.450755]}},{"properties":{"city":"Cape Girardeau","geo_score":0.408,"zip code":"63701","address 1":"97 North Kingshighway, Suite 7","id":"acviq9dh2w52","geo_precision":"street","date opened":"01/16/12","state":"MO"},"type":"Feature","geometry":{"type":"Point","coordinates":[-89.877535,37.723427]}},{"properties":{"city":"Columbia","geo_score":0.629,"zip code":"65202","address 1":"1900 North Providence Road, Suite 200","id":"acviq9e5qp8c","geo_precision":"street","date opened":"10/03/11","state":"MO"},"type":"Feature","geometry":{"type":"Point","coordinates":[-92.33363,38.96901]}},{"properties":{"city":"Independence","geo_score":1.0,"zip code":"64055","address 1":"4520 South Noland Road","id":"acviq9p7hxn1","geo_precision":"range","date opened":"10/02/06","state":"MO"},"type":"Feature","geometry":{"type":"Point","coordinates":[-94.415664,39.036956]}},{"properties":{"city":"Joplin","geo_score":0.619,"zip code":"64804","address 1":"1710 East 32nd Street, Suite A","id":"acviq9cqapg5","geo_precision":"street","date opened":"10/18/99","state":"MO"},"type":"Feature","geometry":{"type":"Point","coordinates":[-94.5149,37.055023]}},{"properties":{"city":"Kansas City","geo_score":0.912,"zip code":"64114","address 1":"8423 Wornall","id":"acviq9a445zk","geo_precision":"range","date opened":"09/17/12","state":"MO"},"type":"Feature","geometry":{"type":"Point","coordinates":[-94.594995,38.974402]}},{"properties":{"city":"Neosho","geo_score":0.688,"zip code":"64850","address 1":"1721 LaQuesta, Suite 1","id":"acviq9mujv54","geo_precision":"street","date opened":"07/18/11","state":"MO"},"type":"Feature","geometry":{"type":"Point","coordinates":[-94.385151,36.850363]}},{"properties":{"city":"Poplar Bluff","geo_score":1.0,"zip code":"63901","address 1":"1450 Rowe Parkway","id":"acviq9g0h350","geo_precision":"range","date opened":"07/09/01","state":"MO"},"type":"Feature","geometry":{"type":"Point","coordinates":[-90.411345,36.727858]}},{"properties":{"city":"Rolla","geo_score":0.585,"zip code":"65401","address 1":"1034 Kings Highway","id":"acviq9mfpr73","geo_precision":"zip","date opened":"09/03/90","state":"MO"},"type":"Feature","geometry":{"type":"Point","coordinates":[-91.755714,37.975042]}},{"properties":{"city":"Saint Louis","geo_score":1.0,"zip code":"63146","address 1":"2280 Administration Drive","id":"acviq9phs1wh","geo_precision":"range","date opened":"04/06/92","state":"MO"},"type":"Feature","geometry":{"type":"Point","coordinates":[-90.432385,38.702572]}},{"properties":{"city":"Springfield","geo_score":0.663,"zip code":"65804","address 1":"3050 South National, Suite 200","id":"acviq9d7xadg","geo_precision":"street","date opened":"02/02/04","state":"MO"},"type":"Feature","geometry":{"type":"Point","coordinates":[-93.27608,37.20388]}},{"properties":{"city":"St. Louis","geo_score":0.805,"zip code":"63101","address 1":"1015 Locust, Suite 910","id":"acviq9oomo6l","geo_precision":"street","date opened":"02/29/96","state":"MO"},"type":"Feature","geometry":{"type":"Point","coordinates":[-90.191064,38.62907]}},{"properties":{"city":"St. Peters","geo_score":0.667,"zip code":"63376","address 1":"1053 Cave Springs Road, Suite 206","id":"acviq9b3wpbf","geo_precision":"street","date opened":"10/26/03","state":"MO"},"type":"Feature","geometry":{"type":"Point","coordinates":[-90.66228,38.78471]}},{"properties":{"city":"Union","geo_score":0.75,"zip code":"63084","address 1":"30 Hi-Line Drive, Suite B","id":"acviq9pociqx","geo_precision":"street","date opened":"10/22/01","state":"MO"},"type":"Feature","geometry":{"type":"Point","coordinates":[-91.057124,38.468112]}},{"properties":{"city":"Webster Groves","geo_score":1.0,"zip code":"63119","address 1":"8039 Watson Road","id":"acviq9atuc5w","geo_precision":"range","date opened":"10/02/06","state":"MO"},"type":"Feature","geometry":{"type":"Point","coordinates":[-90.340238,38.56806]}},{"properties":{"city":"Flowood","geo_score":0.345,"zip code":"39232","address 1":"4220 Lakeland Drive, Suites D &amp; E","id":"acviq9fiqyz6","geo_precision":"street","date opened":"04/02/07","state":"MS"},"type":"Feature","geometry":{"type":"Point","coordinates":[-90.107187,32.331615]}},{"properties":{"city":"Gulfport","geo_score":1.0,"zip code":"39501","address 1":"1314 Pass Road","id":"acviq9a512z2","geo_precision":"range","date opened":"12/27/10","state":"MS"},"type":"Feature","geometry":{"type":"Point","coordinates":[-89.078746,30.382274]}},{"properties":{"city":"Hattiesburg","geo_score":0.625,"zip code":"39402","address 1":"4700 Hardy Street, Suite P","id":"acviq9bxqhq5","geo_precision":"street","date opened":"12/31/12","state":"MS"},"type":"Feature","geometry":{"type":"Point","coordinates":[-89.334329,31.324768]}},{"properties":{"city":"Olive Branch","geo_score":0.429,"zip code":"38564","address 1":"4850 Goodman Road, Suite 104","id":"acviq9pwca7j","geo_precision":"street","date opened":"09/10/12","state":"MS"},"type":"Feature","geometry":{"type":"Point","coordinates":[-84.927996,36.418967]}},{"properties":{"city":"Starkville","geo_score":0.762,"zip code":"39759","address 1":"100 Starr Avenue, Suite A","id":"acviq9issjor","geo_precision":"street","date opened":"05/05/08","state":"MS"},"type":"Feature","geometry":{"type":"Point","coordinates":[-88.800876,33.472246]}},{"properties":{"city":"Tupelo","geo_score":1.0,"zip code":"38801","address 1":"810 Garfield Street","id":"acviq9m9roir","geo_precision":"range","date opened":"12/04/06","state":"MS"},"type":"Feature","geometry":{"type":"Point","coordinates":[-88.720143,34.241257]}},{"properties":{"city":"Vicksburg","geo_score":0.629,"zip code":"39180","address 1":"1105 Mission Park Drive","id":"acviq9j6d0tw","geo_precision":"street","date opened":"04/12/04","state":"MS"},"type":"Feature","geometry":{"type":"Point","coordinates":[-90.863109,32.31608]}},{"properties":{"city":"Billings","geo_score":0.935,"zip code":"59102","address 1":"317 16th Street West","id":"acviq9kxd93n","geo_precision":"range","date opened":"09/30/87","state":"MT"},"type":"Feature","geometry":{"type":"Point","coordinates":[-108.556254,45.773661]}},{"properties":{"city":"Bozeman","geo_score":0.857,"zip code":"59715","address 1":"222 East Main, Suite 101","id":"acviq9i61p62","geo_precision":"street","date opened":"07/21/88","state":"MT"},"type":"Feature","geometry":{"type":"Point","coordinates":[-111.035745,45.679265]}},{"properties":{"city":"Butte","geo_score":0.912,"zip code":"59701","address 1":"700 East Front","id":"acviq9mknqzk","geo_precision":"range","date opened":"05/22/00","state":"MT"},"type":"Feature","geometry":{"type":"Point","coordinates":[-112.527037,46.001457]}},{"properties":{"city":"Great Falls","geo_score":0.927,"zip code":"59405","address 1":"220 6th Street South","id":"acviq9lt0vcy","geo_precision":"range","date opened":"05/01/88","state":"MT"},"type":"Feature","geometry":{"type":"Point","coordinates":[-111.297369,47.502188]}},{"properties":{"city":"Helena","geo_score":1.0,"zip code":"59602","address 1":"1100 West Custer Avenue","id":"acviq9hbsb1l","geo_precision":"range","date opened":"07/03/06","state":"MT"},"type":"Feature","geometry":{"type":"Point","coordinates":[-112.021806,46.616464]}},{"properties":{"city":"Kalispell","geo_score":0.743,"zip code":"59901","address 1":"4 Sunset Plaza, Suite 101","id":"acviq9emfw4f","geo_precision":"street","date opened":"05/31/99","state":"MT"},"type":"Feature","geometry":{"type":"Point","coordinates":[-114.319277,48.2075]}},{"properties":{"city":"Missoula","geo_score":0.902,"zip code":"59801","address 1":"3709 Brooks Street","id":"acviq9gy6wos","geo_precision":"range","date opened":"10/01/87","state":"MT"},"type":"Feature","geometry":{"type":"Point","coordinates":[-114.035571,46.837939]}},{"properties":{"city":"Asheboro","geo_score":0.43,"zip code":"27203","address 1":"1510-J East Dixie Drive","id":"acviq9gz5vjc","geo_precision":"street","date opened":"08/01/11","state":"NC"},"type":"Feature","geometry":{"type":"Point","coordinates":[-80.001783,36.071993]}},{"properties":{"city":"Asheville","geo_score":0.679,"zip code":"28803","address 1":"1979 Hendersonville Road, Suite B","id":"acviq9f8ew79","geo_precision":"street","date opened":"04/02/07","state":"NC"},"type":"Feature","geometry":{"type":"Point","coordinates":[-82.48664,35.551057]}},{"properties":{"city":"Charlotte","geo_score":0.69,"zip code":"28269","address 1":"7340 Smith Corners Boulevard, Suite 1000","id":"acviq9of85le","geo_precision":"street","date opened":"10/29/12","state":"NC"},"type":"Feature","geometry":{"type":"Point","coordinates":[-80.844336,35.351388]}},{"properties":{"city":"Charlotte","geo_score":0.633,"zip code":"28226","address 1":"7510 Pineville Matthews Road, Suite 14B","id":"acviq9og33hb","geo_precision":"street","date opened":"01/03/11","state":"NC"},"type":"Feature","geometry":{"type":"Point","coordinates":[-80.778741,35.100013]}},{"properties":{"city":"Durham","geo_score":0.714,"zip code":"27713","address 1":"5306 NC Highway 55, Suite 103","id":"acviq9ks70yu","geo_precision":"street","date opened":"08/11/97","state":"NC"},"type":"Feature","geometry":{"type":"Point","coordinates":[-78.888686,35.948588]}},{"properties":{"city":"Fayetteville","geo_score":1.0,"zip code":"28303","address 1":"815 Stamper Road","id":"acviq9epcyfy","geo_precision":"range","date opened":"06/02/97","state":"NC"},"type":"Feature","geometry":{"type":"Point","coordinates":[-78.921713,35.074239]}},{"properties":{"city":"Gastonia","geo_score":0.592,"zip code":"28054","address 1":"543 Cox Road, Suite A","id":"acviq9itbi2b","geo_precision":"street","date opened":"08/21/06","state":"NC"},"type":"Feature","geometry":{"type":"Point","coordinates":[-81.675967,35.503959]}},{"properties":{"city":"Greensboro","geo_score":0.415,"zip code":"27410","address 1":"7204 D West Fiendly Avenue","id":"acviq9djf7jw","geo_precision":"street","date opened":"02/14/00","state":"NC"},"type":"Feature","geometry":{"type":"Point","coordinates":[-79.859642,36.015636]}},{"properties":{"city":"Hickory","geo_score":0.824,"zip code":"28601","address 1":"1366 Highway 321 NW","id":"acviq9abs3el","geo_precision":"range","date opened":"02/03/97","state":"NC"},"type":"Feature","geometry":{"type":"Point","coordinates":[-81.371177,35.752249]}},{"properties":{"city":"Mooresville","geo_score":0.589,"zip code":"28177","address 1":"350 West Plaza Drive, Suite M","id":"acviq9pqz8jj","geo_precision":"street","date opened":"01/05/09","state":"NC"},"type":"Feature","geometry":{"type":"Point","coordinates":[-80.791398,35.53967]}},{"properties":{"city":"Oxford","geo_score":1.0,"zip code":"27565","address 1":"124 Main Street","id":"acviq9pp8jyh","geo_precision":"range","date opened":"08/21/06","state":"NC"},"type":"Feature","geometry":{"type":"Point","coordinates":[-78.58826,36.311196]}},{"properties":{"city":"Raleigh","geo_score":0.571,"zip code":"27612","address 1":"4701 Creedmoor Road, Suite 115","id":"acviq9jj75sl","geo_precision":"street","date opened":"09/02/02","state":"NC"},"type":"Feature","geometry":{"type":"Point","coordinates":[-78.689985,35.838086]}},{"properties":{"city":"Rocky Mount","geo_score":1.0,"zip code":"27803","address 1":"841 South Wesleyan Boulevard","id":"acviq9i3i3cw","geo_precision":"range","date opened":"02/15/94","state":"NC"},"type":"Feature","geometry":{"type":"Point","coordinates":[-77.8301,35.933454]}},{"properties":{"city":"Sanford","geo_score":1.0,"zip code":"27330","address 1":"2230 Jefferson Davis Highway","id":"acviq9dtv9w6","geo_precision":"range","date opened":"08/13/12","state":"NC"},"type":"Feature","geometry":{"type":"Point","coordinates":[-79.217918,35.439005]}},{"properties":{"city":"Wilmington","geo_score":1.0,"zip code":"28403","address 1":"4620 Cedar Avenue, Suite 119","id":"acviq9k088up","geo_precision":"street","date opened":"04/24/00","state":"NC"},"type":"Feature","geometry":{"type":"Point","coordinates":[-77.891995,34.219446]}},{"properties":{"city":"Fargo","geo_score":0.829,"zip code":"58102","address 1":"1100 19th Avenue, Suite R-1","id":"acviq9llakxz","geo_precision":"street","date opened":"11/01/99","state":"ND"},"type":"Feature","geometry":{"type":"Point","coordinates":[-96.779398,46.904762]}},{"properties":{"city":"Grand Forks","geo_score":0.935,"zip code":"58201","address 1":"3590 South 42nd Street","id":"acviq9eslxlo","geo_precision":"range","date opened":"09/15/97","state":"ND"},"type":"Feature","geometry":{"type":"Point","coordinates":[-97.088531,47.883556]}},{"properties":{"city":"Lincoln","geo_score":0.893,"zip code":"68510","address 1":"4955 O Street, Suite C","id":"acviq9i7z1vz","geo_precision":"street","date opened":"03/01/10","state":"NE"},"type":"Feature","geometry":{"type":"Point","coordinates":[-96.683764,40.809126]}},{"properties":{"city":"Omaha","geo_score":1.0,"zip code":"68106","address 1":"6157 Center Street","id":"acviq9et03c7","geo_precision":"range","date opened":"11/14/11","state":"NE"},"type":"Feature","geometry":{"type":"Point","coordinates":[-96.008226,41.23781]}},{"properties":{"city":"Hampton","geo_score":0.806,"zip code":"03842","address 1":"5 Lafayette Road","id":"acviq9jx24yt","geo_precision":"street","date opened":"01/04/99","state":"NH"},"type":"Feature","geometry":{"type":"Point","coordinates":[-70.840831,42.932528]}},{"properties":{"city":"Manchester","geo_score":0.649,"zip code":"03103","address 1":"8025 South Willow Street, Suite 210","id":"acviq9dokg14","geo_precision":"street","date opened":"08/30/04","state":"NH"},"type":"Feature","geometry":{"type":"Point","coordinates":[-71.457726,42.973596]}},{"properties":{"city":"Somersworth","geo_score":0.415,"zip code":"03878","address 1":"472 High Street","id":"acviq9dt70cg","geo_precision":"street","date opened":"05/23/11","state":"NH"},"type":"Feature","geometry":{"type":"Point","coordinates":[-70.830368,43.120388]}},{"properties":{"city":"East Windsor","geo_score":0.538,"zip code":"08520","address 1":"510 US Highway 130, Suite B-1","id":"acviq9o9zamc","geo_precision":"street","date opened":"05/11/09","state":"NJ"},"type":"Feature","geometry":{"type":"Point","coordinates":[-74.52548,40.286674]}},{"properties":{"city":"Edison","geo_score":0.619,"zip code":"08837","address 1":"1090 King Georges Post Road, Suite 305","id":"acviq9d78eu9","geo_precision":"street","date opened":"03/27/06","state":"NJ"},"type":"Feature","geometry":{"type":"Point","coordinates":[-74.345996,40.546157]}},{"properties":{"city":"Fairfield","geo_score":0.958,"zip code":"07004","address 1":"130-138 A Fairfield Road","id":"acviq9ghm6i1","geo_precision":"range","date opened":"08/16/99","state":"NJ"},"type":"Feature","geometry":{"type":"Point","coordinates":[-74.297275,40.875138]}},{"properties":{"city":"Hackettstown","geo_score":0.714,"zip code":"07840","address 1":"453 Route 46, Suite 5","id":"acviq9kjmjhu","geo_precision":"street","date opened":"05/16/05","state":"NJ"},"type":"Feature","geometry":{"type":"Point","coordinates":[-74.846082,40.858844]}},{"properties":{"city":"Hasbrouck Heights","geo_score":1.0,"zip code":"07604","address 1":"209 Williams Avenue","id":"acviq9hp02jn","geo_precision":"range","date opened":"09/01/03","state":"NJ"},"type":"Feature","geometry":{"type":"Point","coordinates":[-74.069666,40.868612]}},{"properties":{"city":"Iselin","geo_score":0.657,"zip code":"08830","address 1":"100 Wood Avenue South, Suite 116","id":"acviq9c7fxdx","geo_precision":"street","date opened":"03/11/13","state":"NJ"},"type":"Feature","geometry":{"type":"Point","coordinates":[-74.328937,40.564195]}},{"properties":{"city":"Jersey City","geo_score":0.637,"zip code":"07302","address 1":"30 Montgomery Street, Suite 1503","id":"acviq9a0mvb6","geo_precision":"street","date opened":"09/11/00","state":"NJ"},"type":"Feature","geometry":{"type":"Point","coordinates":[-74.035701,40.716671]}},{"properties":{"city":"Marlton","geo_score":1.0,"zip code":"08053","address 1":"106 Centre Boulevard","id":"acviq9j3p7eo","geo_precision":"range","date opened":"04/02/12","state":"NJ"},"type":"Feature","geometry":{"type":"Point","coordinates":[-74.929774,39.890087]}},{"properties":{"city":"Mountainside","geo_score":0.643,"zip code":"07092","address 1":"200 Sheffield Street, Suite 206","id":"acviq9lsms9q","geo_precision":"street","date opened":"09/08/03","state":"NJ"},"type":"Feature","geometry":{"type":"Point","coordinates":[-74.338116,40.684154]}},{"properties":{"city":"Oakland","geo_score":0.598,"zip code":"07436","address 1":"350 Ramapo Valley Road, Suite 130A","id":"acviq9l3z48e","geo_precision":"street","date opened":"02/02/04","state":"NJ"},"type":"Feature","geometry":{"type":"Point","coordinates":[-74.261156,41.015359]}},{"properties":{"city":"Park Ridge","geo_score":0.629,"zip code":"07656","address 1":"136 Kinderkamack Road, Suite 2B","id":"acviq9iw4quv","geo_precision":"street","date opened":"04/19/04","state":"NJ"},"type":"Feature","geometry":{"type":"Point","coordinates":[-74.035399,41.025327]}},{"properties":{"city":"Parsippany","geo_score":0.643,"zip code":"07054","address 1":"140 Littleton Road, Suite 110","id":"acviq9nm7h20","geo_precision":"street","date opened":"03/27/95","state":"NJ"},"type":"Feature","geometry":{"type":"Point","coordinates":[-74.423428,40.866033]}},{"properties":{"city":"Somerville","geo_score":1.0,"zip code":"08876","address 1":"72 East Main Street","id":"acviq9b65ct8","geo_precision":"range","date opened":"03/31/03","state":"NJ"},"type":"Feature","geometry":{"type":"Point","coordinates":[-74.608729,40.566981]}},{"properties":{"city":"Albuquerque","geo_score":0.951,"zip code":"87112","address 1":"1903-A Wyoming Boulevard NE","id":"acviq9mepv4b","geo_precision":"range","date opened":"09/24/91","state":"NM"},"type":"Feature","geometry":{"type":"Point","coordinates":[-106.550923,35.10367]}},{"properties":{"city":"Albuquerque","geo_score":0.657,"zip code":"87114","address 1":"9664 Eagle Ranch Road Northwest, Suite 2","id":"acviq9a0pwy4","geo_precision":"street","date opened":"02/04/13","state":"NM"},"type":"Feature","geometry":{"type":"Point","coordinates":[-106.653977,35.192401]}},{"properties":{"city":"Las Vegas","geo_score":0.688,"zip code":"89120","address 1":"3663 East Sunset Road, Suite 103","id":"acviq9pr60r9","geo_precision":"street","date opened":"08/21/00","state":"NV"},"type":"Feature","geometry":{"type":"Point","coordinates":[-115.172349,36.071101]}},{"properties":{"city":"Mesquite","geo_score":0.786,"zip code":"89027","address 1":"12 West Mesquite Boulevard, Suite 110","id":"acviq9gj4nzo","geo_precision":"street","date opened":"12/12/05","state":"NV"},"type":"Feature","geometry":{"type":"Point","coordinates":[-114.084105,36.822789]}},{"properties":{"city":"Reno","geo_score":0.585,"zip code":"89502","address 1":"3973 South McCarran Boulevard","id":"acviq9lak7my","geo_precision":"zip","date opened":"06/12/95","state":"NV"},"type":"Feature","geometry":{"type":"Point","coordinates":[-119.717965,39.491856]}},{"properties":{"city":"Amherst","geo_score":0.688,"zip code":"14226","address 1":"3140 Sheridan Drive, Suite 2","id":"acviq9pejmug","geo_precision":"street","date opened":"09/08/08","state":"NY"},"type":"Feature","geometry":{"type":"Point","coordinates":[-78.821873,42.980717]}},{"properties":{"city":"Corning","geo_score":0.643,"zip code":"14830","address 1":"11849 East Corning Road, Suite 101","id":"acviq9qfnxiy","geo_precision":"street","date opened":"06/07/10","state":"NY"},"type":"Feature","geometry":{"type":"Point","coordinates":[-76.964626,42.121564]}},{"properties":{"city":"Deer Park","geo_score":0.755,"zip code":"11729","address 1":"163 Half Hollow Road, Suite 3","id":"acviq9ijk6bn","geo_precision":"street","date opened":"09/17/12","state":"NY"},"type":"Feature","geometry":{"type":"Point","coordinates":[-73.32203,40.749796]}},{"properties":{"city":"Fredonia","geo_score":0.829,"zip code":"14063","address 1":"10261 Route 60","id":"acviq9dcdjpj","geo_precision":"range","date opened":"09/29/97","state":"NY"},"type":"Feature","geometry":{"type":"Point","coordinates":[-79.307228,42.448583]}},{"properties":{"city":"Gloversville","geo_score":1.0,"zip code":"12078","address 1":"49 South Main Street","id":"acviq9mbikeh","geo_precision":"range","date opened":"06/14/10","state":"NY"},"type":"Feature","geometry":{"type":"Point","coordinates":[-74.347057,43.048446]}},{"properties":{"city":"Hauppauge","geo_score":1.0,"zip code":"11788","address 1":"1 Rabro Drive, Suite 104","id":"acviq9hc6al6","geo_precision":"street","date opened":"09/10/12","state":"NY"},"type":"Feature","geometry":{"type":"Point","coordinates":[-73.229186,40.81153]}},{"properties":{"city":"Rochester","geo_score":1.0,"zip code":"14618","address 1":"3040 Monroe Avenue","id":"acviq9mcg3vd","geo_precision":"range","date opened":"04/28/08","state":"NY"},"type":"Feature","geometry":{"type":"Point","coordinates":[-77.537314,43.102069]}},{"properties":{"city":"Syracuse","geo_score":1.0,"zip code":"13224","address 1":"3004 Erie Boulevard East","id":"acviq9cnujo1","geo_precision":"range","date opened":"01/28/02","state":"NY"},"type":"Feature","geometry":{"type":"Point","coordinates":[-76.087013,43.055184]}},{"properties":{"city":"Beavercreek","geo_score":0.537,"zip code":"45434","address 1":"612 Phillips Drive","id":"acviq9lh6ay8","geo_precision":"street","date opened":"07/16/01","state":"OH"},"type":"Feature","geometry":{"type":"Point","coordinates":[-84.15556,39.745459]}},{"properties":{"city":"Cincinnati","geo_score":1.0,"zip code":"45245","address 1":"754 Old State Route 74","id":"acviq9bbfdy1","geo_precision":"range","date opened":"09/09/02","state":"OH"},"type":"Feature","geometry":{"type":"Point","coordinates":[-84.276699,39.10608]}},{"properties":{"city":"Cincinnati","geo_score":1.0,"zip code":"45241-2414","address 1":"4766 Cornell Road","id":"acviq9cdq8zu","geo_precision":"range","date opened":"09/05/89","state":"OH"},"type":"Feature","geometry":{"type":"Point","coordinates":[-84.378041,39.270647]}},{"properties":{"city":"Cincinnati","geo_score":0.977,"zip code":"45251","address 1":"3646 Springdlae Road","id":"acviq9lxp59y","geo_precision":"range","date opened":"04/04/05","state":"OH"},"type":"Feature","geometry":{"type":"Point","coordinates":[-84.599573,39.246692]}},{"properties":{"city":"Columbus","geo_score":1.0,"zip code":"43220-2609","address 1":"1065 Bethel Road","id":"acviq9ip5ilc","geo_precision":"range","date opened":"04/09/90","state":"OH"},"type":"Feature","geometry":{"type":"Point","coordinates":[-83.046976,40.063288]}},{"properties":{"city":"Columbus","geo_score":1.0,"zip code":"43215","address 1":"140 East Town Street, Suite 110","id":"acviq9kq2qsg","geo_precision":"street","date opened":"10/22/12","state":"OH"},"type":"Feature","geometry":{"type":"Point","coordinates":[-82.999984,39.958808]}},{"properties":{"city":"Cuyahoga Falls","geo_score":0.52,"zip code":"44224","address 1":"1060 Graham Road, Suite C","id":"acviq9n53sd8","geo_precision":"street","date opened":"11/28/05","state":"OH"},"type":"Feature","geometry":{"type":"Point","coordinates":[-81.438471,41.170404]}},{"properties":{"city":"Delaware","geo_score":0.607,"zip code":"43015","address 1":"96 W. William Street","id":"acviq9ggpyvb","geo_precision":"street","date opened":"01/01/07","state":"OH"},"type":"Feature","geometry":{"type":"Point","coordinates":[-83.065978,40.29871]}},{"properties":{"city":"Lakewood","geo_score":1.0,"zip code":"44107","address 1":"16208 Madison Avenue","id":"acviq9ckzp3x","geo_precision":"range","date opened":"11/26/12","state":"OH"},"type":"Feature","geometry":{"type":"Point","coordinates":[-81.811681,41.477495]}},{"properties":{"city":"Marion","geo_score":0.7,"zip code":"43302","address 1":"1199 Delaware Ave., Suite 102A","id":"acviq9nw9j2g","geo_precision":"street","date opened":"10/14/12","state":"OH"},"type":"Feature","geometry":{"type":"Point","coordinates":[-83.146259,40.588575]}},{"properties":{"city":"Marysville","geo_score":0.927,"zip code":"43040","address 1":"111 East 5th Street","id":"acviq9npsgee","geo_precision":"range","date opened":"05/19/08","state":"OH"},"type":"Feature","geometry":{"type":"Point","coordinates":[-83.366835,40.236329]}},{"properties":{"city":"Parma","geo_score":0.913,"zip code":"44134","address 1":"5348 Broadview Road","id":"acviq9j01ihr","geo_precision":"range","date opened":"09/11/95","state":"OH"},"type":"Feature","geometry":{"type":"Point","coordinates":[-81.694299,41.416107]}},{"properties":{"city":"Springfield","geo_score":0.663,"zip code":"45503","address 1":"2200 North Limestone Street, Suite 116","id":"acviq9dof7g8","geo_precision":"street","date opened":"03/06/89","state":"OH"},"type":"Feature","geometry":{"type":"Point","coordinates":[-83.808463,39.924484]}},{"properties":{"city":"Toledo","geo_score":0.667,"zip code":"43615","address 1":"5350 Airport Highway, Suite 104","id":"acviq9m7w3a7","geo_precision":"street","date opened":"02/26/96","state":"OH"},"type":"Feature","geometry":{"type":"Point","coordinates":[-83.655352,41.646933]}},{"properties":{"city":"West Chester","geo_score":0.472,"zip code":"45069","address 1":"8116 Beckett Center Drive","id":"acviq9gdu163","geo_precision":"street","date opened":"09/04/06","state":"OH"},"type":"Feature","geometry":{"type":"Point","coordinates":[-84.736246,39.503688]}},{"properties":{"city":"Ada","geo_score":0.596,"zip code":"74820","address 1":"1159 North Hills Centre","id":"acviq9k1nset","geo_precision":"street","date opened":"08/25/88","state":"OK"},"type":"Feature","geometry":{"type":"Point","coordinates":[-96.666787,34.767157]}},{"properties":{"city":"Altus","geo_score":0.585,"zip code":"73521","address 1":"417 East Tamarack","id":"acviq9c6zkbd","geo_precision":"zip","date opened":"06/13/94","state":"OK"},"type":"Feature","geometry":{"type":"Point","coordinates":[-99.228973,34.695901]}},{"properties":{"city":"Ardmore","geo_score":0.633,"zip code":"73401","address 1":"126 D. Street NW","id":"acviq9ccm7yr","geo_precision":"street","date opened":"09/15/97","state":"OK"},"type":"Feature","geometry":{"type":"Point","coordinates":[-97.123975,34.171348]}},{"properties":{"city":"Bartlesville","geo_score":0.805,"zip code":"74006","address 1":"4029 SE Nowata Road","id":"acviq9iuue2k","geo_precision":"street","date opened":"09/26/05","state":"OK"},"type":"Feature","geometry":{"type":"Point","coordinates":[-95.900967,36.727968]}},{"properties":{"city":"Bristow","geo_score":0.902,"zip code":"74010","address 1":"100 North Main","id":"acviq9crx3oy","geo_precision":"range","date opened":"06/19/95","state":"OK"},"type":"Feature","geometry":{"type":"Point","coordinates":[-96.390983,35.833394]}},{"properties":{"city":"Claremore","geo_score":1.0,"zip code":"74017","address 1":"654 South Lynn Riggs Boulevard","id":"acviq9p9wrb6","geo_precision":"range","date opened":"06/14/93","state":"OK"},"type":"Feature","geometry":{"type":"Point","coordinates":[-95.62143,36.30612]}},{"properties":{"city":"Clinton","geo_score":0.619,"zip code":"73601","address 1":"903 S. 10th","id":"acviq9d9h48i","geo_precision":"street","date opened":"04/14/94","state":"OK"},"type":"Feature","geometry":{"type":"Point","coordinates":[-98.972031,35.515896]}},{"properties":{"city":"Duncan","geo_score":0.619,"zip code":"73533","address 1":"1223 N. Highway 81, Suite 12","id":"acviq9j4tbuq","geo_precision":"street","date opened":"12/01/95","state":"OK"},"type":"Feature","geometry":{"type":"Point","coordinates":[-97.962626,34.502328]}},{"properties":{"city":"Edmond","geo_score":0.614,"zip code":"73034","address 1":"3601 South Broadway, Suite 700","id":"acviq9j3lilj","geo_precision":"street","date opened":"03/20/97","state":"OK"},"type":"Feature","geometry":{"type":"Point","coordinates":[-97.481252,35.655297]}},{"properties":{"city":"Enid","geo_score":0.92,"zip code":"73703","address 1":"2223 West Willow","id":"acviq9ipr2xo","geo_precision":"range","date opened":"02/14/94","state":"OK"},"type":"Feature","geometry":{"type":"Point","coordinates":[-97.903097,36.419775]}},{"properties":{"city":"Lawton","geo_score":0.937,"zip code":"73505","address 1":"1406 Northwest Sheridan","id":"acviq9cg9zlr","geo_precision":"range","date opened":"04/22/88","state":"OK"},"type":"Feature","geometry":{"type":"Point","coordinates":[-98.422464,34.623413]}},{"properties":{"city":"McAlester","geo_score":1.0,"zip code":"74501","address 1":"1202 East Carl Albert Parkway","id":"acviq9j9m4mt","geo_precision":"range","date opened":"01/19/98","state":"OK"},"type":"Feature","geometry":{"type":"Point","coordinates":[-95.752967,34.928906]}},{"properties":{"city":"Miami","geo_score":0.902,"zip code":"74354","address 1":"2309 North Main","id":"acviq9gauvcz","geo_precision":"range","date opened":"06/08/98","state":"OK"},"type":"Feature","geometry":{"type":"Point","coordinates":[-94.877603,36.902646]}},{"properties":{"city":"Muskogee","geo_score":0.902,"zip code":"74401","address 1":"1140 North Main","id":"acviq9cp93ic","geo_precision":"range","date opened":"01/01/86","state":"OK"},"type":"Feature","geometry":{"type":"Point","coordinates":[-95.359708,35.762536]}},{"properties":{"city":"Norman","geo_score":1.0,"zip code":"73069","address 1":"2424 Springer Drive,  Suite 103-105","id":"acviq9hm2vjv","geo_precision":"street","date opened":"06/14/89","state":"OK"},"type":"Feature","geometry":{"type":"Point","coordinates":[-97.478583,35.205434]}},{"properties":{"city":"Oklahoma City","geo_score":0.443,"zip code":"73032","address 1":"6300 NW Expressway","id":"acviq9m8l6vq","geo_precision":"street","date opened":"06/01/83","state":"OK"},"type":"Feature","geometry":{"type":"Point","coordinates":[-97.437294,35.775003]}},{"properties":{"city":"Oklahoma City","geo_score":0.857,"zip code":"73102","address 1":"500 West Main, Suite 101A","id":"acviq9dm4n74","geo_precision":"street","date opened":"09/12/05","state":"OK"},"type":"Feature","geometry":{"type":"Point","coordinates":[-97.514473,35.467693]}},{"properties":{"city":"Oklahoma City","geo_score":1.0,"zip code":"73132","address 1":"6300 NW Expressway","id":"acviq9fqq5l2","geo_precision":"range","date opened":"01/01/86","state":"OK"},"type":"Feature","geometry":{"type":"Point","coordinates":[-97.623224,35.55117]}},{"properties":{"city":"Oklahoma City","geo_score":0.91,"zip code":"73139","address 1":"7321 South Western","id":"acviq9o4a6fq","geo_precision":"range","date opened":"04/09/91","state":"OK"},"type":"Feature","geometry":{"type":"Point","coordinates":[-97.53018,35.391985]}},{"properties":{"city":"Piedmont","geo_score":0.955,"zip code":"73078","address 1":"414 Piedmont Road","id":"acviq9nu6p1s","geo_precision":"range","date opened":"12/20/88","state":"OK"},"type":"Feature","geometry":{"type":"Point","coordinates":[-97.745087,35.668642]}},{"properties":{"city":"Ponca City","geo_score":0.935,"zip code":"74601","address 1":"2712 North 14th Street","id":"acviq9nfb802","geo_precision":"range","date opened":"12/07/92","state":"OK"},"type":"Feature","geometry":{"type":"Point","coordinates":[-97.067341,36.73709]}},{"properties":{"city":"Poteau","geo_score":0.805,"zip code":"74953","address 1":"Park Center","id":"acviq9a8ielz","geo_precision":"street","date opened":"11/13/90","state":"OK"},"type":"Feature","geometry":{"type":"Point","coordinates":[-94.623618,35.068066]}},{"properties":{"city":"Pryor","geo_score":0.709,"zip code":"74361","address 1":"523 South Mill","id":"acviq9ehfvi4","geo_precision":"street","date opened":"06/12/86","state":"OK"},"type":"Feature","geometry":{"type":"Point","coordinates":[-95.32135,36.3002]}},{"properties":{"city":"Sand Springs","geo_score":0.747,"zip code":"74063","address 1":"105 East Broadway","id":"acviq9bvgpos","geo_precision":"street","date opened":"01/20/97","state":"OK"},"type":"Feature","geometry":{"type":"Point","coordinates":[-96.103357,36.140943]}},{"properties":{"city":"Shawnee","geo_score":0.624,"zip code":"74801","address 1":"3905 North Harrison","id":"acviq9oq3thn","geo_precision":"street","date opened":"01/01/86","state":"OK"},"type":"Feature","geometry":{"type":"Point","coordinates":[-96.912127,35.352358]}},{"properties":{"city":"Stillwater","geo_score":0.643,"zip code":"74075","address 1":"211 North Perkins Road, Suite 2","id":"acviq9c2qq13","geo_precision":"street","date opened":"01/01/86","state":"OK"},"type":"Feature","geometry":{"type":"Point","coordinates":[-97.051456,36.123293]}},{"properties":{"city":"Tulsa","geo_score":0.935,"zip code":"74133","address 1":"10816 East 71st Street","id":"acviq9n28v5k","geo_precision":"range","date opened":"01/26/98","state":"OK"},"type":"Feature","geometry":{"type":"Point","coordinates":[-95.856138,36.060809]}},{"properties":{"city":"Tulsa","geo_score":0.935,"zip code":"74133","address 1":"10816 East 71st Street","id":"acviq9nbpnk5","geo_precision":"range","date opened":"08/02/95","state":"OK"},"type":"Feature","geometry":{"type":"Point","coordinates":[-95.856138,36.060809]}},{"properties":{"city":"Tulsa","geo_score":0.815,"zip code":"74105","address 1":"4900 South Lewis","id":"acviq9fgvw4d","geo_precision":"street","date opened":"02/02/86","state":"OK"},"type":"Feature","geometry":{"type":"Point","coordinates":[-95.957104,36.093057]}},{"properties":{"city":"Vinita","geo_score":0.514,"zip code":"74301","address 1":"235 1/2 A South Wilson","id":"acviq9ka4tll","geo_precision":"street","date opened":"05/08/95","state":"OK"},"type":"Feature","geometry":{"type":"Point","coordinates":[-95.154156,36.63926]}},{"properties":{"city":"Woodward","geo_score":0.927,"zip code":"73801","address 1":"1110 Hillcrest","id":"acviq9pmcwdh","geo_precision":"range","date opened":"05/20/96","state":"OK"},"type":"Feature","geometry":{"type":"Point","coordinates":[-99.399574,36.435851]}},{"properties":{"city":"Yukon","geo_score":1.0,"zip code":"73099","address 1":"1050 Andrew Drive","id":"acviq9apm9vm","geo_precision":"range","date opened":"01/28/98","state":"OK"},"type":"Feature","geometry":{"type":"Point","coordinates":[-97.759784,35.489096]}},{"properties":{"city":"Barrie","geo_score":0.0,"zip code":"L4N 5R7","address 1":"15 Cedar Pointe Drive, Suite 17","id":"acviq9nktyt6","geo_precision":"unmatched","date opened":"02/13/12","state":"ON"},"type":"Feature","geometry":null},{"properties":{"city":"Brampton","geo_score":0.0,"zip code":"L6W 4L2","address 1":"201 County Court Boulevard, Suite 103","id":"acviq9pzz8uk","geo_precision":"unmatched","date opened":"07/02/12","state":"ON"},"type":"Feature","geometry":null},{"properties":{"city":"Brantford","geo_score":0.0,"zip code":"N3T 2Z4","address 1":"32 Market Street","id":"acviq9i5wpmd","geo_precision":"unmatched","date opened":"02/04/08","state":"ON"},"type":"Feature","geometry":null},{"properties":{"city":"Burlington","geo_score":0.0,"zip code":"L7R 2M1","address 1":"440 Elizabeth Street, Suite 300","id":"acviq9mk1bbs","geo_precision":"unmatched","date opened":"11/17/97","state":"ON"},"type":"Feature","geometry":null},{"properties":{"city":"Georgetown","geo_score":0.0,"zip code":"L7G 4B1","address 1":"318 Guelph Street, Unit 1","id":"acviq9p31xk1","geo_precision":"unmatched","date opened":"03/21/01","state":"ON"},"type":"Feature","geometry":null},{"properties":{"city":"Guelph","geo_score":0.0,"zip code":"N1H 1J2","address 1":"45 Speedvale Avenue East, Suite 100","id":"acviq9md997z","geo_precision":"unmatched","date opened":"02/03/97","state":"ON"},"type":"Feature","geometry":null},{"properties":{"city":"Hamilton","geo_score":0.0,"zip code":"L8R 3M2","address 1":"151 York Boulevard, Main Level","id":"acviq9i8ccn5","geo_precision":"unmatched","date opened":"05/12/97","state":"ON"},"type":"Feature","geometry":null},{"properties":{"city":"Keswick","geo_score":0.0,"zip code":"L4P 2A7","address 1":"213 The Queensway South, Suite 70","id":"acviq9juzmiw","geo_precision":"unmatched","date opened":"09/04/07","state":"ON"},"type":"Feature","geometry":null},{"properties":{"city":"Kitchener","geo_score":0.0,"zip code":"N2H 6P4","address 1":"50 Queen Street North, Suite 704","id":"acviq9pnauae","geo_precision":"unmatched","date opened":"07/01/96","state":"ON"},"type":"Feature","geometry":null},{"properties":{"city":"London","geo_score":0.0,"zip code":"N6A 5N6","address 1":"150 Dufferin Avenue, Suite 604","id":"acviq9okigtc","geo_precision":"unmatched","date opened":"07/01/96","state":"ON"},"type":"Feature","geometry":null},{"properties":{"city":"Mississauga","geo_score":0.0,"zip code":"L5A 3Y1","address 1":"377 Burnhamthorpe Road East, Suite 36","id":"acviq9jr9kl9","geo_precision":"unmatched","date opened":"08/11/08","state":"ON"},"type":"Feature","geometry":null},{"properties":{"city":"Oshawa","geo_score":0.0,"zip code":"L1J 2L7","address 1":"200 Bond Street West, Suite 104","id":"acviq9cvs4g0","geo_precision":"unmatched","date opened":"06/11/12","state":"ON"},"type":"Feature","geometry":null},{"properties":{"city":"Pickering","geo_score":0.0,"zip code":"L1V1B5","address 1":"1099 Kingston Road, Suite 214","id":"acviq9he1m6r","geo_precision":"unmatched","date opened":"06/02/08","state":"ON"},"type":"Feature","geometry":null},{"properties":{"city":"Sarnia","geo_score":0.0,"zip code":"N7T 5B6","address 1":"345 Christina Street","id":"acviq9pb6xhx","geo_precision":"unmatched","date opened":"11/20/06","state":"ON"},"type":"Feature","geometry":null},{"properties":{"city":"St. Thomas","geo_score":0.0,"zip code":"N5P 4N2","address 1":"1010 Talbot Street #36","id":"acviq9hgbthh","geo_precision":"unmatched","date opened":"02/03/03","state":"ON"},"type":"Feature","geometry":null},{"properties":{"city":"Toronto","geo_score":0.0,"zip code":"M9C 5K6","address 1":"5399 Eglinton Avenue West, Suite 107","id":"acviq9gc2pk5","geo_precision":"unmatched","date opened":"05/07/12","state":"ON"},"type":"Feature","geometry":null},{"properties":{"city":"Toronto","geo_score":0.0,"zip code":"M3J 2T2","address 1":"1110 Finch Avenue West, Suite 518","id":"acviq9pouzuk","geo_precision":"unmatched","date opened":"02/28/05","state":"ON"},"type":"Feature","geometry":null},{"properties":{"city":"Windsor","geo_score":0.0,"zip code":"N8T 3H5","address 1":"2885 Lauzon Parkway, Suite 118","id":"acviq9c2hqve","geo_precision":"unmatched","date opened":"05/05/97","state":"ON"},"type":"Feature","geometry":null},{"properties":{"city":"Woodbridge","geo_score":0.0,"zip code":"L4L 4G9","address 1":"3800 Steeles Avenue West, Suite 202","id":"acviq9dln9d8","geo_precision":"unmatched","date opened":"03/28/05","state":"ON"},"type":"Feature","geometry":null},{"properties":{"city":"Albany","geo_score":1.0,"zip code":"97322","address 1":"825 Burkhart Street SE","id":"acviq9ocyyzw","geo_precision":"range","date opened":"04/01/92","state":"OR"},"type":"Feature","geometry":{"type":"Point","coordinates":[-123.079845,44.634091]}},{"properties":{"city":"Bend","geo_score":0.663,"zip code":"97701","address 1":"400 S W Bluff, Suite 200","id":"acviq9m7dmmj","geo_precision":"street","date opened":"08/24/84","state":"OR"},"type":"Feature","geometry":{"type":"Point","coordinates":[-121.26113,44.055755]}},{"properties":{"city":"Eugene","geo_score":0.755,"zip code":"97402","address 1":"977 Garfield, Suite 6","id":"acviq9c7ou99","geo_precision":"street","date opened":"11/01/86","state":"OR"},"type":"Feature","geometry":{"type":"Point","coordinates":[-123.138099,44.067153]}},{"properties":{"city":"Grants Pass","geo_score":0.633,"zip code":"97526","address 1":"543 Northeast \"E\" Street, Suite A","id":"acviq9bbqlim","geo_precision":"street","date opened":"09/17/01","state":"OR"},"type":"Feature","geometry":{"type":"Point","coordinates":[-123.32318,42.443146]}},{"properties":{"city":"Gresham","geo_score":1.0,"zip code":"97030","address 1":"120 Northwest Burnside Road","id":"acviq9j7gb7t","geo_precision":"range","date opened":"04/09/04","state":"OR"},"type":"Feature","geometry":{"type":"Point","coordinates":[-122.433391,45.509294]}},{"properties":{"city":"Hermiston","geo_score":0.916,"zip code":"97838","address 1":"120 East Hurlburt","id":"acviq9pxeq4t","geo_precision":"range","date opened":"11/11/86","state":"OR"},"type":"Feature","geometry":{"type":"Point","coordinates":[-119.28899,45.839512]}},{"properties":{"city":"Hillsboro","geo_score":0.688,"zip code":"97123","address 1":"1001 SE Tualatin Valley Highway, Suite B34","id":"acviq9km2u4e","geo_precision":"street","date opened":"06/04/90","state":"OR"},"type":"Feature","geometry":{"type":"Point","coordinates":[-122.908198,45.506461]}},{"properties":{"city":"Klamath Falls","geo_score":0.893,"zip code":"97603","address 1":"4036 South 6th Street, Suite 4","id":"acviq9nt84ob","geo_precision":"street","date opened":"05/15/06","state":"OR"},"type":"Feature","geometry":{"type":"Point","coordinates":[-121.780846,42.223699]}},{"properties":{"city":"McMinnville","geo_score":0.912,"zip code":"97128","address 1":"733 North Baker","id":"acviq9byli77","geo_precision":"range","date opened":"04/01/94","state":"OR"},"type":"Feature","geometry":{"type":"Point","coordinates":[-123.198003,45.213355]}},{"properties":{"city":"Medford","geo_score":0.857,"zip code":"97504","address 1":"810 Ohare Parkway, Suite 103","id":"acviq9ia8g07","geo_precision":"zip","date opened":"04/09/91","state":"OR"},"type":"Feature","geometry":{"type":"Point","coordinates":[-122.793659,42.322392]}},{"properties":{"city":"Milwaukie","geo_score":0.585,"zip code":"97267","address 1":"16701 SE McLoughlin Boulevard","id":"acviq9nr5rvl","geo_precision":"zip","date opened":"02/07/94","state":"OR"},"type":"Feature","geometry":{"type":"Point","coordinates":[-122.612592,45.391231]}},{"properties":{"city":"Portland","geo_score":0.679,"zip code":"97266","address 1":"10011 SE Division, Suite 102","id":"acviq9iksbov","geo_precision":"street","date opened":"06/01/83","state":"OR"},"type":"Feature","geometry":{"type":"Point","coordinates":[-122.558301,45.493418]}},{"properties":{"city":"Portland","geo_score":0.633,"zip code":"97205","address 1":"621 SW Morrison, Suite 425","id":"acviq9cep1dp","geo_precision":"street","date opened":"06/05/83","state":"OR"},"type":"Feature","geometry":{"type":"Point","coordinates":[-122.6786,45.519073]}},{"properties":{"city":"Portland","geo_score":1.0,"zip code":"97203","address 1":"8444 North Ivanhoe Street","id":"acviq9natjkv","geo_precision":"range","date opened":"11/01/97","state":"OR"},"type":"Feature","geometry":{"type":"Point","coordinates":[-122.753998,45.589041]}},{"properties":{"city":"Portland","geo_score":0.637,"zip code":"97225","address 1":"7417 SW Beaverton Hillsdale Highway, Suite 800","id":"acviq9h11khj","geo_precision":"street","date opened":"11/01/87","state":"OR"},"type":"Feature","geometry":{"type":"Point","coordinates":[-122.743663,45.487089]}},{"properties":{"city":"Redmond","geo_score":0.935,"zip code":"97756","address 1":"153 SW 5th Street","id":"acviq9m9eldh","geo_precision":"range","date opened":"08/15/99","state":"OR"},"type":"Feature","geometry":{"type":"Point","coordinates":[-121.173281,44.275992]}},{"properties":{"city":"Roseburg","geo_score":0.514,"zip code":"97471","address 1":"3019 Northwest Stewart Parkway, Suite 305","id":"acviq9j8wmmg","geo_precision":"street","date opened":"06/11/07","state":"OR"},"type":"Feature","geometry":{"type":"Point","coordinates":[-123.375457,43.217639]}},{"properties":{"city":"Salem","geo_score":0.857,"zip code":"97302","address 1":"3340 SE Commerical Street, Suite 110","id":"acviq9nu9j9a","geo_precision":"zip","date opened":"05/01/89","state":"OR"},"type":"Feature","geometry":{"type":"Point","coordinates":[-123.082192,44.890486]}},{"properties":{"city":"Tualatin","geo_score":0.61,"zip code":"97062","address 1":"7401 SW Washo Court, Suite 200","id":"acviq9c6f4pg","geo_precision":"street","date opened":"09/01/98","state":"OR"},"type":"Feature","geometry":{"type":"Point","coordinates":[-122.752257,45.377877]}},{"properties":{"city":"Tualatin","geo_score":0.598,"zip code":"97062","address 1":"19407 W. Martinazzi Ave.","id":"acviq9cc2kip","geo_precision":"street","date opened":"10/04/89","state":"OR"},"type":"Feature","geometry":{"type":"Point","coordinates":[-122.765026,45.36557]}},{"properties":{"city":"Allentown","geo_score":0.679,"zip code":"18109","address 1":"795 Roble Road, Suite B","id":"acviq9g2wi9p","geo_precision":"street","date opened":"05/10/04","state":"PA"},"type":"Feature","geometry":{"type":"Point","coordinates":[-75.452002,40.639182]}},{"properties":{"city":"Bala Cynwyd","geo_score":0.991,"zip code":"19004","address 1":"238 Bala Avenue","id":"acviq9enslfh","geo_precision":"range","date opened":"08/09/04","state":"PA"},"type":"Feature","geometry":{"type":"Point","coordinates":[-75.232334,40.005823]}},{"properties":{"city":"Camp Hill","geo_score":1.0,"zip code":"17011","address 1":"3507 Market Street, Suite 102","id":"acviq9id0486","geo_precision":"street","date opened":"01/11/10","state":"PA"},"type":"Feature","geometry":{"type":"Point","coordinates":[-76.954717,40.223144]}},{"properties":{"city":"Chadds Ford","geo_score":0.381,"zip code":"19317","address 1":"6 Dickinson Drive, Suite 114","id":"acviq9d3fdg9","geo_precision":"street","date opened":"09/17/12","state":"PA"},"type":"Feature","geometry":{"type":"Point","coordinates":[-75.782671,39.82506]}},{"properties":{"city":"East Stroudsburg","geo_score":1.0,"zip code":"18301","address 1":"364 North Courtland Street","id":"acviq9n7jrro","geo_precision":"range","date opened":"11/17/08","state":"PA"},"type":"Feature","geometry":{"type":"Point","coordinates":[-75.184536,41.009468]}},{"properties":{"city":"Easton","geo_score":0.571,"zip code":"18045","address 1":"3600 Nicholas Street, Suite 100","id":"acviq9i5vch5","geo_precision":"street","date opened":"07/26/04","state":"PA"},"type":"Feature","geometry":{"type":"Point","coordinates":[-75.26145,40.672869]}},{"properties":{"city":"Exton","geo_score":0.637,"zip code":"19341","address 1":"One East Uwchlan Avenue, Suite 103","id":"acviq9hkegst","geo_precision":"street","date opened":"03/01/04","state":"PA"},"type":"Feature","geometry":{"type":"Point","coordinates":[-75.653803,40.060254]}},{"properties":{"city":"Greencastle","geo_score":1.0,"zip code":"17225","address 1":"705 South Antrim Way","id":"acviq9j03bka","geo_precision":"range","date opened":"03/14/11","state":"PA"},"type":"Feature","geometry":{"type":"Point","coordinates":[-77.733444,39.786764]}},{"properties":{"city":"Lancaster","geo_score":0.512,"zip code":"17601","address 1":"1899 Lititz Pike, #10","id":"acviq9m3s5wh","geo_precision":"street","date opened":"02/07/05","state":"PA"},"type":"Feature","geometry":{"type":"Point","coordinates":[-76.305281,40.054358]}},{"properties":{"city":"Lansdale","geo_score":0.649,"zip code":"19446","address 1":"19 Jenkins Avenue, Suite 200","id":"acviq9gphf2a","geo_precision":"street","date opened":"10/16/06","state":"PA"},"type":"Feature","geometry":{"type":"Point","coordinates":[-75.283804,40.240379]}},{"properties":{"city":"Philadelphia","geo_score":0.339,"zip code":"19103","address 1":"1617 JFK Boulevard, Suite 620","id":"acviq9g9c0mj","geo_precision":"street","date opened":"03/04/13","state":"PA"},"type":"Feature","geometry":{"type":"Point","coordinates":[-75.228375,40.000316]}},{"properties":{"city":"Philadelphia","geo_score":1.0,"zip code":"19136","address 1":"7922 Frankford Ave.","id":"acviq9a7e8r5","geo_precision":"range","date opened":"04/23/07","state":"PA"},"type":"Feature","geometry":{"type":"Point","coordinates":[-75.028585,40.04129]}},{"properties":{"city":"Pittsburgh","geo_score":1.0,"zip code":"15237","address 1":"9043 Perry Highway","id":"acviq9jt910w","geo_precision":"range","date opened":"09/12/11","state":"PA"},"type":"Feature","geometry":{"type":"Point","coordinates":[-80.037338,40.570346]}},{"properties":{"city":"Pittsburgh","geo_score":0.694,"zip code":"15227","address 1":"4141 Bronsville Road, Suite 6","id":"acviq9plr1x4","geo_precision":"street","date opened":"02/09/09","state":"PA"},"type":"Feature","geometry":{"type":"Point","coordinates":[-79.978974,40.385768]}},{"properties":{"city":"Pittsburgh","geo_score":0.629,"zip code":"15136","address 1":"6200 Steubenville Pike-Route 60, Suite 201","id":"acviq9bha9yt","geo_precision":"street","date opened":"08/06/07","state":"PA"},"type":"Feature","geometry":{"type":"Point","coordinates":[-80.125596,40.449587]}},{"properties":{"city":"Scranton","geo_score":0.61,"zip code":"18508","address 1":"135 W. Market Street","id":"acviq9l2716n","geo_precision":"street","date opened":"05/11/09","state":"PA"},"type":"Feature","geometry":{"type":"Point","coordinates":[-75.654567,41.437418]}},{"properties":{"city":"State College","geo_score":1.0,"zip code":"16801","address 1":"131 Rolling Ridge Drive","id":"acviq9ka96vu","geo_precision":"range","date opened":"03/02/09","state":"PA"},"type":"Feature","geometry":{"type":"Point","coordinates":[-77.82793,40.78745]}},{"properties":{"city":"Trevose","geo_score":0.75,"zip code":"19053-6612","address 1":"Trevose Corporate Center","id":"acviq9cw10g2","geo_precision":"street","date opened":"03/04/13","state":"PA"},"type":"Feature","geometry":{"type":"Point","coordinates":[-74.9816,40.141572]}},{"properties":{"city":"Wilkes-Barre","geo_score":1.0,"zip code":"18702","address 1":"275 Mundy Street, Suite 203","id":"acviq9gftgw6","geo_precision":"street","date opened":"05/09/11","state":"PA"},"type":"Feature","geometry":{"type":"Point","coordinates":[-75.860176,41.247817]}},{"properties":{"city":"York","geo_score":0.614,"zip code":"17404","address 1":"30 W. 11th Avenue, Unit B","id":"acviq9net1b3","geo_precision":"street","date opened":"04/06/09","state":"PA"},"type":"Feature","geometry":{"type":"Point","coordinates":[-76.73505,39.982397]}},{"properties":{"city":"Warwick","geo_score":0.633,"zip code":"02886","address 1":"931 Jefferson Boulevard, Suite 2007","id":"acviq9qegkl1","geo_precision":"street","date opened":"05/27/08","state":"RI"},"type":"Feature","geometry":{"type":"Point","coordinates":[-71.439301,41.738969]}},{"properties":{"city":"Bloemfontein","geo_score":0.0,"zip code":"9301","address 1":"Unit 3, Westdenes","id":"acviq9h7fhuv","geo_precision":"unmatched","date opened":"11/01/04","state":"RSA"},"type":"Feature","geometry":null},{"properties":{"city":"Cape Town","geo_score":0.673,"zip code":"8001","address 1":"Shop 1A, Norton Rose House","id":"acviq9b2lgyw","geo_precision":"street","date opened":"03/23/98","state":"RSA"},"type":"Feature","geometry":{"type":"Point","coordinates":[-74.372423,39.560983]}},{"properties":{"city":"Durban","geo_score":0.643,"zip code":"4001","address 1":"87 Goble Road, Morningside","id":"acviq9gd2x51","geo_precision":"street","date opened":"12/01/02","state":"RSA"},"type":"Feature","geometry":{"type":"Point","coordinates":[-70.592967,43.27334]}},{"properties":{"city":"Pietermaritzburg","geo_score":0.0,"zip code":"3201","address 1":"202 Boom Street","id":"acviq9k55izn","geo_precision":"unmatched","date opened":"06/01/06","state":"RSA"},"type":"Feature","geometry":null},{"properties":{"city":"Pinetown","geo_score":0.393,"zip code":"3610","address 1":"92 Crompton Street, Unit 7","id":"acviq9kr29vk","geo_precision":"street","date opened":"01/01/11","state":"RSA"},"type":"Feature","geometry":{"type":"Point","coordinates":[-73.218107,44.153895]}},{"properties":{"city":"Port Elizabeth","geo_score":0.5,"zip code":"6045","address 1":"21 5th Avenue, C/O 5th &amp; King","id":"acviq9cq6jr6","geo_precision":"street","date opened":"02/02/11","state":"RSA"},"type":"Feature","geometry":{"type":"Point","coordinates":[-73.084554,41.936719]}},{"properties":{"city":"Pretoria","geo_score":0.857,"zip code":"0181","address 1":"374 Milner Street, Waterkloof","id":"acviq9nmcc8f","geo_precision":"street","date opened":"01/03/05","state":"RSA"},"type":"Feature","geometry":{"type":"Point","coordinates":[-85.926857,32.951216]}},{"properties":{"city":"Pretoria","geo_score":0.857,"zip code":"0027","address 1":"374 Milner Street, Waterkloof","id":"acviq9a4t5rg","geo_precision":"street","date opened":"02/17/98","state":"RSA"},"type":"Feature","geometry":{"type":"Point","coordinates":[-85.926857,32.951216]}},{"properties":{"city":"Randburg","geo_score":0.698,"zip code":"2194","address 1":"Express House, 6 Prinia Avenue","id":"acviq9in89la","geo_precision":"range","date opened":"09/29/08","state":"RSA"},"type":"Feature","geometry":{"type":"Point","coordinates":[-71.078353,42.322394]}},{"properties":{"city":"Richards Bay","geo_score":0.708,"zip code":"3900","address 1":"5 Partridge Place","id":"acviq9jbhhes","geo_precision":"street","date opened":"03/18/98","state":"RSA"},"type":"Feature","geometry":{"type":"Point","coordinates":[-92.128113,38.635728]}},{"properties":{"city":"Rivonia","geo_score":0.401,"zip code":"2191","address 1":"31 Wessels Road, First Floor","id":"acviq9o312hm","geo_precision":"street","date opened":"06/01/11","state":"RSA"},"type":"Feature","geometry":{"type":"Point","coordinates":[-70.939579,42.243649]}},{"properties":{"city":"Rosslyn","geo_score":0.33,"zip code":"0200","address 1":"30 Automotive Supplier Park","id":"acviq9ieib28","geo_precision":"street","date opened":"09/14/04","state":"RSA"},"type":"Feature","geometry":{"type":"Point","coordinates":[-88.492007,39.222304]}},{"properties":{"city":"Rustenburg","geo_score":0.0,"zip code":"0299","address 1":"Inba Building 72/74 Boom Street","id":"acviq9iekc10","geo_precision":"unmatched","date opened":"09/01/10","state":"RSA"},"type":"Feature","geometry":null},{"properties":{"city":"Westville","geo_score":0.484,"zip code":"3630","address 1":"4 Brendon Lane","id":"acviq9lqiu4t","geo_precision":"street","date opened":"08/01/06","state":"RSA"},"type":"Feature","geometry":{"type":"Point","coordinates":[-76.252276,43.046291]}},{"properties":{"city":"Witbank","geo_score":0.815,"zip code":"1035","address 1":"14 Rhodes Street","id":"acviq9pb2pt1","geo_precision":"range","date opened":"04/01/11","state":"RSA"},"type":"Feature","geometry":{"type":"Point","coordinates":[-72.658483,42.070361]}},{"properties":{"city":"Columbia","geo_score":0.643,"zip code":"29223","address 1":"9557 Two Notch Road, Suite N","id":"acviq9fwmf0q","geo_precision":"street","date opened":"07/09/07","state":"SC"},"type":"Feature","geometry":{"type":"Point","coordinates":[-80.978006,34.05335]}},{"properties":{"city":"Greenville","geo_score":0.61,"zip code":"29607","address 1":"1659  Woodruff Road, Suite E","id":"acviq9blav3v","geo_precision":"street","date opened":"05/03/10","state":"SC"},"type":"Feature","geometry":{"type":"Point","coordinates":[-82.348059,34.830383]}},{"properties":{"city":"Mount Pleasant","geo_score":0.667,"zip code":"29464","address 1":"1470 Ben Sawyer Boulevard, Suite 3","id":"acviq9bovdnb","geo_precision":"street","date opened":"03/15/04","state":"SC"},"type":"Feature","geometry":{"type":"Point","coordinates":[-79.857705,32.807654]}},{"properties":{"city":"North Charleston","geo_score":0.614,"zip code":"29406","address 1":"5710 Rivers Avenue, Unit 107","id":"acviq9a5hc2y","geo_precision":"street","date opened":"09/19/05","state":"SC"},"type":"Feature","geometry":{"type":"Point","coordinates":[-80.005916,32.880128]}},{"properties":{"city":"Rock Hill","geo_score":0.951,"zip code":"29732","address 1":"2032-B Cherry Road","id":"acviq9grxh9r","geo_precision":"range","date opened":"06/05/95","state":"SC"},"type":"Feature","geometry":{"type":"Point","coordinates":[-81.001855,34.962762]}},{"properties":{"city":"Spartanburg","geo_score":0.679,"zip code":"29306","address 1":"115 Southport Road, Unit A","id":"acviq9pp2l7l","geo_precision":"street","date opened":"05/14/07","state":"SC"},"type":"Feature","geometry":{"type":"Point","coordinates":[-81.971285,34.923887]}},{"properties":{"city":"Aberdeen","geo_score":0.732,"zip code":"57401","address 1":"221 6th Avenue Southeast, Suite 2","id":"acviq9drvrqz","geo_precision":"street","date opened":"09/03/12","state":"SD"},"type":"Feature","geometry":{"type":"Point","coordinates":[-98.496587,45.451119]}},{"properties":{"city":"Sioux Falls","geo_score":0.98,"zip code":"57105","address 1":"2109 South minnestoa Avenue","id":"acviq9q7enir","geo_precision":"range","date opened":"03/12/07","state":"SD"},"type":"Feature","geometry":{"type":"Point","coordinates":[-96.731347,43.524916]}},{"properties":{"city":"Alcoa","geo_score":0.902,"zip code":"37701","address 1":"217 Airport Plaza Drive","id":"acviq9jszrqv","geo_precision":"range","date opened":"01/01/07","state":"TN"},"type":"Feature","geometry":{"type":"Point","coordinates":[-83.977826,35.815675]}},{"properties":{"city":"Chattanooga","geo_score":0.63,"zip code":"37421","address 1":"6043 Shallowford Road, Suite 104","id":"acviq9co92aq","geo_precision":"street","date opened":"05/03/99","state":"TN"},"type":"Feature","geometry":{"type":"Point","coordinates":[-85.158142,35.04333]}},{"properties":{"city":"Clarksville","geo_score":0.737,"zip code":"37043","address 1":"101-A Hatcher Lane","id":"acviq9gkk97v","geo_precision":"range","date opened":"12/03/12","state":"TN"},"type":"Feature","geometry":{"type":"Point","coordinates":[-86.570368,36.271967]}},{"properties":{"city":"Cleveland","geo_score":0.602,"zip code":"37312","address 1":"213 Ocoee Crossing Northwest","id":"acviq9mg4fwy","geo_precision":"street","date opened":"10/10/11","state":"TN"},"type":"Feature","geometry":{"type":"Point","coordinates":[-84.86319,35.179498]}},{"properties":{"city":"Cookeville","geo_score":0.703,"zip code":"38501","address 1":"1459 Interstate Drive, Suite E","id":"acviq9j3i1i3","geo_precision":"street","date opened":"10/29/12","state":"TN"},"type":"Feature","geometry":{"type":"Point","coordinates":[-85.51123,36.137813]}},{"properties":{"city":"Covington","geo_score":0.607,"zip code":"38019","address 1":"111 S.  Munford Street","id":"acviq9i377n4","geo_precision":"street","date opened":"11/28/90","state":"TN"},"type":"Feature","geometry":{"type":"Point","coordinates":[-89.647888,35.563763]}},{"properties":{"city":"Dickson","geo_score":0.766,"zip code":"37055","address 1":"313 East College Street, Suite 1","id":"acviq9jje4lc","geo_precision":"street","date opened":"09/25/06","state":"TN"},"type":"Feature","geometry":{"type":"Point","coordinates":[-87.37059,36.074929]}},{"properties":{"city":"Dyersburg","geo_score":0.616,"zip code":"38024","address 1":"562 Green Village Shopping Center","id":"acviq9i6c8lk","geo_precision":"street","date opened":"03/01/88","state":"TN"},"type":"Feature","geometry":{"type":"Point","coordinates":[-89.416276,36.050505]}},{"properties":{"city":"Franklin","geo_score":0.643,"zip code":"37064","address 1":"377 Riverside Drive, Suite 100","id":"acviq9j3sb1p","geo_precision":"street","date opened":"08/28/06","state":"TN"},"type":"Feature","geometry":{"type":"Point","coordinates":[-86.828442,35.898837]}},{"properties":{"city":"Gallatin","geo_score":1.0,"zip code":"37066","address 1":"316 East Main Street","id":"acviq9jnnkxt","geo_precision":"range","date opened":"03/19/01","state":"TN"},"type":"Feature","geometry":{"type":"Point","coordinates":[-86.441968,36.38947]}},{"properties":{"city":"Jackson","geo_score":1.0,"zip code":"38305","address 1":"319 Vann Drive, Suite A","id":"acviq9many9f","geo_precision":"street","date opened":"06/14/10","state":"TN"},"type":"Feature","geometry":{"type":"Point","coordinates":[-88.830131,35.672561]}},{"properties":{"city":"Johnson City","geo_score":1.0,"zip code":"37601","address 1":"2256 North Roan Street","id":"acviq9abk9vb","geo_precision":"range","date opened":"01/31/05","state":"TN"},"type":"Feature","geometry":{"type":"Point","coordinates":[-82.376977,36.344629]}},{"properties":{"city":"Knoxville","geo_score":0.637,"zip code":"37923","address 1":"8807 Kingston Pike, Suite B","id":"acviq9hs5xrw","geo_precision":"street","date opened":"04/19/93","state":"TN"},"type":"Feature","geometry":{"type":"Point","coordinates":[-84.069516,35.919418]}},{"properties":{"city":"Lexington","geo_score":0.688,"zip code":"38351","address 1":"777 West Church Street, Suite S","id":"acviq9cfi01z","geo_precision":"street","date opened":"10/22/12","state":"TN"},"type":"Feature","geometry":{"type":"Point","coordinates":[-88.394857,35.652035]}},{"properties":{"city":"Memphis","geo_score":0.643,"zip code":"38119","address 1":"6100 Primacy Parkway, Suite 111","id":"acviq9i8ctk6","geo_precision":"street","date opened":"09/28/09","state":"TN"},"type":"Feature","geometry":{"type":"Point","coordinates":[-89.862648,35.098746]}},{"properties":{"city":"Morristown","geo_score":1.0,"zip code":"37814","address 1":"340 East Economy Road","id":"acviq9mhps7c","geo_precision":"range","date opened":"03/26/12","state":"TN"},"type":"Feature","geometry":{"type":"Point","coordinates":[-83.316801,36.209108]}},{"properties":{"city":"Mt. Pleasant","geo_score":0.972,"zip code":"38474","address 1":"1259 North Main Street","id":"acviq9kxhair","geo_precision":"range","date opened":"08/01/08","state":"TN"},"type":"Feature","geometry":{"type":"Point","coordinates":[-87.175979,35.558897]}},{"properties":{"city":"Murfreesboro","geo_score":1.0,"zip code":"37130","address 1":"925 South Church Street, Suite B-100","id":"acviq9jtj9tu","geo_precision":"street","date opened":"03/27/06","state":"TN"},"type":"Feature","geometry":{"type":"Point","coordinates":[-86.3915,35.845555]}},{"properties":{"city":"Nashville","geo_score":0.637,"zip code":"37214","address 1":"2601 Elm Hill Pike, Suite F","id":"acviq9by7n2d","geo_precision":"street","date opened":"07/30/07","state":"TN"},"type":"Feature","geometry":{"type":"Point","coordinates":[-86.696765,36.150437]}},{"properties":{"city":"Nashville","geo_score":0.914,"zip code":"37203","address 1":"209 10th Avenue South, Suite 345","id":"acviq9hm4k7m","geo_precision":"street","date opened":"10/03/11","state":"TN"},"type":"Feature","geometry":{"type":"Point","coordinates":[-86.782755,36.156074]}},{"properties":{"city":"Nashville","geo_score":0.403,"zip code":"37228","address 1":"2210 Rosa L Parks Boulevard","id":"acviq9k1wsh6","geo_precision":"street","date opened":"09/08/09","state":"TN"},"type":"Feature","geometry":{"type":"Point","coordinates":[-86.746129,36.123288]}},{"properties":{"city":"Nashville","geo_score":0.672,"zip code":"37209","address 1":"103 White Bridge Road, Suite 4A","id":"acviq9fspco8","geo_precision":"street","date opened":"09/24/12","state":"TN"},"type":"Feature","geometry":{"type":"Point","coordinates":[-86.858113,36.133562]}},{"properties":{"city":"Abilene","geo_score":0.614,"zip code":"79606","address 1":"2 Village Drive, Suite 103","id":"acviq9lmqfch","geo_precision":"street","date opened":"11/03/03","state":"TX"},"type":"Feature","geometry":{"type":"Point","coordinates":[-99.770471,32.406557]}},{"properties":{"city":"Amarillo","geo_score":0.675,"zip code":"79106","address 1":"6605 I-40 West","id":"acviq9hfmgeh","geo_precision":"street","date opened":"09/08/97","state":"TX"},"type":"Feature","geometry":{"type":"Point","coordinates":[-101.908156,35.20025]}},{"properties":{"city":"Arlington","geo_score":0.649,"zip code":"76015","address 1":"3701 South Cooper Street, Suite 233","id":"acviq9iex8nn","geo_precision":"street","date opened":"01/01/01","state":"TX"},"type":"Feature","geometry":{"type":"Point","coordinates":[-97.11735,32.706548]}},{"properties":{"city":"Austin","geo_score":0.652,"zip code":"78757","address 1":"7940 Shoal Creek, Suite 205","id":"acviq9bibnrl","geo_precision":"street","date opened":"12/29/03","state":"TX"},"type":"Feature","geometry":{"type":"Point","coordinates":[-97.748702,30.341275]}},{"properties":{"city":"Austin","geo_score":1.0,"zip code":"78744","address 1":"3913 Todd Lane, Suite 103","id":"acviq9n7wuwa","geo_precision":"street","date opened":"02/25/02","state":"TX"},"type":"Feature","geometry":{"type":"Point","coordinates":[-97.735294,30.215027]}},{"properties":{"city":"Beaumont","geo_score":0.935,"zip code":"77703","address 1":"2574 North 11th Street","id":"acviq9nk6wcn","geo_precision":"range","date opened":"12/17/07","state":"TX"},"type":"Feature","geometry":{"type":"Point","coordinates":[-94.130683,30.101949]}},{"properties":{"city":"Bedford","geo_score":1.0,"zip code":"76021","address 1":"1703 Airport Freeway","id":"acviq9ahqtxn","geo_precision":"range","date opened":"11/22/10","state":"TX"},"type":"Feature","geometry":{"type":"Point","coordinates":[-97.138535,32.83739]}},{"properties":{"city":"Brenham","geo_score":0.927,"zip code":"77833","address 1":"2002 Highway 290 East","id":"acviq9q0peye","geo_precision":"range","date opened":"09/15/97","state":"TX"},"type":"Feature","geometry":{"type":"Point","coordinates":[-96.368891,30.142921]}},{"properties":{"city":"Brownsville","geo_score":0.667,"zip code":"78521","address 1":"1100 North Expressway 83, Suite 2","id":"acviq9jo5y1o","geo_precision":"street","date opened":"04/24/06","state":"TX"},"type":"Feature","geometry":{"type":"Point","coordinates":[-97.490572,25.922148]}},{"properties":{"city":"Bryan","geo_score":1.0,"zip code":"77802","address 1":"1863 Briarcrest Drive","id":"acviq9c421pq","geo_precision":"range","date opened":"01/05/90","state":"TX"},"type":"Feature","geometry":{"type":"Point","coordinates":[-96.336139,30.655527]}},{"properties":{"city":"Conroe","geo_score":0.694,"zip code":"77304","address 1":"224 South Loop 336 West, Suite N","id":"acviq9lws3cb","geo_precision":"street","date opened":"09/20/93","state":"TX"},"type":"Feature","geometry":{"type":"Point","coordinates":[-95.476841,30.333958]}},{"properties":{"city":"Corinth","geo_score":0.952,"zip code":"76210","address 1":"7650 South I-35 East, Suite 104","id":"acviq9asln5e","geo_precision":"street","date opened":"01/01/86","state":"TX"},"type":"Feature","geometry":{"type":"Point","coordinates":[-97.10575,33.18522]}},{"properties":{"city":"Corpus Christi","geo_score":0.647,"zip code":"78415-1818","address 1":"2820 South Padre Island Drive, Suite 114","id":"acviq9ogpy7w","geo_precision":"street","date opened":"07/16/84","state":"TX"},"type":"Feature","geometry":{"type":"Point","coordinates":[-97.429887,27.736942]}},{"properties":{"city":"Dallas","geo_score":0.633,"zip code":"75204","address 1":"4144 North Central Expressway, Suite 110","id":"acviq9auwatw","geo_precision":"street","date opened":"11/07/11","state":"TX"},"type":"Feature","geometry":{"type":"Point","coordinates":[-96.7917,32.787262]}},{"properties":{"city":"Dallas","geo_score":0.429,"zip code":"75254","address 1":"14241 Dallas Parkway, Suite 125","id":"acviq9e4pi9m","geo_precision":"street","date opened":"11/15/04","state":"TX"},"type":"Feature","geometry":{"type":"Point","coordinates":[-96.816308,32.934675]}},{"properties":{"city":"Dallas","geo_score":0.429,"zip code":"75235","address 1":"2727 West Mockingbird, Suite 104","id":"acviq9prcdk7","geo_precision":"street","date opened":"09/27/04","state":"TX"},"type":"Feature","geometry":{"type":"Point","coordinates":[-96.816308,32.934675]}},{"properties":{"city":"Fort Worth","geo_score":0.643,"zip code":"76107","address 1":"1533 Merrimac Circle, Suite 224","id":"acviq9jnov17","geo_precision":"street","date opened":"03/26/12","state":"TX"},"type":"Feature","geometry":{"type":"Point","coordinates":[-97.35994,32.730083]}},{"properties":{"city":"Fort Worth","geo_score":0.883,"zip code":"76102","address 1":"2501 Parkview, Suite 101","id":"acviq9k1rpu6","geo_precision":"street","date opened":"09/13/04","state":"TX"},"type":"Feature","geometry":{"type":"Point","coordinates":[-97.352668,32.74047]}},{"properties":{"city":"Fort Worth","geo_score":0.812,"zip code":"76131","address 1":"3025 Western Center Boulevard","id":"acviq9fcn1dc","geo_precision":"street","date opened":"02/09/98","state":"TX"},"type":"Feature","geometry":{"type":"Point","coordinates":[-97.332934,32.861382]}},{"properties":{"city":"Friendswood","geo_score":0.617,"zip code":"77546","address 1":"211 East Parkwood, Suite 210","id":"acviq9f5d975","geo_precision":"street","date opened":"08/30/04","state":"TX"},"type":"Feature","geometry":{"type":"Point","coordinates":[-95.183207,29.512331]}},{"properties":{"city":"Galveston","geo_score":0.916,"zip code":"77550","address 1":"1020 23rd Street","id":"acviq9pf2gy0","geo_precision":"range","date opened":"10/20/08","state":"TX"},"type":"Feature","geometry":{"type":"Point","coordinates":[-94.79177,29.299743]}},{"properties":{"city":"Garland","geo_score":0.8,"zip code":"75041","address 1":"1750 East Northwest Highway, Suite 240B","id":"acviq9dtdv3s","geo_precision":"street","date opened":"01/14/08","state":"TX"},"type":"Feature","geometry":{"type":"Point","coordinates":[-96.648344,32.864047]}},{"properties":{"city":"Harlingen","geo_score":0.766,"zip code":"78550","address 1":"1601 South Business 77/Sunshine Strip, Suite A","id":"acviq9kqwy3w","geo_precision":"street","date opened":"01/10/11","state":"TX"},"type":"Feature","geometry":{"type":"Point","coordinates":[-97.681557,26.22953]}},{"properties":{"city":"Houston","geo_score":0.527,"zip code":"77401","address 1":"4747 Bellaire Boulevard, Suite 250","id":"acviq9kmpf4n","geo_precision":"street","date opened":"02/19/07","state":"TX"},"type":"Feature","geometry":{"type":"Point","coordinates":[-95.44739,29.705917]}},{"properties":{"city":"Houston","geo_score":0.652,"zip code":"77057","address 1":"2401 Fountain View Drive, Suite 110","id":"acviq9gna566","geo_precision":"street","date opened":"07/21/03","state":"TX"},"type":"Feature","geometry":{"type":"Point","coordinates":[-95.486026,29.757842]}},{"properties":{"city":"Houston","geo_score":0.643,"zip code":"77077","address 1":"1880 South Dairy Ashford Street, Suite 401","id":"acviq9in2f7b","geo_precision":"street","date opened":"08/08/05","state":"TX"},"type":"Feature","geometry":{"type":"Point","coordinates":[-95.606184,29.758089]}},{"properties":{"city":"Houston","geo_score":0.679,"zip code":"77064","address 1":"8111 North Sam Houston Parkway West, Suite 500","id":"acviq9o5zbud","geo_precision":"street","date opened":"02/10/92","state":"TX"},"type":"Feature","geometry":{"type":"Point","coordinates":[-95.549386,29.884059]}},{"properties":{"city":"Irving","geo_score":0.633,"zip code":"75038","address 1":"4070 North Belt Line Road, Suite 126","id":"acviq9embcok","geo_precision":"street","date opened":"09/29/03","state":"TX"},"type":"Feature","geometry":{"type":"Point","coordinates":[-96.992071,32.857071]}},{"properties":{"city":"Killeen","geo_score":0.633,"zip code":"76541","address 1":"1801 Trimmier Road, #A7","id":"acviq9eu32jh","geo_precision":"street","date opened":"09/06/89","state":"TX"},"type":"Feature","geometry":{"type":"Point","coordinates":[-97.728195,31.123033]}},{"properties":{"city":"Longview","geo_score":0.679,"zip code":"75605","address 1":"101 West Hawkins Parkway, Suite 4","id":"acviq9aa118c","geo_precision":"street","date opened":"04/12/93","state":"TX"},"type":"Feature","geometry":{"type":"Point","coordinates":[-94.729627,32.523041]}},{"properties":{"city":"Lubbock","geo_score":0.663,"zip code":"79423","address 1":"7412 South University, Suite 11","id":"acviq9b4u6ay","geo_precision":"street","date opened":"12/06/10","state":"TX"},"type":"Feature","geometry":{"type":"Point","coordinates":[-101.870378,33.597781]}},{"properties":{"city":"Lufkin","geo_score":0.6,"zip code":"75901","address 1":"210C S. Timberland Drive","id":"acviq9lxej6q","geo_precision":"street","date opened":"11/12/91","state":"TX"},"type":"Feature","geometry":{"type":"Point","coordinates":[-94.718817,31.335005]}},{"properties":{"city":"McAllen","geo_score":0.571,"zip code":"78501","address 1":"504 North Tenth Street, Suites B1, B2, &amp; B9","id":"acviq9innf1s","geo_precision":"street","date opened":"08/05/02","state":"TX"},"type":"Feature","geometry":{"type":"Point","coordinates":[-98.230044,26.203388]}},{"properties":{"city":"Midland","geo_score":1.0,"zip code":"79701","address 1":"111 South B Street","id":"acviq9p5q9cb","geo_precision":"range","date opened":"04/01/96","state":"TX"},"type":"Feature","geometry":{"type":"Point","coordinates":[-102.083055,31.996161]}},{"properties":{"city":"Nacogdoches","geo_score":0.844,"zip code":"75961","address 1":"829 North University","id":"acviq9k9lvwf","geo_precision":"range","date opened":"04/02/93","state":"TX"},"type":"Feature","geometry":{"type":"Point","coordinates":[-94.640538,31.610401]}},{"properties":{"city":"New Braunfels","geo_score":0.721,"zip code":"78130","address 1":"109 I-35 South","id":"acviq9a93c7v","geo_precision":"street","date opened":"12/01/03","state":"TX"},"type":"Feature","geometry":{"type":"Point","coordinates":[-98.118794,29.687963]}},{"properties":{"city":"Odessa","geo_score":0.571,"zip code":"79762","address 1":"One Park Place","id":"acviq9m3ieil","geo_precision":"street","date opened":"04/10/95","state":"TX"},"type":"Feature","geometry":{"type":"Point","coordinates":[-103.505228,31.422127]}},{"properties":{"city":"Plano","geo_score":0.61,"zip code":"75074","address 1":"700 East Park Boulevard, Suite 200","id":"acviq9a00g4g","geo_precision":"street","date opened":"04/02/07","state":"TX"},"type":"Feature","geometry":{"type":"Point","coordinates":[-96.70182,33.031292]}},{"properties":{"city":"Plano","geo_score":1.0,"zip code":"75024","address 1":"5000 Legacy Drive, Suite 170","id":"acviq9czu5ka","geo_precision":"street","date opened":"07/25/11","state":"TX"},"type":"Feature","geometry":{"type":"Point","coordinates":[-96.772185,33.071892]}},{"properties":{"city":"Richardson","geo_score":0.604,"zip code":"75081","address 1":"1000 East Campbell Rd., Suite 114","id":"acviq9pn6b0l","geo_precision":"street","date opened":"11/19/03","state":"TX"},"type":"Feature","geometry":{"type":"Point","coordinates":[-96.715424,32.975353]}},{"properties":{"city":"Round Rock","geo_score":0.619,"zip code":"78664","address 1":"2000 N. Mays Avenue, Suite 202","id":"acviq9ebgqu8","geo_precision":"street","date opened":"08/25/03","state":"TX"},"type":"Feature","geometry":{"type":"Point","coordinates":[-97.678985,30.509072]}},{"properties":{"city":"San Antonio","geo_score":0.429,"zip code":"78230","address 1":"8131 I-H 10, Suite 225","id":"acviq9pj0obh","geo_precision":"street","date opened":"01/15/91","state":"TX"},"type":"Feature","geometry":{"type":"Point","coordinates":[-98.443074,29.40644]}},{"properties":{"city":"San Antonio","geo_score":0.982,"zip code":"78218","address 1":"8379 Perrin-Beitel Road","id":"acviq9f6r2i3","geo_precision":"range","date opened":"03/04/13","state":"TX"},"type":"Feature","geometry":{"type":"Point","coordinates":[-98.410015,29.51177]}},{"properties":{"city":"San Antonio","geo_score":0.663,"zip code":"78223","address 1":"3150 Southeast Military Drive, Suite 101","id":"acviq9gu8lqh","geo_precision":"street","date opened":"03/15/10","state":"TX"},"type":"Feature","geometry":{"type":"Point","coordinates":[-98.490966,29.35671]}},{"properties":{"city":"Sherman","geo_score":0.894,"zip code":"75090","address 1":"1914 North Grand","id":"acviq9bt1sro","geo_precision":"range","date opened":"08/05/96","state":"TX"},"type":"Feature","geometry":{"type":"Point","coordinates":[-96.601603,33.65622]}},{"properties":{"city":"Stafford","geo_score":0.679,"zip code":"77477","address 1":"4800 Sugar Grove, Suite 340","id":"acviq9k60p0y","geo_precision":"street","date opened":"05/17/10","state":"TX"},"type":"Feature","geometry":{"type":"Point","coordinates":[-95.580086,29.642561]}},{"properties":{"city":"Temple","geo_score":0.935,"zip code":"76504","address 1":"1229A South 31st Street","id":"acviq9at8ndv","geo_precision":"range","date opened":"06/26/87","state":"TX"},"type":"Feature","geometry":{"type":"Point","coordinates":[-97.362128,31.088812]}},{"properties":{"city":"Tomball","geo_score":1.0,"zip code":"77377","address 1":"14080 FM 2920, Suite F","id":"acviq9f488wl","geo_precision":"street","date opened":"07/17/00","state":"TX"},"type":"Feature","geometry":{"type":"Point","coordinates":[-95.633169,30.089413]}},{"properties":{"city":"Tyler","geo_score":0.61,"zip code":"75703","address 1":"5609 Donnybrook Avenue","id":"acviq9h8ko18","geo_precision":"street","date opened":"11/27/95","state":"TX"},"type":"Feature","geometry":{"type":"Point","coordinates":[-95.297143,32.305467]}},{"properties":{"city":"Waco","geo_score":0.883,"zip code":"76710","address 1":"6321 Sanger","id":"acviq9p79xjq","geo_precision":"range","date opened":"02/14/84","state":"TX"},"type":"Feature","geometry":{"type":"Point","coordinates":[-97.194575,31.521996]}},{"properties":{"city":"Waxahachie","geo_score":0.905,"zip code":"75165-0996","address 1":"507 North Highway 77, Suite 516","id":"acviq9binq4e","geo_precision":"street","date opened":"08/28/95","state":"TX"},"type":"Feature","geometry":{"type":"Point","coordinates":[-96.843606,32.399363]}},{"properties":{"city":"Weatherford","geo_score":1.0,"zip code":"76086","address 1":"218 Santa Fe Drive","id":"acviq9dyy1gk","geo_precision":"range","date opened":"05/20/97","state":"TX"},"type":"Feature","geometry":{"type":"Point","coordinates":[-97.791964,32.757167]}},{"properties":{"city":"Wichita Falls","geo_score":1.0,"zip code":"76308","address 1":"3612 Kemp Boulevard","id":"acviq9q48cqo","geo_precision":"range","date opened":"07/19/04","state":"TX"},"type":"Feature","geometry":{"type":"Point","coordinates":[-98.531982,33.874212]}},{"properties":{"city":"Cedar City","geo_score":1.0,"zip code":"84720","address 1":"392 West 200 North","id":"acviq9gbw71d","geo_precision":"range","date opened":"01/13/03","state":"UT"},"type":"Feature","geometry":{"type":"Point","coordinates":[-113.068466,37.681023]}},{"properties":{"city":"Clearfield","geo_score":0.762,"zip code":"84015","address 1":"189 South State Street, Suite 135","id":"acviq9pt8lr9","geo_precision":"street","date opened":"05/07/12","state":"UT"},"type":"Feature","geometry":{"type":"Point","coordinates":[-112.026024,41.113349]}},{"properties":{"city":"Orem","geo_score":1.0,"zip code":"84058","address 1":"1041 South Orem Boulevard","id":"acviq9d5qiw1","geo_precision":"range","date opened":"10/31/01","state":"UT"},"type":"Feature","geometry":{"type":"Point","coordinates":[-111.689021,40.278207]}},{"properties":{"city":"Saint George","geo_score":0.513,"zip code":"84790","address 1":"344 East Sunland Drive, Unit #1","id":"acviq9lhyhhr","geo_precision":"street","date opened":"10/11/99","state":"UT"},"type":"Feature","geometry":{"type":"Point","coordinates":[-113.574914,37.087043]}},{"properties":{"city":"Salt Lake City","geo_score":1.0,"zip code":"84102","address 1":"525 East 100 South, Suite 100","id":"acviq9gal9xj","geo_precision":"street","date opened":"05/21/12","state":"UT"},"type":"Feature","geometry":{"type":"Point","coordinates":[-111.876783,40.767181]}},{"properties":{"city":"Sandy","geo_score":0.714,"zip code":"84092","address 1":"8649 South 1300 East, Suite 101","id":"acviq9phftw9","geo_precision":"street","date opened":"05/07/12","state":"UT"},"type":"Feature","geometry":{"type":"Point","coordinates":[-111.941931,41.053923]}},{"properties":{"city":"West Jordan","geo_score":0.513,"zip code":"84088","address 1":"1231 West 9000 South, #106","id":"acviq9g1t575","geo_precision":"street","date opened":"08/01/04","state":"UT"},"type":"Feature","geometry":{"type":"Point","coordinates":[-111.910819,40.587733]}},{"properties":{"city":"Fairlawn","geo_score":0.643,"zip code":"24141","address 1":"7345 Peppers Ferry Boulevard, Suite B","id":"acviq9cqafha","geo_precision":"street","date opened":"11/24/08","state":"VA"},"type":"Feature","geometry":{"type":"Point","coordinates":[-80.583103,37.149769]}},{"properties":{"city":"McLean","geo_score":0.617,"zip code":"22101","address 1":"1313 Dolley Madison Boulevard, Suite 303","id":"acviq9pds8fd","geo_precision":"street","date opened":"04/02/12","state":"VA"},"type":"Feature","geometry":{"type":"Point","coordinates":[-77.137486,38.940803]}},{"properties":{"city":"Newport News","geo_score":0.902,"zip code":"23606","address 1":"736A Thimble Shoals Boulevard","id":"acviq9jqyb76","geo_precision":"street","date opened":"10/03/05","state":"VA"},"type":"Feature","geometry":{"type":"Point","coordinates":[-76.468518,37.084075]}},{"properties":{"city":"Richmond","geo_score":0.732,"zip code":"23227","address 1":"827 East Parham Road, Suite 1","id":"acviq9nn1syq","geo_precision":"street","date opened":"02/26/07","state":"VA"},"type":"Feature","geometry":{"type":"Point","coordinates":[-77.452653,37.6015]}},{"properties":{"city":"Roanoke","geo_score":0.878,"zip code":"24018","address 1":"1910 Electric Road","id":"acviq9m36l0h","geo_precision":"range","date opened":"11/24/08","state":"VA"},"type":"Feature","geometry":{"type":"Point","coordinates":[-80.034047,37.247813]}},{"properties":{"city":"Stafford","geo_score":0.61,"zip code":"22554","address 1":"233 Garrissonville Road, Suite 102 &amp; 1/2 and 103","id":"acviq9ll5o3n","geo_precision":"range","date opened":"05/12/08","state":"VA"},"type":"Feature","geometry":{"type":"Point","coordinates":[-77.404597,38.478983]}},{"properties":{"city":"Vienna","geo_score":0.647,"zip code":"22182","address 1":"8221 Old Courthouse Road, Suite 208","id":"acviq9ks5x2b","geo_precision":"street","date opened":"04/28/08","state":"VA"},"type":"Feature","geometry":{"type":"Point","coordinates":[-77.22779,38.91235]}},{"properties":{"city":"Virginia Beach","geo_score":0.652,"zip code":"23462","address 1":"4876 Princess Anne Road, Suite 104","id":"acviq9bjyusz","geo_precision":"street","date opened":"05/07/07","state":"VA"},"type":"Feature","geometry":{"type":"Point","coordinates":[-76.136794,36.809661]}},{"properties":{"city":"Aberdeen","geo_score":0.743,"zip code":"98520","address 1":"1812 Sumner Avenue, Suite B","id":"acviq9evf0jk","geo_precision":"street","date opened":"05/21/07","state":"WA"},"type":"Feature","geometry":{"type":"Point","coordinates":[-123.829876,46.976783]}},{"properties":{"city":"Bellevue","geo_score":0.643,"zip code":"98004","address 1":"3055 112th Avenue Northeast, Suite 200","id":"acviq9ellpq7","geo_precision":"street","date opened":"03/09/09","state":"WA"},"type":"Feature","geometry":{"type":"Point","coordinates":[-122.190816,47.609376]}},{"properties":{"city":"Bellingham","geo_score":0.667,"zip code":"98226","address 1":"4152 Meridian Street, Suite 201","id":"acviq9duelvf","geo_precision":"street","date opened":"01/26/98","state":"WA"},"type":"Feature","geometry":{"type":"Point","coordinates":[-122.639564,48.757647]}},{"properties":{"city":"Bremerton","geo_score":0.705,"zip code":"98312","address 1":"4545 Auto Center Way, Suite B-1","id":"acviq9fs2y5k","geo_precision":"street","date opened":"12/31/86","state":"WA"},"type":"Feature","geometry":{"type":"Point","coordinates":[-122.677983,47.558198]}},{"properties":{"city":"Centralia","geo_score":0.857,"zip code":"98531","address 1":"1126 South Gold, Suite 102","id":"acviq9fgdc5p","geo_precision":"street","date opened":"03/31/08","state":"WA"},"type":"Feature","geometry":{"type":"Point","coordinates":[-122.952873,46.713777]}},{"properties":{"city":"Everett","geo_score":0.457,"zip code":"98201","address 1":"4015 Rucker, Suite B","id":"acviq9n0053o","geo_precision":"street","date opened":"10/31/94","state":"WA"},"type":"Feature","geometry":{"type":"Point","coordinates":[-122.853526,48.442758]}},{"properties":{"city":"Kennewick","geo_score":0.871,"zip code":"99336","address 1":"101 North Union, Suite 203","id":"acviq9q4lwbc","geo_precision":"street","date opened":"05/01/93","state":"WA"},"type":"Feature","geometry":{"type":"Point","coordinates":[-119.179941,46.211078]}},{"properties":{"city":"Kent","geo_score":0.604,"zip code":"98032","address 1":"841 North Central Avenue, #C-100","id":"acviq9j9hey4","geo_precision":"street","date opened":"10/01/85","state":"WA"},"type":"Feature","geometry":{"type":"Point","coordinates":[-122.231068,47.38164]}},{"properties":{"city":"Longview","geo_score":0.694,"zip code":"98632","address 1":"1208 Washington Way, Suite 140","id":"acviq9o6xmtv","geo_precision":"street","date opened":"09/01/95","state":"WA"},"type":"Feature","geometry":{"type":"Point","coordinates":[-122.923943,46.145803]}},{"properties":{"city":"Lynnwood","geo_score":0.914,"zip code":"98036","address 1":"19009 33rd Avenue West, Suite 204","id":"acviq9azurgu","geo_precision":"street","date opened":"06/07/10","state":"WA"},"type":"Feature","geometry":{"type":"Point","coordinates":[-122.277721,47.830991]}},{"properties":{"city":"Moses Lake","geo_score":0.602,"zip code":"98837","address 1":"821 West Broadway, Suite 201","id":"acviq9ig6299","geo_precision":"street","date opened":"05/21/01","state":"WA"},"type":"Feature","geometry":{"type":"Point","coordinates":[-119.278997,47.131015]}},{"properties":{"city":"Mount Vernon","geo_score":0.649,"zip code":"98273","address 1":"525 East College Way, Suite F","id":"acviq9bnape3","geo_precision":"street","date opened":"04/22/96","state":"WA"},"type":"Feature","geometry":{"type":"Point","coordinates":[-122.338062,48.43587]}},{"properties":{"city":"Olympia","geo_score":0.667,"zip code":"98502","address 1":"2615 Capital Mall Drive SE, Suite A1","id":"acviq9n84pcr","geo_precision":"street","date opened":"05/21/07","state":"WA"},"type":"Feature","geometry":{"type":"Point","coordinates":[-122.937289,47.03989]}},{"properties":{"city":"Port Angeles","geo_score":1.0,"zip code":"98362","address 1":"1128 E Front Street","id":"acviq9bb0p2b","geo_precision":"range","date opened":"03/29/04","state":"WA"},"type":"Feature","geometry":{"type":"Point","coordinates":[-123.414007,48.112141]}},{"properties":{"city":"Seattle","geo_score":0.878,"zip code":"98121","address 1":"2401 Fourth Avenue, Suite 150","id":"acviq9hreru8","geo_precision":"street","date opened":"07/31/06","state":"WA"},"type":"Feature","geometry":{"type":"Point","coordinates":[-122.341335,47.613828]}},{"properties":{"city":"Shoreline","geo_score":0.643,"zip code":"98133","address 1":"15235 Aurora Avenue North, Suite 202","id":"acviq9h94mw7","geo_precision":"street","date opened":"09/25/06","state":"WA"},"type":"Feature","geometry":{"type":"Point","coordinates":[-122.344661,47.702152]}},{"properties":{"city":"Spokane","geo_score":0.614,"zip code":"99201","address 1":"331 W. Main","id":"acviq9krw6v1","geo_precision":"street","date opened":"04/04/94","state":"WA"},"type":"Feature","geometry":{"type":"Point","coordinates":[-117.41329,47.659075]}},{"properties":{"city":"Tacoma","geo_score":0.857,"zip code":"98409","address 1":"4301 South Pine, Suite 160","id":"acviq9fr7fru","geo_precision":"street","date opened":"07/02/84","state":"WA"},"type":"Feature","geometry":{"type":"Point","coordinates":[-122.473575,47.229648]}},{"properties":{"city":"Vancouver","geo_score":0.652,"zip code":"98684","address 1":"11504 SE Mill Plain Boulevard, Suite C-1","id":"acviq9h64ah2","geo_precision":"street","date opened":"10/10/88","state":"WA"},"type":"Feature","geometry":{"type":"Point","coordinates":[-122.520746,45.617333]}},{"properties":{"city":"Walla Walla","geo_score":0.837,"zip code":"99362","address 1":"115 South 3rd St.","id":"acviq9lza86t","geo_precision":"range","date opened":"04/02/07","state":"WA"},"type":"Feature","geometry":{"type":"Point","coordinates":[-118.339828,46.065256]}},{"properties":{"city":"Wenatchee","geo_score":0.941,"zip code":"98801","address 1":"411-B North Chelan Avenue","id":"acviq9n88zcj","geo_precision":"range","date opened":"09/28/09","state":"WA"},"type":"Feature","geometry":{"type":"Point","coordinates":[-120.31833,47.42931]}},{"properties":{"city":"Yakima","geo_score":0.625,"zip code":"98908","address 1":"1021 S. 40th Avenue, Suite 1","id":"acviq9kzsp98","geo_precision":"street","date opened":"07/28/08","state":"WA"},"type":"Feature","geometry":{"type":"Point","coordinates":[-120.709396,46.595559]}},{"properties":{"city":"Beloit","geo_score":0.649,"zip code":"53511","address 1":"500 Pleasant Street, Suite 4","id":"acviq9fzfbdy","geo_precision":"street","date opened":"08/14/09","state":"WI"},"type":"Feature","geometry":{"type":"Point","coordinates":[-89.033641,42.498661]}},{"properties":{"city":"Brookfield","geo_score":0.627,"zip code":"53045","address 1":"17550 West Bluemound Road, Suite 200","id":"acviq9fihw7a","geo_precision":"street","date opened":"08/20/12","state":"WI"},"type":"Feature","geometry":{"type":"Point","coordinates":[-88.136716,43.036254]}},{"properties":{"city":"Eau Claire","geo_score":1.0,"zip code":"54701","address 1":"3311 Golf Road","id":"acviq9j2zr01","geo_precision":"range","date opened":"10/05/98","state":"WI"},"type":"Feature","geometry":{"type":"Point","coordinates":[-91.453635,44.768641]}},{"properties":{"city":"Fitchburg","geo_score":0.506,"zip code":"53711","address 1":"2990 Cahill Main, Suite 201","id":"acviq9qeqfwd","geo_precision":"street","date opened":"06/01/10","state":"WI"},"type":"Feature","geometry":{"type":"Point","coordinates":[-89.418804,43.021785]}},{"properties":{"city":"Janesville","geo_score":1.0,"zip code":"53545","address 1":"50 South Main Street","id":"acviq9hv8zor","geo_precision":"range","date opened":"06/29/09","state":"WI"},"type":"Feature","geometry":{"type":"Point","coordinates":[-89.020592,42.68118]}},{"properties":{"city":"Kenosha","geo_score":1.0,"zip code":"53144","address 1":"4633 Washington Road","id":"acviq9jqf73m","geo_precision":"range","date opened":"08/24/09","state":"WI"},"type":"Feature","geometry":{"type":"Point","coordinates":[-87.864668,42.603124]}},{"properties":{"city":"La Crosse","geo_score":1.0,"zip code":"54603","address 1":"2240 Rose Street","id":"acviq9p7xluz","geo_precision":"range","date opened":"03/16/98","state":"WI"},"type":"Feature","geometry":{"type":"Point","coordinates":[-91.247108,43.853597]}},{"properties":{"city":"Madison","geo_score":1.0,"zip code":"53704","address 1":"1731 Thierer Road","id":"acviq9kgx9mq","geo_precision":"range","date opened":"03/02/09","state":"WI"},"type":"Feature","geometry":{"type":"Point","coordinates":[-89.311115,43.121327]}},{"properties":{"city":"Medford","geo_score":1.0,"zip code":"54451","address 1":"304 South Main Street, Suite 201","id":"acviq9bc250f","geo_precision":"street","date opened":"03/26/12","state":"WI"},"type":"Feature","geometry":{"type":"Point","coordinates":[-90.343818,45.136351]}},{"properties":{"city":"Mequon","geo_score":0.958,"zip code":"53092","address 1":"11126 North Cedarburg Road","id":"acviq9myz5ci","geo_precision":"range","date opened":"02/02/04","state":"WI"},"type":"Feature","geometry":{"type":"Point","coordinates":[-87.982256,43.221114]}},{"properties":{"city":"Milwaukee","geo_score":0.679,"zip code":"53207","address 1":"4915 South Howell Avenue, Suite 502","id":"acviq9kvqrmn","geo_precision":"street","date opened":"07/05/11","state":"WI"},"type":"Feature","geometry":{"type":"Point","coordinates":[-87.904749,43.003557]}},{"properties":{"city":"Monomonie","geo_score":0.989,"zip code":"54751","address 1":"1915 Wilson Street","id":"acviq9cxbvqg","geo_precision":"range","date opened":"04/26/10","state":"WI"},"type":"Feature","geometry":{"type":"Point","coordinates":[-91.924966,44.905072]}},{"properties":{"city":"Racine","geo_score":0.663,"zip code":"53406","address 1":"1300 South Green Bay Road, Suite 200","id":"acviq9pzorxi","geo_precision":"street","date opened":"01/10/00","state":"WI"},"type":"Feature","geometry":{"type":"Point","coordinates":[-87.839526,42.734083]}},{"properties":{"city":"River Falls","geo_score":0.429,"zip code":"54022","address 1":"1561 Commerce Court, Suite 110","id":"acviq9gc3xaq","geo_precision":"street","date opened":"01/04/99","state":"WI"},"type":"Feature","geometry":{"type":"Point","coordinates":[-92.295172,44.946145]}},{"properties":{"city":"Stevens Point","geo_score":0.694,"zip code":"54481","address 1":"1001 Brilowski Road, Suite C","id":"acviq9asgu6m","geo_precision":"street","date opened":"11/03/03","state":"WI"},"type":"Feature","geometry":{"type":"Point","coordinates":[-89.607255,44.518857]}},{"properties":{"city":"Weston","geo_score":0.429,"zip code":"54476","address 1":"3409 Schofield Ave., Suite F","id":"acviq9e30fxn","geo_precision":"street","date opened":"01/07/13","state":"WI"},"type":"Feature","geometry":{"type":"Point","coordinates":[-89.714184,45.468759]}},{"properties":{"city":"Carleston","geo_score":0.405,"zip code":"25309","address 1":"47 RHL Boulevard","id":"acviq9a1ndwh","geo_precision":"street","date opened":"12/20/99","state":"WV"},"type":"Feature","geometry":{"type":"Point","coordinates":[-81.655003,38.378606]}},{"properties":{"city":"Cheyenne","geo_score":1.0,"zip code":"82001","address 1":"2205 East Pershing Boulevard","id":"acviq9hsbmvn","geo_precision":"range","date opened":"08/27/07","state":"WY"},"type":"Feature","geometry":{"type":"Point","coordinates":[-104.791459,41.145746]}},{"properties":{"city":"Cody","geo_score":0.633,"zip code":"82414","address 1":"2706 Big Horn Avenue, Suite B","id":"acviq9cu5i8t","geo_precision":"street","date opened":"01/07/13","state":"WY"},"type":"Feature","geometry":{"type":"Point","coordinates":[-109.03887,44.535589]}}],"is_temporal":false,"author":{"url":"","metadata":"","contact_name":"","contact_address":"","source":"","contact_phone":""},"source":"","pagination":{"sort":null,"start":0,"total":595,"limit":1000000},"state":"complete","tags":"","published":"2014-08-16T16:28:00-04:00","id":332683}