{"type":"FeatureCollection","data_type":"Dataset","url_type":null,"permissions":[{"permissions":{"download":true,"view":true},"group_id":"everyone"}],"classification":null,"title":"MA_Autism_Schools_-_Residential","count":11,"stream_id":334890,"contributor":{"url":"http://geocommons.com/users/64148","name":"jgriffin44"},"data_attributes":null,"calculation_params":null,"icon_link":null,"link":"http://geocommons.com/overlays/334890.json","extent":[-73.2937,41.7357,-70.4215,42.6537],"geometry_types":["point"],"unique_name":null,"name":"MA_Autism_Schools_-_Residential","feature_count":11,"description":"","next_feature":null,"is_raster":false,"short_classification":"Y","stats":{"# of beds":{"max":181,"variance":2710.09090909091,"mean":66.9090909090909,"stdev":52.0585334896298,"min":4,"median":54}},"features":[{"properties":{"city":"Randolph","zip":"2368","geo_score":1.0,"# of beds":54,"id":"ad0ijjfm2m79","school":"Boston Higashi School - Residential","address":"800 North Main Street","geo_precision":"range","state":"MA"},"type":"Feature","geometry":{"type":"Point","coordinates":[-71.053863,42.183676]}},{"properties":{"city":"Great Barrington","zip":"1230","geo_score":0.803,"# of beds":68,"id":"ad0ijjbbtxxu","school":"Eagleton School - Intensive Program","address":"446 Montery Road","geo_precision":"street","state":"MA"},"type":"Feature","geometry":{"type":"Point","coordinates":[-73.293654,42.184433]}},{"properties":{"city":"Walpole","zip":"2032","geo_score":0.752,"# of beds":16,"id":"ad0ijjbr95pi","school":"League School - Residential Housing and Education","address":"300 Boston Providence Turnpike","geo_precision":"street","state":"MA"},"type":"Feature","geometry":{"type":"Point","coordinates":[-71.20557,42.15409]}},{"properties":{"city":"Randolph","zip":"2368","geo_score":1.0,"# of beds":80,"id":"ad0ijjf7ig8d","school":"May Institute - Randolph Residential Program","address":"41 Pacella Park Drive","geo_precision":"range","state":"MA"},"type":"Feature","geometry":{"type":"Point","coordinates":[-71.05055,42.20231]}},{"properties":{"city":"Brockton","zip":"2302","geo_score":1.0,"# of beds":51,"id":"ad0ijjafk7oj","school":"May Institute - Brockton Residential Program","address":"596 Summer Street","geo_precision":"range","state":"MA"},"type":"Feature","geometry":{"type":"Point","coordinates":[-71.004295,42.062013]}},{"properties":{"city":"Andover","zip":"1810","geo_score":0.927,"# of beds":40,"id":"ad0ijjjgxscd","school":"Melmark - Residential","address":"461 River Road","geo_precision":"range","state":"MA"},"type":"Feature","geometry":{"type":"Point","coordinates":[-71.248115,42.653669]}},{"properties":{"city":"Southborough","zip":"1772","geo_score":0.894,"# of beds":30,"id":"ad0ijjjkw4ey","school":"New England Center for Children - Residential Education and Treatment","address":"31 Turnpike Road","geo_precision":"range","state":"MA"},"type":"Feature","geometry":{"type":"Point","coordinates":[-71.501529,42.295475]}},{"properties":{"city":"Southborough","zip":"1772","geo_score":0.894,"# of beds":76,"id":"ad0ijjklf3p1","school":"New England Center for Children - Severe Unit","address":"31 Turnpike Road","geo_precision":"range","state":"MA"},"type":"Feature","geometry":{"type":"Point","coordinates":[-71.501529,42.295475]}},{"properties":{"city":"East Sandwich","zip":"2537","geo_score":0.805,"# of beds":181,"id":"ad0ijjl5gn0b","school":"Riverview School - Secondary School","address":"551 Route 6A","geo_precision":"range","state":"MA"},"type":"Feature","geometry":{"type":"Point","coordinates":[-70.421517,41.735713]}},{"properties":{"city":"East Sandwich","zip":"2537","geo_score":0.805,"# of beds":4,"id":"ad0ijjcbce8u","school":"Riverview School - Bridgeview","address":"551 Route 6A","geo_precision":"range","state":"MA"},"type":"Feature","geometry":{"type":"Point","coordinates":[-70.421517,41.735713]}},{"properties":{"city":"East Sandwich","zip":"2537","geo_score":0.805,"# of beds":136,"id":"ad0ijjn1gm69","school":"Riverview School - Summer School","address":"551 Route 6A","geo_precision":"range","state":"MA"},"type":"Feature","geometry":{"type":"Point","coordinates":[-70.421517,41.735713]}}],"is_temporal":false,"author":{"url":"","metadata":null,"contact_name":null,"contact_address":null,"source":null,"contact_phone":null},"source":"","pagination":{"sort":null,"start":0,"total":11,"limit":1000000},"state":"complete","tags":"","published":"2014-08-16T19:08:25-04:00","id":334890}