{"type":"FeatureCollection","data_type":"Dataset","url_type":null,"permissions":[{"permissions":{"download":true,"view":true},"group_id":"everyone"}],"classification":null,"title":"Map agency partners more groups","count":28,"stream_id":335267,"contributor":{"url":"http://geocommons.com/users/66959","name":"Roger Harris"},"data_attributes":null,"calculation_params":null,"icon_link":null,"link":"http://geocommons.com/overlays/335267.json","extent":[-97.6509,31.3278,-79.6631,42.9092],"geometry_types":["point"],"unique_name":null,"name":"Map agency partners more groups","feature_count":28,"description":"Mental health agencies in GTA","next_feature":null,"is_raster":false,"short_classification":"Y","stats":{},"features":[{"properties":{"city":"Etobicoke","language":"Polish","geo_score":0.0,"postal code":"M9B 6E1","phone":"416-234-1942","id":"ad16d5tb5dc0","address":"2 Billingham Rd","province":"Ontario","group":"hot","geo_precision":"unmatched","agency name":"Breakaway Addiction Services"},"type":"Feature","geometry":null},{"properties":{"city":"Toronto","language":"Polish","geo_score":0.548,"postal code":"M8X 1Y6","phone":"416-207-5032","id":"ad16d6135na0","address":"4214 Dundas St W","province":"Ontario","group":"hot","geo_precision":"street","agency name":"Fame Association for Mental Health Everywhere"},"type":"Feature","geometry":{"type":"Point","coordinates":[-79.663058,36.293296]}},{"properties":{"city":"Toronto","language":"Polish","geo_score":0.417,"postal code":"M9B 4B1","phone":"416-622-8833","id":"ad16d66ght1b","address":"600 The East Mall","province":"Ontario","group":"hotter","geo_precision":"street","agency name":"George Hall Centre for Children and Families"},"type":"Feature","geometry":{"type":"Point","coordinates":[-97.073854,32.857439]}},{"properties":{"city":"Toronto","language":"Polish","geo_score":0.39,"postal code":"M8X 2W4","phone":"416-248-2050","id":"ad16d5w7ecex","address":"56 Aberfoyle Cres","province":"Ontario","group":"hottter","geo_precision":"city","agency name":"Reconnect Mental Health Services"},"type":"Feature","geometry":{"type":"Point","coordinates":[-89.62982,39.71394]}},{"properties":{"city":"Toronto","language":"Polish","geo_score":0.432,"postal code":"M8Z 1J5","phone":"416-255-7359","id":"ad16d5sowazx","address":"215 Evans Ave","province":"Ontario","group":"hot","geo_precision":"street","agency name":"Jean Tweed Centre"},"type":"Feature","geometry":{"type":"Point","coordinates":[-86.748536,33.585692]}},{"properties":{"city":"Toronto","language":"Polish","geo_score":0.532,"postal code":"M8V 2Z5","phone":"416-251-8666","id":"ad16d5w9oik4","address":"2970 Lake Shore Blvd","province":"Ontario","group":"colder","geo_precision":"street","agency name":"LAMP Among Friends"},"type":"Feature","geometry":{"type":"Point","coordinates":[-95.94451,37.751126]}},{"properties":{"city":"Toronto","language":"Polish","geo_score":0.392,"postal code":"M5S 2S1","phone":"416-535-8501","id":"ad16d5ywfqhq","address":"33 Russell St","province":"Ontario","group":"colder","geo_precision":"street","agency name":"Centre for Addiction and Mental Health (CAMH)"},"type":"Feature","geometry":{"type":"Point","coordinates":[-83.977896,42.909167]}},{"properties":{"city":"Toronto","language":"Polish","geo_score":0.612,"postal code":"M6J 2J8","phone":"416-603-1827","id":"ad16d64ib71n","address":"197 Euclid Ave","province":"Ontario","group":"cold","geo_precision":"street","agency name":"Child Development Institute"},"type":"Feature","geometry":{"type":"Point","coordinates":[-80.601147,40.461228]}},{"properties":{"city":"Toronto","language":"Polish","geo_score":0.514,"postal code":"M6K 1C2","phone":"416-340-7929","id":"ad16d5w2egi9","address":"160 Springhurst Ave","province":"Ontario","group":"cold","geo_precision":"street","agency name":"Centre for Opportunities Respect and Empowerment (CORE)"},"type":"Feature","geometry":{"type":"Point","coordinates":[-80.604208,40.480762]}},{"properties":{"city":"Toronto","language":"Polish","geo_score":0.489,"postal code":"M6K 1H1","phone":"416-785-9230","id":"ad16d601b3ym","address":"1330 King St W","province":"Ontario","group":"warm","geo_precision":"street","agency name":"COTA Health"},"type":"Feature","geometry":{"type":"Point","coordinates":[-80.554593,34.995877]}},{"properties":{"city":"Toronto","language":"Polish","geo_score":0.349,"postal code":"M6J 1G1","phone":"416-504-4262","id":"ad16d65rd8pl","address":"761 Queen St W","province":"Ontario","group":"warmer","geo_precision":"street","agency name":"Fresh Start Cleaning and Maintenance"},"type":"Feature","geometry":{"type":"Point","coordinates":[-79.988035,35.887215]}},{"properties":{"city":"Toronto","language":"Polish","geo_score":0.548,"postal code":"M6P 4A9","phone":"416-234-9245","id":"ad16d62wlk45","address":"2340 Dundas St W","province":"Ontario","group":"warmer","geo_precision":"street","agency name":"Friends and Advocates Centre"},"type":"Feature","geometry":{"type":"Point","coordinates":[-79.663058,36.293296]}},{"properties":{"city":"Toronto","language":"Polish","geo_score":0.329,"postal code":"M6H 1M4","phone":"416-604-2337","id":"ad16d5rwmywa","address":"1045 Bloor St W","province":"Ontario","group":"warm","geo_precision":"street","agency name":"Gerstein Crisis Centre"},"type":"Feature","geometry":{"type":"Point","coordinates":[-81.842957,38.343558]}},{"properties":{"city":"Toronto","language":"Polish","geo_score":0.577,"postal code":"M6R 3A9","phone":"416-537-2721","id":"ad16d5whmp7k","address":"2238 Dundas St","province":"Ontario","group":"fast","geo_precision":"street","agency name":"Habitat Centre"},"type":"Feature","geometry":{"type":"Point","coordinates":[-79.663058,36.293296]}},{"properties":{"city":"Toronto","language":"Polish","geo_score":0.329,"postal code":"M6H 1P2","phone":"416-395-0986","id":"ad16d5xu3f2m","address":"1322 Bloor St W","province":"Ontario","group":"fast","geo_precision":"street","agency name":"Homes First Society"},"type":"Feature","geometry":{"type":"Point","coordinates":[-81.842957,38.343558]}},{"properties":{"city":"Toronto","language":"Polish","geo_score":0.349,"postal code":"M6J 1G1","phone":"416-703-9266","id":"ad16d64j4z4h","address":"761 Queen St W","province":"Ontario","group":"fast","geo_precision":"street","agency name":"Mainstay Housing"},"type":"Feature","geometry":{"type":"Point","coordinates":[-79.988035,35.887215]}},{"properties":{"city":"Toronto","language":"Polish","geo_score":0.902,"postal code":"M6J 1H4","phone":"416-599-1448","id":"ad16d5s4f0g3","address":"100 Stokes St","province":"Ontario","group":"fast","geo_precision":"range","agency name":"Mentro Addiction Assessment Referral Services"},"type":"Feature","geometry":{"type":"Point","coordinates":[-95.465409,31.327797]}},{"properties":{"city":"Toronto","language":"Polish","geo_score":0.54,"postal code":"M6H 2G7","phone":"416-598-2919","id":"ad16d5sl3hi0","address":"1183 Davenport Rd","province":"Ontario","group":"fast","geo_precision":"street","agency name":"Our Place Community of Hope Centre"},"type":"Feature","geometry":{"type":"Point","coordinates":[-84.7923,32.948707]}},{"properties":{"city":"Toronto","language":"Polish","geo_score":0.349,"postal code":"M6H 2G7","phone":"416-537-2262","id":"ad16d65rchse","address":"1499 Queen St W","province":"Ontario","group":"slow","geo_precision":"street","agency name":"Parkdale Activity-Recreation Centre"},"type":"Feature","geometry":{"type":"Point","coordinates":[-79.988035,35.887215]}},{"properties":{"city":"Toronto","language":"Polish","geo_score":0.548,"postal code":"M6R 3A9","phone":"416-703-9645","id":"ad16d5zozfpe","address":"2238 Dundas St W","province":"Ontario","group":"slower","geo_precision":"street","agency name":"Regeneration Community Services"},"type":"Feature","geometry":{"type":"Point","coordinates":[-79.663058,36.293296]}},{"properties":{"city":"Toronto","language":"Polish","geo_score":0.55,"postal code":"M6R 1B5","phone":"416-530-6000","id":"ad16d5xf05t2","address":"30 The Queensway","province":"Ontario","group":"slower","geo_precision":"street","agency name":"St. Joseph's Health Centre"},"type":"Feature","geometry":{"type":"Point","coordinates":[-97.650923,32.755108]}},{"properties":{"city":"Toronto","language":"Polish","geo_score":0.548,"postal code":"M6S 2S1","phone":"416-604-0640","id":"ad16d5vwws1q","address":"3446 Dundas St W","province":"Ontario","group":"slow","geo_precision":"street","agency name":"The Four Villages CHC"},"type":"Feature","geometry":{"type":"Point","coordinates":[-79.663058,36.293296]}},{"properties":{"city":"Toronto","language":"Polish","geo_score":0.659,"postal code":"M8V 2Z5","phone":"416-252-6471","id":"ad16d63dgpt7","address":"185 Fifth St","province":"Ontario","group":"medium","geo_precision":"range","agency name":"LAMP CHC"},"type":"Feature","geometry":{"type":"Point","coordinates":[-80.602574,40.464611]}},{"properties":{"city":"Toronto","language":"Polish","geo_score":0.555,"postal code":"M5T 3A9","phone":"416-324-8677","id":"ad16d5yeyzlq","address":"340 College St","province":"Ontario","group":"medium","geo_precision":"street","agency name":"Access Alliance Multicultural Health &amp; Community Services"},"type":"Feature","geometry":{"type":"Point","coordinates":[-87.090964,34.605475]}},{"properties":{"city":"Toronto","language":"Polish","geo_score":0.349,"postal code":"M6K 1L2","phone":"416-537-2455","id":"ad16d5vqhkwh","address":"1229 Queen St W","province":"Ontario","group":"medium","geo_precision":"street","agency name":"Parkdale Community Health Centre"},"type":"Feature","geometry":{"type":"Point","coordinates":[-79.988035,35.887215]}},{"properties":{"city":"Toronto","language":"Polish","geo_score":0.484,"postal code":"M8Y 1W3","phone":"416-231-7070","id":"ad16d5xke9jv","address":"150 Berry Rd","province":"Ontario","group":"super","geo_precision":"street","agency name":"Stonegate Community Health Centre"},"type":"Feature","geometry":{"type":"Point","coordinates":[-96.231714,33.996477]}},{"properties":{"city":"Toronto","language":"Polish","geo_score":0.54,"postal code":"M6N 1B7","phone":"416-656-8025","id":"ad16d66wpksl","address":"1900 Davenport Rd","province":"Ontario","group":"super","geo_precision":"street","agency name":"Davenporth Perth Neighbourhood and Community Health Centre"},"type":"Feature","geometry":{"type":"Point","coordinates":[-84.7923,32.948707]}},{"properties":{"city":"Toronto","language":"Polish","geo_score":0.329,"postal code":"M6G 1L8","phone":"416-539-0609","id":"ad16d60vdhyv","address":"805 Bloor St W","province":"Ontario","group":"super","geo_precision":"street","agency name":"Houselink Community Homes"},"type":"Feature","geometry":{"type":"Point","coordinates":[-81.842957,38.343558]}}],"is_temporal":false,"author":{"url":"","metadata":"","contact_name":"","contact_address":"","source":"","contact_phone":""},"source":"","pagination":{"sort":null,"start":0,"total":28,"limit":1000000},"state":"complete","tags":"","published":"2013-03-21T16:00:00Z","id":335267}