{"type":"FeatureCollection","data_type":"Dataset","url_type":null,"permissions":[{"permissions":{"download":true,"view":true},"group_id":"everyone"}],"classification":null,"title":"edpopcsv","count":42,"stream_id":335296,"contributor":{"url":"http://geocommons.com/users/12008","name":"pantheon"},"data_attributes":null,"calculation_params":null,"icon_link":null,"link":"http://geocommons.com/overlays/335296.json","extent":[-84.7507,39.274,-81.5676,41.8225],"geometry_types":["point"],"unique_name":null,"name":"edpopcsv","feature_count":42,"description":"","next_feature":null,"is_raster":false,"short_classification":"Y","stats":{"lat":{"max":41.36945,"variance":0.143341425925,"mean":40.958685,"stdev":0.378604577263667,"min":40.623705,"median":40.8829},"long":{"max":-83.94108,"variance":0.0263545048653327,"mean":-84.1176446666667,"stdev":0.162340706125521,"min":-84.260454,"median":-84.1514}},"features":[{"properties":{"city":"Antwerp","pop type":"Core","geo_score":0.902,"id":"ad18mkfqd6vb","address":"206 Washington St","lat":null,"geo_precision":"range","state":"OH","long":null},"type":"Feature","geometry":{"type":"Point","coordinates":[-84.738221,41.179508]}},{"properties":{"city":"Archbold","pop type":"Core","geo_score":0.464,"id":"ad18mkgklose","address":"105 E. Holland St","lat":null,"geo_precision":"street","state":"OH","long":null},"type":"Feature","geometry":{"type":"Point","coordinates":[-84.306263,41.522763]}},{"properties":{"city":"Bascom","pop type":"Coalition Member","geo_score":0.849,"id":"ad18mkjfp66s","address":"5990 W Tiffin St","lat":null,"geo_precision":"range","state":"OH","long":null},"type":"Feature","geometry":{"type":"Point","coordinates":[-83.284444,41.132665]}},{"properties":{"city":"Benton Ridge","pop type":"Coalition Member","geo_score":0.611,"id":"ad18mkbnezik","address":"140 E Main St","lat":null,"geo_precision":"street","state":"OH","long":null},"type":"Feature","geometry":{"type":"Point","coordinates":[-83.787328,41.005345]}},{"properties":{"city":"Bowling Green","pop type":"Core","geo_score":0.857,"id":"ad18mknw2792","address":"County Home Rd","lat":null,"geo_precision":"street","state":"OH","long":null},"type":"Feature","geometry":{"type":"Point","coordinates":[-83.611142,41.353572]}},{"properties":{"city":"Buckland","pop type":"Coalition Member","geo_score":0.0,"id":"ad18mkilegqe","address":"105 S Main St","lat":40.623705,"geo_precision":"unmatched","state":"OH","long":-84.260454},"type":"Feature","geometry":null},{"properties":{"city":"Columbus","pop type":"Core","geo_score":0.815,"id":"ad18mkkdu5cd","address":"180 E Broad","lat":null,"geo_precision":"range","state":"OH","long":null},"type":"Feature","geometry":{"type":"Point","coordinates":[-82.995835,39.962828]}},{"properties":{"city":"Defiance","pop type":"Coalition Member","geo_score":0.812,"id":"ad18mkg08jgd","address":"21980 St Rt 637","lat":null,"geo_precision":"range","state":"OH","long":null},"type":"Feature","geometry":{"type":"Point","coordinates":[-84.399878,41.194598]}},{"properties":{"city":"Defiance","pop type":"Coalition Member","geo_score":0.902,"id":"ad18mkb28dr1","address":"27932 Watson Rd","lat":null,"geo_precision":"range","state":"OH","long":null},"type":"Feature","geometry":{"type":"Point","coordinates":[-84.286821,41.23822]}},{"properties":{"city":"Findlay","pop type":"Core","geo_score":0.812,"id":"ad18mkl8ni12","address":"3916 County Rd 220","lat":null,"geo_precision":"range","state":"OH","long":null},"type":"Feature","geometry":{"type":"Point","coordinates":[-83.649833,41.109963]}},{"properties":{"city":"Findlay","pop type":"Core","geo_score":0.709,"id":"ad18mkcibfct","address":"11941 Twp Rd 108","lat":null,"geo_precision":"street","state":"OH","long":null},"type":"Feature","geometry":{"type":"Point","coordinates":[-83.649694,41.116597]}},{"properties":{"city":"Ft Jennings","pop type":"Coalition Member","geo_score":0.667,"id":"ad18mkft0wzl","address":"65 W Third St","lat":null,"geo_precision":"range","state":"OH","long":null},"type":"Feature","geometry":{"type":"Point","coordinates":[-81.567625,39.27398]}},{"properties":{"city":"Glandorf","pop type":"Coalition Member","geo_score":0.87,"id":"ad18mkg5hobd","address":"135 S Main St","lat":null,"geo_precision":"range","state":"OH","long":null},"type":"Feature","geometry":{"type":"Point","coordinates":[-84.08009,41.030233]}},{"properties":{"city":"Kalida","pop type":"Coalition Member","geo_score":0.847,"id":"ad18mkmatq0p","address":"121 E Main St","lat":null,"geo_precision":"range","state":"OH","long":null},"type":"Feature","geometry":{"type":"Point","coordinates":[-83.607511,41.172764]}},{"properties":{"city":"Lewiston","pop type":"Core","geo_score":0.802,"id":"ad18mk85bt26","address":"6210 St Rt 235","lat":null,"geo_precision":"range","state":"OH","long":null},"type":"Feature","geometry":{"type":"Point","coordinates":[-83.906191,40.437676]}},{"properties":{"city":"Lima","pop type":"Core","geo_score":0.805,"id":"ad18mkmlsynp","address":"5707 N West St","lat":null,"geo_precision":"range","state":"OH","long":null},"type":"Feature","geometry":{"type":"Point","coordinates":[-84.132726,40.820166]}},{"properties":{"city":"McClure","pop type":"Coalition Member","geo_score":0.0,"id":"ad18mkir5stj","address":"311 S East St","lat":41.36945,"geo_precision":"unmatched","state":"OH","long":-83.94108},"type":"Feature","geometry":null},{"properties":{"city":"Middle Pt","pop type":"Coalition Member","geo_score":0.488,"id":"ad18mknlo3bk","address":"106 1/2 E Jackson St","lat":null,"geo_precision":"city","state":"OH","long":null},"type":"Feature","geometry":{"type":"Point","coordinates":[-83.636871,40.07867]}},{"properties":{"city":"Napoleon","pop type":"Core","geo_score":0.716,"id":"ad18mkgp9qyv","address":"720 N Perry St","lat":null,"geo_precision":"street","state":"OH","long":null},"type":"Feature","geometry":{"type":"Point","coordinates":[-84.12552,41.392126]}},{"properties":{"city":"New Bavaria","pop type":"Coalition Member","geo_score":0.902,"id":"ad18mka2xtx0","address":"911 Walnut St","lat":null,"geo_precision":"range","state":"OH","long":null},"type":"Feature","geometry":{"type":"Point","coordinates":[-84.169338,41.204085]}},{"properties":{"city":"New Knoxville","pop type":"Coalition Member","geo_score":0.688,"id":"ad18mkaog3y9","address":"301 W South St","lat":null,"geo_precision":"range","state":"OH","long":null},"type":"Feature","geometry":{"type":"Point","coordinates":[-84.55436,41.463524]}},{"properties":{"city":"Blissfield","pop type":"Coalition Member","geo_score":0.902,"id":"ad18mkdw4unr","address":"4726 E Weston Rd","lat":null,"geo_precision":"range","state":"MI","long":null},"type":"Feature","geometry":{"type":"Point","coordinates":[-83.964042,41.772042]}},{"properties":{"city":"Okolona","pop type":"Coalition Member","geo_score":0.357,"id":"ad18mkakm0d4","address":"NO12 County Road 17D","lat":null,"geo_precision":"street","state":"OH","long":null},"type":"Feature","geometry":{"type":"Point","coordinates":[-83.660186,41.530125]}},{"properties":{"city":"Ottoville","pop type":"Coalition Member","geo_score":0.756,"id":"ad18mkfrehuz","address":"245 W Third St","lat":null,"geo_precision":"range","state":"OH","long":null},"type":"Feature","geometry":{"type":"Point","coordinates":[-84.337815,40.932196]}},{"properties":{"city":"Ridgeville Corners","pop type":"Coalition Member","geo_score":0.286,"id":"ad18mkkyxbwt","address":"S732 County Rd 20B","lat":null,"geo_precision":"street","state":"OH","long":null},"type":"Feature","geometry":{"type":"Point","coordinates":[-84.253108,41.43013]}},{"properties":{"city":"Sand Creek","pop type":"Coalition Member","geo_score":0.902,"id":"ad18mkh128mt","address":"6525 Sand Creek Hwy","lat":null,"geo_precision":"range","state":"MI","long":null},"type":"Feature","geometry":{"type":"Point","coordinates":[-84.101503,41.822499]}},{"properties":{"city":"Sherwood","pop type":"Coalition Member","geo_score":0.429,"id":"ad18mkdpvkbt","address":"105 W. Vine St","lat":null,"geo_precision":"street","state":"OH","long":null},"type":"Feature","geometry":{"type":"Point","coordinates":[-84.55467,41.287091]}},{"properties":{"city":"Springfield","pop type":"Core","geo_score":0.512,"id":"ad18mkjcvno1","address":"4170 Alium Ct","lat":null,"geo_precision":"street","state":"OH","long":null},"type":"Feature","geometry":{"type":"Point","coordinates":[-83.766245,39.988659]}},{"properties":{"city":"Sycamore","pop type":"Coalition Member","geo_score":0.829,"id":"ad18mkgxnn3x","address":"104 E 7th St","lat":null,"geo_precision":"range","state":"OH","long":null},"type":"Feature","geometry":{"type":"Point","coordinates":[-83.169952,40.948574]}},{"properties":{"city":"Toledo","pop type":"Core","geo_score":0.837,"id":"ad18mkffvha5","address":"1946 N 13th St","lat":null,"geo_precision":"range","state":"OH","long":null},"type":"Feature","geometry":{"type":"Point","coordinates":[-83.54086,41.660016]}},{"properties":{"city":"Toledo","pop type":"Core","geo_score":0.902,"id":"ad18mkdu4w8b","address":"3055 Moffat Rd","lat":null,"geo_precision":"range","state":"OH","long":null},"type":"Feature","geometry":{"type":"Point","coordinates":[-83.692658,41.67106]}},{"properties":{"city":"Urbana","pop type":"Coalition Member","geo_score":0.902,"id":"ad18mk980dr5","address":"126 Scioto St","lat":null,"geo_precision":"range","state":"OH","long":null},"type":"Feature","geometry":{"type":"Point","coordinates":[-83.751927,40.108136]}},{"properties":{"city":"Van Wert","pop type":"Core","geo_score":0.457,"id":"ad18mkhujosc","address":"1250 S. Washington St","lat":null,"geo_precision":"street","state":"OH","long":null},"type":"Feature","geometry":{"type":"Point","coordinates":[-84.582991,40.869645]}},{"properties":{"city":"Vaughnsville","pop type":"Coalition Member","geo_score":0.0,"id":"ad18mkaz889h","address":"187 Water St","lat":40.8829,"geo_precision":"unmatched","state":"OH","long":-84.1514},"type":"Feature","geometry":null},{"properties":{"city":"Wabash","pop type":"Coalition Member","geo_score":0.902,"id":"ad18mknht7ru","address":"6670 Wabash Rd","lat":null,"geo_precision":"range","state":"OH","long":null},"type":"Feature","geometry":{"type":"Point","coordinates":[-84.75075,40.544337]}},{"properties":{"city":"Waldron","pop type":"Coalition Member","geo_score":0.49,"id":"ad18mkjj89jt","address":"115 S. Main St","lat":null,"geo_precision":"street","state":"MI","long":null},"type":"Feature","geometry":{"type":"Point","coordinates":[-84.418861,41.728933]}},{"properties":{"city":"Walnut Grove","pop type":"Core","geo_score":0.805,"id":"ad18mkhyulbw","address":"6746 Twp Rd 155","lat":null,"geo_precision":"range","state":"OH","long":null},"type":"Feature","geometry":{"type":"Point","coordinates":[-83.614337,40.721368]}},{"properties":{"city":"Wapakoneta","pop type":"Core","geo_score":0.812,"id":"ad18mkg5ma37","address":"19507 St Rt 501","lat":null,"geo_precision":"range","state":"OH","long":null},"type":"Feature","geometry":{"type":"Point","coordinates":[-84.203439,40.635038]}},{"properties":{"city":"Wapakoneta","pop type":"Coalition Member","geo_score":0.902,"id":"ad18mkm8rnna","address":"2 Willipie St","lat":null,"geo_precision":"range","state":"OH","long":null},"type":"Feature","geometry":{"type":"Point","coordinates":[-84.193981,40.570562]}},{"properties":{"city":"Wauseon","pop type":"Coalition Member","geo_score":0.849,"id":"ad18mkgldj4x","address":"725 Shoop Ave","lat":null,"geo_precision":"range","state":"OH","long":null},"type":"Feature","geometry":{"type":"Point","coordinates":[-84.134525,41.557781]}},{"properties":{"city":"West Milton","pop type":"Core","geo_score":0.58,"id":"ad18mkn3w4zn","address":"3928 Ohio 48","lat":null,"geo_precision":"street","state":"OH","long":null},"type":"Feature","geometry":{"type":"Point","coordinates":[-84.274705,39.925365]}},{"properties":{"city":"Worthington","pop type":"Core","geo_score":0.488,"id":"ad18mkdt9xs3","address":"535 Sherer's Ct","lat":null,"geo_precision":"city","state":"OH","long":null},"type":"Feature","geometry":{"type":"Point","coordinates":[-83.017962,40.093119]}}],"is_temporal":false,"author":{"url":"","metadata":"","contact_name":"","contact_address":"","source":"","contact_phone":""},"source":"","pagination":{"sort":null,"start":0,"total":42,"limit":1000000},"state":"complete","tags":"","published":"2014-08-16T19:38:22-04:00","id":335296}