{"type":"FeatureCollection","data_type":"Dataset","url_type":null,"permissions":[{"permissions":{"download":true,"view":true},"group_id":"everyone"}],"classification":null,"title":"WRAlocation3","count":100,"stream_id":335988,"contributor":{"url":"http://geocommons.com/users/67266","name":"tynorris"},"data_attributes":null,"calculation_params":null,"icon_link":null,"link":"http://geocommons.com/overlays/335988.json","extent":[0.0,0.0,0.0,0.0],"geometry_types":[],"unique_name":null,"name":"WRAlocation3","feature_count":100,"description":"","next_feature":null,"is_raster":false,"short_classification":"Y","stats":{},"features":[{"properties":{"city":"Gates Mills","column_4":null,"column_5":null,"geo_score":0.0,"id":"ad2b65qjfmog","geo_precision":"unmatched","state":"Ohio","column_3":null},"type":"Feature","geometry":null},{"properties":{"city":"Hudson","column_4":null,"column_5":null,"geo_score":0.0,"id":"ad2b65dt0387","geo_precision":"unmatched","state":"Ohio","column_3":null},"type":"Feature","geometry":null},{"properties":{"city":"Terrace Park","column_4":null,"column_5":null,"geo_score":0.0,"id":"ad2b65m33e4p","geo_precision":"unmatched","state":"Ohio","column_3":null},"type":"Feature","geometry":null},{"properties":{"city":"New Albany","column_4":null,"column_5":null,"geo_score":0.0,"id":"ad2b65o7wgtk","geo_precision":"unmatched","state":"Ohio","column_3":null},"type":"Feature","geometry":null},{"properties":{"city":"Wilberforce","column_4":null,"column_5":null,"geo_score":0.0,"id":"ad2b65joi1gd","geo_precision":"unmatched","state":"Ohio","column_3":null},"type":"Feature","geometry":null},{"properties":{"city":"Chagrin Falls","column_4":null,"column_5":null,"geo_score":0.0,"id":"ad2b65ldq0s7","geo_precision":"unmatched","state":"Ohio","column_3":null},"type":"Feature","geometry":null},{"properties":{"city":"Powell","column_4":null,"column_5":null,"geo_score":0.0,"id":"ad2b65dzcosn","geo_precision":"unmatched","state":"Ohio","column_3":null},"type":"Feature","geometry":null},{"properties":{"city":"Mark Center","column_4":null,"column_5":null,"geo_score":0.0,"id":"ad2b65mrevj1","geo_precision":"unmatched","state":"Ohio","column_3":null},"type":"Feature","geometry":null},{"properties":{"city":"Westerville","column_4":null,"column_5":null,"geo_score":0.0,"id":"ad2b65p3tudr","geo_precision":"unmatched","state":"Ohio","column_3":null},"type":"Feature","geometry":null},{"properties":{"city":"Solon","column_4":null,"column_5":null,"geo_score":0.0,"id":"ad2b65fsnpwb","geo_precision":"unmatched","state":"Ohio","column_3":null},"type":"Feature","geometry":null},{"properties":{"city":"Brecksville","column_4":null,"column_5":null,"geo_score":0.0,"id":"ad2b65rd8klw","geo_precision":"unmatched","state":"Ohio","column_3":null},"type":"Feature","geometry":null},{"properties":{"city":"Pickerington","column_4":null,"column_5":null,"geo_score":0.0,"id":"ad2b65i0ekuq","geo_precision":"unmatched","state":"Ohio","column_3":null},"type":"Feature","geometry":null},{"properties":{"city":"Springboro","column_4":null,"column_5":null,"geo_score":0.0,"id":"ad2b65kfhve9","geo_precision":"unmatched","state":"Ohio","column_3":null},"type":"Feature","geometry":null},{"properties":{"city":"West Chester","column_4":null,"column_5":null,"geo_score":0.0,"id":"ad2b65f9f5l1","geo_precision":"unmatched","state":"Ohio","column_3":null},"type":"Feature","geometry":null},{"properties":{"city":"Westfield Center","column_4":null,"column_5":null,"geo_score":0.0,"id":"ad2b65impdez","geo_precision":"unmatched","state":"Ohio","column_3":null},"type":"Feature","geometry":null},{"properties":{"city":"Dublin","column_4":null,"column_5":null,"geo_score":0.0,"id":"ad2b65gjj0xv","geo_precision":"unmatched","state":"Ohio","column_3":null},"type":"Feature","geometry":null},{"properties":{"city":"Lewis Center","column_4":null,"column_5":null,"geo_score":0.0,"id":"ad2b65foy2oh","geo_precision":"unmatched","state":"Ohio","column_3":null},"type":"Feature","geometry":null},{"properties":{"city":"Novelty","column_4":null,"column_5":null,"geo_score":0.0,"id":"ad2b65hwbr87","geo_precision":"unmatched","state":"Ohio","column_3":null},"type":"Feature","geometry":null},{"properties":{"city":"Richfield","column_4":null,"column_5":null,"geo_score":0.0,"id":"ad2b65jhhniw","geo_precision":"unmatched","state":"Ohio","column_3":null},"type":"Feature","geometry":null},{"properties":{"city":"Mason","column_4":null,"column_5":null,"geo_score":0.0,"id":"ad2b65ed8633","geo_precision":"unmatched","state":"Ohio","column_3":null},"type":"Feature","geometry":null},{"properties":{"city":"Hinckley","column_4":null,"column_5":null,"geo_score":0.0,"id":"ad2b65biyark","geo_precision":"unmatched","state":"Ohio","column_3":null},"type":"Feature","geometry":null},{"properties":{"city":"Granville","column_4":null,"column_5":null,"geo_score":0.0,"id":"ad2b65hjv71b","geo_precision":"unmatched","state":"Ohio","column_3":null},"type":"Feature","geometry":null},{"properties":{"city":"Bay Village","column_4":null,"column_5":null,"geo_score":0.0,"id":"ad2b65d2gsjf","geo_precision":"unmatched","state":"Ohio","column_3":null},"type":"Feature","geometry":null},{"properties":{"city":"Macedonia","column_4":null,"column_5":null,"geo_score":0.0,"id":"ad2b65h64w6w","geo_precision":"unmatched","state":"Ohio","column_3":null},"type":"Feature","geometry":null},{"properties":{"city":"Galena","column_4":null,"column_5":null,"geo_score":0.0,"id":"ad2b65go67bb","geo_precision":"unmatched","state":"Ohio","column_3":null},"type":"Feature","geometry":null},{"properties":{"city":"Strongsville","column_4":null,"column_5":null,"geo_score":0.0,"id":"ad2b65c5lknk","geo_precision":"unmatched","state":"Ohio","column_3":null},"type":"Feature","geometry":null},{"properties":{"city":"Loveland","column_4":null,"column_5":null,"geo_score":0.0,"id":"ad2b65mbxt4y","geo_precision":"unmatched","state":"Ohio","column_3":null},"type":"Feature","geometry":null},{"properties":{"city":"Aurora","column_4":null,"column_5":null,"geo_score":0.0,"id":"ad2b65bm7o7o","geo_precision":"unmatched","state":"Ohio","column_3":null},"type":"Feature","geometry":null},{"properties":{"city":"Chesterland","column_4":null,"column_5":null,"geo_score":0.0,"id":"ad2b65nv95sd","geo_precision":"unmatched","state":"Ohio","column_3":null},"type":"Feature","geometry":null},{"properties":{"city":"Avon","column_4":null,"column_5":null,"geo_score":0.0,"id":"ad2b65p1z1ht","geo_precision":"unmatched","state":"Ohio","column_3":null},"type":"Feature","geometry":null},{"properties":{"city":"Maineville","column_4":null,"column_5":null,"geo_score":0.0,"id":"ad2b65fk5rni","geo_precision":"unmatched","state":"Ohio","column_3":null},"type":"Feature","geometry":null},{"properties":{"city":"Avon Lake","column_4":null,"column_5":null,"geo_score":0.0,"id":"ad2b65la52bx","geo_precision":"unmatched","state":"Ohio","column_3":null},"type":"Feature","geometry":null},{"properties":{"city":"Westlake","column_4":null,"column_5":null,"geo_score":0.0,"id":"ad2b65ba0kfm","geo_precision":"unmatched","state":"Ohio","column_3":null},"type":"Feature","geometry":null},{"properties":{"city":"Camp Dennison","column_4":null,"column_5":null,"geo_score":0.0,"id":"ad2b65kifx1k","geo_precision":"unmatched","state":"Ohio","column_3":null},"type":"Feature","geometry":null},{"properties":{"city":"Bellbrook","column_4":null,"column_5":null,"geo_score":0.0,"id":"ad2b65eke3z4","geo_precision":"unmatched","state":"Ohio","column_3":null},"type":"Feature","geometry":null},{"properties":{"city":"Ostrander","column_4":null,"column_5":null,"geo_score":0.0,"id":"ad2b65k8en28","geo_precision":"unmatched","state":"Ohio","column_3":null},"type":"Feature","geometry":null},{"properties":{"city":"Monclova","column_4":null,"column_5":null,"geo_score":0.0,"id":"ad2b65cug0rm","geo_precision":"unmatched","state":"Ohio","column_3":null},"type":"Feature","geometry":null},{"properties":{"city":"Waterville","column_4":null,"column_5":null,"geo_score":0.0,"id":"ad2b65kfy66t","geo_precision":"unmatched","state":"Ohio","column_3":null},"type":"Feature","geometry":null},{"properties":{"city":"Graytown","column_4":null,"column_5":null,"geo_score":0.0,"id":"ad2b65nb2ae4","geo_precision":"unmatched","state":"Ohio","column_3":null},"type":"Feature","geometry":null},{"properties":{"city":"Hilliard","column_4":null,"column_5":null,"geo_score":0.0,"id":"ad2b65jyikuy","geo_precision":"unmatched","state":"Ohio","column_3":null},"type":"Feature","geometry":null},{"properties":{"city":"Sylvania","column_4":null,"column_5":null,"geo_score":0.0,"id":"ad2b65gyadh9","geo_precision":"unmatched","state":"Ohio","column_3":null},"type":"Feature","geometry":null},{"properties":{"city":"Neapolis","column_4":null,"column_5":null,"geo_score":0.0,"id":"ad2b65jsuwh3","geo_precision":"unmatched","state":"Ohio","column_3":null},"type":"Feature","geometry":null},{"properties":{"city":"Sunbury","column_4":null,"column_5":null,"geo_score":0.0,"id":"ad2b65qn9t72","geo_precision":"unmatched","state":"Ohio","column_3":null},"type":"Feature","geometry":null},{"properties":{"city":"Whitehouse","column_4":null,"column_5":null,"geo_score":0.0,"id":"ad2b65fjzvv5","geo_precision":"unmatched","state":"Ohio","column_3":null},"type":"Feature","geometry":null},{"properties":{"city":"Munroe Falls","column_4":null,"column_5":null,"geo_score":0.0,"id":"ad2b65f3jy1m","geo_precision":"unmatched","state":"Ohio","column_3":null},"type":"Feature","geometry":null},{"properties":{"city":"Okeana","column_4":null,"column_5":null,"geo_score":0.0,"id":"ad2b65b2f7bl","geo_precision":"unmatched","state":"Ohio","column_3":null},"type":"Feature","geometry":null},{"properties":{"city":"Beachwood","column_4":null,"column_5":null,"geo_score":0.0,"id":"ad2b65lfvr52","geo_precision":"unmatched","state":"Ohio","column_3":null},"type":"Feature","geometry":null},{"properties":{"city":"Twinsburg","column_4":null,"column_5":null,"geo_score":0.0,"id":"ad2b65cwxe6b","geo_precision":"unmatched","state":"Ohio","column_3":null},"type":"Feature","geometry":null},{"properties":{"city":"Williston","column_4":null,"column_5":null,"geo_score":0.0,"id":"ad2b65dmzsm9","geo_precision":"unmatched","state":"Ohio","column_3":null},"type":"Feature","geometry":null},{"properties":{"city":"Valley City","column_4":null,"column_5":null,"geo_score":0.0,"id":"ad2b65n967sn","geo_precision":"unmatched","state":"Ohio","column_3":null},"type":"Feature","geometry":null},{"properties":{"city":"Uniontown","column_4":null,"column_5":null,"geo_score":0.0,"id":"ad2b65j6tt3v","geo_precision":"unmatched","state":"Ohio","column_3":null},"type":"Feature","geometry":null},{"properties":{"city":"Berkey","column_4":null,"column_5":null,"geo_score":0.0,"id":"ad2b65iaeif5","geo_precision":"unmatched","state":"Ohio","column_3":null},"type":"Feature","geometry":null},{"properties":{"city":"Canfield","column_4":null,"column_5":null,"geo_score":0.0,"id":"ad2b65pouf8x","geo_precision":"unmatched","state":"Ohio","column_3":null},"type":"Feature","geometry":null},{"properties":{"city":"Alpha","column_4":null,"column_5":null,"geo_score":0.0,"id":"ad2b65e6q54m","geo_precision":"unmatched","state":"Ohio","column_3":null},"type":"Feature","geometry":null},{"properties":{"city":"Kings Mills","column_4":null,"column_5":null,"geo_score":0.0,"id":"ad2b65itfcie","geo_precision":"unmatched","state":"Ohio","column_3":null},"type":"Feature","geometry":null},{"properties":{"city":"Huntsburg","column_4":null,"column_5":null,"geo_score":0.0,"id":"ad2b65oib8fu","geo_precision":"unmatched","state":"Ohio","column_3":null},"type":"Feature","geometry":null},{"properties":{"city":"Newbury","column_4":null,"column_5":null,"geo_score":0.0,"id":"ad2b65o61w3h","geo_precision":"unmatched","state":"Ohio","column_3":null},"type":"Feature","geometry":null},{"properties":{"city":"Carroll","column_4":null,"column_5":null,"geo_score":0.0,"id":"ad2b65kyangz","geo_precision":"unmatched","state":"Ohio","column_3":null},"type":"Feature","geometry":null},{"properties":{"city":"Northfield","column_4":null,"column_5":null,"geo_score":0.0,"id":"ad2b65ic5if9","geo_precision":"unmatched","state":"Ohio","column_3":null},"type":"Feature","geometry":null},{"properties":{"city":"Grafton","column_4":null,"column_5":null,"geo_score":0.0,"id":"ad2b65iro3v9","geo_precision":"unmatched","state":"Ohio","column_3":null},"type":"Feature","geometry":null},{"properties":{"city":"Russia","column_4":null,"column_5":null,"geo_score":0.0,"id":"ad2b65q2m4ls","geo_precision":"unmatched","state":"Ohio","column_3":null},"type":"Feature","geometry":null},{"properties":{"city":"Medina","column_4":null,"column_5":null,"geo_score":0.0,"id":"ad2b65mb61qm","geo_precision":"unmatched","state":"Ohio","column_3":null},"type":"Feature","geometry":null},{"properties":{"city":"Anna","column_4":null,"column_5":null,"geo_score":0.0,"id":"ad2b65hoagud","geo_precision":"unmatched","state":"Ohio","column_3":null},"type":"Feature","geometry":null},{"properties":{"city":"Old Fort","column_4":null,"column_5":null,"geo_score":0.0,"id":"ad2b65pzk3y2","geo_precision":"unmatched","state":"Ohio","column_3":null},"type":"Feature","geometry":null},{"properties":{"city":"Columbia Station","column_4":null,"column_5":null,"geo_score":0.0,"id":"ad2b65g8msp8","geo_precision":"unmatched","state":"Ohio","column_3":null},"type":"Feature","geometry":null},{"properties":{"city":"North Royalton","column_4":null,"column_5":null,"geo_score":0.0,"id":"ad2b65nnvy3e","geo_precision":"unmatched","state":"Ohio","column_3":null},"type":"Feature","geometry":null},{"properties":{"city":"Alexandria","column_4":null,"column_5":null,"geo_score":0.0,"id":"ad2b65o6cfc0","geo_precision":"unmatched","state":"Ohio","column_3":null},"type":"Feature","geometry":null},{"properties":{"city":"Stow","column_4":null,"column_5":null,"geo_score":0.0,"id":"ad2b65ek2d8i","geo_precision":"unmatched","state":"Ohio","column_3":null},"type":"Feature","geometry":null},{"properties":{"city":"Broadview Heights","column_4":null,"column_5":null,"geo_score":0.0,"id":"ad2b65br36kx","geo_precision":"unmatched","state":"Ohio","column_3":null},"type":"Feature","geometry":null},{"properties":{"city":"Brunswick","column_4":null,"column_5":null,"geo_score":0.0,"id":"ad2b65h3wfof","geo_precision":"unmatched","state":"Ohio","column_3":null},"type":"Feature","geometry":null},{"properties":{"city":"Perrysburg","column_4":null,"column_5":null,"geo_score":0.0,"id":"ad2b65njjzes","geo_precision":"unmatched","state":"Ohio","column_3":null},"type":"Feature","geometry":null},{"properties":{"city":"North Bend","column_4":null,"column_5":null,"geo_score":0.0,"id":"ad2b65bv8nrh","geo_precision":"unmatched","state":"Ohio","column_3":null},"type":"Feature","geometry":null},{"properties":{"city":"Pataskala","column_4":null,"column_5":null,"geo_score":0.0,"id":"ad2b65lsxapk","geo_precision":"unmatched","state":"Ohio","column_3":null},"type":"Feature","geometry":null},{"properties":{"city":"Milan","column_4":null,"column_5":null,"geo_score":0.0,"id":"ad2b65gkxv49","geo_precision":"unmatched","state":"Ohio","column_3":null},"type":"Feature","geometry":null},{"properties":{"city":"Martin","column_4":null,"column_5":null,"geo_score":0.0,"id":"ad2b65l1b054","geo_precision":"unmatched","state":"Ohio","column_3":null},"type":"Feature","geometry":null},{"properties":{"city":"Litchfield","column_4":null,"column_5":null,"geo_score":0.0,"id":"ad2b65h745ez","geo_precision":"unmatched","state":"Ohio","column_3":null},"type":"Feature","geometry":null},{"properties":{"city":"Castalia","column_4":null,"column_5":null,"geo_score":0.0,"id":"ad2b65dz9rgv","geo_precision":"unmatched","state":"Ohio","column_3":null},"type":"Feature","geometry":null},{"properties":{"city":"Chardon","column_4":null,"column_5":null,"geo_score":0.0,"id":"ad2b65iu2mbj","geo_precision":"unmatched","state":"Ohio","column_3":null},"type":"Feature","geometry":null},{"properties":{"city":"Oregonia","column_4":null,"column_5":null,"geo_score":0.0,"id":"ad2b65fdmwud","geo_precision":"unmatched","state":"Ohio","column_3":null},"type":"Feature","geometry":null},{"properties":{"city":"Spring Valley","column_4":null,"column_5":null,"geo_score":0.0,"id":"ad2b65ch3djo","geo_precision":"unmatched","state":"Ohio","column_3":null},"type":"Feature","geometry":null},{"properties":{"city":"Orient","column_4":null,"column_5":null,"geo_score":0.0,"id":"ad2b65psayom","geo_precision":"unmatched","state":"Ohio","column_3":null},"type":"Feature","geometry":null},{"properties":{"city":"Mentor","column_4":null,"column_5":null,"geo_score":0.0,"id":"ad2b65omxuwz","geo_precision":"unmatched","state":"Ohio","column_3":null},"type":"Feature","geometry":null},{"properties":{"city":"East Liberty","column_4":null,"column_5":null,"geo_score":0.0,"id":"ad2b65maftbc","geo_precision":"unmatched","state":"Ohio","column_3":null},"type":"Feature","geometry":null},{"properties":{"city":"Waynesville","column_4":null,"column_5":null,"geo_score":0.0,"id":"ad2b65qyhf7n","geo_precision":"unmatched","state":"Ohio","column_3":null},"type":"Feature","geometry":null},{"properties":{"city":"Somerville","column_4":null,"column_5":null,"geo_score":0.0,"id":"ad2b65qns1xr","geo_precision":"unmatched","state":"Ohio","column_3":null},"type":"Feature","geometry":null},{"properties":{"city":"Blacklick","column_4":null,"column_5":null,"geo_score":0.0,"id":"ad2b65ptszib","geo_precision":"unmatched","state":"Ohio","column_3":null},"type":"Feature","geometry":null},{"properties":{"city":"Hooven","column_4":null,"column_5":null,"geo_score":0.0,"id":"ad2b65b362f4","geo_precision":"unmatched","state":"Ohio","column_3":null},"type":"Feature","geometry":null},{"properties":{"city":"Commercial Point","column_4":null,"column_5":null,"geo_score":0.0,"id":"ad2b65nq0p5h","geo_precision":"unmatched","state":"Ohio","column_3":null},"type":"Feature","geometry":null},{"properties":{"city":"Galloway","column_4":null,"column_5":null,"geo_score":0.0,"id":"ad2b65ohibhi","geo_precision":"unmatched","state":"Ohio","column_3":null},"type":"Feature","geometry":null},{"properties":{"city":"Independence","column_4":null,"column_5":null,"geo_score":0.0,"id":"ad2b65deah3k","geo_precision":"unmatched","state":"Ohio","column_3":null},"type":"Feature","geometry":null},{"properties":{"city":"Monroe","column_4":null,"column_5":null,"geo_score":0.0,"id":"ad2b65qiaxcz","geo_precision":"unmatched","state":"Ohio","column_3":null},"type":"Feature","geometry":null},{"properties":{"city":"Yellow Springs","column_4":null,"column_5":null,"geo_score":0.0,"id":"ad2b65huejez","geo_precision":"unmatched","state":"Ohio","column_3":null},"type":"Feature","geometry":null},{"properties":{"city":"Gomer","column_4":null,"column_5":null,"geo_score":0.0,"id":"ad2b65p27hcq","geo_precision":"unmatched","state":"Ohio","column_3":null},"type":"Feature","geometry":null},{"properties":{"city":"Pleasant Plain","column_4":null,"column_5":null,"geo_score":0.0,"id":"ad2b65be9mnb","geo_precision":"unmatched","state":"Ohio","column_3":null},"type":"Feature","geometry":null},{"properties":{"city":"Van Buren","column_4":null,"column_5":null,"geo_score":0.0,"id":"ad2b65gnzd7e","geo_precision":"unmatched","state":"Ohio","column_3":null},"type":"Feature","geometry":null},{"properties":{"city":"Clinton","column_4":null,"column_5":null,"geo_score":0.0,"id":"ad2b65dnw2wf","geo_precision":"unmatched","state":"Ohio","column_3":null},"type":"Feature","geometry":null},{"properties":{"city":"North Ridgeville","column_4":null,"column_5":null,"geo_score":0.0,"id":"ad2b65hazq2k","geo_precision":"unmatched","state":"Ohio","column_3":null},"type":"Feature","geometry":null},{"properties":{"city":"Canal Winchester","column_4":null,"column_5":null,"geo_score":0.0,"id":"ad2b65ll8pma","geo_precision":"unmatched","state":"Ohio","column_3":null},"type":"Feature","geometry":null},{"properties":{"city":"Lagrange","column_4":null,"column_5":null,"geo_score":0.0,"id":"ad2b65gscsnh","geo_precision":"unmatched","state":"Ohio","column_3":null},"type":"Feature","geometry":null},{"properties":{"city":"Casstown","column_4":null,"column_5":null,"geo_score":0.0,"id":"ad2b65o76fw4","geo_precision":"unmatched","state":"Ohio","column_3":null},"type":"Feature","geometry":null}],"is_temporal":false,"author":{"url":"","metadata":null,"contact_name":null,"contact_address":null,"source":null,"contact_phone":null},"source":"","pagination":{"sort":null,"start":0,"total":100,"limit":1000000},"state":"complete","tags":"","published":"2014-08-16T20:26:37-04:00","id":335988}