{"type":"FeatureCollection","data_type":"Dataset","url_type":null,"permissions":[{"permissions":{"download":true,"view":true},"group_id":"everyone"}],"classification":null,"title":"WRAlocation","count":100,"stream_id":335977,"contributor":{"url":"http://geocommons.com/users/67266","name":"tynorris"},"data_attributes":null,"calculation_params":null,"icon_link":null,"link":"http://geocommons.com/overlays/335977.json","extent":[-164.067,28.5625,-71.0712,65.6667],"geometry_types":["point"],"unique_name":null,"name":"WRAlocation","feature_count":100,"description":"","next_feature":null,"is_raster":false,"short_classification":"Y","stats":{},"features":[{"properties":{"city":"Gates Mills","country":"United States","id":"ad2aybniqtsc","state":"Ohio"},"type":"Feature","geometry":{"type":"Point","coordinates":[-76.6019092,39.0364993]}},{"properties":{"city":"Hudson","country":"United States","id":"ad2aybbuxygp","state":"Ohio"},"type":"Feature","geometry":{"type":"Point","coordinates":[-100.2117705,32.8945502]}},{"properties":{"city":"Terrace Park","country":"United States","id":"ad2aybawah9l","state":"Ohio"},"type":"Feature","geometry":{"type":"Point","coordinates":[-87.1124981,33.6137184]}},{"properties":{"city":"New Albany","country":"United States","id":"ad2aybif3f9i","state":"Ohio"},"type":"Feature","geometry":{"type":"Point","coordinates":[-84.5227275,41.3811617]}},{"properties":{"city":"Wilberforce","country":"United States","id":"ad2aybb86cbj","state":"Ohio"},"type":"Feature","geometry":{"type":"Point","coordinates":[-83.8804843,39.7186711]}},{"properties":{"city":"Chagrin Falls","country":"United States","id":"ad2ayblro7g4","state":"Ohio"},"type":"Feature","geometry":{"type":"Point","coordinates":[-71.0711633,42.4417628]}},{"properties":{"city":"Powell","country":"United States","id":"ad2aybd34dnf","state":"Ohio"},"type":"Feature","geometry":{"type":"Point","coordinates":[-115.2266868,38.3696703]}},{"properties":{"city":"Mark Center","country":"United States","id":"ad2aybkczw6e","state":"Ohio"},"type":"Feature","geometry":{"type":"Point","coordinates":[-90.2687042,34.2570556]}},{"properties":{"city":"Westerville","country":"United States","id":"ad2aybi6fiwd","state":"Ohio"},"type":"Feature","geometry":{"type":"Point","coordinates":[-87.733345,33.2370627]}},{"properties":{"city":"Solon","country":"United States","id":"ad2aybcn6359","state":"Ohio"},"type":"Feature","geometry":{"type":"Point","coordinates":[-82.493781,41.3717152]}},{"properties":{"city":"Brecksville","country":"United States","id":"ad2aybbcht9r","state":"Ohio"},"type":"Feature","geometry":{"type":"Point","coordinates":[-82.3831485,28.5624938]}},{"properties":{"city":"Pickerington","country":"United States","id":"ad2aybompeqz","state":"Ohio"},"type":"Feature","geometry":{"type":"Point","coordinates":[-79.3258671,40.0842404]}},{"properties":{"city":"Springboro","country":"United States","id":"ad2ayb9g9mi7","state":"Ohio"},"type":"Feature","geometry":{"type":"Point","coordinates":[-74.8765402,42.8289619]}},{"properties":{"city":"West Chester","country":"United States","id":"ad2aybgugik3","state":"Ohio"},"type":"Feature","geometry":{"type":"Point","coordinates":[-89.7870076,30.2496393]}},{"properties":{"city":"Westfield Center","country":"United States","id":"ad2ayboa12hw","state":"Ohio"},"type":"Feature","geometry":{"type":"Point","coordinates":[-106.3389251,44.4280334]}},{"properties":{"city":"Dublin","country":"United States","id":"ad2ayboenrwv","state":"Ohio"},"type":"Feature","geometry":{"type":"Point","coordinates":[-109.8342483,32.8961754]}},{"properties":{"city":"Lewis Center","country":"United States","id":"ad2aybacwkfv","state":"Ohio"},"type":"Feature","geometry":{"type":"Point","coordinates":[-90.1114961,38.8022708]}},{"properties":{"city":"Novelty","country":"United States","id":"ad2aybng0plu","state":"Ohio"},"type":"Feature","geometry":{"type":"Point","coordinates":[-75.2376812,39.9898349]}},{"properties":{"city":"Richfield","country":"United States","id":"ad2aybefoj8r","state":"Ohio"},"type":"Feature","geometry":{"type":"Point","coordinates":[-83.5591194,43.0700266]}},{"properties":{"city":"Mason","country":"United States","id":"ad2aybmibh1g","state":"Ohio"},"type":"Feature","geometry":{"type":"Point","coordinates":[-89.7031784,44.7930232]}},{"properties":{"city":"Hinckley","country":"United States","id":"ad2ayba2odk6","state":"Ohio"},"type":"Feature","geometry":{"type":"Point","coordinates":[-119.3122389,45.7965211]}},{"properties":{"city":"Granville","country":"United States","id":"ad2ayb8qhmcl","state":"Ohio"},"type":"Feature","geometry":{"type":"Point","coordinates":[-77.3596873,35.6479383]}},{"properties":{"city":"Bay Village","country":"United States","id":"ad2aybb01hdb","state":"Ohio"},"type":"Feature","geometry":{"type":"Point","coordinates":[-89.2411782,33.4373452]}},{"properties":{"city":"Macedonia","country":"United States","id":"ad2aybnfzln1","state":"Ohio"},"type":"Feature","geometry":{"type":"Point","coordinates":[-77.4430468,40.6114637]}},{"properties":{"city":"Galena","country":"United States","id":"ad2aybl7micm","state":"Ohio"},"type":"Feature","geometry":{"type":"Point","coordinates":[-96.699989,31.7565526]}},{"properties":{"city":"Strongsville","country":"United States","id":"ad2aybgq48d7","state":"Ohio"},"type":"Feature","geometry":{"type":"Point","coordinates":[-106.4219785,43.7246972]}},{"properties":{"city":"Loveland","country":"United States","id":"ad2aybnyt1k0","state":"Ohio"},"type":"Feature","geometry":{"type":"Point","coordinates":[-84.2838889,39.2722222]}},{"properties":{"city":"Aurora","country":"United States","id":"ad2aybh62fa0","state":"Ohio"},"type":"Feature","geometry":{"type":"Point","coordinates":[-164.0666667,65.6666667]}},{"properties":{"city":"Chesterland","country":"United States","id":"ad2aybifa7yv","state":"Ohio"},"type":"Feature","geometry":{"type":"Point","coordinates":[-89.8076056,37.9192183]}},{"properties":{"city":"Avon","country":"United States","id":"ad2aybh3e7cz","state":"Ohio"},"type":"Feature","geometry":{"type":"Point","coordinates":[-95.6016446,37.0959086]}},{"properties":{"city":"Maineville","country":"United States","id":"ad2aybdh57do","state":"Ohio"},"type":"Feature","geometry":{"type":"Point","coordinates":[-84.2207697,39.3150592]}},{"properties":{"city":"Avon Lake","country":"United States","id":"ad2ayba20wud","state":"Ohio"},"type":"Feature","geometry":{"type":"Point","coordinates":[-119.6801733,38.1715826]}},{"properties":{"city":"Westlake","country":"United States","id":"ad2aybbgs5gb","state":"Ohio"},"type":"Feature","geometry":{"type":"Point","coordinates":[-98.1025513,38.9577841]}},{"properties":{"city":"Camp Dennison","country":"United States","id":"ad2aybeqqte6","state":"Ohio"},"type":"Feature","geometry":{"type":"Point","coordinates":[-115.7415361,46.7207424]}},{"properties":{"city":"Bellbrook","country":"United States","id":"ad2aybc0i2t2","state":"Ohio"},"type":"Feature","geometry":{"type":"Point","coordinates":[-84.0682681,39.6497819]}},{"properties":{"city":"Ostrander","country":"United States","id":"ad2aybixlme9","state":"Ohio"},"type":"Feature","geometry":{"type":"Point","coordinates":[-92.4196169,43.5335762]}},{"properties":{"city":"Monclova","country":"United States","id":"ad2aybf5riiz","state":"Ohio"},"type":"Feature","geometry":{"type":"Point","coordinates":[-89.1281288,39.1097664]}},{"properties":{"city":"Waterville","country":"United States","id":"ad2aybhu9v81","state":"Ohio"},"type":"Feature","geometry":{"type":"Point","coordinates":[-71.4995204,43.9500695]}},{"properties":{"city":"Graytown","country":"United States","id":"ad2aybnsucnx","state":"Ohio"},"type":"Feature","geometry":{"type":"Point","coordinates":[-91.0723491,37.3819916]}},{"properties":{"city":"Hilliard","country":"United States","id":"ad2aybfm015t","state":"Ohio"},"type":"Feature","geometry":{"type":"Point","coordinates":[-98.4111777,38.5869549]}},{"properties":{"city":"Sylvania","country":"United States","id":"ad2aybilzjlz","state":"Ohio"},"type":"Feature","geometry":{"type":"Point","coordinates":[-117.7242546,37.3979867]}},{"properties":{"city":"Neapolis","country":"United States","id":"ad2ayboj6flw","state":"Ohio"},"type":"Feature","geometry":{"type":"Point","coordinates":[-83.8732751,41.4928302]}},{"properties":{"city":"Sunbury","country":"United States","id":"ad2aybeqwe9l","state":"Ohio"},"type":"Feature","geometry":{"type":"Point","coordinates":[-88.5275627,41.1008658]}},{"properties":{"city":"Whitehouse","country":"United States","id":"ad2aybii6yk0","state":"Ohio"},"type":"Feature","geometry":{"type":"Point","coordinates":[-75.9135303,41.7334095]}},{"properties":{"city":"Munroe Falls","country":"United States","id":"ad2aybizu68v","state":"Ohio"},"type":"Feature","geometry":{"type":"Point","coordinates":[-76.4680169,40.4778677]}},{"properties":{"city":"Okeana","country":"United States","id":"ad2aybb16t8e","state":"Ohio"},"type":"Feature","geometry":{"type":"Point","coordinates":[-98.3170165,36.116148]}},{"properties":{"city":"Beachwood","country":"United States","id":"ad2aybmp5434","state":"Ohio"},"type":"Feature","geometry":{"type":"Point","coordinates":[-88.1203731,43.592774]}},{"properties":{"city":"Twinsburg","country":"United States","id":"ad2aybbsrjhn","state":"Ohio"},"type":"Feature","geometry":{"type":"Point","coordinates":[-81.4415019,41.3133885]}},{"properties":{"city":"Williston","country":"United States","id":"ad2aybd5k2vv","state":"Ohio"},"type":"Feature","geometry":{"type":"Point","coordinates":[-86.7005491,33.8984331]}},{"properties":{"city":"Valley City","country":"United States","id":"ad2aybncn8jb","state":"Ohio"},"type":"Feature","geometry":{"type":"Point","coordinates":[-109.8101243,38.8671957]}},{"properties":{"city":"Uniontown","country":"United States","id":"ad2aybi29c88","state":"Ohio"},"type":"Feature","geometry":{"type":"Point","coordinates":[-87.516391,32.446525]}},{"properties":{"city":"Berkey","country":"United States","id":"ad2aybp172i7","state":"Ohio"},"type":"Feature","geometry":{"type":"Point","coordinates":[-88.4890193,46.7785434]}},{"properties":{"city":"Canfield","country":"United States","id":"ad2aybfalvf9","state":"Ohio"},"type":"Feature","geometry":{"type":"Point","coordinates":[-73.3828958,41.0970412]}},{"properties":{"city":"Alpha","country":"United States","id":"ad2aybo0b12m","state":"Ohio"},"type":"Feature","geometry":{"type":"Point","coordinates":[-93.8704743,34.4898262]}},{"properties":{"city":"Kings Mills","country":"United States","id":"ad2aybarnuq7","state":"Ohio"},"type":"Feature","geometry":{"type":"Point","coordinates":[-75.0662932,38.417891]}},{"properties":{"city":"Huntsburg","country":"United States","id":"ad2aybkffd36","state":"Ohio"},"type":"Feature","geometry":{"type":"Point","coordinates":[-87.0230655,34.6445357]}},{"properties":{"city":"Newbury","country":"United States","id":"ad2ayblbiwqo","state":"Ohio"},"type":"Feature","geometry":{"type":"Point","coordinates":[-96.1752719,39.0847207]}},{"properties":{"city":"Carroll","country":"United States","id":"ad2aybhnulrk","state":"Ohio"},"type":"Feature","geometry":{"type":"Point","coordinates":[-92.6848725,31.9401628]}},{"properties":{"city":"Northfield","country":"United States","id":"ad2aybehhuq6","state":"Ohio"},"type":"Feature","geometry":{"type":"Point","coordinates":[-87.6805842,34.8184208]}},{"properties":{"city":"Grafton","country":"United States","id":"ad2aybauvirh","state":"Ohio"},"type":"Feature","geometry":{"type":"Point","coordinates":[-76.6941339,39.005666]}},{"properties":{"city":"Russia","country":"United States","id":"ad2aybkdd5e1","state":"Ohio"},"type":"Feature","geometry":{"type":"Point","coordinates":[-100.9334809,47.8383369]}},{"properties":{"city":"Medina","country":"United States","id":"ad2aybn1x2sh","state":"Ohio"},"type":"Feature","geometry":{"type":"Point","coordinates":[-92.0331761,30.274089]}},{"properties":{"city":"Anna","country":"United States","id":"ad2aybbk505s","state":"Ohio"},"type":"Feature","geometry":{"type":"Point","coordinates":[-92.1973807,37.0308871]}},{"properties":{"city":"Old Fort","country":"United States","id":"ad2aybbs2o2o","state":"Ohio"},"type":"Feature","geometry":{"type":"Point","coordinates":[-78.7880748,39.5734226]}},{"properties":{"city":"Columbia Station","country":"United States","id":"ad2aybcyqjrk","state":"Ohio"},"type":"Feature","geometry":{"type":"Point","coordinates":[-88.443833,33.643833]}},{"properties":{"city":"North Royalton","country":"United States","id":"ad2aybgez5lf","state":"Ohio"},"type":"Feature","geometry":{"type":"Point","coordinates":[-89.1050776,37.8644946]}},{"properties":{"city":"Alexandria","country":"United States","id":"ad2aybdi7tpd","state":"Ohio"},"type":"Feature","geometry":null},{"properties":{"city":"Stow","country":"United States","id":"ad2aybfpf96a","state":"Ohio"},"type":"Feature","geometry":{"type":"Point","coordinates":[-92.4920844,31.4724002]}},{"properties":{"city":"Broadview Heights","country":"United States","id":"ad2aybiz2myt","state":"Ohio"},"type":"Feature","geometry":{"type":"Point","coordinates":[-122.3604067,47.7223199]}},{"properties":{"city":"Brunswick","country":"United States","id":"ad2aybmnjdgg","state":"Ohio"},"type":"Feature","geometry":{"type":"Point","coordinates":[-78.1186054,34.1165599]}},{"properties":{"city":"Perrysburg","country":"United States","id":"ad2aybiwzhdb","state":"Ohio"},"type":"Feature","geometry":{"type":"Point","coordinates":[-81.4034418,36.7806735]}},{"properties":{"city":"North Bend","country":"United States","id":"ad2aybnw464u","state":"Ohio"},"type":"Feature","geometry":{"type":"Point","coordinates":[-115.5712607,46.9399104]}},{"properties":{"city":"Pataskala","country":"United States","id":"ad2aybnhw0lh","state":"Ohio"},"type":"Feature","geometry":{"type":"Point","coordinates":[-95.0860716,37.0089593]}},{"properties":{"city":"Milan","country":"United States","id":"ad2ayb8y043s","state":"Ohio"},"type":"Feature","geometry":{"type":"Point","coordinates":[-75.625761,39.6623346]}},{"properties":{"city":"Martin","country":"United States","id":"ad2aybostnk3","state":"Ohio"},"type":"Feature","geometry":{"type":"Point","coordinates":[-90.6626268,37.7964387]}},{"properties":{"city":"Litchfield","country":"United States","id":"ad2aybcllmw4","state":"Ohio"},"type":"Feature","geometry":{"type":"Point","coordinates":[-77.0433103,38.9106671]}},{"properties":{"city":"Castalia","country":"United States","id":"ad2ayb99k7ho","state":"Ohio"},"type":"Feature","geometry":{"type":"Point","coordinates":[-78.0594481,41.5933981]}},{"properties":{"city":"Chardon","country":"United States","id":"ad2aybobbuty","state":"Ohio"},"type":"Feature","geometry":{"type":"Point","coordinates":[-83.1604503,36.87759]}},{"properties":{"city":"Oregonia","country":"United States","id":"ad2aybaus9qh","state":"Ohio"},"type":"Feature","geometry":{"type":"Point","coordinates":[-92.5115573,37.4783792]}},{"properties":{"city":"Spring Valley","country":"United States","id":"ad2ayba5fdeg","state":"Ohio"},"type":"Feature","geometry":{"type":"Point","coordinates":[-74.8765402,42.8289619]}},{"properties":{"city":"Orient","country":"United States","id":"ad2ayboiyp05","state":"Ohio"},"type":"Feature","geometry":{"type":"Point","coordinates":[-73.7284641,40.937321]}},{"properties":{"city":"Mentor","country":"United States","id":"ad2aybk380qa","state":"Ohio"},"type":"Feature","geometry":{"type":"Point","coordinates":[-84.0949438,40.4319933]}},{"properties":{"city":"East Liberty","country":"United States","id":"ad2aybkbkzjx","state":"Ohio"},"type":"Feature","geometry":{"type":"Point","coordinates":[-85.3832796,32.6498559]}},{"properties":{"city":"Waynesville","country":"United States","id":"ad2aybcdl6oq","state":"Ohio"},"type":"Feature","geometry":{"type":"Point","coordinates":[-83.0118037,35.4281579]}},{"properties":{"city":"Somerville","country":"United States","id":"ad2aybh22igv","state":"Ohio"},"type":"Feature","geometry":{"type":"Point","coordinates":[-74.6159913,40.5609364]}},{"properties":{"city":"Blacklick","country":"United States","id":"ad2aybhxry1f","state":"Ohio"},"type":"Feature","geometry":{"type":"Point","coordinates":[-87.84724,33.5687237]}},{"properties":{"city":"Hooven","country":"United States","id":"ad2aybmtle4k","state":"Ohio"},"type":"Feature","geometry":{"type":"Point","coordinates":[-84.7591155,39.1781127]}},{"properties":{"city":"Commercial Point","country":"United States","id":"ad2aybnxjr6s","state":"Ohio"},"type":"Feature","geometry":{"type":"Point","coordinates":[-76.9004967,34.8826603]}},{"properties":{"city":"Galloway","country":"United States","id":"ad2ayblulizu","state":"Ohio"},"type":"Feature","geometry":{"type":"Point","coordinates":[-91.9507352,38.9153192]}},{"properties":{"city":"Independence","country":"United States","id":"ad2ayb8w8umy","state":"Ohio"},"type":"Feature","geometry":{"type":"Point","coordinates":[-91.8904497,42.46832]}},{"properties":{"city":"Monroe","country":"United States","id":"ad2aybmirm27","state":"Ohio"},"type":"Feature","geometry":{"type":"Point","coordinates":[-122.5992646,45.7512272]}},{"properties":{"city":"Yellow Springs","country":"United States","id":"ad2aybeo6xld","state":"Ohio"},"type":"Feature","geometry":{"type":"Point","coordinates":[-74.8765402,42.8289619]}},{"properties":{"city":"Gomer","country":"United States","id":"ad2aybib8ddh","state":"Ohio"},"type":"Feature","geometry":{"type":"Point","coordinates":[-104.8544156,40.4677593]}},{"properties":{"city":"Pleasant Plain","country":"United States","id":"ad2aybc4xrho","state":"Ohio"},"type":"Feature","geometry":{"type":"Point","coordinates":[-81.2448227,33.7632063]}},{"properties":{"city":"Van Buren","country":"United States","id":"ad2aybcf9rdz","state":"Ohio"},"type":"Feature","geometry":{"type":"Point","coordinates":[-93.4496347,34.6995388]}},{"properties":{"city":"Clinton","country":"United States","id":"ad2aybb6zesc","state":"Ohio"},"type":"Feature","geometry":{"type":"Point","coordinates":[-92.4915473,35.0317532]}},{"properties":{"city":"North Ridgeville","country":"United States","id":"ad2aybcc7kor","state":"Ohio"},"type":"Feature","geometry":{"type":"Point","coordinates":[-100.0170786,37.7730758]}},{"properties":{"city":"Canal Winchester","country":"United States","id":"ad2aybcwqddc","state":"Ohio"},"type":"Feature","geometry":{"type":"Point","coordinates":[-114.6613473,33.5955803]}},{"properties":{"city":"Lagrange","country":"United States","id":"ad2aybg7ohma","state":"Ohio"},"type":"Feature","geometry":{"type":"Point","coordinates":[-75.9013089,41.5064657]}},{"properties":{"city":"Casstown","country":"United States","id":"ad2aybo24suv","state":"Ohio"},"type":"Feature","geometry":{"type":"Point","coordinates":[-98.4028198,31.8451492]}}],"is_temporal":false,"author":{"url":"","metadata":null,"contact_name":null,"contact_address":null,"source":null,"contact_phone":null},"source":"","pagination":{"sort":null,"start":0,"total":100,"limit":1000000},"state":"complete","tags":"","published":"2014-08-16T20:26:21-04:00","id":335977}