{"type":"FeatureCollection","data_type":"Dataset","url_type":null,"permissions":[{"permissions":{"download":true,"edit":true,"view":true},"group_id":56815},{"permissions":{"download":true,"view":true},"group_id":"everyone"}],"classification":null,"title":" MAJOR","count":131,"stream_id":336142,"contributor":{"url":"http://geocommons.com/users/37170","name":"lfuentes"},"data_attributes":null,"calculation_params":null,"icon_link":null,"link":"http://geocommons.com/overlays/336142.json","extent":[-88.1544,31.7675,-85.4255,34.6158],"geometry_types":["point"],"unique_name":null,"name":" MAJOR","feature_count":131,"description":"","next_feature":null,"is_raster":false,"short_classification":"Y","stats":{},"features":[{"properties":{"city":"Louisville","county":"Barbour","damage":"MAJOR","type":"MH","geo_score":0.659,"id":"ad35kap7tkd9","address":"5514 County Rd 20","geo_precision":"street","state":"AL"},"type":"Feature","geometry":{"type":"Point","coordinates":[-85.55443,31.767469]}},{"properties":{"city":"Altoona","county":"Blount","damage":"MAJOR","type":"MH","geo_score":0.488,"id":"ad35kapys6ug","address":"705 Avery Rd","geo_precision":"city","state":"AL"},"type":"Feature","geometry":{"type":"Point","coordinates":[-86.209599,34.07097]}},{"properties":{"city":"Hayden","county":"Blount","damage":"MAJOR","type":"SFD","geo_score":0.61,"id":"ad35kao3ifoi","address":"1050 McNeal Rd","geo_precision":"street","state":"AL"},"type":"Feature","geometry":{"type":"Point","coordinates":[-86.962237,33.848214]}},{"properties":{"city":"Hayden","county":"Blount","damage":"MAJOR","type":"SFD","geo_score":0.616,"id":"ad35karkkkb4","address":"330 McNeal Rd","geo_precision":"street","state":"AL"},"type":"Feature","geometry":{"type":"Point","coordinates":[-86.962237,33.848214]}},{"properties":{"city":"Anniston","county":"Calhoun","damage":"MAJOR","type":"SFD","geo_score":0.476,"id":"ad35kav4n2tp","address":"112 W. 20th St.","geo_precision":"street","state":"AL"},"type":"Feature","geometry":{"type":"Point","coordinates":[-85.831048,33.67032]}},{"properties":{"city":"Anniston","county":"Calhoun","damage":"MAJOR","type":"SFD","geo_score":0.488,"id":"ad35kaxsku4m","address":"6 High St","geo_precision":"city","state":"AL"},"type":"Feature","geometry":{"type":"Point","coordinates":[-85.792328,33.759768]}},{"properties":{"city":"Anniston","county":"Calhoun","damage":"MAJOR","type":"SFD","geo_score":0.902,"id":"ad35kaqjoh0r","address":"924 Montgomery Ave","geo_precision":"range","state":"AL"},"type":"Feature","geometry":{"type":"Point","coordinates":[-85.817722,33.656799]}},{"properties":{"city":"Anniston","county":"Calhoun","damage":"MAJOR","type":"SFD","geo_score":0.476,"id":"ad35karbo21t","address":"120 W. 16th St","geo_precision":"street","state":"AL"},"type":"Feature","geometry":{"type":"Point","coordinates":[-85.829805,33.665062]}},{"properties":{"city":"Yellow Creek","county":"Cherokee","damage":"MAJOR","type":"MH","geo_score":0.472,"id":"ad35kass1wjp","address":"465 County Rd 110","geo_precision":"street","state":"AL"},"type":"Feature","geometry":{"type":"Point","coordinates":[-87.513883,33.063]}},{"properties":{"city":"Cullman","county":"Cullman","damage":"MAJOR","type":"SFD","geo_score":0.618,"id":"ad35kawx6pb7","address":"4364 County Rd 421","geo_precision":"street","state":"AL"},"type":"Feature","geometry":{"type":"Point","coordinates":[-86.944831,34.142471]}},{"properties":{"city":"Bremen","county":"Cullman","damage":"MAJOR","type":"APT","geo_score":0.812,"id":"ad35kawj3oku","address":"601 County Rd 143","geo_precision":"range","state":"AL"},"type":"Feature","geometry":{"type":"Point","coordinates":[-86.997504,34.03834]}},{"properties":{"city":"Good Hope","county":"Cullman","damage":"MAJOR","type":"SFD","geo_score":0.454,"id":"ad35kaq9kr9p","address":"2149 Doc Clemmons Rd","geo_precision":"street","state":"AL"},"type":"Feature","geometry":{"type":"Point","coordinates":[-86.006934,32.725837]}},{"properties":{"city":"Collinsville","county":"DeKalb","damage":"MAJOR","type":"MH","geo_score":0.52,"id":"ad35kb1m625j","address":"16952 County Rd 515","geo_precision":"street","state":"AL"},"type":"Feature","geometry":{"type":"Point","coordinates":[-85.794293,34.516166]}},{"properties":{"city":"Collinsville","county":"DeKalb","damage":"MAJOR","type":"MH","geo_score":0.707,"id":"ad35kb0lxvj9","address":"21848 South Valley Ave","geo_precision":"street","state":"AL"},"type":"Feature","geometry":{"type":"Point","coordinates":[-85.87187,34.248081]}},{"properties":{"city":"Collinsville","county":"DeKalb","damage":"MAJOR","type":"MH","geo_score":0.52,"id":"ad35kaxjhnat","address":"16952 County Rd 515","geo_precision":"street","state":"AL"},"type":"Feature","geometry":{"type":"Point","coordinates":[-85.794293,34.516166]}},{"properties":{"city":"Collinsville","county":"DeKalb","damage":"MAJOR","type":"MH","geo_score":0.707,"id":"ad35kaz09mns","address":"21848 South Valley Ave","geo_precision":"street","state":"AL"},"type":"Feature","geometry":{"type":"Point","coordinates":[-85.87187,34.248081]}},{"properties":{"city":"Kilpatrick","county":"DeKalb","damage":"MAJOR","type":"MH","geo_score":0.522,"id":"ad35kaz2jpyw","address":"233 County Rd 979","geo_precision":"street","state":"AL"},"type":"Feature","geometry":{"type":"Point","coordinates":[-85.752765,34.514602]}},{"properties":{"city":"Kilpatrick","county":"DeKalb","damage":"MAJOR","type":"MH","geo_score":0.529,"id":"ad35kar9mai1","address":"348 County Rd 9055","geo_precision":"street","state":"AL"},"type":"Feature","geometry":{"type":"Point","coordinates":[-86.081637,34.2654]}},{"properties":{"city":"Kilpatrick","county":"DeKalb","damage":"MAJOR","type":"MH","geo_score":0.531,"id":"ad35kao1ckzy","address":"57 County Rd 979","geo_precision":"street","state":"AL"},"type":"Feature","geometry":{"type":"Point","coordinates":[-85.750982,34.520892]}},{"properties":{"city":"Kilpatrick","county":"DeKalb","damage":"MAJOR","type":"MH","geo_score":0.399,"id":"ad35kasg12kg","address":"292 County Rd 979","geo_precision":"street","state":"AL"},"type":"Feature","geometry":{"type":"Point","coordinates":[-85.752765,34.514602]}},{"properties":{"city":"Kilpatrick","county":"DeKalb","damage":"MAJOR","type":"SFD","geo_score":0.617,"id":"ad35kaqmv1up","address":"1846 County Rd 381","geo_precision":"street","state":"AL"},"type":"Feature","geometry":{"type":"Point","coordinates":[-86.091476,34.243521]}},{"properties":{"city":"Kilpatrick","county":"DeKalb","damage":"MAJOR","type":"SFD","geo_score":0.423,"id":"ad35kayv21r6","address":"17 County Rd 9058","geo_precision":"street","state":"AL"},"type":"Feature","geometry":{"type":"Point","coordinates":[-86.228287,34.160776]}},{"properties":{"city":"Kilpatrick","county":"DeKalb","damage":"MAJOR","type":"MH","geo_score":0.52,"id":"ad35kat7rpbm","address":"553 County Rd 979","geo_precision":"street","state":"AL"},"type":"Feature","geometry":{"type":"Point","coordinates":[-85.752765,34.514602]}},{"properties":{"city":"Kilpatrick","county":"DeKalb","damage":"MAJOR","type":"MH","geo_score":0.423,"id":"ad35kaoa5cbk","address":"475 County Rd 9095","geo_precision":"street","state":"AL"},"type":"Feature","geometry":{"type":"Point","coordinates":[-86.226931,34.159483]}},{"properties":{"city":"Kilpatrick","county":"DeKalb","damage":"MAJOR","type":"MH","geo_score":0.527,"id":"ad35kaqaqtc5","address":"638 County Rd 9055","geo_precision":"street","state":"AL"},"type":"Feature","geometry":{"type":"Point","coordinates":[-86.081644,34.265575]}},{"properties":{"city":"Kilpatrick","county":"DeKalb","damage":"MAJOR","type":"MH","geo_score":0.591,"id":"ad35kax4hbte","address":"550 County Rd 479 A","geo_precision":"street","state":"AL"},"type":"Feature","geometry":{"type":"Point","coordinates":[-86.085351,34.257719]}},{"properties":{"city":"Kilpatrick","county":"DeKalb","damage":"MAJOR","type":"MH","geo_score":0.43,"id":"ad35kau4mb25","address":"4444 County Rd 980","geo_precision":"street","state":"AL"},"type":"Feature","geometry":{"type":"Point","coordinates":[-85.626496,34.453946]}},{"properties":{"city":null,"county":"DeKalb","damage":"MAJOR","type":"MH","geo_score":0.0,"id":"ad35kaq6u2m1","address":"208 County Rd 9097","geo_precision":"unmatched","state":"AL"},"type":"Feature","geometry":null},{"properties":{"city":null,"county":"DeKalb","damage":"MAJOR","type":"MH","geo_score":0.0,"id":"ad35kat3000v","address":"County Rd 9097","geo_precision":"unmatched","state":"AL"},"type":"Feature","geometry":null},{"properties":{"city":"Attalla","county":"Etowah","damage":"MAJOR","type":"SFD","geo_score":0.793,"id":"ad35kb0imc80","address":"303 Tallapoosa","geo_precision":"range","state":"AL"},"type":"Feature","geometry":{"type":"Point","coordinates":[-86.11323,33.979735]}},{"properties":{"city":"Attalla","county":"Etowah","damage":"MAJOR","type":"SFD","geo_score":0.488,"id":"ad35kbf0d2jx","address":"306 Walcox St.","geo_precision":"city","state":"AL"},"type":"Feature","geometry":{"type":"Point","coordinates":[-86.061397,34.051848]}},{"properties":{"city":"Attalla","county":"Etowah","damage":"MAJOR","type":"SFD","geo_score":0.717,"id":"ad35kbds8st3","address":"4303 Hwy 411","geo_precision":"range","state":"AL"},"type":"Feature","geometry":{"type":"Point","coordinates":[-86.060145,33.941079]}},{"properties":{"city":"Attalla","county":"Etowah","damage":"MAJOR","type":"SFD","geo_score":0.717,"id":"ad35kbafsi08","address":"4536 Hwy 411","geo_precision":"range","state":"AL"},"type":"Feature","geometry":{"type":"Point","coordinates":[-86.06946,33.935391]}},{"properties":{"city":"Attalla","county":"Etowah","damage":"MAJOR","type":"SFD","geo_score":0.488,"id":"ad35kb5kng3e","address":"304 Wilcox St.","geo_precision":"city","state":"AL"},"type":"Feature","geometry":{"type":"Point","coordinates":[-86.061397,34.051848]}},{"properties":{"city":"Attalla","county":"Etowah","damage":"MAJOR","type":"SFD","geo_score":0.488,"id":"ad35kb40lgov","address":"306 Wilcox St.","geo_precision":"city","state":"AL"},"type":"Feature","geometry":{"type":"Point","coordinates":[-86.061397,34.051848]}},{"properties":{"city":"Boaz","county":"Etowah","damage":"MAJOR","type":"SFD","geo_score":0.405,"id":"ad35kbidby3v","address":"3790 Broul","geo_precision":"street","state":"AL"},"type":"Feature","geometry":{"type":"Point","coordinates":[-86.450667,34.615784]}},{"properties":{"city":"Gadsden","county":"Etowah","damage":"MAJOR","type":"SFD","geo_score":0.873,"id":"ad35kbg7u2nv","address":"435 Forest Rd","geo_precision":"range","state":"AL"},"type":"Feature","geometry":{"type":"Point","coordinates":[-86.017217,33.963678]}},{"properties":{"city":"Gadsden","county":"Etowah","damage":"MAJOR","type":"SFD","geo_score":0.902,"id":"ad35kbfefr0y","address":"231 Claremont Dr","geo_precision":"range","state":"AL"},"type":"Feature","geometry":{"type":"Point","coordinates":[-86.018023,33.965625]}},{"properties":{"city":"Gadsden","county":"Etowah","damage":"MAJOR","type":"SFD","geo_score":0.902,"id":"ad35kbhafsh1","address":"215 Claremont Dr","geo_precision":"range","state":"AL"},"type":"Feature","geometry":{"type":"Point","coordinates":[-86.01868,33.965547]}},{"properties":{"city":"Gadsden","county":"Etowah","damage":"MAJOR","type":"SFD","geo_score":0.902,"id":"ad35kbcds8gn","address":"304 Gwindale Rd","geo_precision":"range","state":"AL"},"type":"Feature","geometry":{"type":"Point","coordinates":[-86.01609,33.967662]}},{"properties":{"city":"Gadsden","county":"Etowah","damage":"MAJOR","type":"SFD","geo_score":0.902,"id":"ad35kbenkya1","address":"116 Oak Circle","geo_precision":"range","state":"AL"},"type":"Feature","geometry":{"type":"Point","coordinates":[-86.024095,33.959839]}},{"properties":{"city":"Gadsden","county":"Etowah","damage":"MAJOR","type":"SFD","geo_score":0.902,"id":"ad35kbic1y8v","address":"647 Wildwood Rd","geo_precision":"range","state":"AL"},"type":"Feature","geometry":{"type":"Point","coordinates":[-86.011138,33.965138]}},{"properties":{"city":"Rainbow City","county":"Etowah","damage":"MAJOR","type":"SFD","geo_score":0.61,"id":"ad35kbhxvx04","address":"172 Ridgecrest Dr.","geo_precision":"street","state":"AL"},"type":"Feature","geometry":{"type":"Point","coordinates":[-86.275551,34.303149]}},{"properties":{"city":"Rainbow City","county":"Etowah","damage":"MAJOR","type":"SFD","geo_score":0.902,"id":"ad35kbd61idb","address":"205 Carlisle Way","geo_precision":"range","state":"AL"},"type":"Feature","geometry":{"type":"Point","coordinates":[-86.035616,33.955967]}},{"properties":{"city":"Rainbow City","county":"Etowah","damage":"MAJOR","type":"SFD","geo_score":0.902,"id":"ad35kbgd285d","address":"209 Norwood Dr.","geo_precision":"range","state":"AL"},"type":"Feature","geometry":{"type":"Point","coordinates":[-86.038017,33.954949]}},{"properties":{"city":"Rainbow City","county":"Etowah","damage":"MAJOR","type":"SFD","geo_score":0.835,"id":"ad35kbgijwqa","address":"500 West Hartwood","geo_precision":"range","state":"AL"},"type":"Feature","geometry":{"type":"Point","coordinates":[-86.039131,33.955172]}},{"properties":{"city":"Sardis","county":"Etowah","damage":"MAJOR","type":"MH","geo_score":0.371,"id":"ad35kbay03rc","address":"13527 Duck Springs Road","geo_precision":"street","state":"AL"},"type":"Feature","geometry":{"type":"Point","coordinates":[-86.482132,34.302814]}},{"properties":{"city":"Sardis","county":"Etowah","damage":"MAJOR","type":"SFD","geo_score":0.543,"id":"ad35kb5ju0ky","address":"Duck Springs Road","geo_precision":"street","state":"AL"},"type":"Feature","geometry":{"type":"Point","coordinates":[-86.482132,34.302814]}},{"properties":{"city":"Gadsden","county":"Etowah","damage":"MAJOR","type":"SFD","geo_score":0.902,"id":"ad35kbgxolih","address":"207 Dogwood Circle","geo_precision":"range","state":"AL"},"type":"Feature","geometry":{"type":"Point","coordinates":[-86.013905,33.970536]}},{"properties":{"city":"Gadsden","county":"Etowah","damage":"MAJOR","type":"SFD","geo_score":0.902,"id":"ad35kbcurbfk","address":"221 Dogwood Circle","geo_precision":"range","state":"AL"},"type":"Feature","geometry":{"type":"Point","coordinates":[-86.013938,33.970943]}},{"properties":{"city":"Gadsden","county":"Etowah","damage":"MAJOR","type":"SFD","geo_score":0.74,"id":"ad35kbhd5p30","address":"405 Dogwood Circle","geo_precision":"street","state":"AL"},"type":"Feature","geometry":{"type":"Point","coordinates":[-86.013854,33.969297]}},{"properties":{"city":"Gadsden","county":"Etowah","damage":"MAJOR","type":"SFD","geo_score":0.902,"id":"ad35kbf28ivm","address":"516 Country Club Dr","geo_precision":"range","state":"AL"},"type":"Feature","geometry":{"type":"Point","coordinates":[-86.025035,33.957425]}},{"properties":{"city":"Gadsden","county":"Etowah","damage":"MAJOR","type":"SFD","geo_score":0.902,"id":"ad35kbfdqgdc","address":"221 Azalea Dr","geo_precision":"range","state":"AL"},"type":"Feature","geometry":{"type":"Point","coordinates":[-86.01205,33.966739]}},{"properties":{"city":"Gadsden","county":"Etowah","damage":"MAJOR","type":"SFD","geo_score":0.902,"id":"ad35kbgu7gpj","address":"317 Hollywood Rd","geo_precision":"range","state":"AL"},"type":"Feature","geometry":{"type":"Point","coordinates":[-86.016598,33.971123]}},{"properties":{"city":"Rainbow City","county":"Etowah","damage":"MAJOR","type":"SFD","geo_score":0.805,"id":"ad35kbhyuuu7","address":"117 Wildhaven Circle","geo_precision":"range","state":"AL"},"type":"Feature","geometry":{"type":"Point","coordinates":[-86.030038,33.956761]}},{"properties":{"city":"Southside","county":"Etowah","damage":"MAJOR","type":"SFD","geo_score":0.805,"id":"ad35kbadttqk","address":"3290 Hampton Rd W","geo_precision":"range","state":"AL"},"type":"Feature","geometry":{"type":"Point","coordinates":[-86.018731,33.94248]}},{"properties":{"city":"Southside","county":"Etowah","damage":"MAJOR","type":"MH","geo_score":0.805,"id":"ad35kb9nqlqt","address":"580 Pardue Drive","geo_precision":"range","state":"AL"},"type":"Feature","geometry":{"type":"Point","coordinates":[-86.0139,33.943987]}},{"properties":{"city":"Attalla","county":"Etowah","damage":"MAJOR","type":"SFD","geo_score":0.805,"id":"ad35kbc8qqbl","address":"106 Westminster Dr","geo_precision":"range","state":"AL"},"type":"Feature","geometry":{"type":"Point","coordinates":[-86.062163,33.966903]}},{"properties":{"city":"Attalla","county":"Etowah","damage":"MAJOR","type":"SFD","geo_score":0.805,"id":"ad35kbj1c1uo","address":"105 Westminster Dr","geo_precision":"range","state":"AL"},"type":"Feature","geometry":{"type":"Point","coordinates":[-86.063221,33.964355]}},{"properties":{"city":"Attalla","county":"Etowah","damage":"MAJOR","type":"MH","geo_score":0.707,"id":"ad35kb3s5u9q","address":"411 Westminster Dr","geo_precision":"street","state":"AL"},"type":"Feature","geometry":{"type":"Point","coordinates":[-86.065526,33.966739]}},{"properties":{"city":"Rainbow City","county":"Etowah","damage":"MAJOR","type":"MH","geo_score":0.461,"id":"ad35kb4lfnlg","address":"54 Highrise Trailer Pk","geo_precision":"street","state":"AL"},"type":"Feature","geometry":{"type":"Point","coordinates":[-86.04471,33.96015]}},{"properties":{"city":"Rainbow City","county":"Etowah","damage":"MAJOR","type":"MH","geo_score":0.461,"id":"ad35kb530pws","address":"11 Highrise Trailer Pk","geo_precision":"street","state":"AL"},"type":"Feature","geometry":{"type":"Point","coordinates":[-86.04471,33.96015]}},{"properties":{"city":"Rainbow City","county":"Etowah","damage":"MAJOR","type":"MH","geo_score":0.565,"id":"ad35kbdoxhax","address":"50 White Oak Ln","geo_precision":"street","state":"AL"},"type":"Feature","geometry":{"type":"Point","coordinates":[-86.104916,33.912251]}},{"properties":{"city":"Rainbow City","county":"Etowah","damage":"MAJOR","type":"MH","geo_score":0.902,"id":"ad35kb5gdtvy","address":"37 Country Lane","geo_precision":"range","state":"AL"},"type":"Feature","geometry":{"type":"Point","coordinates":[-86.039089,33.972569]}},{"properties":{"city":"Rainbow City","county":"Etowah","damage":"MAJOR","type":"MH","geo_score":0.902,"id":"ad35kb6utemw","address":"41 Country Lane","geo_precision":"range","state":"AL"},"type":"Feature","geometry":{"type":"Point","coordinates":[-86.039442,33.972566]}},{"properties":{"city":"Southside","county":"Etowah","damage":"MAJOR","type":"SFD","geo_score":0.654,"id":"ad35kbhjaqek","address":"2250 Lassetor Rd","geo_precision":"street","state":"AL"},"type":"Feature","geometry":{"type":"Point","coordinates":[-85.853444,34.072789]}},{"properties":{"city":"Southside","county":"Etowah","damage":"MAJOR","type":"SFD","geo_score":0.561,"id":"ad35kb59vzvk","address":"3273 Hall Rd","geo_precision":"street","state":"AL"},"type":"Feature","geometry":{"type":"Point","coordinates":[-86.025196,34.01712]}},{"properties":{"city":"Southside","county":"Etowah","damage":"MAJOR","type":"SFD","geo_score":0.643,"id":"ad35kbi7imm7","address":"1868 Willow Ln","geo_precision":"street","state":"AL"},"type":"Feature","geometry":{"type":"Point","coordinates":[-86.024138,34.0083]}},{"properties":{"city":"Southside","county":"Etowah","damage":"MAJOR","type":"SFD","geo_score":0.805,"id":"ad35kb907zo4","address":"1503 Walden Dr","geo_precision":"range","state":"AL"},"type":"Feature","geometry":{"type":"Point","coordinates":[-86.02279,33.929532]}},{"properties":{"city":"Southside","county":"Etowah","damage":"MAJOR","type":"SFD","geo_score":0.683,"id":"ad35kb7fbpng","address":"1510 Walden Dr","geo_precision":"range","state":"AL"},"type":"Feature","geometry":{"type":"Point","coordinates":[-86.02279,33.929519]}},{"properties":{"city":"Southside","county":"Etowah","damage":"MAJOR","type":"SFD","geo_score":0.61,"id":"ad35kbi7b3pt","address":"1001 Walker Dr","geo_precision":"street","state":"AL"},"type":"Feature","geometry":{"type":"Point","coordinates":[-86.152726,34.084981]}},{"properties":{"city":"Southside","county":"Etowah","damage":"MAJOR","type":"SFD","geo_score":0.618,"id":"ad35kb6wnkxt","address":"6205 Vista Trail","geo_precision":"range","state":"AL"},"type":"Feature","geometry":{"type":"Point","coordinates":[-86.051627,33.862676]}},{"properties":{"city":"Southside","county":"Etowah","damage":"MAJOR","type":"SFD","geo_score":0.805,"id":"ad35kb8mu6vf","address":"3741 Lakefront Dr","geo_precision":"range","state":"AL"},"type":"Feature","geometry":{"type":"Point","coordinates":[-86.009061,33.942458]}},{"properties":{"city":"Southside","county":"Etowah","damage":"MAJOR","type":"SFD","geo_score":0.805,"id":"ad35kbams36p","address":"3754 Lakefront Dr","geo_precision":"range","state":"AL"},"type":"Feature","geometry":{"type":"Point","coordinates":[-86.007297,33.941644]}},{"properties":{"city":"Southside","county":"Etowah","damage":"MAJOR","type":"SFD","geo_score":0.805,"id":"ad35kbeldzvo","address":"3795 Lakefront Dr","geo_precision":"range","state":"AL"},"type":"Feature","geometry":{"type":"Point","coordinates":[-86.008284,33.941989]}},{"properties":{"city":"Southside","county":"Etowah","damage":"MAJOR","type":"SFD","geo_score":0.805,"id":"ad35kb9i6d8b","address":"3825 Lakefront Dr","geo_precision":"range","state":"AL"},"type":"Feature","geometry":{"type":"Point","coordinates":[-86.007807,33.941731]}},{"properties":{"city":"Southside","county":"Etowah","damage":"MAJOR","type":"SFD","geo_score":0.61,"id":"ad35kbe6lm8c","address":"3963 Crest Lake Dr","geo_precision":"street","state":"AL"},"type":"Feature","geometry":{"type":"Point","coordinates":[-85.958542,34.044972]}},{"properties":{"city":"Gadsden","county":"Etowah","damage":"MAJOR","type":"SFD","geo_score":0.873,"id":"ad35kb859drt","address":"117 Merrit Circle","geo_precision":"range","state":"AL"},"type":"Feature","geometry":{"type":"Point","coordinates":[-86.014528,33.962833]}},{"properties":{"city":"Fairfield","county":"Jefferson","damage":"MAJOR","type":"SFD","geo_score":0.902,"id":"ad35kb549d3g","address":"4121 Court G","geo_precision":"range","state":"AL"},"type":"Feature","geometry":{"type":"Point","coordinates":[-86.906108,33.492607]}},{"properties":{"city":"Southside","county":"Etowah","damage":"MAJOR","type":"SFD","geo_score":0.61,"id":"ad35kbguffql","address":"3902 Crest Lake Dr","geo_precision":"street","state":"AL"},"type":"Feature","geometry":{"type":"Point","coordinates":[-85.958542,34.044972]}},{"properties":{"city":"Hamilton","county":"Marion","damage":"MAJOR","type":"SFD","geo_score":0.488,"id":"ad35kb9sy2vd","address":"451 Bexar Avenue E","geo_precision":"city","state":"AL"},"type":"Feature","geometry":{"type":"Point","coordinates":[-87.994648,34.167583]}},{"properties":{"city":"Hamilton","county":"Marion","damage":"MAJOR","type":"SFD","geo_score":0.805,"id":"ad35kbj2so3i","address":"7474 County Highway 13","geo_precision":"range","state":"AL"},"type":"Feature","geometry":{"type":"Point","coordinates":[-88.154378,34.2195]}},{"properties":{"city":"Wedowee","county":"Randolph","damage":"MAJOR","type":"SFD","geo_score":0.615,"id":"ad35kbc4x5po","address":"4567 County Rd 67","geo_precision":"street","state":"AL"},"type":"Feature","geometry":{"type":"Point","coordinates":[-85.42552,33.300889]}},{"properties":{"city":"Margaret","county":"St. Clair","damage":"MAJOR","type":"SFD","geo_score":0.675,"id":"ad35kb9248kj","address":"122 Levene Rd","geo_precision":"street","state":"AL"},"type":"Feature","geometry":{"type":"Point","coordinates":[-86.484911,33.685055]}},{"properties":{"city":"Ashville","county":"St. Clair","damage":"MAJOR","type":"MH","geo_score":0.602,"id":"ad35kbazhf8t","address":"58 Bet Dr.","geo_precision":"street","state":"AL"},"type":"Feature","geometry":{"type":"Point","coordinates":[-86.246909,33.833061]}},{"properties":{"city":"Odenville","county":"St. Clair","damage":"MAJOR","type":"MH","geo_score":0.78,"id":"ad35kbj1qdg7","address":"3626 Pleasant Valley Rd","geo_precision":"range","state":"AL"},"type":"Feature","geometry":{"type":"Point","coordinates":[-86.359506,33.689949]}},{"properties":{"city":"Talladega","county":"Talladega","damage":"MAJOR","type":"MH","geo_score":0.683,"id":"ad35kb3m6iij","address":"1000 Champion Rd","geo_precision":"range","state":"AL"},"type":"Feature","geometry":{"type":"Point","coordinates":[-86.445286,33.936197]}},{"properties":{"city":"Talladega","county":"Talladega","damage":"MAJOR","type":"SFD","geo_score":0.714,"id":"ad35kba6mu5i","address":"Brignolia Drive","geo_precision":"city","state":"AL"},"type":"Feature","geometry":{"type":"Point","coordinates":[-86.144681,33.387375]}},{"properties":{"city":"Talladega","county":"Talladega","damage":"MAJOR","type":"MH","geo_score":0.488,"id":"ad35kbb1d305","address":"295 Cleves Rd","geo_precision":"city","state":"AL"},"type":"Feature","geometry":{"type":"Point","coordinates":[-86.144681,33.387375]}},{"properties":{"city":"New Site","county":"Tallapoosa","damage":"MAJOR","type":"SFD","geo_score":0.61,"id":"ad35kbe6gxuz","address":"374 Service Rd","geo_precision":"street","state":"AL"},"type":"Feature","geometry":{"type":"Point","coordinates":[-85.952118,33.975519]}},{"properties":{"city":"New Site","county":"Tallapoosa","damage":"MAJOR","type":"SFD","geo_score":0.61,"id":"ad35kb5fe7ao","address":"379 Service Rd","geo_precision":"street","state":"AL"},"type":"Feature","geometry":{"type":"Point","coordinates":[-85.952118,33.975519]}},{"properties":{"city":"Empire","county":"Walker","damage":"MAJOR","type":"SFD","geo_score":0.902,"id":"ad35kbcykyj7","address":"7372 Empire Rd","geo_precision":"range","state":"AL"},"type":"Feature","geometry":{"type":"Point","coordinates":[-86.966237,33.834963]}},{"properties":{"city":"Jasper","county":"Walker","damage":"MAJOR","type":"MH","geo_score":0.708,"id":"ad35kb81wk3y","address":"14 Brakefield Dairy Rd","geo_precision":"street","state":"AL"},"type":"Feature","geometry":{"type":"Point","coordinates":[-87.28631,33.887679]}},{"properties":{"city":"Jasper","county":"Walker","damage":"MAJOR","type":"MH","geo_score":0.683,"id":"ad35kbac1lvh","address":"1614 Ridgewood Rd","geo_precision":"street","state":"AL"},"type":"Feature","geometry":{"type":"Point","coordinates":[-87.20817,33.820274]}},{"properties":{"city":"Jasper","county":"Walker","damage":"MAJOR","type":"SFD","geo_score":0.856,"id":"ad35kb445yzs","address":"2101 Brakefield Dairy","geo_precision":"range","state":"AL"},"type":"Feature","geometry":{"type":"Point","coordinates":[-87.307508,33.882464]}},{"properties":{"city":"Jasper","county":"Walker","damage":"MAJOR","type":"SFD","geo_score":0.856,"id":"ad35kb8cbkbf","address":"2141 Brakefield Dairy","geo_precision":"range","state":"AL"},"type":"Feature","geometry":{"type":"Point","coordinates":[-87.307508,33.882464]}},{"properties":{"city":"Jasper","county":"Walker","damage":"MAJOR","type":"MH","geo_score":0.708,"id":"ad35kbf97hgj","address":"24 Brakefield Dairy Rd","geo_precision":"street","state":"AL"},"type":"Feature","geometry":{"type":"Point","coordinates":[-87.28631,33.887679]}},{"properties":{"city":"Jasper","county":"Walker","damage":"MAJOR","type":"MH","geo_score":0.708,"id":"ad35kbja3iie","address":"26 Brakefield Dairy Rd","geo_precision":"street","state":"AL"},"type":"Feature","geometry":{"type":"Point","coordinates":[-87.28631,33.887679]}},{"properties":{"city":"Jasper","county":"Walker","damage":"MAJOR","type":"SFD","geo_score":0.78,"id":"ad35kbihshrt","address":"3653 Fall City Rd","geo_precision":"street","state":"AL"},"type":"Feature","geometry":{"type":"Point","coordinates":[-87.280656,33.961781]}},{"properties":{"city":"Jasper","county":"Walker","damage":"MAJOR","type":"MH","geo_score":0.708,"id":"ad35kbdr0zrf","address":"6 Brakefield Dairy Rd","geo_precision":"street","state":"AL"},"type":"Feature","geometry":{"type":"Point","coordinates":[-87.28631,33.887679]}},{"properties":{"city":"Jasper","county":"Walker","damage":"MAJOR","type":"MH","geo_score":0.707,"id":"ad35kbcggpt2","address":"7 Brakefield Dairy Rd","geo_precision":"street","state":"AL"},"type":"Feature","geometry":{"type":"Point","coordinates":[-87.287169,33.868853]}},{"properties":{"city":"Jasper","county":"Walker","damage":"MAJOR","type":"MH","geo_score":0.708,"id":"ad35kbfxlq13","address":"8 Brakefield Dairy Rd","geo_precision":"street","state":"AL"},"type":"Feature","geometry":{"type":"Point","coordinates":[-87.28631,33.887679]}},{"properties":{"city":"Jasper","county":"Walker","damage":"MAJOR","type":"SFD","geo_score":0.683,"id":"ad35kbd1dkq4","address":"903 Ridgewood Rd","geo_precision":"street","state":"AL"},"type":"Feature","geometry":{"type":"Point","coordinates":[-87.20817,33.820274]}},{"properties":{"city":"Jasper","county":"Walker","damage":"MAJOR","type":"MH","geo_score":0.708,"id":"ad35kb5xlbyg","address":"12 Brakefield Dairy Rd","geo_precision":"street","state":"AL"},"type":"Feature","geometry":{"type":"Point","coordinates":[-87.28631,33.887679]}},{"properties":{"city":"Jasper","county":"Walker","damage":"MAJOR","type":"MH","geo_score":0.708,"id":"ad35kbc17rqz","address":"30 Brakefield Dairy Rd","geo_precision":"street","state":"AL"},"type":"Feature","geometry":{"type":"Point","coordinates":[-87.28631,33.887679]}},{"properties":{"city":"Jasper","county":"Walker","damage":"MAJOR","type":"MH","geo_score":0.857,"id":"ad35kbbsyaqv","address":"Arkadelphia Rd","geo_precision":"street","state":"AL"},"type":"Feature","geometry":{"type":"Point","coordinates":[-87.264859,33.877688]}},{"properties":{"city":"Jasper","county":"Walker","damage":"MAJOR","type":"MH","geo_score":0.857,"id":"ad35kb4wfxp0","address":"Arkadelphia Rd","geo_precision":"street","state":"AL"},"type":"Feature","geometry":{"type":"Point","coordinates":[-87.264859,33.877688]}},{"properties":{"city":"Jasper","county":"Walker","damage":"MAJOR","type":"MH","geo_score":0.857,"id":"ad35kba7jh0x","address":"Arkadelphia Rd","geo_precision":"street","state":"AL"},"type":"Feature","geometry":{"type":"Point","coordinates":[-87.264859,33.877688]}},{"properties":{"city":"Jasper","county":"Walker","damage":"MAJOR","type":"MH","geo_score":0.857,"id":"ad35kb8b5393","address":"Arkadelphia Rd","geo_precision":"street","state":"AL"},"type":"Feature","geometry":{"type":"Point","coordinates":[-87.264859,33.877688]}},{"properties":{"city":"Jasper","county":"Walker","damage":"MAJOR","type":"MH","geo_score":0.857,"id":"ad35kbiz0adc","address":"Arkadelphia Rd","geo_precision":"street","state":"AL"},"type":"Feature","geometry":{"type":"Point","coordinates":[-87.264859,33.877688]}},{"properties":{"city":"Jasper","county":"Walker","damage":"MAJOR","type":"MH","geo_score":0.857,"id":"ad35kb4uvkep","address":"Arkadelphia Rd","geo_precision":"street","state":"AL"},"type":"Feature","geometry":{"type":"Point","coordinates":[-87.264859,33.877688]}},{"properties":{"city":"Jasper","county":"Walker","damage":"MAJOR","type":"MH","geo_score":0.857,"id":"ad35kb52l8s5","address":"Arkadelphia Rd","geo_precision":"street","state":"AL"},"type":"Feature","geometry":{"type":"Point","coordinates":[-87.264859,33.877688]}},{"properties":{"city":"Jasper","county":"Walker","damage":"MAJOR","type":"MH","geo_score":0.857,"id":"ad35kb9c8quy","address":"Arkadelphia Rd","geo_precision":"street","state":"AL"},"type":"Feature","geometry":{"type":"Point","coordinates":[-87.264859,33.877688]}},{"properties":{"city":"Jasper","county":"Walker","damage":"MAJOR","type":"MH","geo_score":0.857,"id":"ad35kb7jm5wr","address":"Arkadelphia Rd","geo_precision":"street","state":"AL"},"type":"Feature","geometry":{"type":"Point","coordinates":[-87.264859,33.877688]}},{"properties":{"city":"Jasper","county":"Walker","damage":"MAJOR","type":"MH","geo_score":0.857,"id":"ad35kbbkcjjo","address":"Arkadelphia Rd","geo_precision":"street","state":"AL"},"type":"Feature","geometry":{"type":"Point","coordinates":[-87.264859,33.877688]}},{"properties":{"city":"Jasper","county":"Walker","damage":"MAJOR","type":"MH","geo_score":0.857,"id":"ad35kb804y9e","address":"Arkadelphia Rd","geo_precision":"street","state":"AL"},"type":"Feature","geometry":{"type":"Point","coordinates":[-87.264859,33.877688]}},{"properties":{"city":"Jasper","county":"Walker","damage":"MAJOR","type":"MH","geo_score":0.857,"id":"ad35kbe4xnfp","address":"Arkadelphia Rd","geo_precision":"street","state":"AL"},"type":"Feature","geometry":{"type":"Point","coordinates":[-87.264859,33.877688]}},{"properties":{"city":"Jasper","county":"Walker","damage":"MAJOR","type":"MH","geo_score":0.857,"id":"ad35kb3ra0ki","address":"Arkadelphia Rd","geo_precision":"street","state":"AL"},"type":"Feature","geometry":{"type":"Point","coordinates":[-87.264859,33.877688]}},{"properties":{"city":"Jasper","county":"Walker","damage":"MAJOR","type":"MH","geo_score":0.857,"id":"ad35kb3wrga7","address":"Arkadelphia Rd","geo_precision":"street","state":"AL"},"type":"Feature","geometry":{"type":"Point","coordinates":[-87.264859,33.877688]}},{"properties":{"city":"Jasper","county":"Walker","damage":"MAJOR","type":"MH","geo_score":0.857,"id":"ad35kb457ftr","address":"Arkadelphia Rd","geo_precision":"street","state":"AL"},"type":"Feature","geometry":{"type":"Point","coordinates":[-87.264859,33.877688]}},{"properties":{"city":"Jasper","county":"Walker","damage":"MAJOR","type":"MH","geo_score":0.857,"id":"ad35kbdfpfe8","address":"Arkadelphia Rd","geo_precision":"street","state":"AL"},"type":"Feature","geometry":{"type":"Point","coordinates":[-87.264859,33.877688]}},{"properties":{"city":"Jasper","county":"Walker","damage":"MAJOR","type":"MH","geo_score":0.857,"id":"ad35kbcg0r6a","address":"Arkadelphia Rd","geo_precision":"street","state":"AL"},"type":"Feature","geometry":{"type":"Point","coordinates":[-87.264859,33.877688]}},{"properties":{"city":"Jasper","county":"Walker","damage":"MAJOR","type":"MH","geo_score":0.857,"id":"ad35kb7p3bd4","address":"Arkadelphia Rd","geo_precision":"street","state":"AL"},"type":"Feature","geometry":{"type":"Point","coordinates":[-87.264859,33.877688]}},{"properties":{"city":"Jasper","county":"Walker","damage":"MAJOR","type":"MH","geo_score":0.857,"id":"ad35kb4a9742","address":"Arkadelphia Rd","geo_precision":"street","state":"AL"},"type":"Feature","geometry":{"type":"Point","coordinates":[-87.264859,33.877688]}},{"properties":{"city":"Jasper","county":"Walker","damage":"MAJOR","type":"MH","geo_score":0.857,"id":"ad35kbhw6tyw","address":"Arkadelphia Rd","geo_precision":"street","state":"AL"},"type":"Feature","geometry":{"type":"Point","coordinates":[-87.264859,33.877688]}},{"properties":{"city":"Jasper","county":"Walker","damage":"MAJOR","type":"MH","geo_score":0.866,"id":"ad35kbhbput4","address":"10 Laura Drive","geo_precision":"range","state":"AL"},"type":"Feature","geometry":{"type":"Point","coordinates":[-87.345479,33.98299]}},{"properties":{"city":"Nauvoo","county":"Walker","damage":"MAJOR","type":"MH","geo_score":0.902,"id":"ad35kbj286yj","address":"4480 Duncan Rd","geo_precision":"range","state":"AL"},"type":"Feature","geometry":{"type":"Point","coordinates":[-87.352151,33.977491]}},{"properties":{"city":"Jasper","county":"Walker","damage":"MAJOR","type":"SFD","geo_score":0.902,"id":"ad35kbgq5guc","address":"2704 New Prospect Rd","geo_precision":"range","state":"AL"},"type":"Feature","geometry":{"type":"Point","coordinates":[-87.298408,33.87128]}},{"properties":{"city":"Southside","county":"Etowah","damage":"MAJOR","type":"SFD","geo_score":0.614,"id":"ad35kbh6jk0e","address":"950 Hampton Rd S","geo_precision":"street","state":"AL"},"type":"Feature","geometry":{"type":"Point","coordinates":[-86.014097,33.939906]}},{"properties":{"city":"Thatch","county":"Walker","damage":"MAJOR","type":"SFD","geo_score":0.805,"id":"ad35kbgweank","address":"978 Bennett Rd","geo_precision":"range","state":"AL"},"type":"Feature","geometry":{"type":"Point","coordinates":[-87.330053,33.955513]}},{"properties":{"city":"Jacksonville","county":"Calhoun","damage":"MAJOR","type":"SFD","geo_score":0.0,"id":"ad35kb4zyd3f","address":"403 6th St.","geo_precision":"unmatched","state":"AL"},"type":"Feature","geometry":null}],"is_temporal":false,"author":{"url":"","metadata":"","contact_name":"","contact_address":"","source":"","contact_phone":""},"source":"","pagination":{"sort":null,"start":0,"total":131,"limit":1000000},"state":"complete","tags":"","published":"2014-08-16T20:40:05-04:00","id":336142}