{"type":"FeatureCollection","data_type":"Dataset","url_type":null,"permissions":[{"permissions":{"download":true,"view":true},"group_id":"everyone"}],"classification":null,"title":"Cities_to_Geocode","count":441,"stream_id":336250,"contributor":{"url":"http://geocommons.com/users/45908","name":"jnwill"},"data_attributes":null,"calculation_params":null,"icon_link":null,"link":"http://geocommons.com/overlays/336250.json","extent":[0.0,0.0,0.0,0.0],"geometry_types":[],"unique_name":null,"name":"Cities_to_Geocode","feature_count":441,"description":"","next_feature":null,"is_raster":false,"short_classification":"Y","stats":{},"features":[{"properties":{"geo_score":0.0,"id":"ad3s53u0y469","address":"Marysville, KS","geo_precision":"unmatched"},"type":"Feature","geometry":null},{"properties":{"geo_score":0.0,"id":"ad3s53wugwq0","address":"Elkhart, IN","geo_precision":"unmatched"},"type":"Feature","geometry":null},{"properties":{"geo_score":0.0,"id":"ad3s542is52m","address":"North Platte East, NE","geo_precision":"unmatched"},"type":"Feature","geometry":null},{"properties":{"geo_score":0.0,"id":"ad3s53z9keky","address":"Nampa, ID","geo_precision":"unmatched"},"type":"Feature","geometry":null},{"properties":{"geo_score":0.0,"id":"ad3s53tvylzm","address":"North Platte West, NE","geo_precision":"unmatched"},"type":"Feature","geometry":null},{"properties":{"geo_score":0.0,"id":"ad3s543fhnkw","address":"Jefferson City, MO","geo_precision":"unmatched"},"type":"Feature","geometry":null},{"properties":{"geo_score":0.0,"id":"ad3s53v9q1ud","address":"Simco, ID","geo_precision":"unmatched"},"type":"Feature","geometry":null},{"properties":{"geo_score":0.0,"id":"ad3s543yc62b","address":"Pocatello, ID","geo_precision":"unmatched"},"type":"Feature","geometry":null},{"properties":{"geo_score":0.0,"id":"ad3s544s8ggr","address":"Conway, PA","geo_precision":"unmatched"},"type":"Feature","geometry":null},{"properties":{"geo_score":0.0,"id":"ad3s53tu2pyz","address":"Ashland Avenue, IL","geo_precision":"unmatched"},"type":"Feature","geometry":null},{"properties":{"geo_score":0.0,"id":"ad3s53zvppz4","address":"Phil Frankford Jct, PA","geo_precision":"unmatched"},"type":"Feature","geometry":null},{"properties":{"geo_score":0.0,"id":"ad3s53su9jmm","address":"Beverly, IA","geo_precision":"unmatched"},"type":"Feature","geometry":null},{"properties":{"geo_score":0.0,"id":"ad3s54085jab","address":"Ore, OH","geo_precision":"unmatched"},"type":"Feature","geometry":null},{"properties":{"geo_score":0.0,"id":"ad3s5464609g","address":"Proviso, IL","geo_precision":"unmatched"},"type":"Feature","geometry":null},{"properties":{"geo_score":0.0,"id":"ad3s53x5hqdk","address":"Altoona, PA","geo_precision":"unmatched"},"type":"Feature","geometry":null},{"properties":{"geo_score":0.0,"id":"ad3s53w8mao3","address":"Green River, WY","geo_precision":"unmatched"},"type":"Feature","geometry":null},{"properties":{"geo_score":0.0,"id":"ad3s53z05dtc","address":"Rawlins, WY","geo_precision":"unmatched"},"type":"Feature","geometry":null},{"properties":{"geo_score":0.0,"id":"ad3s540y0uqr","address":"Sandusky, OH","geo_precision":"unmatched"},"type":"Feature","geometry":null},{"properties":{"geo_score":0.0,"id":"ad3s53xwkiha","address":"Cheyenne, WY","geo_precision":"unmatched"},"type":"Feature","geometry":null},{"properties":{"geo_score":0.0,"id":"ad3s543pbfa9","address":"Lydick, IN","geo_precision":"unmatched"},"type":"Feature","geometry":null},{"properties":{"geo_score":0.0,"id":"ad3s53xkk0or","address":"Kansas City, MO","geo_precision":"unmatched"},"type":"Feature","geometry":null},{"properties":{"geo_score":0.0,"id":"ad3s545caexa","address":"Pavonia, NJ","geo_precision":"unmatched"},"type":"Feature","geometry":null},{"properties":{"geo_score":0.0,"id":"ad3s53udp8dz","address":"Gloucester City, NJ","geo_precision":"unmatched"},"type":"Feature","geometry":null},{"properties":{"geo_score":0.0,"id":"ad3s53s532f8","address":"Topeka, KS","geo_precision":"unmatched"},"type":"Feature","geometry":null},{"properties":{"geo_score":0.0,"id":"ad3s543e57x7","address":"Sebring, OH","geo_precision":"unmatched"},"type":"Feature","geometry":null},{"properties":{"geo_score":0.0,"id":"ad3s53u2y8lo","address":"Saint Louis, MO","geo_precision":"unmatched"},"type":"Feature","geometry":null},{"properties":{"geo_score":0.0,"id":"ad3s53uyqneq","address":"Sanscanne, OH","geo_precision":"unmatched"},"type":"Feature","geometry":null},{"properties":{"geo_score":0.0,"id":"ad3s53snc8a0","address":"Gateway Yard, IL","geo_precision":"unmatched"},"type":"Feature","geometry":null},{"properties":{"geo_score":0.0,"id":"ad3s53ytirms","address":"Laramie, WY","geo_precision":"unmatched"},"type":"Feature","geometry":null},{"properties":{"geo_score":0.0,"id":"ad3s53xh5aui","address":"Maplewood, MO","geo_precision":"unmatched"},"type":"Feature","geometry":null},{"properties":{"geo_score":0.0,"id":"ad3s542ystpu","address":"Whiting, IN","geo_precision":"unmatched"},"type":"Feature","geometry":null},{"properties":{"geo_score":0.0,"id":"ad3s5409v3yx","address":"Abrams, PA","geo_precision":"unmatched"},"type":"Feature","geometry":null},{"properties":{"geo_score":0.0,"id":"ad3s53yj2oto","address":"Missouri Valley, IA","geo_precision":"unmatched"},"type":"Feature","geometry":null},{"properties":{"geo_score":0.0,"id":"ad3s53zrx7ud","address":"Boone, IA","geo_precision":"unmatched"},"type":"Feature","geometry":null},{"properties":{"geo_score":0.0,"id":"ad3s540j9cdu","address":"Mapleton Depot, PA","geo_precision":"unmatched"},"type":"Feature","geometry":null},{"properties":{"geo_score":0.0,"id":"ad3s546akj01","address":"Annville, PA","geo_precision":"unmatched"},"type":"Feature","geometry":null},{"properties":{"geo_score":0.0,"id":"ad3s53tuazg7","address":"Fremont, NE","geo_precision":"unmatched"},"type":"Feature","geometry":null},{"properties":{"geo_score":0.0,"id":"ad3s541pvg31","address":"Clinton, IA","geo_precision":"unmatched"},"type":"Feature","geometry":null},{"properties":{"geo_score":0.0,"id":"ad3s543xfby5","address":"Centervsc, PA","geo_precision":"unmatched"},"type":"Feature","geometry":null},{"properties":{"geo_score":0.0,"id":"ad3s53uylkxz","address":"Air Line Junction, OH","geo_precision":"unmatched"},"type":"Feature","geometry":null},{"properties":{"geo_score":0.0,"id":"ad3s544aq61w","address":"Harrisburg, PA","geo_precision":"unmatched"},"type":"Feature","geometry":null},{"properties":{"geo_score":0.0,"id":"ad3s53qy1kan","address":"Berea, OH","geo_precision":"unmatched"},"type":"Feature","geometry":null},{"properties":{"geo_score":0.0,"id":"ad3s53zrpth3","address":"Madison, IL","geo_precision":"unmatched"},"type":"Feature","geometry":null},{"properties":{"geo_score":0.0,"id":"ad3s53z1t2b1","address":"Goshensca, IN","geo_precision":"unmatched"},"type":"Feature","geometry":null},{"properties":{"geo_score":0.0,"id":"ad3s53vbmqwf","address":"Mishawaka, IN","geo_precision":"unmatched"},"type":"Feature","geometry":null},{"properties":{"geo_score":0.0,"id":"ad3s5446as6c","address":"Elyria, OH","geo_precision":"unmatched"},"type":"Feature","geometry":null},{"properties":{"geo_score":0.0,"id":"ad3s53sp3sb8","address":"Beck, NE","geo_precision":"unmatched"},"type":"Feature","geometry":null},{"properties":{"geo_score":0.0,"id":"ad3s53txvk51","address":"Sinsprsca, PA","geo_precision":"unmatched"},"type":"Feature","geometry":null},{"properties":{"geo_score":0.0,"id":"ad3s53w7dkdd","address":"Grand Island, NE","geo_precision":"unmatched"},"type":"Feature","geometry":null},{"properties":{"geo_score":0.0,"id":"ad3s542ssto1","address":"Marshalltown, IA","geo_precision":"unmatched"},"type":"Feature","geometry":null},{"properties":{"geo_score":0.0,"id":"ad3s540gc6jp","address":"Twiscann, OH","geo_precision":"unmatched"},"type":"Feature","geometry":null},{"properties":{"geo_score":0.0,"id":"ad3s53w56wh8","address":"Alliances, OH","geo_precision":"unmatched"},"type":"Feature","geometry":null},{"properties":{"geo_score":0.0,"id":"ad3s53s2veuq","address":"Swascanne, OH","geo_precision":"unmatched"},"type":"Feature","geometry":null},{"properties":{"geo_score":0.0,"id":"ad3s540hoet2","address":"Bryan, OH","geo_precision":"unmatched"},"type":"Feature","geometry":null},{"properties":{"geo_score":0.0,"id":"ad3s5466tb0l","address":"Allentown, PA","geo_precision":"unmatched"},"type":"Feature","geometry":null},{"properties":{"geo_score":0.0,"id":"ad3s53t7dnz4","address":"Cleveland Rockport, OH","geo_precision":"unmatched"},"type":"Feature","geometry":null},{"properties":{"geo_score":0.0,"id":"ad3s53tmxyap","address":"Ontario Street, PA","geo_precision":"unmatched"},"type":"Feature","geometry":null},{"properties":{"geo_score":0.0,"id":"ad3s53uuwfga","address":"Gloucester, NJ","geo_precision":"unmatched"},"type":"Feature","geometry":null},{"properties":{"geo_score":0.0,"id":"ad3s542d8bx6","address":"Altmilcks, PA","geo_precision":"unmatched"},"type":"Feature","geometry":null},{"properties":{"geo_score":0.0,"id":"ad3s53rvi0if","address":"Goshen, IN","geo_precision":"unmatched"},"type":"Feature","geometry":null},{"properties":{"geo_score":0.0,"id":"ad3s54672ro2","address":"Consewsc, PA","geo_precision":"unmatched"},"type":"Feature","geometry":null},{"properties":{"geo_score":0.0,"id":"ad3s53xmg1gs","address":"Annvl.sc, PA","geo_precision":"unmatched"},"type":"Feature","geometry":null},{"properties":{"geo_score":0.0,"id":"ad3s5454o6eg","address":"Rockvscan, PA","geo_precision":"unmatched"},"type":"Feature","geometry":null},{"properties":{"geo_score":0.0,"id":"ad3s53ze2gwo","address":"West Ames, IA","geo_precision":"unmatched"},"type":"Feature","geometry":null},{"properties":{"geo_score":0.0,"id":"ad3s543hsovl","address":"Milcursca, PA","geo_precision":"unmatched"},"type":"Feature","geometry":null},{"properties":{"geo_score":0.0,"id":"ad3s53ylv6n5","address":"Millb.sc, OH","geo_precision":"unmatched"},"type":"Feature","geometry":null},{"properties":{"geo_score":0.0,"id":"ad3s543d3w5e","address":"Toledo, OH","geo_precision":"unmatched"},"type":"Feature","geometry":null},{"properties":{"geo_score":0.0,"id":"ad3s545q4yo2","address":"Wfalw.sc, PA","geo_precision":"unmatched"},"type":"Feature","geometry":null},{"properties":{"geo_score":0.0,"id":"ad3s543ziz08","address":"Berscanne, OH","geo_precision":"unmatched"},"type":"Feature","geometry":null},{"properties":{"geo_score":0.0,"id":"ad3s544h1jkx","address":"Reaso.sc, PA","geo_precision":"unmatched"},"type":"Feature","geometry":null},{"properties":{"geo_score":0.0,"id":"ad3s53s2g1id","address":"Beafalsca, PA","geo_precision":"unmatched"},"type":"Feature","geometry":null},{"properties":{"geo_score":0.0,"id":"ad3s5468j7r5","address":"Cp-cannon, PA","geo_precision":"unmatched"},"type":"Feature","geometry":null},{"properties":{"geo_score":0.0,"id":"ad3s5421fn77","address":"Allentwsc, PA","geo_precision":"unmatched"},"type":"Feature","geometry":null},{"properties":{"geo_score":0.0,"id":"ad3s53vqca76","address":"Burdick, IN","geo_precision":"unmatched"},"type":"Feature","geometry":null},{"properties":{"geo_score":0.0,"id":"ad3s54689eew","address":"Forscanne, PA","geo_precision":"unmatched"},"type":"Feature","geometry":null},{"properties":{"geo_score":0.0,"id":"ad3s53qikjas","address":"Capscanne, PA","geo_precision":"unmatched"},"type":"Feature","geometry":null},{"properties":{"geo_score":0.0,"id":"ad3s53zltfdb","address":"Burscanne, IN","geo_precision":"unmatched"},"type":"Feature","geometry":null},{"properties":{"geo_score":0.0,"id":"ad3s53ugt3c1","address":"Misscanne, IN","geo_precision":"unmatched"},"type":"Feature","geometry":null},{"properties":{"geo_score":0.0,"id":"ad3s541j6z63","address":"Como, WY","geo_precision":"unmatched"},"type":"Feature","geometry":null},{"properties":{"geo_score":0.0,"id":"ad3s53wdwr2o","address":"East Green River, WY","geo_precision":"unmatched"},"type":"Feature","geometry":null},{"properties":{"geo_score":0.0,"id":"ad3s541hr55t","address":"Whiscanne, IN","geo_precision":"unmatched"},"type":"Feature","geometry":null},{"properties":{"geo_score":0.0,"id":"ad3s545zevha","address":"Bryscanne, OH","geo_precision":"unmatched"},"type":"Feature","geometry":null},{"properties":{"geo_score":0.0,"id":"ad3s53zhl5f9","address":"Cledb.sc, OH","geo_precision":"unmatched"},"type":"Feature","geometry":null},{"properties":{"geo_score":0.0,"id":"ad3s53qdpoa6","address":"Upland Station, KS","geo_precision":"unmatched"},"type":"Feature","geometry":null},{"properties":{"geo_score":0.0,"id":"ad3s53qbb93v","address":"Granger, WY","geo_precision":"unmatched"},"type":"Feature","geometry":null},{"properties":{"geo_score":0.0,"id":"ad3s543vxste","address":"Leefe, WY","geo_precision":"unmatched"},"type":"Feature","geometry":null},{"properties":{"geo_score":0.0,"id":"ad3s53zn0udv","address":"Newfloren, PA","geo_precision":"unmatched"},"type":"Feature","geometry":null},{"properties":{"geo_score":0.0,"id":"ad3s5445btrl","address":"Brighton Park, IL","geo_precision":"unmatched"},"type":"Feature","geometry":null},{"properties":{"geo_score":0.0,"id":"ad3s542vkkq4","address":"Archer, WY","geo_precision":"unmatched"},"type":"Feature","geometry":null},{"properties":{"geo_score":0.0,"id":"ad3s543xjnex","address":"Robinscan, PA","geo_precision":"unmatched"},"type":"Feature","geometry":null},{"properties":{"geo_score":0.0,"id":"ad3s53vdj5e8","address":"Union Grove, IL","geo_precision":"unmatched"},"type":"Feature","geometry":null},{"properties":{"geo_score":0.0,"id":"ad3s545rdtj2","address":"Misriver, IL","geo_precision":"unmatched"},"type":"Feature","geometry":null},{"properties":{"geo_score":0.0,"id":"ad3s544i6qz7","address":"Sterling, IL","geo_precision":"unmatched"},"type":"Feature","geometry":null},{"properties":{"geo_score":0.0,"id":"ad3s543ykn4h","address":"Lydscanne, IN","geo_precision":"unmatched"},"type":"Feature","geometry":null},{"properties":{"geo_score":0.0,"id":"ad3s53xmjhn5","address":"West Chicago, IL","geo_precision":"unmatched"},"type":"Feature","geometry":null},{"properties":{"geo_score":0.0,"id":"ad3s5448duv7","address":"Riner, WY","geo_precision":"unmatched"},"type":"Feature","geometry":null},{"properties":{"geo_score":0.0,"id":"ad3s53v768wp","address":"Chiracsca, IL","geo_precision":"unmatched"},"type":"Feature","geometry":null},{"properties":{"geo_score":0.0,"id":"ad3s53si1zw7","address":"Broadway, MO","geo_precision":"unmatched"},"type":"Feature","geometry":null},{"properties":{"geo_score":0.0,"id":"ad3s542pl6at","address":"Alliance, TX","geo_precision":"unmatched"},"type":"Feature","geometry":null},{"properties":{"geo_score":0.0,"id":"ad3s540l09iq","address":"South San Antonio, TX","geo_precision":"unmatched"},"type":"Feature","geometry":null},{"properties":{"geo_score":0.0,"id":"ad3s545in7ke","address":"Cortazar, GJ","geo_precision":"unmatched"},"type":"Feature","geometry":null},{"properties":{"geo_score":0.0,"id":"ad3s53y8yiev","address":"Maiden Rock, WI","geo_precision":"unmatched"},"type":"Feature","geometry":null},{"properties":{"geo_score":0.0,"id":"ad3s543p7b96","address":"San Antonio, TX","geo_precision":"unmatched"},"type":"Feature","geometry":null},{"properties":{"geo_score":0.0,"id":"ad3s542m8t5l","address":"Ray, TX","geo_precision":"unmatched"},"type":"Feature","geometry":null},{"properties":{"geo_score":0.0,"id":"ad3s53vm10jn","address":"Hull Ave Yard, IA","geo_precision":"unmatched"},"type":"Feature","geometry":null},{"properties":{"geo_score":0.0,"id":"ad3s53rvkbrl","address":"San Marcos, TX","geo_precision":"unmatched"},"type":"Feature","geometry":null},{"properties":{"geo_score":0.0,"id":"ad3s5463oj2o","address":"South Saint Paul, MN","geo_precision":"unmatched"},"type":"Feature","geometry":null},{"properties":{"geo_score":0.0,"id":"ad3s5438h31u","address":"Norma, WI","geo_precision":"unmatched"},"type":"Feature","geometry":null},{"properties":{"geo_score":0.0,"id":"ad3s5456im2j","address":"Lubbock, TX","geo_precision":"unmatched"},"type":"Feature","geometry":null},{"properties":{"geo_score":0.0,"id":"ad3s542jgp1a","address":"Fort Worth, TX","geo_precision":"unmatched"},"type":"Feature","geometry":null},{"properties":{"geo_score":0.0,"id":"ad3s53s6n7oh","address":"Altoona, WI","geo_precision":"unmatched"},"type":"Feature","geometry":null},{"properties":{"geo_score":0.0,"id":"ad3s541e3q7p","address":"Muskogee, OK","geo_precision":"unmatched"},"type":"Feature","geometry":null},{"properties":{"geo_score":0.0,"id":"ad3s53qj1rdu","address":"Davis, OK","geo_precision":"unmatched"},"type":"Feature","geometry":null},{"properties":{"geo_score":0.0,"id":"ad3s53r13c7f","address":"Beaumont, TX","geo_precision":"unmatched"},"type":"Feature","geometry":null},{"properties":{"geo_score":0.0,"id":"ad3s53yb9o5g","address":"Clovis, NM","geo_precision":"unmatched"},"type":"Feature","geometry":null},{"properties":{"geo_score":0.0,"id":"ad3s53w6w8zs","address":"Kirby, TX","geo_precision":"unmatched"},"type":"Feature","geometry":null},{"properties":{"geo_score":0.0,"id":"ad3s53r65kzt","address":"Eugene, OR","geo_precision":"unmatched"},"type":"Feature","geometry":null},{"properties":{"geo_score":0.0,"id":"ad3s53yn7sq4","address":"New Auburn, WI","geo_precision":"unmatched"},"type":"Feature","geometry":null},{"properties":{"geo_score":0.0,"id":"ad3s53xx5drd","address":"La Crosse, WI","geo_precision":"unmatched"},"type":"Feature","geometry":null},{"properties":{"geo_score":0.0,"id":"ad3s53rphwjj","address":"China, TX","geo_precision":"unmatched"},"type":"Feature","geometry":null},{"properties":{"geo_score":0.0,"id":"ad3s53xyqg4g","address":"Kansas City, KS","geo_precision":"unmatched"},"type":"Feature","geometry":null},{"properties":{"geo_score":0.0,"id":"ad3s545jezv5","address":"Mason City, IA","geo_precision":"unmatched"},"type":"Feature","geometry":null},{"properties":{"geo_score":0.0,"id":"ad3s542d35cc","address":"Gallup, NM","geo_precision":"unmatched"},"type":"Feature","geometry":null},{"properties":{"geo_score":0.0,"id":"ad3s53ucqb0e","address":"Caldwell, TX","geo_precision":"unmatched"},"type":"Feature","geometry":null},{"properties":{"geo_score":0.0,"id":"ad3s53xmj2im","address":"Afton, OK","geo_precision":"unmatched"},"type":"Feature","geometry":null},{"properties":{"geo_score":0.0,"id":"ad3s53xgz12f","address":"Mcalester, OK","geo_precision":"unmatched"},"type":"Feature","geometry":null},{"properties":{"geo_score":0.0,"id":"ad3s540wwcrk","address":"Wyeville, WI","geo_precision":"unmatched"},"type":"Feature","geometry":null},{"properties":{"geo_score":0.0,"id":"ad3s53s6n9pi","address":"Itasca, WI","geo_precision":"unmatched"},"type":"Feature","geometry":null},{"properties":{"geo_score":0.0,"id":"ad3s542e0uig","address":"Mill Creek, OK","geo_precision":"unmatched"},"type":"Feature","geometry":null},{"properties":{"geo_score":0.0,"id":"ad3s53uipfbc","address":"Brady, TX","geo_precision":"unmatched"},"type":"Feature","geometry":null},{"properties":{"geo_score":0.0,"id":"ad3s53yciorx","address":"Rosedale, KS","geo_precision":"unmatched"},"type":"Feature","geometry":null},{"properties":{"geo_score":0.0,"id":"ad3s53sykm0z","address":"Fort Scott, KS","geo_precision":"unmatched"},"type":"Feature","geometry":null},{"properties":{"geo_score":0.0,"id":"ad3s53x4rxrs","address":"Ricker, TX","geo_precision":"unmatched"},"type":"Feature","geometry":null},{"properties":{"geo_score":0.0,"id":"ad3s53r4p1dr","address":"Temple, TX","geo_precision":"unmatched"},"type":"Feature","geometry":null},{"properties":{"geo_score":0.0,"id":"ad3s53ub04of","address":"Navy, OK","geo_precision":"unmatched"},"type":"Feature","geometry":null},{"properties":{"geo_score":0.0,"id":"ad3s53xpy3yc","address":"Belen, NM","geo_precision":"unmatched"},"type":"Feature","geometry":null},{"properties":{"geo_score":0.0,"id":"ad3s5441smjm","address":"Dougren, OR","geo_precision":"unmatched"},"type":"Feature","geometry":null},{"properties":{"geo_score":0.0,"id":"ad3s543skt6x","address":"Coteau, PQ","geo_precision":"unmatched"},"type":"Feature","geometry":null},{"properties":{"geo_score":0.0,"id":"ad3s53zrme6m","address":"Sumas, WA","geo_precision":"unmatched"},"type":"Feature","geometry":null},{"properties":{"geo_score":0.0,"id":"ad3s53wjnde7","address":"Sweetwater, TX","geo_precision":"unmatched"},"type":"Feature","geometry":null},{"properties":{"geo_score":0.0,"id":"ad3s53ui1ubn","address":"Oklahoma City, OK","geo_precision":"unmatched"},"type":"Feature","geometry":null},{"properties":{"geo_score":0.0,"id":"ad3s540jua0x","address":"Saunders, WI","geo_precision":"unmatched"},"type":"Feature","geometry":null},{"properties":{"geo_score":0.0,"id":"ad3s53xgc1ic","address":"San Anton, TX","geo_precision":"unmatched"},"type":"Feature","geometry":null},{"properties":{"geo_score":0.0,"id":"ad3s53y2gmse","address":"San Angelo, TX","geo_precision":"unmatched"},"type":"Feature","geometry":null},{"properties":{"geo_score":0.0,"id":"ad3s53u7k496","address":"La Junta, CO","geo_precision":"unmatched"},"type":"Feature","geometry":null},{"properties":{"geo_score":0.0,"id":"ad3s53u2wf7r","address":"Council Bluffs, IA","geo_precision":"unmatched"},"type":"Feature","geometry":null},{"properties":{"geo_score":0.0,"id":"ad3s53qrvy6t","address":"Bloomington, TX","geo_precision":"unmatched"},"type":"Feature","geometry":null},{"properties":{"geo_score":0.0,"id":"ad3s53y882qf","address":"Valley Jct, TX","geo_precision":"unmatched"},"type":"Feature","geometry":null},{"properties":{"geo_score":0.0,"id":"ad3s53yo4bmx","address":"Eldon, TX","geo_precision":"unmatched"},"type":"Feature","geometry":null},{"properties":{"geo_score":0.0,"id":"ad3s53tegvfs","address":"Wedron, IL","geo_precision":"unmatched"},"type":"Feature","geometry":null},{"properties":{"geo_score":0.0,"id":"ad3s53xnx5e7","address":"Airline Junction, MO","geo_precision":"unmatched"},"type":"Feature","geometry":null},{"properties":{"geo_score":0.0,"id":"ad3s540zeqlt","address":"Bridge, BC","geo_precision":"unmatched"},"type":"Feature","geometry":null},{"properties":{"geo_score":0.0,"id":"ad3s53urxoat","address":"Brockville, ON","geo_precision":"unmatched"},"type":"Feature","geometry":null},{"properties":{"geo_score":0.0,"id":"ad3s53ri90rv","address":"Noyes, MN","geo_precision":"unmatched"},"type":"Feature","geometry":null},{"properties":{"geo_score":0.0,"id":"ad3s544c9mrp","address":"Centralia, WA","geo_precision":"unmatched"},"type":"Feature","geometry":null},{"properties":{"geo_score":0.0,"id":"ad3s542ade8q","address":"Ringer, KS","geo_precision":"unmatched"},"type":"Feature","geometry":null},{"properties":{"geo_score":0.0,"id":"ad3s53z1i8t5","address":"Fullerville, TX","geo_precision":"unmatched"},"type":"Feature","geometry":null},{"properties":{"geo_score":0.0,"id":"ad3s53qxonmg","address":"Galesburg, IL","geo_precision":"unmatched"},"type":"Feature","geometry":null},{"properties":{"geo_score":0.0,"id":"ad3s53zylfru","address":"Post, TX","geo_precision":"unmatched"},"type":"Feature","geometry":null},{"properties":{"geo_score":0.0,"id":"ad3s53yu1lgo","address":"Slaton, TX","geo_precision":"unmatched"},"type":"Feature","geometry":null},{"properties":{"geo_score":0.0,"id":"ad3s53vs0uum","address":"Roseville, CA","geo_precision":"unmatched"},"type":"Feature","geometry":null},{"properties":{"geo_score":0.0,"id":"ad3s53wtmme5","address":"Mill Grove, MO","geo_precision":"unmatched"},"type":"Feature","geometry":null},{"properties":{"geo_score":0.0,"id":"ad3s542arfzb","address":"Klamath Falls, OR","geo_precision":"unmatched"},"type":"Feature","geometry":null},{"properties":{"geo_score":0.0,"id":"ad3s53uij8qv","address":"Ney Yard, TX","geo_precision":"unmatched"},"type":"Feature","geometry":null},{"properties":{"geo_score":0.0,"id":"ad3s5468erxn","address":"Lometa, TX","geo_precision":"unmatched"},"type":"Feature","geometry":null},{"properties":{"geo_score":0.0,"id":"ad3s53wdewwq","address":"Houston Tofc, TX","geo_precision":"unmatched"},"type":"Feature","geometry":null},{"properties":{"geo_score":0.0,"id":"ad3s543lum4b","address":"Smithville, TX","geo_precision":"unmatched"},"type":"Feature","geometry":null},{"properties":{"geo_score":0.0,"id":"ad3s53y0daxu","address":"Dunsmuir, CA","geo_precision":"unmatched"},"type":"Feature","geometry":null},{"properties":{"geo_score":0.0,"id":"ad3s53rk62m5","address":"South St Paul, MN","geo_precision":"unmatched"},"type":"Feature","geometry":null},{"properties":{"geo_score":0.0,"id":"ad3s541at7w8","address":"Graig Jct, TX","geo_precision":"unmatched"},"type":"Feature","geometry":null},{"properties":{"geo_score":0.0,"id":"ad3s53zppre9","address":"Edmonton, AB","geo_precision":"unmatched"},"type":"Feature","geometry":null},{"properties":{"geo_score":0.0,"id":"ad3s53wi3bp9","address":"Quesnel, BC","geo_precision":"unmatched"},"type":"Feature","geometry":null},{"properties":{"geo_score":0.0,"id":"ad3s53sv141n","address":"Yuma, AZ","geo_precision":"unmatched"},"type":"Feature","geometry":null},{"properties":{"geo_score":0.0,"id":"ad3s543g05km","address":"Cheyenne, WY","geo_precision":"unmatched"},"type":"Feature","geometry":null},{"properties":{"geo_score":0.0,"id":"ad3s53x977xe","address":"Eola, IL","geo_precision":"unmatched"},"type":"Feature","geometry":null},{"properties":{"geo_score":0.0,"id":"ad3s53r0o9mj","address":"Grand Forks, ND","geo_precision":"unmatched"},"type":"Feature","geometry":null},{"properties":{"geo_score":0.0,"id":"ad3s53v3adwe","address":"Hager, WI","geo_precision":"unmatched"},"type":"Feature","geometry":null},{"properties":{"geo_score":0.0,"id":"ad3s5426vrns","address":"Cresson, TX","geo_precision":"unmatched"},"type":"Feature","geometry":null},{"properties":{"geo_score":0.0,"id":"ad3s53yohu9b","address":"Adams, WI","geo_precision":"unmatched"},"type":"Feature","geometry":null},{"properties":{"geo_score":0.0,"id":"ad3s53y1f161","address":"Cannon Falls, MN","geo_precision":"unmatched"},"type":"Feature","geometry":null},{"properties":{"geo_score":0.0,"id":"ad3s5464g2mr","address":"Parsons, KS","geo_precision":"unmatched"},"type":"Feature","geometry":null},{"properties":{"geo_score":0.0,"id":"ad3s540y9zoj","address":"Laredo, TX","geo_precision":"unmatched"},"type":"Feature","geometry":null},{"properties":{"geo_score":0.0,"id":"ad3s53rtaof6","address":"Menomonie Jct, WI","geo_precision":"unmatched"},"type":"Feature","geometry":null},{"properties":{"geo_score":0.0,"id":"ad3s543ey8nt","address":"Taylor, TX","geo_precision":"unmatched"},"type":"Feature","geometry":null},{"properties":{"geo_score":0.0,"id":"ad3s53sa1f91","address":"Lejac, BC","geo_precision":"unmatched"},"type":"Feature","geometry":null},{"properties":{"geo_score":0.0,"id":"ad3s53vw5wnq","address":"Brownwood, TX","geo_precision":"unmatched"},"type":"Feature","geometry":null},{"properties":{"geo_score":0.0,"id":"ad3s54597r2w","address":"Q Jct, MN","geo_precision":"unmatched"},"type":"Feature","geometry":null},{"properties":{"geo_score":0.0,"id":"ad3s53twgfin","address":"Chriesman, TX","geo_precision":"unmatched"},"type":"Feature","geometry":null},{"properties":{"geo_score":0.0,"id":"ad3s53rw8dc1","address":"Table Rock, NE","geo_precision":"unmatched"},"type":"Feature","geometry":null},{"properties":{"geo_score":0.0,"id":"ad3s541xm1x3","address":"Tulsa, OK","geo_precision":"unmatched"},"type":"Feature","geometry":null},{"properties":{"geo_score":0.0,"id":"ad3s53tlwfq1","address":"Scullin, OK","geo_precision":"unmatched"},"type":"Feature","geometry":null},{"properties":{"geo_score":0.0,"id":"ad3s53ulr3z1","address":"Fresno, CA","geo_precision":"unmatched"},"type":"Feature","geometry":null},{"properties":{"geo_score":0.0,"id":"ad3s53uz13y1","address":"Lincoln, NE","geo_precision":"unmatched"},"type":"Feature","geometry":null},{"properties":{"geo_score":0.0,"id":"ad3s53rn91yk","address":"Brookfield, MO","geo_precision":"unmatched"},"type":"Feature","geometry":null},{"properties":{"geo_score":0.0,"id":"ad3s545ti34b","address":"Boone, IA","geo_precision":"unmatched"},"type":"Feature","geometry":null},{"properties":{"geo_score":0.0,"id":"ad3s53tvuzax","address":"Port Laredo, TX","geo_precision":"unmatched"},"type":"Feature","geometry":null},{"properties":{"geo_score":0.0,"id":"ad3s53wpfhwz","address":"Missouri Valley, IA","geo_precision":"unmatched"},"type":"Feature","geometry":null},{"properties":{"geo_score":0.0,"id":"ad3s53sszhnr","address":"Strang, TX","geo_precision":"unmatched"},"type":"Feature","geometry":null},{"properties":{"geo_score":0.0,"id":"ad3s53q6fduy","address":"Houston, BC","geo_precision":"unmatched"},"type":"Feature","geometry":null},{"properties":{"geo_score":0.0,"id":"ad3s53uazafh","address":"Armour, MO","geo_precision":"unmatched"},"type":"Feature","geometry":null},{"properties":{"geo_score":0.0,"id":"ad3s541s1uxj","address":"Napier, MO","geo_precision":"unmatched"},"type":"Feature","geometry":null},{"properties":{"geo_score":0.0,"id":"ad3s53xrc324","address":"Toronto Yard, ON","geo_precision":"unmatched"},"type":"Feature","geometry":null},{"properties":{"geo_score":0.0,"id":"ad3s5405boce","address":"Falls City, NE","geo_precision":"unmatched"},"type":"Feature","geometry":null},{"properties":{"geo_score":0.0,"id":"ad3s53zdr004","address":"Blakeslee Jct, WA","geo_precision":"unmatched"},"type":"Feature","geometry":null},{"properties":{"geo_score":0.0,"id":"ad3s540utj7o","address":"Clearing, IL","geo_precision":"unmatched"},"type":"Feature","geometry":null},{"properties":{"geo_score":0.0,"id":"ad3s544m2tmv","address":"Fremont, NE","geo_precision":"unmatched"},"type":"Feature","geometry":null},{"properties":{"geo_score":0.0,"id":"ad3s53wit87w","address":"Coffeyville, KS","geo_precision":"unmatched"},"type":"Feature","geometry":null},{"properties":{"geo_score":0.0,"id":"ad3s545adzx0","address":"Alexandria, LA","geo_precision":"unmatched"},"type":"Feature","geometry":null},{"properties":{"geo_score":0.0,"id":"ad3s53wufjzg","address":"Winnipeg Symingt, MB","geo_precision":"unmatched"},"type":"Feature","geometry":null},{"properties":{"geo_score":0.0,"id":"ad3s541t5h1m","address":"Sanders, AZ","geo_precision":"unmatched"},"type":"Feature","geometry":null},{"properties":{"geo_score":0.0,"id":"ad3s53wg6gyp","address":"Alfalfa, TX","geo_precision":"unmatched"},"type":"Feature","geometry":null},{"properties":{"geo_score":0.0,"id":"ad3s53qcdcw2","address":"Belleville, ON","geo_precision":"unmatched"},"type":"Feature","geometry":null},{"properties":{"geo_score":0.0,"id":"ad3s53xco6lt","address":"Askov, MN","geo_precision":"unmatched"},"type":"Feature","geometry":null},{"properties":{"geo_score":0.0,"id":"ad3s53uk3n68","address":"Amarillo, TX","geo_precision":"unmatched"},"type":"Feature","geometry":null},{"properties":{"geo_score":0.0,"id":"ad3s53t13wex","address":"Liverpool, ON","geo_precision":"unmatched"},"type":"Feature","geometry":null},{"properties":{"geo_score":0.0,"id":"ad3s53qdcnle","address":"Waldron, MO","geo_precision":"unmatched"},"type":"Feature","geometry":null},{"properties":{"geo_score":0.0,"id":"ad3s5448jr4x","address":"Tower 26, TX","geo_precision":"unmatched"},"type":"Feature","geometry":null},{"properties":{"geo_score":0.0,"id":"ad3s53psz5hc","address":"St Joseph, MO","geo_precision":"unmatched"},"type":"Feature","geometry":null},{"properties":{"geo_score":0.0,"id":"ad3s53xcoo98","address":"Strobel, TX","geo_precision":"unmatched"},"type":"Feature","geometry":null},{"properties":{"geo_score":0.0,"id":"ad3s540hk6jy","address":"Seattle, WA","geo_precision":"unmatched"},"type":"Feature","geometry":null},{"properties":{"geo_score":0.0,"id":"ad3s53rtww4z","address":"Tucson, AZ","geo_precision":"unmatched"},"type":"Feature","geometry":null},{"properties":{"geo_score":0.0,"id":"ad3s53vcsq95","address":"Everett, WA","geo_precision":"unmatched"},"type":"Feature","geometry":null},{"properties":{"geo_score":0.0,"id":"ad3s545gnc8d","address":"Northtown, MN","geo_precision":"unmatched"},"type":"Feature","geometry":null},{"properties":{"geo_score":0.0,"id":"ad3s540qtja7","address":"Madill, OK","geo_precision":"unmatched"},"type":"Feature","geometry":null},{"properties":{"geo_score":0.0,"id":"ad3s53yqzdow","address":"Superior, WI","geo_precision":"unmatched"},"type":"Feature","geometry":null},{"properties":{"geo_score":0.0,"id":"ad3s53wqz4gv","address":"Roanoke, TX","geo_precision":"unmatched"},"type":"Feature","geometry":null},{"properties":{"geo_score":0.0,"id":"ad3s543618mw","address":"Ryans Ruin, TX","geo_precision":"unmatched"},"type":"Feature","geometry":null},{"properties":{"geo_score":0.0,"id":"ad3s53sjs8bf","address":"Shelton, MN","geo_precision":"unmatched"},"type":"Feature","geometry":null},{"properties":{"geo_score":0.0,"id":"ad3s5452o732","address":"Edson, AB","geo_precision":"unmatched"},"type":"Feature","geometry":null},{"properties":{"geo_score":0.0,"id":"ad3s542oh59d","address":"Salem, IL","geo_precision":"unmatched"},"type":"Feature","geometry":null},{"properties":{"geo_score":0.0,"id":"ad3s53unmr1n","address":"Wilder, KY","geo_precision":"unmatched"},"type":"Feature","geometry":null},{"properties":{"geo_score":0.0,"id":"ad3s53ujfc7e","address":"Eddy, TX","geo_precision":"unmatched"},"type":"Feature","geometry":null},{"properties":{"geo_score":0.0,"id":"ad3s53yom8xh","address":"Glendale, MN","geo_precision":"unmatched"},"type":"Feature","geometry":null},{"properties":{"geo_score":0.0,"id":"ad3s541fl6mc","address":"Killy, BC","geo_precision":"unmatched"},"type":"Feature","geometry":null},{"properties":{"geo_score":0.0,"id":"ad3s53uhop0o","address":"Trois Rivieres, PQ","geo_precision":"unmatched"},"type":"Feature","geometry":null},{"properties":{"geo_score":0.0,"id":"ad3s53wab6ow","address":"Cincinnati, OH","geo_precision":"unmatched"},"type":"Feature","geometry":null},{"properties":{"geo_score":0.0,"id":"ad3s53psjcml","address":"Ranier, MN","geo_precision":"unmatched"},"type":"Feature","geometry":null},{"properties":{"geo_score":0.0,"id":"ad3s53z40aoi","address":"Clarendon, AR","geo_precision":"unmatched"},"type":"Feature","geometry":null},{"properties":{"geo_score":0.0,"id":"ad3s5469pf89","address":"Dilworth, MN","geo_precision":"unmatched"},"type":"Feature","geometry":null},{"properties":{"geo_score":0.0,"id":"ad3s541eyu8k","address":"Markham, IL","geo_precision":"unmatched"},"type":"Feature","geometry":null},{"properties":{"geo_score":0.0,"id":"ad3s543gsrsc","address":"Fort Francis, ON","geo_precision":"unmatched"},"type":"Feature","geometry":null},{"properties":{"geo_score":0.0,"id":"ad3s53vwfzw5","address":"Cucamonga, CA","geo_precision":"unmatched"},"type":"Feature","geometry":null},{"properties":{"geo_score":0.0,"id":"ad3s53x6fgni","address":"North Dexter, MO","geo_precision":"unmatched"},"type":"Feature","geometry":null},{"properties":{"geo_score":0.0,"id":"ad3s543h529g","address":"Dunlay, TX","geo_precision":"unmatched"},"type":"Feature","geometry":null},{"properties":{"geo_score":0.0,"id":"ad3s53v4uz8w","address":"Prince George, BC","geo_precision":"unmatched"},"type":"Feature","geometry":null},{"properties":{"geo_score":0.0,"id":"ad3s545amxqf","address":"Port Huron, MI","geo_precision":"unmatched"},"type":"Feature","geometry":null},{"properties":{"geo_score":0.0,"id":"ad3s53v6f4ia","address":"Shawinigan, PQ","geo_precision":"unmatched"},"type":"Feature","geometry":null},{"properties":{"geo_score":0.0,"id":"ad3s53r7k2cc","address":"Champaign, IL","geo_precision":"unmatched"},"type":"Feature","geometry":null},{"properties":{"geo_score":0.0,"id":"ad3s53r10e8o","address":"Springfield, MO","geo_precision":"unmatched"},"type":"Feature","geometry":null},{"properties":{"geo_score":0.0,"id":"ad3s53x3qtwu","address":"Jasper, AB","geo_precision":"unmatched"},"type":"Feature","geometry":null},{"properties":{"geo_score":0.0,"id":"ad3s541coimz","address":"Howardton Jct, IL","geo_precision":"unmatched"},"type":"Feature","geometry":null},{"properties":{"geo_score":0.0,"id":"ad3s542qnpa9","address":"Cordes, OR","geo_precision":"unmatched"},"type":"Feature","geometry":null},{"properties":{"geo_score":0.0,"id":"ad3s5429h87s","address":"Garrett, IN","geo_precision":"unmatched"},"type":"Feature","geometry":null},{"properties":{"geo_score":0.0,"id":"ad3s53ueg61v","address":"Decoursey, KY","geo_precision":"unmatched"},"type":"Feature","geometry":null},{"properties":{"geo_score":0.0,"id":"ad3s53ycwda6","address":"Kings, ON","geo_precision":"unmatched"},"type":"Feature","geometry":null},{"properties":{"geo_score":0.0,"id":"ad3s53tgb5h9","address":"Laclede, IL","geo_precision":"unmatched"},"type":"Feature","geometry":null},{"properties":{"geo_score":0.0,"id":"ad3s54031gn6","address":"Bend, OR","geo_precision":"unmatched"},"type":"Feature","geometry":null},{"properties":{"geo_score":0.0,"id":"ad3s53z54nj2","address":"Rivers, MB","geo_precision":"unmatched"},"type":"Feature","geometry":null},{"properties":{"geo_score":0.0,"id":"ad3s53zdf71v","address":"Stuenkels, IL","geo_precision":"unmatched"},"type":"Feature","geometry":null},{"properties":{"geo_score":0.0,"id":"ad3s540ccz0o","address":"Kaiser, CA","geo_precision":"unmatched"},"type":"Feature","geometry":null},{"properties":{"geo_score":0.0,"id":"ad3s53sovv80","address":"Levelland, TX","geo_precision":"unmatched"},"type":"Feature","geometry":null},{"properties":{"geo_score":0.0,"id":"ad3s53so5pxn","address":"Saskatoon, SK","geo_precision":"unmatched"},"type":"Feature","geometry":null},{"properties":{"geo_score":0.0,"id":"ad3s53qedxru","address":"Columbus, NE","geo_precision":"unmatched"},"type":"Feature","geometry":null},{"properties":{"geo_score":0.0,"id":"ad3s53q3be0q","address":"Northfield, MN","geo_precision":"unmatched"},"type":"Feature","geometry":null},{"properties":{"geo_score":0.0,"id":"ad3s53qa8cuy","address":"Kansas City, MO","geo_precision":"unmatched"},"type":"Feature","geometry":null},{"properties":{"geo_score":0.0,"id":"ad3s53ysz49o","address":"Melville, SK","geo_precision":"unmatched"},"type":"Feature","geometry":null},{"properties":{"geo_score":0.0,"id":"ad3s5442v5ux","address":"Cheto, AZ","geo_precision":"unmatched"},"type":"Feature","geometry":null},{"properties":{"geo_score":0.0,"id":"ad3s53zx0um9","address":"Barstow, CA","geo_precision":"unmatched"},"type":"Feature","geometry":null},{"properties":{"geo_score":0.0,"id":"ad3s53qjmsz9","address":"Flint, MI","geo_precision":"unmatched"},"type":"Feature","geometry":null},{"properties":{"geo_score":0.0,"id":"ad3s53qyezjg","address":"Durand, MI","geo_precision":"unmatched"},"type":"Feature","geometry":null},{"properties":{"geo_score":0.0,"id":"ad3s53ttr7fx","address":"Riviere Des Prai, PQ","geo_precision":"unmatched"},"type":"Feature","geometry":null},{"properties":{"geo_score":0.0,"id":"ad3s53sp9zyj","address":"Rainy River, ON","geo_precision":"unmatched"},"type":"Feature","geometry":null},{"properties":{"geo_score":0.0,"id":"ad3s53ty4gzc","address":"Griffith, IN","geo_precision":"unmatched"},"type":"Feature","geometry":null},{"properties":{"geo_score":0.0,"id":"ad3s53yvjprs","address":"Fort Rouge, MB","geo_precision":"unmatched"},"type":"Feature","geometry":null},{"properties":{"geo_score":0.0,"id":"ad3s53ps6zb8","address":"Battle Creek, MI","geo_precision":"unmatched"},"type":"Feature","geometry":null},{"properties":{"geo_score":0.0,"id":"ad3s5424gu4c","address":"Durant, OK","geo_precision":"unmatched"},"type":"Feature","geometry":null},{"properties":{"geo_score":0.0,"id":"ad3s53zydqad","address":"Kankakee, IL","geo_precision":"unmatched"},"type":"Feature","geometry":null},{"properties":{"geo_score":0.0,"id":"ad3s53zdbbmn","address":"Mcbride, BC","geo_precision":"unmatched"},"type":"Feature","geometry":null},{"properties":{"geo_score":0.0,"id":"ad3s53snqz4z","address":"Peterson, BC","geo_precision":"unmatched"},"type":"Feature","geometry":null},{"properties":{"geo_score":0.0,"id":"ad3s545us0w6","address":"Otto, IL","geo_precision":"unmatched"},"type":"Feature","geometry":null},{"properties":{"geo_score":0.0,"id":"ad3s53uhsizq","address":"Genoa, NE","geo_precision":"unmatched"},"type":"Feature","geometry":null},{"properties":{"geo_score":0.0,"id":"ad3s53xrprdi","address":"Marcellus, MI","geo_precision":"unmatched"},"type":"Feature","geometry":null},{"properties":{"geo_score":0.0,"id":"ad3s53ufa3uw","address":"Biggar, SK","geo_precision":"unmatched"},"type":"Feature","geometry":null},{"properties":{"geo_score":0.0,"id":"ad3s53q31kjb","address":"El Paso Dallas St, TX","geo_precision":"unmatched"},"type":"Feature","geometry":null},{"properties":{"geo_score":0.0,"id":"ad3s53u7ijhh","address":"Nopeming, MN","geo_precision":"unmatched"},"type":"Feature","geometry":null},{"properties":{"geo_score":0.0,"id":"ad3s540u4c9r","address":"Arkansas City, KS","geo_precision":"unmatched"},"type":"Feature","geometry":null},{"properties":{"geo_score":0.0,"id":"ad3s53yo0f57","address":"Gorham, IL","geo_precision":"unmatched"},"type":"Feature","geometry":null},{"properties":{"geo_score":0.0,"id":"ad3s53sib0aw","address":"Bellmead, TX","geo_precision":"unmatched"},"type":"Feature","geometry":null},{"properties":{"geo_score":0.0,"id":"ad3s53yjx9mn","address":"Pine Bluff Ssw, AR","geo_precision":"unmatched"},"type":"Feature","geometry":null},{"properties":{"geo_score":0.0,"id":"ad3s53xwsh6a","address":"Tacoma, WA","geo_precision":"unmatched"},"type":"Feature","geometry":null},{"properties":{"geo_score":0.0,"id":"ad3s53xc34om","address":"Barwick, ON","geo_precision":"unmatched"},"type":"Feature","geometry":null},{"properties":{"geo_score":0.0,"id":"ad3s544vu0ga","address":"Jonesboro, AR","geo_precision":"unmatched"},"type":"Feature","geometry":null},{"properties":{"geo_score":0.0,"id":"ad3s53ycjsbs","address":"Endako, BC","geo_precision":"unmatched"},"type":"Feature","geometry":null},{"properties":{"geo_score":0.0,"id":"ad3s540f90ex","address":"Harvey, BC","geo_precision":"unmatched"},"type":"Feature","geometry":null},{"properties":{"geo_score":0.0,"id":"ad3s544yeurz","address":"Engen, BC","geo_precision":"unmatched"},"type":"Feature","geometry":null},{"properties":{"geo_score":0.0,"id":"ad3s53qhjkho","address":"Valparaiso, IN","geo_precision":"unmatched"},"type":"Feature","geometry":null},{"properties":{"geo_score":0.0,"id":"ad3s545uwh55","address":"Hearne, TX","geo_precision":"unmatched"},"type":"Feature","geometry":null},{"properties":{"geo_score":0.0,"id":"ad3s53tnf0bh","address":"Keddie, CA","geo_precision":"unmatched"},"type":"Feature","geometry":null},{"properties":{"geo_score":0.0,"id":"ad3s540g4i6l","address":"West Quincy, MO","geo_precision":"unmatched"},"type":"Feature","geometry":null},{"properties":{"geo_score":0.0,"id":"ad3s53wbonph","address":"Pilot Point, TX","geo_precision":"unmatched"},"type":"Feature","geometry":null},{"properties":{"geo_score":0.0,"id":"ad3s53xjae0m","address":"Vancouver, WA","geo_precision":"unmatched"},"type":"Feature","geometry":null},{"properties":{"geo_score":0.0,"id":"ad3s544db9be","address":"Shelby, MT","geo_precision":"unmatched"},"type":"Feature","geometry":null},{"properties":{"geo_score":0.0,"id":"ad3s5409rl4p","address":"Swan Landing, AB","geo_precision":"unmatched"},"type":"Feature","geometry":null},{"properties":{"geo_score":0.0,"id":"ad3s541nxlj2","address":"Roseburg, OR","geo_precision":"unmatched"},"type":"Feature","geometry":null},{"properties":{"geo_score":0.0,"id":"ad3s544zuxx5","address":"La Grande, OR","geo_precision":"unmatched"},"type":"Feature","geometry":null},{"properties":{"geo_score":0.0,"id":"ad3s53y77fmh","address":"Winslow, AZ","geo_precision":"unmatched"},"type":"Feature","geometry":null},{"properties":{"geo_score":0.0,"id":"ad3s53wjy3q0","address":"Eufaula, OK","geo_precision":"unmatched"},"type":"Feature","geometry":null},{"properties":{"geo_score":0.0,"id":"ad3s54556n8x","address":"Sergeant Bluff, IA","geo_precision":"unmatched"},"type":"Feature","geometry":null},{"properties":{"geo_score":0.0,"id":"ad3s53s4iyu8","address":"Needles, CA","geo_precision":"unmatched"},"type":"Feature","geometry":null},{"properties":{"geo_score":0.0,"id":"ad3s53xcnb52","address":"Bakersfield, CA","geo_precision":"unmatched"},"type":"Feature","geometry":null},{"properties":{"geo_score":0.0,"id":"ad3s53sfcafi","address":"Wainwright, AB","geo_precision":"unmatched"},"type":"Feature","geometry":null},{"properties":{"geo_score":0.0,"id":"ad3s544kmt9z","address":"Dunbar, AB","geo_precision":"unmatched"},"type":"Feature","geometry":null},{"properties":{"geo_score":0.0,"id":"ad3s53xn6m24","address":"Sioux City, IA","geo_precision":"unmatched"},"type":"Feature","geometry":null},{"properties":{"geo_score":0.0,"id":"ad3s53w96hmw","address":"West Colton, CA","geo_precision":"unmatched"},"type":"Feature","geometry":null},{"properties":{"geo_score":0.0,"id":"ad3s544g6prl","address":"Walapai, AZ","geo_precision":"unmatched"},"type":"Feature","geometry":null},{"properties":{"geo_score":0.0,"id":"ad3s53ukwq6i","address":"Watrous, SK","geo_precision":"unmatched"},"type":"Feature","geometry":null},{"properties":{"geo_score":0.0,"id":"ad3s543gtwqd","address":"Tyler, TX","geo_precision":"unmatched"},"type":"Feature","geometry":null},{"properties":{"geo_score":0.0,"id":"ad3s542slc7o","address":"Stockton, CA","geo_precision":"unmatched"},"type":"Feature","geometry":null},{"properties":{"geo_score":0.0,"id":"ad3s5425yv1b","address":"Hodge Jct, TX","geo_precision":"unmatched"},"type":"Feature","geometry":null},{"properties":{"geo_score":0.0,"id":"ad3s540lh1km","address":"Vancouver Thornt, BC","geo_precision":"unmatched"},"type":"Feature","geometry":null},{"properties":{"geo_score":0.0,"id":"ad3s53ugqu2y","address":"Wishram, WA","geo_precision":"unmatched"},"type":"Feature","geometry":null},{"properties":{"geo_score":0.0,"id":"ad3s544t6u8i","address":"Carlisle, IA","geo_precision":"unmatched"},"type":"Feature","geometry":null},{"properties":{"geo_score":0.0,"id":"ad3s541kyho0","address":"Big Sandy, TX","geo_precision":"unmatched"},"type":"Feature","geometry":null},{"properties":{"geo_score":0.0,"id":"ad3s53pt0qby","address":"North Loop, TX","geo_precision":"unmatched"},"type":"Feature","geometry":null},{"properties":{"geo_score":0.0,"id":"ad3s541i5uxn","address":"Goodwin, TX","geo_precision":"unmatched"},"type":"Feature","geometry":null},{"properties":{"geo_score":0.0,"id":"ad3s53zfo2sl","address":"Oakdale, LA","geo_precision":"unmatched"},"type":"Feature","geometry":null},{"properties":{"geo_score":0.0,"id":"ad3s542ryb2g","address":"Hestes, TX","geo_precision":"unmatched"},"type":"Feature","geometry":null},{"properties":{"geo_score":0.0,"id":"ad3s53xk2y16","address":"Great Falls, MT","geo_precision":"unmatched"},"type":"Feature","geometry":null},{"properties":{"geo_score":0.0,"id":"ad3s53tj852k","address":"Eagle Pass, TX","geo_precision":"unmatched"},"type":"Feature","geometry":null},{"properties":{"geo_score":0.0,"id":"ad3s53sqwmlv","address":"Glenwood, MN","geo_precision":"unmatched"},"type":"Feature","geometry":null},{"properties":{"geo_score":0.0,"id":"ad3s541d8d4c","address":"San Antonio,","geo_precision":"unmatched"},"type":"Feature","geometry":null},{"properties":{"geo_score":0.0,"id":"ad3s53q6a3xi","address":"Jeffersonville, IN","geo_precision":"unmatched"},"type":"Feature","geometry":null},{"properties":{"geo_score":0.0,"id":"ad3s53zhpyws","address":"Tno Jct, TX","geo_precision":"unmatched"},"type":"Feature","geometry":null},{"properties":{"geo_score":0.0,"id":"ad3s5402p1ii","address":"Sealy, TX","geo_precision":"unmatched"},"type":"Feature","geometry":null},{"properties":{"geo_score":0.0,"id":"ad3s541a8xn9","address":"Headqtrs, WA","geo_precision":"unmatched"},"type":"Feature","geometry":null},{"properties":{"geo_score":0.0,"id":"ad3s5415oj53","address":"Fitzhugh, OK","geo_precision":"unmatched"},"type":"Feature","geometry":null},{"properties":{"geo_score":0.0,"id":"ad3s53r9hwrp","address":"Torreon, CU","geo_precision":"unmatched"},"type":"Feature","geometry":null},{"properties":{"geo_score":0.0,"id":"ad3s543lt0li","address":"Round Rock, TX","geo_precision":"unmatched"},"type":"Feature","geometry":null},{"properties":{"geo_score":0.0,"id":"ad3s53wfol09","address":"Irapuato, GJ","geo_precision":"unmatched"},"type":"Feature","geometry":null},{"properties":{"geo_score":0.0,"id":"ad3s53vxdn1q","address":"Felipe Pescador, ZT","geo_precision":"unmatched"},"type":"Feature","geometry":null},{"properties":{"geo_score":0.0,"id":"ad3s540hlilo","address":"Little Valley, CA","geo_precision":"unmatched"},"type":"Feature","geometry":null},{"properties":{"geo_score":0.0,"id":"ad3s542qeech","address":"Manhattan, TX","geo_precision":"unmatched"},"type":"Feature","geometry":null},{"properties":{"geo_score":0.0,"id":"ad3s53rhge58","address":"Lakeside, OK","geo_precision":"unmatched"},"type":"Feature","geometry":null},{"properties":{"geo_score":0.0,"id":"ad3s5454w4xg","address":"Fort Frances, ON","geo_precision":"unmatched"},"type":"Feature","geometry":null},{"properties":{"geo_score":0.0,"id":"ad3s53s5jwcs","address":"Laurel, MT","geo_precision":"unmatched"},"type":"Feature","geometry":null},{"properties":{"geo_score":0.0,"id":"ad3s53y7ss1h","address":"Livonia, LA","geo_precision":"unmatched"},"type":"Feature","geometry":null},{"properties":{"geo_score":0.0,"id":"ad3s53vf78fa","address":"Sapulpa, OK","geo_precision":"unmatched"},"type":"Feature","geometry":null},{"properties":{"geo_score":0.0,"id":"ad3s5449h77r","address":"Spaulding, OK","geo_precision":"unmatched"},"type":"Feature","geometry":null},{"properties":{"geo_score":0.0,"id":"ad3s53v3b5if","address":"Schulter, OK","geo_precision":"unmatched"},"type":"Feature","geometry":null},{"properties":{"geo_score":0.0,"id":"ad3s53s7k6ek","address":"Diamond, MB","geo_precision":"unmatched"},"type":"Feature","geometry":null},{"properties":{"geo_score":0.0,"id":"ad3s54630204","address":"Lordsburg, NM","geo_precision":"unmatched"},"type":"Feature","geometry":null},{"properties":{"geo_score":0.0,"id":"ad3s53xtop4z","address":"Jude, TX","geo_precision":"unmatched"},"type":"Feature","geometry":null},{"properties":{"geo_score":0.0,"id":"ad3s5455t89e","address":"Bealville, CA","geo_precision":"unmatched"},"type":"Feature","geometry":null},{"properties":{"geo_score":0.0,"id":"ad3s541whepw","address":"El Compas, DG","geo_precision":"unmatched"},"type":"Feature","geometry":null},{"properties":{"geo_score":0.0,"id":"ad3s53wgdw47","address":"Del Rio, TX","geo_precision":"unmatched"},"type":"Feature","geometry":null},{"properties":{"geo_score":0.0,"id":"ad3s53xche1t","address":"Birds, TX","geo_precision":"unmatched"},"type":"Feature","geometry":null},{"properties":{"geo_score":0.0,"id":"ad3s53r8j9lx","address":"Blum, TX","geo_precision":"unmatched"},"type":"Feature","geometry":null},{"properties":{"geo_score":0.0,"id":"ad3s53wmpsj3","address":"Corsicana, TX","geo_precision":"unmatched"},"type":"Feature","geometry":null},{"properties":{"geo_score":0.0,"id":"ad3s543hkd58","address":"Butler, OK","geo_precision":"unmatched"},"type":"Feature","geometry":null},{"properties":{"geo_score":0.0,"id":"ad3s53q77kih","address":"Vavenby, BC","geo_precision":"unmatched"},"type":"Feature","geometry":null},{"properties":{"geo_score":0.0,"id":"ad3s53q06k08","address":"Gardendale, TX","geo_precision":"unmatched"},"type":"Feature","geometry":null},{"properties":{"geo_score":0.0,"id":"ad3s53srxcsv","address":"Wetumka, OK","geo_precision":"unmatched"},"type":"Feature","geometry":null},{"properties":{"geo_score":0.0,"id":"ad3s53qp4520","address":"Flatonia, TX","geo_precision":"unmatched"},"type":"Feature","geometry":null},{"properties":{"geo_score":0.0,"id":"ad3s53wgxn2o","address":"Staley, OK","geo_precision":"unmatched"},"type":"Feature","geometry":null},{"properties":{"geo_score":0.0,"id":"ad3s53yzc5wb","address":"Andover, MN","geo_precision":"unmatched"},"type":"Feature","geometry":null},{"properties":{"geo_score":0.0,"id":"ad3s53tpghq4","address":"Hondo, TX","geo_precision":"unmatched"},"type":"Feature","geometry":null},{"properties":{"geo_score":0.0,"id":"ad3s53q24lt8","address":"Englewood, OR","geo_precision":"unmatched"},"type":"Feature","geometry":null},{"properties":{"geo_score":0.0,"id":"ad3s53rckkpj","address":"Longview, TX","geo_precision":"unmatched"},"type":"Feature","geometry":null},{"properties":{"geo_score":0.0,"id":"ad3s5446yp1b","address":"Saint Paul, MN","geo_precision":"unmatched"},"type":"Feature","geometry":null},{"properties":{"geo_score":0.0,"id":"ad3s5426lk97","address":"Francis, OK","geo_precision":"unmatched"},"type":"Feature","geometry":null},{"properties":{"geo_score":0.0,"id":"ad3s5447g6mf","address":"Morgan, TX","geo_precision":"unmatched"},"type":"Feature","geometry":null},{"properties":{"geo_score":0.0,"id":"ad3s53t23j8d","address":"Caddo, OK","geo_precision":"unmatched"},"type":"Feature","geometry":null},{"properties":{"geo_score":0.0,"id":"ad3s53sj8l8w","address":"Paola, KS","geo_precision":"unmatched"},"type":"Feature","geometry":null},{"properties":{"geo_score":0.0,"id":"ad3s5417ew5r","address":"North Platte East, NE","geo_precision":"unmatched"},"type":"Feature","geometry":null},{"properties":{"geo_score":0.0,"id":"ad3s53waz3fb","address":"Reisor, LA","geo_precision":"unmatched"},"type":"Feature","geometry":null},{"properties":{"geo_score":0.0,"id":"ad3s53thvqoa","address":"Wabamun, AB","geo_precision":"unmatched"},"type":"Feature","geometry":null},{"properties":{"geo_score":0.0,"id":"ad3s53qfmylq","address":"Peers, AB","geo_precision":"unmatched"},"type":"Feature","geometry":null},{"properties":{"geo_score":0.0,"id":"ad3s53s5b9kc","address":"Topeka, KS","geo_precision":"unmatched"},"type":"Feature","geometry":null},{"properties":{"geo_score":0.0,"id":"ad3s540eabjf","address":"Marysville, KS","geo_precision":"unmatched"},"type":"Feature","geometry":null},{"properties":{"geo_score":0.0,"id":"ad3s540dyq0q","address":"Mineola, TX","geo_precision":"unmatched"},"type":"Feature","geometry":null},{"properties":{"geo_score":0.0,"id":"ad3s53ptp52a","address":"Armourdale, KS","geo_precision":"unmatched"},"type":"Feature","geometry":null},{"properties":{"geo_score":0.0,"id":"ad3s53xyhgvp","address":"Lawson Jct, MO","geo_precision":"unmatched"},"type":"Feature","geometry":null},{"properties":{"geo_score":0.0,"id":"ad3s53r0p3jd","address":"Mesquite, TX","geo_precision":"unmatched"},"type":"Feature","geometry":null},{"properties":{"geo_score":0.0,"id":"ad3s53zd4ibj","address":"Blue River, BC","geo_precision":"unmatched"},"type":"Feature","geometry":null},{"properties":{"geo_score":0.0,"id":"ad3s53qqr1ha","address":"Swift Creek, BC","geo_precision":"unmatched"},"type":"Feature","geometry":null},{"properties":{"geo_score":0.0,"id":"ad3s53t18thd","address":"Hinton, AB","geo_precision":"unmatched"},"type":"Feature","geometry":null},{"properties":{"geo_score":0.0,"id":"ad3s53qqyhof","address":"River Bridge, TX","geo_precision":"unmatched"},"type":"Feature","geometry":null},{"properties":{"geo_score":0.0,"id":"ad3s545ugepg","address":"Des Moines, IA","geo_precision":"unmatched"},"type":"Feature","geometry":null},{"properties":{"geo_score":0.0,"id":"ad3s53w0mzxh","address":"Alpine, TX","geo_precision":"unmatched"},"type":"Feature","geometry":null},{"properties":{"geo_score":0.0,"id":"ad3s53v0zpto","address":"Brewster, MN","geo_precision":"unmatched"},"type":"Feature","geometry":null},{"properties":{"geo_score":0.0,"id":"ad3s543i4b4y","address":"Fairfield, AL","geo_precision":"unmatched"},"type":"Feature","geometry":null},{"properties":{"geo_score":0.0,"id":"ad3s53v04ba6","address":"Dierks, AR","geo_precision":"unmatched"},"type":"Feature","geometry":null},{"properties":{"geo_score":0.0,"id":"ad3s53pwma9o","address":"Lookout, OR","geo_precision":"unmatched"},"type":"Feature","geometry":null},{"properties":{"geo_score":0.0,"id":"ad3s543zt8c9","address":"Adair, OK","geo_precision":"unmatched"},"type":"Feature","geometry":null},{"properties":{"geo_score":0.0,"id":"ad3s53sbwro0","address":"Green River, WY","geo_precision":"unmatched"},"type":"Feature","geometry":null},{"properties":{"geo_score":0.0,"id":"ad3s53ujp2ei","address":"Cibolo, TX","geo_precision":"unmatched"},"type":"Feature","geometry":null},{"properties":{"geo_score":0.0,"id":"ad3s53qkb0x2","address":"Interbay, WA","geo_precision":"unmatched"},"type":"Feature","geometry":null},{"properties":{"geo_score":0.0,"id":"ad3s542kfaok","address":"Guymon, OK","geo_precision":"unmatched"},"type":"Feature","geometry":null},{"properties":{"geo_score":0.0,"id":"ad3s53zhzboh","address":"Saco, CA","geo_precision":"unmatched"},"type":"Feature","geometry":null},{"properties":{"geo_score":0.0,"id":"ad3s53x82al3","address":"Silsbee, TX","geo_precision":"unmatched"},"type":"Feature","geometry":null},{"properties":{"geo_score":0.0,"id":"ad3s53xo26d9","address":"Serena, IL","geo_precision":"unmatched"},"type":"Feature","geometry":null},{"properties":{"geo_score":0.0,"id":"ad3s53vjlzgt","address":"Silver, ON","geo_precision":"unmatched"},"type":"Feature","geometry":null},{"properties":{"geo_score":0.0,"id":"ad3s53rlmw7k","address":"Bishop, WY","geo_precision":"unmatched"},"type":"Feature","geometry":null},{"properties":{"geo_score":0.0,"id":"ad3s5449zihv","address":"San Fco De Los Ro, AG","geo_precision":"unmatched"},"type":"Feature","geometry":null},{"properties":{"geo_score":0.0,"id":"ad3s53ru2p1b","address":"Algoa, TX","geo_precision":"unmatched"},"type":"Feature","geometry":null},{"properties":{"geo_score":0.0,"id":"ad3s545fcjm0","address":"Waynoka, OK","geo_precision":"unmatched"},"type":"Feature","geometry":null},{"properties":{"geo_score":0.0,"id":"ad3s5401brz4","address":"Liberal, KS","geo_precision":"unmatched"},"type":"Feature","geometry":null},{"properties":{"geo_score":0.0,"id":"ad3s53yjrhx9","address":"North Yardftw, TX","geo_precision":"unmatched"},"type":"Feature","geometry":null},{"properties":{"geo_score":0.0,"id":"ad3s53yoj98z","address":"Ottawa, IL","geo_precision":"unmatched"},"type":"Feature","geometry":null},{"properties":{"geo_score":0.0,"id":"ad3s540iq2w0","address":"Fernwood, MS","geo_precision":"unmatched"},"type":"Feature","geometry":null},{"properties":{"geo_score":0.0,"id":"ad3s53tp9yrb","address":"Woodlin, MT","geo_precision":"unmatched"},"type":"Feature","geometry":null},{"properties":{"geo_score":0.0,"id":"ad3s53wsw7ms","address":"North Hope, AR","geo_precision":"unmatched"},"type":"Feature","geometry":null},{"properties":{"geo_score":0.0,"id":"ad3s53zb0rex","address":"Somerville, TX","geo_precision":"unmatched"},"type":"Feature","geometry":null},{"properties":{"geo_score":0.0,"id":"ad3s53wv9k0u","address":"Missoula, MT","geo_precision":"unmatched"},"type":"Feature","geometry":null},{"properties":{"geo_score":0.0,"id":"ad3s540jsu8c","address":"Hodge, LA","geo_precision":"unmatched"},"type":"Feature","geometry":null},{"properties":{"geo_score":0.0,"id":"ad3s544m2z80","address":"Saint Joseph, MO","geo_precision":"unmatched"},"type":"Feature","geometry":null},{"properties":{"geo_score":0.0,"id":"ad3s542m5cfn","address":"Dillard, OR","geo_precision":"unmatched"},"type":"Feature","geometry":null},{"properties":{"geo_score":0.0,"id":"ad3s53t3xit9","address":"Tricon Timber, MT","geo_precision":"unmatched"},"type":"Feature","geometry":null},{"properties":{"geo_score":0.0,"id":"ad3s53whiwmp","address":"Helena, MT","geo_precision":"unmatched"},"type":"Feature","geometry":null},{"properties":{"geo_score":0.0,"id":"ad3s5456wuy1","address":"Deweese, MS","geo_precision":"unmatched"},"type":"Feature","geometry":null},{"properties":{"geo_score":0.0,"id":"ad3s53ydg3hm","address":"Ajax, WI","geo_precision":"unmatched"},"type":"Feature","geometry":null},{"properties":{"geo_score":0.0,"id":"ad3s546a32bi","address":"Hunt, LA","geo_precision":"unmatched"},"type":"Feature","geometry":null},{"properties":{"geo_score":0.0,"id":"ad3s542v3srz","address":"Prescott, AR","geo_precision":"unmatched"},"type":"Feature","geometry":null},{"properties":{"geo_score":0.0,"id":"ad3s544qtefa","address":"Elko, NV","geo_precision":"unmatched"},"type":"Feature","geometry":null},{"properties":{"geo_score":0.0,"id":"ad3s53suvypw","address":"Angus, TX","geo_precision":"unmatched"},"type":"Feature","geometry":null},{"properties":{"geo_score":0.0,"id":"ad3s53pst9ho","address":"Rojas, CU","geo_precision":"unmatched"},"type":"Feature","geometry":null},{"properties":{"geo_score":0.0,"id":"ad3s5420x0mw","address":"Monroe, LA","geo_precision":"unmatched"},"type":"Feature","geometry":null},{"properties":{"geo_score":0.0,"id":"ad3s53tmh86x","address":"San Augustine, TX","geo_precision":"unmatched"},"type":"Feature","geometry":null},{"properties":{"geo_score":0.0,"id":"ad3s54666nya","address":"London East, ON","geo_precision":"unmatched"},"type":"Feature","geometry":null},{"properties":{"geo_score":0.0,"id":"ad3s53v7dzdy","address":"Muscle Shoals, AL","geo_precision":"unmatched"},"type":"Feature","geometry":null},{"properties":{"geo_score":0.0,"id":"ad3s53z3tcmr","address":"Farmington, MN","geo_precision":"unmatched"},"type":"Feature","geometry":null},{"properties":{"geo_score":0.0,"id":"ad3s53tzwbz5","address":"Jct Switch, MN","geo_precision":"unmatched"},"type":"Feature","geometry":null},{"properties":{"geo_score":0.0,"id":"ad3s53wopkub","address":"Alyth, AB","geo_precision":"unmatched"},"type":"Feature","geometry":null},{"properties":{"geo_score":0.0,"id":"ad3s53zkg8qu","address":"Virginia, MN","geo_precision":"unmatched"},"type":"Feature","geometry":null},{"properties":{"geo_score":0.0,"id":"ad3s543zlgey","address":"Corbyn, TX","geo_precision":"unmatched"},"type":"Feature","geometry":null},{"properties":{"geo_score":0.0,"id":"ad3s542ytbno","address":"Brownie, TX","geo_precision":"unmatched"},"type":"Feature","geometry":null},{"properties":{"geo_score":0.0,"id":"ad3s545nue75","address":"Cottage Grove, OR","geo_precision":"unmatched"},"type":"Feature","geometry":null},{"properties":{"geo_score":0.0,"id":"ad3s53yfbd5f","address":"Denver, CO","geo_precision":"unmatched"},"type":"Feature","geometry":null},{"properties":{"geo_score":0.0,"id":"ad3s53x7vtrq","address":"New Orleans, LA","geo_precision":"unmatched"},"type":"Feature","geometry":null},{"properties":{"geo_score":0.0,"id":"ad3s541ftr62","address":"San Luis Potosi, SL","geo_precision":"unmatched"},"type":"Feature","geometry":null},{"properties":{"geo_score":0.0,"id":"ad3s53tt6gcw","address":"Sterling, CO","geo_precision":"unmatched"},"type":"Feature","geometry":null}],"is_temporal":false,"author":{"url":"","metadata":null,"contact_name":null,"contact_address":null,"source":null,"contact_phone":null},"source":"","pagination":{"sort":null,"start":0,"total":441,"limit":1000000},"state":"complete","tags":"","published":"2014-08-16T20:53:32-04:00","id":336250}