{"type":"FeatureCollection","data_type":"Dataset","url_type":null,"permissions":[{"permissions":{"download":true,"view":true},"group_id":"everyone"}],"classification":null,"title":"Draft 2 Washtenaw Fire Stations","count":29,"stream_id":336358,"contributor":{"url":"http://geocommons.com/users/11255","name":"Dave Askins"},"data_attributes":null,"calculation_params":null,"icon_link":null,"link":"http://geocommons.com/overlays/336358.json","extent":[-84.0409,42.1286,-83.5778,42.4077],"geometry_types":["point"],"unique_name":null,"name":"Draft 2 Washtenaw Fire Stations","feature_count":29,"description":"","next_feature":null,"is_raster":false,"short_classification":"Y","stats":{"latitude":{"max":42.4076679,"variance":0.00534155252291179,"mean":42.2763017586207,"stdev":0.0730859256143876,"min":42.1285754,"median":42.2811476},"id":{"max":2647759,"variance":50356073.3817734,"mean":2621919.10344828,"stdev":7096.20133464189,"min":2619894,"median":2620014},"ele(ft)*":{"max":965,"variance":6068.10591133005,"mean":849.034482758621,"stdev":77.8980481869093,"min":676,"median":856},"longitude":{"max":-83.5777615,"variance":0.0162377133935926,"mean":-83.7314691344828,"stdev":0.127427286691637,"min":-84.0408618,"median":-83.7122623}},"features":[{"properties":{"latitude":42.4058264,"class":"Building","feature name":"Salem Township Fire Department","county":"Washtenaw","id":"ad4bq9h5uz6j","entry date":"04-FEB-2011","ele(ft)*":942,"longitude":-83.5777615,"bgn date":"-","state":"MI","map**":"Salem"},"type":"Feature","geometry":{"type":"Point","coordinates":[-83.5777615,42.4058264]}},{"properties":{"latitude":42.2401104,"class":"Building","feature name":"Ypsilanti Township Fire Department Station 1 Headquarters","county":"Washtenaw","id":"ad4bq9s7teyp","entry date":"04-FEB-2011","ele(ft)*":735,"longitude":-83.580748,"bgn date":"-","state":"MI","map**":"Ypsilanti East"},"type":"Feature","geometry":{"type":"Point","coordinates":[-83.580748,42.2401104]}},{"properties":{"latitude":42.2706114,"class":"Building","feature name":"Superior Township Fire Department Station 2","county":"Washtenaw","id":"ad4bq9jvmqis","entry date":"03-FEB-2011","ele(ft)*":761,"longitude":-83.5838322,"bgn date":"-","state":"MI","map**":"Denton"},"type":"Feature","geometry":{"type":"Point","coordinates":[-83.5838322,42.2706114]}},{"properties":{"latitude":42.2032579,"class":"Building","feature name":"Ypsilanti Township Fire Department Station 4","county":"Washtenaw","id":"ad4bq9owniev","entry date":"03-FEB-2011","ele(ft)*":715,"longitude":-83.5840535,"bgn date":"-","state":"MI","map**":"Ypsilanti East"},"type":"Feature","geometry":{"type":"Point","coordinates":[-83.5840535,42.2032579]}},{"properties":{"latitude":42.1285754,"class":"Building","feature name":"Augusta Township Fire Department","county":"Washtenaw","id":"ad4bq9q4d12w","entry date":"04-FEB-2011","ele(ft)*":676,"longitude":-83.5995226,"bgn date":"-","state":"MI","map**":"Ypsilanti East"},"type":"Feature","geometry":{"type":"Point","coordinates":[-83.5995226,42.1285754]}},{"properties":{"latitude":42.3197975,"class":"Building","feature name":"Superior Township Fire Department Station 1 Headquarters","county":"Washtenaw","id":"ad4bq9knqykm","entry date":"03-FEB-2011","ele(ft)*":856,"longitude":-83.6053841,"bgn date":"-","state":"MI","map**":"Denton"},"type":"Feature","geometry":{"type":"Point","coordinates":[-83.6053841,42.3197975]}},{"properties":{"latitude":42.2401,"class":"Building","feature name":"Ypsilanti Fire Department","county":"Washtenaw","id":"ad4bq9isx74q","entry date":"06-JUN-2011","ele(ft)*":748,"longitude":-83.61988,"bgn date":"-","state":"MI","map**":"Ypsilanti East"},"type":"Feature","geometry":{"type":"Point","coordinates":[-83.61988,42.2401]}},{"properties":{"latitude":42.2399336,"class":"Building","feature name":"Ypsilanti City Fire Department","county":"Washtenaw","id":"ad4bq9iep3ie","entry date":"04-FEB-2011","ele(ft)*":748,"longitude":-83.6201048,"bgn date":"-","state":"MI","map**":"Ypsilanti East"},"type":"Feature","geometry":{"type":"Point","coordinates":[-83.6201048,42.2399336]}},{"properties":{"latitude":42.2356789,"class":"Building","feature name":"Ypsilanti Township Fire Department Station 3","county":"Washtenaw","id":"ad4bq9su8wjr","entry date":"03-FEB-2011","ele(ft)*":804,"longitude":-83.6465272,"bgn date":"-","state":"MI","map**":"Ypsilanti West"},"type":"Feature","geometry":{"type":"Point","coordinates":[-83.6465272,42.2356789]}},{"properties":{"latitude":42.2309976,"class":"Building","feature name":"Pittsfield Charter Township Fire Department Station 2","county":"Washtenaw","id":"ad4bq9nzrpi3","entry date":"03-FEB-2011","ele(ft)*":833,"longitude":-83.6733592,"bgn date":"-","state":"MI","map**":"Ypsilanti West"},"type":"Feature","geometry":{"type":"Point","coordinates":[-83.6733592,42.2309976]}},{"properties":{"latitude":42.2948718,"class":"Building","feature name":"Ann Arbor Township Fire Department Station 2","county":"Washtenaw","id":"ad4bq9przzsh","entry date":"04-FEB-2011","ele(ft)*":876,"longitude":-83.6758337,"bgn date":"-","state":"MI","map**":"Ann Arbor East"},"type":"Feature","geometry":{"type":"Point","coordinates":[-83.6758337,42.2948718]}},{"properties":{"latitude":42.2526956,"class":"Building","feature name":"City of Ann Arbor Fire Department Station 4","county":"Washtenaw","id":"ad4bq9i54ksa","entry date":"03-FEB-2011","ele(ft)*":794,"longitude":-83.6993217,"bgn date":"-","state":"MI","map**":"Ann Arbor East"},"type":"Feature","geometry":{"type":"Point","coordinates":[-83.6993217,42.2526956]}},{"properties":{"latitude":42.1971787,"class":"Building","feature name":"Pittsfield Charter Township Fire Department Station 1 Headquarters","county":"Washtenaw","id":"ad4bq9feh25j","entry date":"04-FEB-2011","ele(ft)*":833,"longitude":-83.7030745,"bgn date":"-","state":"MI","map**":"Ypsilanti West"},"type":"Feature","geometry":{"type":"Point","coordinates":[-83.7030745,42.1971787]}},{"properties":{"latitude":42.3719012,"class":"Building","feature name":"Northfield Township Fire Department Station 2","county":"Washtenaw","id":"ad4bq9lkwlud","entry date":"04-FEB-2011","ele(ft)*":938,"longitude":-83.7083596,"bgn date":"-","state":"MI","map**":"Ann Arbor East"},"type":"Feature","geometry":{"type":"Point","coordinates":[-83.7083596,42.3719012]}},{"properties":{"latitude":42.3005426,"class":"Building","feature name":"City of Ann Arbor Fire Department Station 5","county":"Washtenaw","id":"ad4bq9frbwsv","entry date":"03-FEB-2011","ele(ft)*":902,"longitude":-83.7122623,"bgn date":"-","state":"MI","map**":"Ann Arbor East"},"type":"Feature","geometry":{"type":"Point","coordinates":[-83.7122623,42.3005426]}},{"properties":{"latitude":42.3284263,"class":"Building","feature name":"Ann Arbor Township Fire Department Station 1 Headquarters","county":"Washtenaw","id":"ad4bq9kb59h8","entry date":"04-FEB-2011","ele(ft)*":932,"longitude":-83.7327431,"bgn date":"-","state":"MI","map**":"Ann Arbor East"},"type":"Feature","geometry":{"type":"Point","coordinates":[-83.7327431,42.3284263]}},{"properties":{"latitude":42.2289197,"class":"Building","feature name":"Pittsfield Charter Township Fire Department Station 3","county":"Washtenaw","id":"ad4bq9ea3wp5","entry date":"04-FEB-2011","ele(ft)*":833,"longitude":-83.7404718,"bgn date":"-","state":"MI","map**":"Ypsilanti West"},"type":"Feature","geometry":{"type":"Point","coordinates":[-83.7404718,42.2289197]}},{"properties":{"latitude":42.2818387,"class":"Building","feature name":"City of Ann Arbor Fire Department Station 1","county":"Washtenaw","id":"ad4bq9qfbxvq","entry date":"04-FEB-2011","ele(ft)*":840,"longitude":-83.7462711,"bgn date":"-","state":"MI","map**":"Ann Arbor East"},"type":"Feature","geometry":{"type":"Point","coordinates":[-83.7462711,42.2818387]}},{"properties":{"latitude":42.2819444,"class":"Building","feature name":"Ann Arbor Fire Department","county":"Washtenaw","id":"ad4bq9l9hde5","entry date":"09-MAY-2011","ele(ft)*":837,"longitude":-83.7463889,"bgn date":"-","state":"MI","map**":"Ann Arbor East"},"type":"Feature","geometry":{"type":"Point","coordinates":[-83.7463889,42.2819444]}},{"properties":{"latitude":42.2430045,"class":"Building","feature name":"City of Ann Arbor Fire Department Station 6","county":"Washtenaw","id":"ad4bq9po015e","entry date":"03-FEB-2011","ele(ft)*":883,"longitude":-83.751356,"bgn date":"-","state":"MI","map**":"Saline"},"type":"Feature","geometry":{"type":"Point","coordinates":[-83.751356,42.2430045]}},{"properties":{"latitude":42.4076679,"class":"Building","feature name":"Northfield Township Fire Department Station 1 Headquarters","county":"Washtenaw","id":"ad4bq9klq38s","entry date":"03-FEB-2011","ele(ft)*":909,"longitude":-83.7601804,"bgn date":"-","state":"MI","map**":"Hamburg"},"type":"Feature","geometry":{"type":"Point","coordinates":[-83.7601804,42.4076679]}},{"properties":{"latitude":42.2811476,"class":"Building","feature name":"City of Ann Arbor Fire Department Station 3","county":"Washtenaw","id":"ad4bq9mehf99","entry date":"03-FEB-2011","ele(ft)*":951,"longitude":-83.7766035,"bgn date":"-","state":"MI","map**":"Ann Arbor West"},"type":"Feature","geometry":{"type":"Point","coordinates":[-83.7766035,42.2811476]}},{"properties":{"latitude":42.1683159,"class":"Building","feature name":"Saline Area Fire Department","county":"Washtenaw","id":"ad4bq9g775p2","entry date":"04-FEB-2011","ele(ft)*":801,"longitude":-83.7787253,"bgn date":"-","state":"MI","map**":"Saline"},"type":"Feature","geometry":{"type":"Point","coordinates":[-83.7787253,42.1683159]}},{"properties":{"latitude":42.3654115,"class":"Building","feature name":"Dexter Area Fire Department Station 3","county":"Washtenaw","id":"ad4bq9gobg2v","entry date":"03-FEB-2011","ele(ft)*":965,"longitude":-83.8240505,"bgn date":"-","state":"MI","map**":"Ann Arbor West"},"type":"Feature","geometry":{"type":"Point","coordinates":[-83.8240505,42.3654115]}},{"properties":{"latitude":42.2994099,"class":"Building","feature name":"Scio Township Fire Department","county":"Washtenaw","id":"ad4bq9j5jru5","entry date":"04-FEB-2011","ele(ft)*":892,"longitude":-83.8394171,"bgn date":"-","state":"MI","map**":"Ann Arbor West"},"type":"Feature","geometry":{"type":"Point","coordinates":[-83.8394171,42.2994099]}},{"properties":{"latitude":42.33866,"class":"Building","feature name":"Dexter Area Fire Department Station 1 Headquarters","county":"Washtenaw","id":"ad4bq9ln5c4p","entry date":"04-FEB-2011","ele(ft)*":863,"longitude":-83.88988,"bgn date":"-","state":"MI","map**":"Dexter"},"type":"Feature","geometry":{"type":"Point","coordinates":[-83.88988,42.33866]}},{"properties":{"latitude":42.3912883,"class":"Building","feature name":"Dexter Area Fire Department Station 2","county":"Washtenaw","id":"ad4bq9fr1fr4","entry date":"03-FEB-2011","ele(ft)*":928,"longitude":-83.9727468,"bgn date":"-","state":"MI","map**":"Pinckney"},"type":"Feature","geometry":{"type":"Point","coordinates":[-83.9727468,42.3912883]}},{"properties":{"latitude":42.3178763,"class":"Building","feature name":"Chelsea Area Fire Authority Fire Station","county":"Washtenaw","id":"ad4bq9lxv1lu","entry date":"04-FEB-2011","ele(ft)*":925,"longitude":-84.0228837,"bgn date":"-","state":"MI","map**":"Chelsea"},"type":"Feature","geometry":{"type":"Point","coordinates":[-84.0228837,42.3178763]}},{"properties":{"latitude":42.146761,"class":"Building","feature name":"Manchester Township Fire Department","county":"Washtenaw","id":"ad4bq9htakif","entry date":"04-FEB-2011","ele(ft)*":902,"longitude":-84.0408618,"bgn date":"-","state":"MI","map**":"Manchester"},"type":"Feature","geometry":{"type":"Point","coordinates":[-84.0408618,42.146761]}}],"is_temporal":false,"author":{"url":"","metadata":"","contact_name":"","contact_address":"","source":"","contact_phone":""},"source":"","pagination":{"sort":null,"start":0,"total":29,"limit":1000000},"state":"complete","tags":"","published":"2014-08-16T21:04:32-04:00","id":336358}