{"type":"FeatureCollection","data_type":"Dataset","url_type":null,"permissions":[{"permissions":{"download":true,"view":true},"group_id":"everyone"}],"classification":null,"title":"PIQS 3 - Library","count":4,"stream_id":336612,"contributor":{"url":"http://geocommons.com/users/67454","name":"tomaj"},"data_attributes":null,"calculation_params":null,"icon_link":null,"link":"http://geocommons.com/overlays/336612.json","extent":[-118.299,33.5924,-117.589,34.1264],"geometry_types":["point"],"unique_name":null,"name":"PIQS 3 - Library","feature_count":4,"description":"","next_feature":null,"is_raster":false,"short_classification":"Y","stats":{},"features":[{"properties":{"city":"Cota de Caza","name":"Mr. &amp; Mrs. Loren Shook","zipcode":"92679-4840","geo_score":0.894,"id":"ad4t12hyfw8z","address":"2 Arabian","phone number":"(949) 2407200","group":"Bio Sci","geo_precision":"street","state":"CA"},"type":"Feature","geometry":{"type":"Point","coordinates":[-117.58946,33.60347]}},{"properties":{"city":"Glendora","name":"Mr. &amp; Mrs. William Mc Cusker","zipcode":"91741-2739","geo_score":0.585,"id":"ad4t12h89sug","address":"618 E Whitcomb Ave","phone number":"(626) 3356663","group":"Libraries","geo_precision":"zip","state":"CA"},"type":"Feature","geometry":{"type":"Point","coordinates":[-118.298662,33.786594]}},{"properties":{"city":"Corona del Mar","name":"Edwin W. Amyes, M.D. \nMrs. Louise Amyes","zipcode":"92625-2620","geo_score":1.0,"id":"ad4t1248xhi0","address":"564 Seaward Rd.","phone number":"(949) 7600138","group":"Libraries","geo_precision":"range","state":"CA"},"type":"Feature","geometry":{"type":"Point","coordinates":[-117.860521,33.592385]}},{"properties":{"city":"Arcadia","name":"Mr &amp; Mrs. Patrick Lam","zipcode":"91006-4332","geo_score":0.813,"id":"ad4t12fxucou","address":"1136 S 5th Ave","phone number":"(626) 4468281","group":"Libraries","geo_precision":"range","state":"CA"},"type":"Feature","geometry":{"type":"Point","coordinates":[-118.020362,34.12643]}}],"is_temporal":false,"author":{"url":"","metadata":null,"contact_name":null,"contact_address":null,"source":null,"contact_phone":null},"source":"","pagination":{"sort":null,"start":0,"total":4,"limit":1000000},"state":"complete","tags":"","published":"2014-08-16T21:23:25-04:00","id":336612}