{"type":"FeatureCollection","data_type":"Dataset","url_type":null,"permissions":[{"permissions":{"download":true,"edit":true,"view":true},"group_id":"everyone"}],"classification":null,"title":"City_Locations","count":271,"stream_id":338678,"contributor":{"url":"http://geocommons.com/users/50950","name":"snelson"},"data_attributes":null,"calculation_params":null,"icon_link":null,"link":"http://geocommons.com/overlays/338678.json","extent":[-122.919,-2.06667,49.3481,53.6333],"geometry_types":["point"],"unique_name":null,"name":"City_Locations","feature_count":271,"description":"","next_feature":null,"is_raster":false,"short_classification":"Y","stats":{"city":{"count":100,"counts_by_value":{"McKinney":1,"Cincinnati":1,"Columbia":1,"Weston":5,"Saddle Brook":5,"Boston":14,"Raleigh":1,"Farmingdale":3,"Freehold":1,"Danvers":1,"Rockville":1,"Brentwood":2,"Hunt Valley":6,"Albany":1,"Irving":8,"Franklin":1,"Kennesaw":1,"Orange":4,"Mishawaka":1,"Dallas":2,"West Chester":1,"Lexington":1,"Birmingham":1,"Bangor":2,"Uniondale":3,"Fairfield":1,"New York":3,"Richardson":4,"Roseland":5,"Fairfax":1,"El Paso":3,"Arlington Heights":2,"Charlotte":1,"Holland":1,"Providence":1,"Louisville":1,"Woodland Hills":1,"Wallingford":1,"Mineola":1,"San Jose":1,"Salt Lake City":1,"Southfield":1,"Heathrow":2,"Houston":5,"Walnut Creek":4,"Los Angeles":1,"Miami":1,"Kingwood":2,"Dover":1,"Springfield":2,"Federal Way":1,"Allentown":3,"Covington":3,"Phoenix":11,"Troy":2,"St Louis":2,"Greece":3,"New Castle":1,"Owings Mills":1,"Mooresville":2,"Spokane Valley":1,"Columbus":1,"Williamsburg":3,"Ruston":3,"Ridgeland":1,"Solon":1,"Georgetown":2,"Multi":1,"Henderson":2,"Sacramento":2,"Merrillville":1,"Maitland":1,"Victor":1,"Farmington":1,"Riverton":1,"Middlebury":3,"Rocky Hill":3,"Chandler":1,"Pittsburgh":2,"Tampa":3,"Warrenville":5,"Wausau":2,"Chicago":3,"Nashville":1,"Tracy":1,"Memphis":2,"Spokane":1,"St Peters":1,"Kent":1,"Elk Grove":2,"Toledo":1,"Voorhees":1,"Wheatfield":1,"Newark":1,"Hendersonville":1,"Missoula":1,"Chattanooga":1,"Centennial":3,"Frisco":1,"East Syracuse":2},"list":["Boston","Riverton","Los Angeles","Phoenix","Arlington Heights","Dallas","Warrenville","Hendersonville","Danvers","Solon","Houston","Greece","Chicago","Birmingham","Fairfax","Mineola","Merrillville","Ruston","Chattanooga","Kent","Spokane","Kingwood","Columbia","Freehold","Rockville","Cincinnati","Brentwood","Tracy","Uniondale","Covington","Fairfield","Hunt Valley","Memphis","Allentown","Chandler","Weston","San Jose","Wausau","Missoula","Williamsburg","Sacramento","New York","Tampa","St Louis","Woodland Hills","Pittsburgh","Franklin","Troy","Ridgeland","Raleigh","Maitland","Springfield","New Castle","Mishawaka","Newark","West Chester","Columbus","Orange","Richardson","Louisville","Wheatfield","Voorhees","Owings Mills","Henderson","Kennesaw","Bangor","Victor","Elk Grove","Farmingdale","Irving","Centennial","Middlebury","Dover","Saddle Brook","Rocky Hill","Walnut Creek","Heathrow","Miami","St Peters","Spokane Valley","Nashville","Holland","Georgetown","El Paso","Roseland","Lexington","Frisco","Providence","McKinney","Federal Way","Salt Lake City","Albany","Southfield","Charlotte","East Syracuse","Wallingford","Multi","Mooresville","Toledo","Farmington"]},"state":{"count":37,"counts_by_value":{"NY":23,"AL":2,"VA":4,"MD":9,"DE":1,"CO":7,"RI":1,"Sites":1,"MN":2,"MO":7,"ME":2,"AZ":22,"IL":11,"OH":6,"KY":2,"TX":29,"TN":8,"GA":2,"NH":6,"IN":2,"NJ":16,"PA":6,"FL":8,"MI":4,"MS":1,"CT":8,"WI":4,"MT":1,"CA":27,"NV":2,"KS":2,"MA":20,"UT":2,"NM":4,"LA":10,"WA":5,"NC":4},"list":["MA","UT","CA","AZ","IL","TX","TN","OH","NY","AL","VA","IN","LA","WA","MD","NJ","PA","WI","MT","FL","MO","MI","MS","NC","DE","KY","NV","GA","ME","CO","CT","NH","RI","Sites","MN","NM","KS"]}},"features":[{"properties":{"city":"Boston","id":"ad8weq8lid7o","state":"MA"},"type":"Feature","geometry":{"type":"Point","coordinates":[-4.23,34.11]}},{"properties":{"city":"Riverton","id":"ad8weq1g7dkf","state":"UT"},"type":"Feature","geometry":null},{"properties":{"city":"Los Angeles","id":"ad8weqcmyazb","state":"CA"},"type":"Feature","geometry":{"type":"Point","coordinates":[-73.734174418,46.256476309]}},{"properties":{"city":"Phoenix","id":"ad8weq0chwuv","state":"AZ"},"type":"Feature","geometry":{"type":"Point","coordinates":[46.5430556,39.7611111]}},{"properties":{"city":"Arlington Heights","id":"ad8weq0d4cth","state":"IL"},"type":"Feature","geometry":null},{"properties":{"city":"Dallas","id":"ad8weqf67nti","state":"TX"},"type":"Feature","geometry":null},{"properties":{"city":"Warrenville","id":"ad8weqdamed4","state":"IL"},"type":"Feature","geometry":null},{"properties":{"city":"Hendersonville","id":"ad8weqe004te","state":"TN"},"type":"Feature","geometry":null},{"properties":{"city":"Boston","id":"ad8weq0rnjf7","state":"MA"},"type":"Feature","geometry":{"type":"Point","coordinates":[-4.23,34.11]}},{"properties":{"city":"Danvers","id":"ad8weqbmdse7","state":"MA"},"type":"Feature","geometry":null},{"properties":{"city":"Solon","id":"ad8weqdula4b","state":"OH"},"type":"Feature","geometry":null},{"properties":{"city":"Phoenix","id":"ad8weq55tnrd","state":"AZ"},"type":"Feature","geometry":{"type":"Point","coordinates":[46.5430556,39.7611111]}},{"properties":{"city":"Boston","id":"ad8weq4qjrp7","state":"MA"},"type":"Feature","geometry":{"type":"Point","coordinates":[-4.23,34.11]}},{"properties":{"city":"Warrenville","id":"ad8weqbou83v","state":"IL"},"type":"Feature","geometry":null},{"properties":{"city":"Houston","id":"ad8weqc20pq8","state":"TX"},"type":"Feature","geometry":null},{"properties":{"city":"Greece","id":"ad8weqgdlyvi","state":"NY"},"type":"Feature","geometry":null},{"properties":{"city":"Chicago","id":"ad8weq8dqcif","state":"IL"},"type":"Feature","geometry":null},{"properties":{"city":"Birmingham","id":"ad8weq08oq6m","state":"AL"},"type":"Feature","geometry":null},{"properties":{"city":"Fairfax","id":"ad8weq51zjze","state":"VA"},"type":"Feature","geometry":null},{"properties":{"city":"Mineola","id":"ad8weqa46zzd","state":"NY"},"type":"Feature","geometry":null},{"properties":{"city":"Merrillville","id":"ad8weqbsmiba","state":"IN"},"type":"Feature","geometry":null},{"properties":{"city":"Ruston","id":"ad8weqer7cnx","state":"LA"},"type":"Feature","geometry":null},{"properties":{"city":"Phoenix","id":"ad8weq66wxam","state":"AZ"},"type":"Feature","geometry":{"type":"Point","coordinates":[46.5430556,39.7611111]}},{"properties":{"city":"Chattanooga","id":"ad8weqchy4l6","state":"TN"},"type":"Feature","geometry":{"type":"Point","coordinates":[8.7847222,33.7575]}},{"properties":{"city":"Kent","id":"ad8weqb3knbi","state":"WA"},"type":"Feature","geometry":null},{"properties":{"city":"Spokane","id":"ad8weq831i3v","state":"WA"},"type":"Feature","geometry":null},{"properties":{"city":"Kingwood","id":"ad8weqcusvva","state":"TX"},"type":"Feature","geometry":null},{"properties":{"city":"Boston","id":"ad8weqdi9ylx","state":"MA"},"type":"Feature","geometry":{"type":"Point","coordinates":[-4.23,34.11]}},{"properties":{"city":"Boston","id":"ad8weqc6wvlk","state":"MA"},"type":"Feature","geometry":{"type":"Point","coordinates":[-4.23,34.11]}},{"properties":{"city":"Columbia","id":"ad8weq5q9lpm","state":"MD"},"type":"Feature","geometry":null},{"properties":{"city":"Freehold","id":"ad8weq2umnds","state":"NJ"},"type":"Feature","geometry":null},{"properties":{"city":"Rockville","id":"ad8weq27dtut","state":"MD"},"type":"Feature","geometry":null},{"properties":{"city":"Cincinnati","id":"ad8wepzwikdh","state":"OH"},"type":"Feature","geometry":null},{"properties":{"city":"Brentwood","id":"ad8weqcxjh9p","state":"CA"},"type":"Feature","geometry":{"type":"Point","coordinates":[-58.481809098,48.41671214]}},{"properties":{"city":"Tracy","id":"ad8weqcs1li2","state":"CA"},"type":"Feature","geometry":{"type":"Point","coordinates":[-73.140846477,46.02506344]}},{"properties":{"city":"Uniondale","id":"ad8weq54hadd","state":"NY"},"type":"Feature","geometry":null},{"properties":{"city":"Warrenville","id":"ad8weqci1vtb","state":"IL"},"type":"Feature","geometry":null},{"properties":{"city":"Covington","id":"ad8weqfqojx9","state":"LA"},"type":"Feature","geometry":null},{"properties":{"city":"Fairfield","id":"ad8weqfrome4","state":"OH"},"type":"Feature","geometry":null},{"properties":{"city":"Hunt Valley","id":"ad8weqebi3eo","state":"MD"},"type":"Feature","geometry":{"type":"Point","coordinates":[28.0652778,48.2433333]}},{"properties":{"city":"Memphis","id":"ad8weq8gmtou","state":"TN"},"type":"Feature","geometry":null},{"properties":{"city":"Allentown","id":"ad8weqe8gi99","state":"PA"},"type":"Feature","geometry":null},{"properties":{"city":"Chandler","id":"ad8weqfi2h5h","state":"AZ"},"type":"Feature","geometry":null},{"properties":{"city":"Weston","id":"ad8weq0hyjsd","state":"MA"},"type":"Feature","geometry":null},{"properties":{"city":"San Jose","id":"ad8weq6mjzll","state":"CA"},"type":"Feature","geometry":{"type":"Point","coordinates":[-76.832710082,48.30017534]}},{"properties":{"city":"Wausau","id":"ad8weq88nbvx","state":"WI"},"type":"Feature","geometry":null},{"properties":{"city":"Missoula","id":"ad8weqc88e0a","state":"MT"},"type":"Feature","geometry":null},{"properties":{"city":"Williamsburg","id":"ad8weqcmnryp","state":"VA"},"type":"Feature","geometry":null},{"properties":{"city":"Sacramento","id":"ad8weqcvboy2","state":"CA"},"type":"Feature","geometry":{"type":"Point","coordinates":[-118.385598186,50.449832005]}},{"properties":{"city":"New York","id":"ad8weqbb6y6e","state":"NY"},"type":"Feature","geometry":null},{"properties":{"city":"Tampa","id":"ad8weqeows36","state":"FL"},"type":"Feature","geometry":null},{"properties":{"city":"St Louis","id":"ad8weq2m34qn","state":"MO"},"type":"Feature","geometry":null},{"properties":{"city":"Woodland Hills","id":"ad8weq43b3wn","state":"CA"},"type":"Feature","geometry":{"type":"Point","coordinates":[-122.919332157,49.332967234]}},{"properties":{"city":"Pittsburgh","id":"ad8weqb16ipk","state":"PA"},"type":"Feature","geometry":null},{"properties":{"city":"Franklin","id":"ad8weqam5lmb","state":"TN"},"type":"Feature","geometry":null},{"properties":{"city":"Troy","id":"ad8weq7dhlrn","state":"MI"},"type":"Feature","geometry":null},{"properties":{"city":"Ridgeland","id":"ad8weq6i81jh","state":"MS"},"type":"Feature","geometry":null},{"properties":{"city":"Raleigh","id":"ad8weqad5c04","state":"NC"},"type":"Feature","geometry":null},{"properties":{"city":"Maitland","id":"ad8weqeuosur","state":"FL"},"type":"Feature","geometry":null},{"properties":{"city":"Springfield","id":"ad8weqg13y09","state":"MO"},"type":"Feature","geometry":null},{"properties":{"city":"New Castle","id":"ad8weqalp4k8","state":"PA"},"type":"Feature","geometry":{"type":"Point","coordinates":[-81.05,8.2166667]}},{"properties":{"city":"Phoenix","id":"ad8weqf4e9ab","state":"AZ"},"type":"Feature","geometry":{"type":"Point","coordinates":[46.5430556,39.7611111]}},{"properties":{"city":"Mishawaka","id":"ad8weq212egp","state":"IN"},"type":"Feature","geometry":null},{"properties":{"city":"Newark","id":"ad8weqcu328o","state":"DE"},"type":"Feature","geometry":{"type":"Point","coordinates":[7.9666667,53.6333333]}},{"properties":{"city":"West Chester","id":"ad8weqd0qmg7","state":"OH"},"type":"Feature","geometry":null},{"properties":{"city":"Columbus","id":"ad8weq1or4r2","state":"OH"},"type":"Feature","geometry":null},{"properties":{"city":"Williamsburg","id":"ad8weq0w310d","state":"VA"},"type":"Feature","geometry":null},{"properties":{"city":"Memphis","id":"ad8weq23m7s7","state":"TN"},"type":"Feature","geometry":null},{"properties":{"city":"Orange","id":"ad8weqf2fvwn","state":"CA"},"type":"Feature","geometry":null},{"properties":{"city":"Pittsburgh","id":"ad8weqa8a50f","state":"PA"},"type":"Feature","geometry":null},{"properties":{"city":"Richardson","id":"ad8weq0qu3ri","state":"TX"},"type":"Feature","geometry":null},{"properties":{"city":"Louisville","id":"ad8weq6ib45c","state":"KY"},"type":"Feature","geometry":null},{"properties":{"city":"Uniondale","id":"ad8weqabw8ai","state":"NY"},"type":"Feature","geometry":null},{"properties":{"city":"Wheatfield","id":"ad8weq3agk7x","state":"NY"},"type":"Feature","geometry":null},{"properties":{"city":"Richardson","id":"ad8weq3dzqai","state":"TX"},"type":"Feature","geometry":null},{"properties":{"city":"Voorhees","id":"ad8weq54cs35","state":"NJ"},"type":"Feature","geometry":null},{"properties":{"city":"Owings Mills","id":"ad8weq1h62vc","state":"MD"},"type":"Feature","geometry":null},{"properties":{"city":"Boston","id":"ad8weqewps0g","state":"MA"},"type":"Feature","geometry":{"type":"Point","coordinates":[-4.23,34.11]}},{"properties":{"city":"Henderson","id":"ad8weq0ryj9q","state":"NV"},"type":"Feature","geometry":null},{"properties":{"city":"Chicago","id":"ad8weq01eits","state":"IL"},"type":"Feature","geometry":null},{"properties":{"city":"Troy","id":"ad8weq6lvx7v","state":"MI"},"type":"Feature","geometry":null},{"properties":{"city":"Hunt Valley","id":"ad8wepzvcmt4","state":"MD"},"type":"Feature","geometry":{"type":"Point","coordinates":[28.0652778,48.2433333]}},{"properties":{"city":"Sacramento","id":"ad8weqb78a02","state":"CA"},"type":"Feature","geometry":{"type":"Point","coordinates":[-118.385598186,50.449832005]}},{"properties":{"city":"Boston","id":"ad8weq14lrec","state":"MA"},"type":"Feature","geometry":{"type":"Point","coordinates":[-4.23,34.11]}},{"properties":{"city":"Kennesaw","id":"ad8weq4y5viu","state":"GA"},"type":"Feature","geometry":{"type":"Point","coordinates":[11.7166667,-2.0666667]}},{"properties":{"city":"Orange","id":"ad8weq4oghqs","state":"CA"},"type":"Feature","geometry":null},{"properties":{"city":"Bangor","id":"ad8weqfrhz0e","state":"ME"},"type":"Feature","geometry":null},{"properties":{"city":"Allentown","id":"ad8weqflqa2w","state":"PA"},"type":"Feature","geometry":null},{"properties":{"city":"Covington","id":"ad8weq32rs6m","state":"LA"},"type":"Feature","geometry":null},{"properties":{"city":"Victor","id":"ad8weq1cy7my","state":"NY"},"type":"Feature","geometry":null},{"properties":{"city":"New York","id":"ad8weqamaees","state":"NY"},"type":"Feature","geometry":null},{"properties":{"city":"Elk Grove","id":"ad8weqfbw5c5","state":"CA"},"type":"Feature","geometry":{"type":"Point","coordinates":[-59.831737067,46.166836215]}},{"properties":{"city":"Boston","id":"ad8weq02heit","state":"MA"},"type":"Feature","geometry":{"type":"Point","coordinates":[-4.23,34.11]}},{"properties":{"city":"Boston","id":"ad8weqeeq4dx","state":"MA"},"type":"Feature","geometry":{"type":"Point","coordinates":[-4.23,34.11]}},{"properties":{"city":"Farmingdale","id":"ad8weq4fcpbp","state":"NY"},"type":"Feature","geometry":null},{"properties":{"city":"Irving","id":"ad8weqay3a26","state":"TX"},"type":"Feature","geometry":null},{"properties":{"city":"Irving","id":"ad8weq6qtgtg","state":"TX"},"type":"Feature","geometry":null},{"properties":{"city":"Centennial","id":"ad8weq9vx8a8","state":"CO"},"type":"Feature","geometry":{"type":"Point","coordinates":[-75.0166667,5.45]}},{"properties":{"city":"Middlebury","id":"ad8weqcv3ruo","state":"CT"},"type":"Feature","geometry":null},{"properties":{"city":"Middlebury","id":"ad8weqc46nr7","state":"CT"},"type":"Feature","geometry":null},{"properties":{"city":"Dover","id":"ad8weq9lztl7","state":"NH"},"type":"Feature","geometry":null},{"properties":{"city":"Saddle Brook","id":"ad8weq9esnic","state":"NJ"},"type":"Feature","geometry":null},{"properties":{"city":"Saddle Brook","id":"ad8weqckqcj7","state":"NJ"},"type":"Feature","geometry":null},{"properties":{"city":"Rocky Hill","id":"ad8weq03qfd3","state":"CT"},"type":"Feature","geometry":null},{"properties":{"city":"Irving","id":"ad8weq7c1k61","state":"TX"},"type":"Feature","geometry":null},{"properties":{"city":"Covington","id":"ad8weqf2g04w","state":"LA"},"type":"Feature","geometry":null},{"properties":{"city":"Phoenix","id":"ad8weq423u6p","state":"AZ"},"type":"Feature","geometry":{"type":"Point","coordinates":[46.5430556,39.7611111]}},{"properties":{"city":"Walnut Creek","id":"ad8weqcyspty","state":"CA"},"type":"Feature","geometry":{"type":"Point","coordinates":[-99.297209934,49.979427842]}},{"properties":{"city":"Irving","id":"ad8weqd70hjs","state":"TX"},"type":"Feature","geometry":null},{"properties":{"city":"Heathrow","id":"ad8weqc5zsmq","state":"FL"},"type":"Feature","geometry":null},{"properties":{"city":"Williamsburg","id":"ad8weq9ft6q7","state":"VA"},"type":"Feature","geometry":null},{"properties":{"city":"Hunt Valley","id":"ad8weqgbsiiv","state":"MD"},"type":"Feature","geometry":{"type":"Point","coordinates":[28.0652778,48.2433333]}},{"properties":{"city":"Miami","id":"ad8weqganjh9","state":"FL"},"type":"Feature","geometry":null},{"properties":{"city":"Heathrow","id":"ad8weq1jq8lp","state":"FL"},"type":"Feature","geometry":null},{"properties":{"city":"Boston","id":"ad8weq4zocsb","state":"MA"},"type":"Feature","geometry":{"type":"Point","coordinates":[-4.23,34.11]}},{"properties":{"city":"St Peters","id":"ad8weqc7fa2i","state":"MO"},"type":"Feature","geometry":null},{"properties":{"city":"Boston","id":"ad8weqd5iwa5","state":"MA"},"type":"Feature","geometry":{"type":"Point","coordinates":[-4.23,34.11]}},{"properties":{"city":"Spokane Valley","id":"ad8weq17k1nh","state":"WA"},"type":"Feature","geometry":null},{"properties":{"city":"Nashville","id":"ad8weqahuh66","state":"TN"},"type":"Feature","geometry":null},{"properties":{"city":"Holland","id":"ad8weqbagb6g","state":"MI"},"type":"Feature","geometry":null},{"properties":{"city":"Boston","id":"ad8weqbbk57v","state":"MA"},"type":"Feature","geometry":{"type":"Point","coordinates":[-4.23,34.11]}},{"properties":{"city":"Georgetown","id":"ad8weq5iqb1t","state":"TX"},"type":"Feature","geometry":null},{"properties":{"city":"Ruston","id":"ad8weqcwaj9d","state":"LA"},"type":"Feature","geometry":null},{"properties":{"city":"Henderson","id":"ad8weq6opwdh","state":"NV"},"type":"Feature","geometry":null},{"properties":{"city":"Springfield","id":"ad8weqbfvm45","state":"MO"},"type":"Feature","geometry":null},{"properties":{"city":"El Paso","id":"ad8weqaq0tzs","state":"TX"},"type":"Feature","geometry":null},{"properties":{"city":"Roseland","id":"ad8weq3rrtqu","state":"NJ"},"type":"Feature","geometry":null},{"properties":{"city":"Walnut Creek","id":"ad8weqbvvwec","state":"CA"},"type":"Feature","geometry":{"type":"Point","coordinates":[-99.297209934,49.979427842]}},{"properties":{"city":"Lexington","id":"ad8weqe81ygm","state":"KY"},"type":"Feature","geometry":null},{"properties":{"city":"Frisco","id":"ad8weq77v5di","state":"TX"},"type":"Feature","geometry":null},{"properties":{"city":"Providence","id":"ad8weq2fe26n","state":"RI"},"type":"Feature","geometry":null},{"properties":{"city":"Phoenix","id":"ad8weqb2kfjr","state":"AZ"},"type":"Feature","geometry":{"type":"Point","coordinates":[46.5430556,39.7611111]}},{"properties":{"city":"Bangor","id":"ad8weqfzkeoc","state":"ME"},"type":"Feature","geometry":null},{"properties":{"city":"Weston","id":"ad8weqf313b8","state":"MA"},"type":"Feature","geometry":null},{"properties":{"city":"McKinney","id":"ad8weq0qptrq","state":"TX"},"type":"Feature","geometry":null},{"properties":{"city":"St Louis","id":"ad8weq8lzgee","state":"MO"},"type":"Feature","geometry":null},{"properties":{"city":"Federal Way","id":"ad8weq389cxg","state":"WA"},"type":"Feature","geometry":null},{"properties":{"city":"Houston","id":"ad8weq31o3vr","state":"TX"},"type":"Feature","geometry":null},{"properties":{"city":"Orange","id":"ad8weq8eolb9","state":"CA"},"type":"Feature","geometry":null},{"properties":{"city":"Warrenville","id":"ad8weq85t1uh","state":"IL"},"type":"Feature","geometry":null},{"properties":{"city":"Warrenville","id":"ad8weq7a4thv","state":"IL"},"type":"Feature","geometry":null},{"properties":{"city":"Uniondale","id":"ad8weqfga5yc","state":"NY"},"type":"Feature","geometry":null},{"properties":{"city":"Salt Lake City","id":"ad8weqei92cu","state":"UT"},"type":"Feature","geometry":null},{"properties":{"city":"Arlington Heights","id":"ad8weq3l7ywn","state":"IL"},"type":"Feature","geometry":null},{"properties":{"city":"Phoenix","id":"ad8weq2hsyxq","state":"AZ"},"type":"Feature","geometry":{"type":"Point","coordinates":[46.5430556,39.7611111]}},{"properties":{"city":"El Paso","id":"ad8weq5a3w4h","state":"TX"},"type":"Feature","geometry":null},{"properties":{"city":"Centennial","id":"ad8weqdv9c9k","state":"CO"},"type":"Feature","geometry":{"type":"Point","coordinates":[-75.0166667,5.45]}},{"properties":{"city":"Albany","id":"ad8weq6wmllw","state":"NY"},"type":"Feature","geometry":null},{"properties":{"city":"Southfield","id":"ad8weq4bgdr3","state":"MI"},"type":"Feature","geometry":null},{"properties":{"city":"Charlotte","id":"ad8weqbwe3kb","state":"NC"},"type":"Feature","geometry":null},{"properties":{"city":"Phoenix","id":"ad8weqcd052v","state":"AZ"},"type":"Feature","geometry":{"type":"Point","coordinates":[46.5430556,39.7611111]}},{"properties":{"city":"Irving","id":"ad8weq08mda0","state":"TX"},"type":"Feature","geometry":null},{"properties":{"city":"Houston","id":"ad8weqe82jpy","state":"TX"},"type":"Feature","geometry":null},{"properties":{"city":"Centennial","id":"ad8weq8kjmri","state":"CO"},"type":"Feature","geometry":{"type":"Point","coordinates":[-75.0166667,5.45]}},{"properties":{"city":"Ruston","id":"ad8weq63qysm","state":"LA"},"type":"Feature","geometry":null},{"properties":{"city":"East Syracuse","id":"ad8weqfnkvdn","state":"NY"},"type":"Feature","geometry":null},{"properties":{"city":"New York","id":"ad8weq57z9o8","state":"NY"},"type":"Feature","geometry":null},{"properties":{"city":"Tampa","id":"ad8weq6wrnu2","state":"FL"},"type":"Feature","geometry":null},{"properties":{"city":"Wallingford","id":"ad8weq9tdteg","state":"CT"},"type":"Feature","geometry":null},{"properties":{"city":"Farmingdale","id":"ad8weq4yl9o4","state":"NY"},"type":"Feature","geometry":null},{"properties":{"city":"Multi","id":"ad8weq7xvbe7","state":"Sites"},"type":"Feature","geometry":{"type":"Point","coordinates":[18.8594444,43.8875]}},{"properties":{"city":"Mooresville","id":"ad8weq8fps39","state":"NC"},"type":"Feature","geometry":null},{"properties":{"city":"Weston","id":"ad8weqf9elcb","state":"MA"},"type":"Feature","geometry":null},{"properties":{"city":"Toledo","id":"ad8weqg5i54p","state":"OH"},"type":"Feature","geometry":null},{"properties":{"city":"Walnut Creek","id":"ad8weq3ti161","state":"CA"},"type":"Feature","geometry":{"type":"Point","coordinates":[-99.297209934,49.979427842]}},{"properties":{"city":"Farmington","id":"ad8weq4wfgmt","state":"CT"},"type":"Feature","geometry":null},{"properties":{"city":"Saddle Brook","id":"ad8weq55naci","state":"NJ"},"type":"Feature","geometry":null},{"properties":{"city":"Saddle Brook","id":"ad8weqaydcs7","state":"NJ"},"type":"Feature","geometry":null},{"properties":{"city":"Eagan","id":"ad8weqbfe3xd","state":"MN"},"type":"Feature","geometry":null},{"properties":{"city":"Albuquerque","id":"ad8weq74j9xn","state":"NM"},"type":"Feature","geometry":null},{"properties":{"city":"Murfreesboro","id":"ad8weq82ogyc","state":"TN"},"type":"Feature","geometry":null},{"properties":{"city":"Portsmouth","id":"ad8weq1swbec","state":"NH"},"type":"Feature","geometry":null},{"properties":{"city":"Portsmouth","id":"ad8weqefmo3r","state":"NH"},"type":"Feature","geometry":null},{"properties":{"city":"Portsmouth","id":"ad8weqchvqrd","state":"NH"},"type":"Feature","geometry":null},{"properties":{"city":"Georgetown","id":"ad8weq0u8hmp","state":"TX"},"type":"Feature","geometry":null},{"properties":{"city":"Rocky Hill","id":"ad8weq7n7nij","state":"CT"},"type":"Feature","geometry":null},{"properties":{"city":"East Syracuse","id":"ad8weqfx8owg","state":"NY"},"type":"Feature","geometry":null},{"properties":{"city":"El Paso","id":"ad8weq1tpte2","state":"TX"},"type":"Feature","geometry":null},{"properties":{"city":"Shreveport","id":"ad8weqd7s8yo","state":"LA"},"type":"Feature","geometry":null},{"properties":{"city":"Portsmouth","id":"ad8weqe919vg","state":"NH"},"type":"Feature","geometry":null},{"properties":{"city":"Aliso Viejo","id":"ad8weq178miy","state":"CA"},"type":"Feature","geometry":{"type":"Point","coordinates":[-78.599561526,44.983420198]}},{"properties":{"city":"Waukasha","id":"ad8weq9naow6","state":"WI"},"type":"Feature","geometry":null},{"properties":{"city":"Phoenix","id":"ad8weqapcgo6","state":"AZ"},"type":"Feature","geometry":{"type":"Point","coordinates":[46.5430556,39.7611111]}},{"properties":{"city":"Liberty Lake","id":"ad8weqfmxssd","state":"WA"},"type":"Feature","geometry":null},{"properties":{"city":"Houston","id":"ad8weq49liez","state":"TX"},"type":"Feature","geometry":null},{"properties":{"city":"Irving","id":"ad8weqejlszm","state":"TX"},"type":"Feature","geometry":null},{"properties":{"city":"Scottsdale","id":"ad8weq4sajbr","state":"AZ"},"type":"Feature","geometry":null},{"properties":{"city":"Weston","id":"ad8weq91bf8x","state":"MA"},"type":"Feature","geometry":null},{"properties":{"city":"Wausau","id":"ad8weq7sr8sx","state":"WI"},"type":"Feature","geometry":null},{"properties":{"city":"Tucson","id":"ad8weqb1ddvy","state":"AZ"},"type":"Feature","geometry":null},{"properties":{"city":"Prescott","id":"ad8weqe265sj","state":"AZ"},"type":"Feature","geometry":{"type":"Point","coordinates":[49.3480556,39.8519444]}},{"properties":{"city":"Hunt Valley","id":"ad8weq2qlqwr","state":"MD"},"type":"Feature","geometry":{"type":"Point","coordinates":[28.0652778,48.2433333]}},{"properties":{"city":"Shreveport","id":"ad8weq1385hu","state":"LA"},"type":"Feature","geometry":null},{"properties":{"city":"Vestal","id":"ad8weq26n1qj","state":"NY"},"type":"Feature","geometry":null},{"properties":{"city":"Shreveport","id":"ad8weqcnf6qn","state":"LA"},"type":"Feature","geometry":null},{"properties":{"city":"Chicago","id":"ad8weq8g9ucv","state":"IL"},"type":"Feature","geometry":null},{"properties":{"city":"Richardson","id":"ad8weq92f51q","state":"TX"},"type":"Feature","geometry":null},{"properties":{"city":"Maple Grove","id":"ad8weq652p7l","state":"MN"},"type":"Feature","geometry":null},{"properties":{"city":"Albuquerque","id":"ad8weqbo4p54","state":"NM"},"type":"Feature","geometry":null},{"properties":{"city":"Middleton","id":"ad8weq0hl90h","state":"WI"},"type":"Feature","geometry":null},{"properties":{"city":"Boston","id":"ad8weqfd4lov","state":"MA"},"type":"Feature","geometry":{"type":"Point","coordinates":[-4.23,34.11]}},{"properties":{"city":"Mooresville","id":"ad8weq5stzay","state":"NC"},"type":"Feature","geometry":null},{"properties":{"city":"Albuquerque","id":"ad8weq2a5q29","state":"NM"},"type":"Feature","geometry":null},{"properties":{"city":"Ramsey","id":"ad8weqa3954h","state":"NJ"},"type":"Feature","geometry":null},{"properties":{"city":"Greece","id":"ad8weqbe0pmg","state":"NY"},"type":"Feature","geometry":null},{"properties":{"city":"Mahwah","id":"ad8weqe1x69a","state":"NJ"},"type":"Feature","geometry":null},{"properties":{"city":"Brentwood","id":"ad8weqd7fya1","state":"TN"},"type":"Feature","geometry":null},{"properties":{"city":"Dallas","id":"ad8weq8c1s6c","state":"TX"},"type":"Feature","geometry":null},{"properties":{"city":"Boston","id":"ad8weq72mo0l","state":"MA"},"type":"Feature","geometry":{"type":"Point","coordinates":[-4.23,34.11]}},{"properties":{"city":"Rocky Hill","id":"ad8wepzxyylt","state":"CT"},"type":"Feature","geometry":null},{"properties":{"city":"Greece","id":"ad8weq05gqlx","state":"NY"},"type":"Feature","geometry":null},{"properties":{"city":"Scottsdale","id":"ad8weqatvar8","state":"AZ"},"type":"Feature","geometry":null},{"properties":{"city":"Irving","id":"ad8weqedy9lm","state":"TX"},"type":"Feature","geometry":null},{"properties":{"city":"Farmingdale","id":"ad8weqap1dxj","state":"NY"},"type":"Feature","geometry":null},{"properties":{"city":"Sewell","id":"ad8weqdx1inh","state":"NJ"},"type":"Feature","geometry":null},{"properties":{"city":"Tampa","id":"ad8weqdacgf2","state":"FL"},"type":"Feature","geometry":null},{"properties":{"city":"Irving","id":"ad8weq810s1q","state":"TX"},"type":"Feature","geometry":null},{"properties":{"city":"Roseland","id":"ad8weq9dy3xd","state":"NJ"},"type":"Feature","geometry":null},{"properties":{"city":"Port Jefferson Station","id":"ad8weq6wahux","state":"NY"},"type":"Feature","geometry":null},{"properties":{"city":"Bedford","id":"ad8weqd5xuly","state":"NH"},"type":"Feature","geometry":null},{"properties":{"city":"Hoffman Estates","id":"ad8weqblyd5d","state":"IL"},"type":"Feature","geometry":null},{"properties":{"city":"Commack","id":"ad8weq5ljbuw","state":"NY"},"type":"Feature","geometry":null},{"properties":{"city":"Hunt Valley","id":"ad8weq46w9sj","state":"MD"},"type":"Feature","geometry":{"type":"Point","coordinates":[28.0652778,48.2433333]}},{"properties":{"city":"Middlebury","id":"ad8weqg56rbu","state":"CT"},"type":"Feature","geometry":null},{"properties":{"city":"Allentown","id":"ad8weqaei3p4","state":"PA"},"type":"Feature","geometry":null},{"properties":{"city":"Houston","id":"ad8weq8tla8i","state":"TX"},"type":"Feature","geometry":null},{"properties":{"city":"Kingwood","id":"ad8weq3i2w30","state":"TX"},"type":"Feature","geometry":null},{"properties":{"city":"Ontario","id":"ad8weq2saca3","state":"CA"},"type":"Feature","geometry":{"type":"Point","coordinates":[-79.082884803,44.250117447]}},{"properties":{"city":"Port Jefferson Station","id":"ad8weqfjnhqv","state":"NY"},"type":"Feature","geometry":null},{"properties":{"city":"Phoenix","id":"ad8weq5rc6yf","state":"AZ"},"type":"Feature","geometry":{"type":"Point","coordinates":[46.5430556,39.7611111]}},{"properties":{"city":"Gaineville","id":"ad8weq30n4cr","state":"GA"},"type":"Feature","geometry":null},{"properties":{"city":"San Antonio","id":"ad8weq7ghnda","state":"TX"},"type":"Feature","geometry":null},{"properties":{"city":"Walnut Creek","id":"ad8weqeeyhc2","state":"CA"},"type":"Feature","geometry":{"type":"Point","coordinates":[-99.297209934,49.979427842]}},{"properties":{"city":"Hunt Valley","id":"ad8weq5aq1vb","state":"MD"},"type":"Feature","geometry":{"type":"Point","coordinates":[28.0652778,48.2433333]}},{"properties":{"city":"Chino Hills","id":"ad8weq15y0vz","state":"CA"},"type":"Feature","geometry":{"type":"Point","coordinates":[-112.451828425,49.766720116]}},{"properties":{"city":"Saddle Brook","id":"ad8weq9f10vj","state":"NJ"},"type":"Feature","geometry":null},{"properties":{"city":"Shreveport","id":"ad8weqbs4rwu","state":"LA"},"type":"Feature","geometry":null},{"properties":{"city":"Phoenix","id":"ad8weq5xtflw","state":"AZ"},"type":"Feature","geometry":{"type":"Point","coordinates":[46.5430556,39.7611111]}},{"properties":{"city":"Weston","id":"ad8weqf37g2j","state":"MA"},"type":"Feature","geometry":null},{"properties":{"city":"Orange","id":"ad8weq2d7i8j","state":"CA"},"type":"Feature","geometry":null},{"properties":{"city":"Vestal","id":"ad8weq29lq0g","state":"NY"},"type":"Feature","geometry":null},{"properties":{"city":"Richardson","id":"ad8weq65m7k6","state":"TX"},"type":"Feature","geometry":null},{"properties":{"city":"Roseland","id":"ad8weqa2div0","state":"NJ"},"type":"Feature","geometry":null},{"properties":{"city":"Roseland","id":"ad8weq7x3liz","state":"NJ"},"type":"Feature","geometry":null},{"properties":{"city":"Roseland","id":"ad8weq33zqg7","state":"NJ"},"type":"Feature","geometry":null},{"properties":{"city":"Denver","id":"ad8weq9kdkr0","state":"CO"},"type":"Feature","geometry":null},{"properties":{"city":"CENTENNIAL","id":"ad8weqfwrjl3","state":"CO"},"type":"Feature","geometry":{"type":"Point","coordinates":[-75.0166667,5.45]}},{"properties":{"city":"GOLDEN","id":"ad8weq3h8q1g","state":"CO"},"type":"Feature","geometry":{"type":"Point","coordinates":[-76.4166667,2.8333333]}},{"properties":{"city":"CENTENNIAL","id":"ad8weq7kpx9i","state":"CO"},"type":"Feature","geometry":{"type":"Point","coordinates":[-75.0166667,5.45]}},{"properties":{"city":"MIAMI","id":"ad8weq12kp2s","state":"FL"},"type":"Feature","geometry":null},{"properties":{"city":"ROSELAND","id":"ad8weqaj89eb","state":"NJ"},"type":"Feature","geometry":null},{"properties":{"city":"OVERLAND PARK","id":"ad8weq5lgiru","state":"KS"},"type":"Feature","geometry":null},{"properties":{"city":"OVERLAND PARK","id":"ad8weq5995t1","state":"KS"},"type":"Feature","geometry":null},{"properties":{"city":"KANSAS CITY","id":"ad8weqa32szl","state":"MO"},"type":"Feature","geometry":null},{"properties":{"city":"KANSAS CITY","id":"ad8weq59ru6e","state":"MO"},"type":"Feature","geometry":null},{"properties":{"city":"NORTH ALBUQUERQUE","id":"ad8weq33b3li","state":"NM"},"type":"Feature","geometry":null},{"properties":{"city":"PHOENIX","id":"ad8weqbm8sxt","state":"AZ"},"type":"Feature","geometry":{"type":"Point","coordinates":[46.5430556,39.7611111]}},{"properties":{"city":"GILBERT","id":"ad8weqbtvr84","state":"AZ"},"type":"Feature","geometry":null},{"properties":{"city":"PHOENIX","id":"ad8weqfp7jg1","state":"AZ"},"type":"Feature","geometry":{"type":"Point","coordinates":[46.5430556,39.7611111]}},{"properties":{"city":"CHANDLER","id":"ad8weq3kvuwg","state":"AZ"},"type":"Feature","geometry":null},{"properties":{"city":"PHOENIX","id":"ad8weq9u4bso","state":"AZ"},"type":"Feature","geometry":{"type":"Point","coordinates":[46.5430556,39.7611111]}},{"properties":{"city":"SAN DIEGO","id":"ad8weq9dnuwo","state":"CA"},"type":"Feature","geometry":{"type":"Point","coordinates":[-101.584220585,51.399979807]}},{"properties":{"city":"CARLSBAD","id":"ad8weqeq8kw6","state":"CA"},"type":"Feature","geometry":{"type":"Point","coordinates":[-54.947866945,48.912421596]}},{"properties":{"city":"BIRMINGHAM","id":"ad8weq7narpc","state":"AL"},"type":"Feature","geometry":null},{"properties":{"city":"WALNUT CREEK","id":"ad8weq5xhdyr","state":"CA"},"type":"Feature","geometry":{"type":"Point","coordinates":[-99.297209934,49.979427842]}},{"properties":{"city":"Pleasanton","id":"ad8weqf8fcy1","state":"CA"},"type":"Feature","geometry":{"type":"Point","coordinates":[-104.417708634,52.500015356]}},{"properties":{"city":"SAN FRANCISCO","id":"ad8weqflxgu2","state":"CA"},"type":"Feature","geometry":{"type":"Point","coordinates":[-80.466445516,48.350174128]}},{"properties":{"city":"Elk Grove","id":"ad8weqc7ivmg","state":"CA"},"type":"Feature","geometry":{"type":"Point","coordinates":[-59.831737067,46.166836215]}},{"properties":{"city":"SAN RAMON","id":"ad8weqgaozql","state":"CA"},"type":"Feature","geometry":{"type":"Point","coordinates":[-76.832710082,48.30017534]}},{"properties":{"city":"SACRAMENTO","id":"ad8weq5wvun0","state":"CA"},"type":"Feature","geometry":{"type":"Point","coordinates":[-118.385598186,50.449832005]}},{"properties":{"city":"Tucson","id":"ad8weqfzxsng","state":"AZ"},"type":"Feature","geometry":null}],"is_temporal":false,"author":{"url":"","metadata":"","contact_name":"","contact_address":"","source":"","contact_phone":""},"source":"","pagination":{"sort":null,"start":0,"total":271,"limit":1000000},"state":"complete","tags":"","published":"2014-08-16T23:34:45-04:00","id":338678}