{"type":"FeatureCollection","data_type":"Dataset","url_type":null,"permissions":[{"permissions":{"download":true,"view":true},"group_id":"everyone"}],"classification":null,"title":"Telmon, Inc - LM Q1 2013 Job Locations","count":295,"stream_id":338683,"contributor":{"url":"http://geocommons.com/users/50950","name":"snelson"},"data_attributes":null,"calculation_params":null,"icon_link":null,"link":"http://geocommons.com/overlays/338683.json","extent":[-168.022,21.3906,-68.8789,47.6626],"geometry_types":["point"],"unique_name":null,"name":"Telmon, Inc - LM Q1 2013 Job Locations","feature_count":295,"description":"","next_feature":null,"is_raster":false,"short_classification":"Y","stats":{},"features":[{"properties":{"city":"Boston","geo_score":0.714,"id":"ad8xt0r68l1a","geo_precision":"city","state":"MA"},"type":"Feature","geometry":{"type":"Point","coordinates":[-71.026964,42.370567]}},{"properties":{"city":"Riverton","geo_score":0.714,"id":"ad8xt0tlpnxh","geo_precision":"city","state":"UT"},"type":"Feature","geometry":{"type":"Point","coordinates":[-112.00627,40.495129]}},{"properties":{"city":"Los Angeles","geo_score":0.714,"id":"ad8xt0wxmh6e","geo_precision":"city","state":"CA"},"type":"Feature","geometry":{"type":"Point","coordinates":[-120.618608,38.052816]}},{"properties":{"city":"Phoenix","geo_score":0.0,"id":"ad8xt0oepb97","geo_precision":"unmatched","state":"AZ"},"type":"Feature","geometry":null},{"properties":{"city":"Arlington Heights","geo_score":0.714,"id":"ad8xt0isw5t3","geo_precision":"city","state":"IL"},"type":"Feature","geometry":{"type":"Point","coordinates":[-89.240006,41.43043]}},{"properties":{"city":"Dallas","geo_score":0.714,"id":"ad8xt0hynsf1","geo_precision":"city","state":"TX"},"type":"Feature","geometry":{"type":"Point","coordinates":[-96.240533,32.370699]}},{"properties":{"city":"Warrenville","geo_score":0.714,"id":"ad8xt0m9p4ua","geo_precision":"city","state":"IL"},"type":"Feature","geometry":{"type":"Point","coordinates":[-88.171551,41.805422]}},{"properties":{"city":"Hendersonville","geo_score":0.714,"id":"ad8xt0i94tc9","geo_precision":"city","state":"TN"},"type":"Feature","geometry":{"type":"Point","coordinates":[-86.612045,36.347551]}},{"properties":{"city":"Boston","geo_score":0.714,"id":"ad8xt0rj4qzl","geo_precision":"city","state":"MA"},"type":"Feature","geometry":{"type":"Point","coordinates":[-71.026964,42.370567]}},{"properties":{"city":"Danvers","geo_score":0.714,"id":"ad8xt0kger9m","geo_precision":"city","state":"MA"},"type":"Feature","geometry":{"type":"Point","coordinates":[-70.920328,42.548428]}},{"properties":{"city":"Solon","geo_score":0.714,"id":"ad8xt0k9vmbi","geo_precision":"city","state":"OH"},"type":"Feature","geometry":{"type":"Point","coordinates":[-82.493781,41.371715]}},{"properties":{"city":"Phoenix","geo_score":0.0,"id":"ad8xt0gwcabt","geo_precision":"unmatched","state":"AZ"},"type":"Feature","geometry":null},{"properties":{"city":"Boston","geo_score":0.714,"id":"ad8xt0hx6ird","geo_precision":"city","state":"MA"},"type":"Feature","geometry":{"type":"Point","coordinates":[-71.026964,42.370567]}},{"properties":{"city":"Warrenville","geo_score":0.714,"id":"ad8xt0ruqq1p","geo_precision":"city","state":"IL"},"type":"Feature","geometry":{"type":"Point","coordinates":[-88.171551,41.805422]}},{"properties":{"city":"Houston","geo_score":0.714,"id":"ad8xt0guvta8","geo_precision":"city","state":"TX"},"type":"Feature","geometry":{"type":"Point","coordinates":[-96.919704,29.845783]}},{"properties":{"city":"Greece","geo_score":0.714,"id":"ad8xt0kd228x","geo_precision":"city","state":"NY"},"type":"Feature","geometry":{"type":"Point","coordinates":[-74.3159,44.21955]}},{"properties":{"city":"Chicago","geo_score":0.714,"id":"ad8xt0rkdxdd","geo_precision":"city","state":"IL"},"type":"Feature","geometry":{"type":"Point","coordinates":[-87.68732,41.811929]}},{"properties":{"city":"Birmingham","geo_score":0.714,"id":"ad8xt0kfocsg","geo_precision":"city","state":"AL"},"type":"Feature","geometry":{"type":"Point","coordinates":[-86.801904,33.456412]}},{"properties":{"city":"Fairfax","geo_score":0.0,"id":"ad8xt0jtgt04","geo_precision":"unmatched","state":"VA"},"type":"Feature","geometry":null},{"properties":{"city":"Mineola","geo_score":0.714,"id":"ad8xt0lgd19a","geo_precision":"city","state":"NY"},"type":"Feature","geometry":{"type":"Point","coordinates":[-79.440048,42.175057]}},{"properties":{"city":"Merrillville","geo_score":0.714,"id":"ad8xt0jn356a","geo_precision":"city","state":"IN"},"type":"Feature","geometry":{"type":"Point","coordinates":[-87.338656,41.497212]}},{"properties":{"city":"Ruston","geo_score":0.714,"id":"ad8xt0qddht5","geo_precision":"city","state":"LA"},"type":"Feature","geometry":{"type":"Point","coordinates":[-92.639756,32.580553]}},{"properties":{"city":"Phoenix","geo_score":0.0,"id":"ad8xt0wd45oo","geo_precision":"unmatched","state":"AZ"},"type":"Feature","geometry":null},{"properties":{"city":"Chattanooga","geo_score":0.714,"id":"ad8xt0s8sug6","geo_precision":"city","state":"TN"},"type":"Feature","geometry":{"type":"Point","coordinates":[-85.206426,35.017818]}},{"properties":{"city":"Kent","geo_score":0.714,"id":"ad8xt0hmh068","geo_precision":"city","state":"WA"},"type":"Feature","geometry":{"type":"Point","coordinates":[-122.16538,47.379972]}},{"properties":{"city":"Spokane","geo_score":0.714,"id":"ad8xt0u1k6do","geo_precision":"city","state":"WA"},"type":"Feature","geometry":{"type":"Point","coordinates":[-117.435997,47.66264]}},{"properties":{"city":"Kingwood","geo_score":0.714,"id":"ad8xt0gvrqhf","geo_precision":"city","state":"TX"},"type":"Feature","geometry":{"type":"Point","coordinates":[-95.261044,30.033553]}},{"properties":{"city":"Boston","geo_score":0.714,"id":"ad8xt0wtk4og","geo_precision":"city","state":"MA"},"type":"Feature","geometry":{"type":"Point","coordinates":[-71.026964,42.370567]}},{"properties":{"city":"Boston","geo_score":0.714,"id":"ad8xt0v0yiry","geo_precision":"city","state":"MA"},"type":"Feature","geometry":{"type":"Point","coordinates":[-71.026964,42.370567]}},{"properties":{"city":"Columbia","geo_score":0.714,"id":"ad8xt0ll6tj8","geo_precision":"city","state":"MD"},"type":"Feature","geometry":{"type":"Point","coordinates":[-76.887905,39.206132]}},{"properties":{"city":"Freehold","geo_score":0.714,"id":"ad8xt0hcs02w","geo_precision":"city","state":"NJ"},"type":"Feature","geometry":{"type":"Point","coordinates":[-74.306284,40.236423]}},{"properties":{"city":"Rockville","geo_score":0.0,"id":"ad8xt0twob6l","geo_precision":"unmatched","state":"MD"},"type":"Feature","geometry":null},{"properties":{"city":"Cincinnati","geo_score":0.714,"id":"ad8xt0s6kl0t","geo_precision":"city","state":"OH"},"type":"Feature","geometry":{"type":"Point","coordinates":[-84.53822,39.166759]}},{"properties":{"city":"Brentwood","geo_score":0.714,"id":"ad8xt0sq5tkw","geo_precision":"city","state":"CA"},"type":"Feature","geometry":{"type":"Point","coordinates":[-118.473969,34.051954]}},{"properties":{"city":"Tracy","geo_score":0.714,"id":"ad8xt0t7ieco","geo_precision":"city","state":"CA"},"type":"Feature","geometry":{"type":"Point","coordinates":[-121.407804,37.688679]}},{"properties":{"city":"Uniondale","geo_score":0.714,"id":"ad8xt0jtfvld","geo_precision":"city","state":"NY"},"type":"Feature","geometry":{"type":"Point","coordinates":[-73.591421,40.705868]}},{"properties":{"city":"Warrenville","geo_score":0.714,"id":"ad8xt0hdhb2q","geo_precision":"city","state":"IL"},"type":"Feature","geometry":{"type":"Point","coordinates":[-88.171551,41.805422]}},{"properties":{"city":"Covington","geo_score":0.714,"id":"ad8xt0klpbbn","geo_precision":"city","state":"LA"},"type":"Feature","geometry":{"type":"Point","coordinates":[-90.011991,30.435893]}},{"properties":{"city":"Fairfield","geo_score":0.714,"id":"ad8xt0mz0wzi","geo_precision":"city","state":"OH"},"type":"Feature","geometry":{"type":"Point","coordinates":[-82.475156,39.915898]}},{"properties":{"city":"Hunt Valley","geo_score":0.714,"id":"ad8xt0na3md1","geo_precision":"city","state":"MD"},"type":"Feature","geometry":{"type":"Point","coordinates":[-76.39135,39.53344]}},{"properties":{"city":"Memphis","geo_score":0.714,"id":"ad8xt0s1qrkf","geo_precision":"city","state":"TN"},"type":"Feature","geometry":{"type":"Point","coordinates":[-89.990415,35.169255]}},{"properties":{"city":"Allentown","geo_score":0.714,"id":"ad8xt0tcobph","geo_precision":"city","state":"PA"},"type":"Feature","geometry":{"type":"Point","coordinates":[-75.470026,40.607497]}},{"properties":{"city":"Chandler","geo_score":0.714,"id":"ad8xt0x33701","geo_precision":"city","state":"AZ"},"type":"Feature","geometry":{"type":"Point","coordinates":[-111.686171,33.212186]}},{"properties":{"city":"Weston","geo_score":0.714,"id":"ad8xt0o7oz11","geo_precision":"city","state":"MA"},"type":"Feature","geometry":{"type":"Point","coordinates":[-71.459405,42.446396]}},{"properties":{"city":"San Jose","geo_score":0.714,"id":"ad8xt0ldqox2","geo_precision":"city","state":"CA"},"type":"Feature","geometry":{"type":"Point","coordinates":[-121.705327,37.189396]}},{"properties":{"city":"Wausau","geo_score":0.714,"id":"ad8xt0shog7g","geo_precision":"city","state":"WI"},"type":"Feature","geometry":{"type":"Point","coordinates":[-89.794002,44.961874]}},{"properties":{"city":"Missoula","geo_score":0.714,"id":"ad8xt0u8cvki","geo_precision":"city","state":"MT"},"type":"Feature","geometry":{"type":"Point","coordinates":[-113.909123,46.853606]}},{"properties":{"city":"Williamsburg","geo_score":0.714,"id":"ad8xt0s8j32l","geo_precision":"city","state":"VA"},"type":"Feature","geometry":{"type":"Point","coordinates":[-76.746769,37.310451]}},{"properties":{"city":"Sacramento","geo_score":0.714,"id":"ad8xt0qgt313","geo_precision":"city","state":"CA"},"type":"Feature","geometry":{"type":"Point","coordinates":[-121.555406,38.380456]}},{"properties":{"city":"New York","geo_score":0.714,"id":"ad8xt0sqtme5","geo_precision":"city","state":"NY"},"type":"Feature","geometry":{"type":"Point","coordinates":[-74.005973,40.714269]}},{"properties":{"city":"Tampa","geo_score":0.714,"id":"ad8xt0rt1aq1","geo_precision":"city","state":"FL"},"type":"Feature","geometry":{"type":"Point","coordinates":[-82.582035,27.996097]}},{"properties":{"city":"St Louis","geo_score":0.0,"id":"ad8xt0viutcn","geo_precision":"unmatched","state":"MO"},"type":"Feature","geometry":null},{"properties":{"city":"Woodland Hills","geo_score":0.714,"id":"ad8xt0wfo8lz","geo_precision":"city","state":"CA"},"type":"Feature","geometry":{"type":"Point","coordinates":[-121.397892,39.08337]}},{"properties":{"city":"Pittsburgh","geo_score":0.714,"id":"ad8xt0piwn0z","geo_precision":"city","state":"PA"},"type":"Feature","geometry":{"type":"Point","coordinates":[-80.024817,40.434436]}},{"properties":{"city":"Franklin","geo_score":0.714,"id":"ad8xt0sw6d86","geo_precision":"city","state":"TN"},"type":"Feature","geometry":{"type":"Point","coordinates":[-86.965691,35.890746]}},{"properties":{"city":"Troy","geo_score":0.714,"id":"ad8xt0pidu22","geo_precision":"city","state":"MI"},"type":"Feature","geometry":{"type":"Point","coordinates":[-82.89105,43.675016]}},{"properties":{"city":"Ridgeland","geo_score":0.714,"id":"ad8xt0qw184e","geo_precision":"city","state":"MS"},"type":"Feature","geometry":{"type":"Point","coordinates":[-90.13731,32.436064]}},{"properties":{"city":"Raleigh","geo_score":0.714,"id":"ad8xt0so71gb","geo_precision":"city","state":"NC"},"type":"Feature","geometry":{"type":"Point","coordinates":[-82.293464,36.034279]}},{"properties":{"city":"Maitland","geo_score":0.714,"id":"ad8xt0ozwvh2","geo_precision":"city","state":"FL"},"type":"Feature","geometry":{"type":"Point","coordinates":[-81.36459,28.625476]}},{"properties":{"city":"Springfield","geo_score":0.714,"id":"ad8xt0p66kpl","geo_precision":"city","state":"MO"},"type":"Feature","geometry":{"type":"Point","coordinates":[-92.02405,37.762541]}},{"properties":{"city":"New Castle","geo_score":0.714,"id":"ad8xt0pulqq0","geo_precision":"city","state":"PA"},"type":"Feature","geometry":{"type":"Point","coordinates":[-78.059448,41.593398]}},{"properties":{"city":"Phoenix","geo_score":0.0,"id":"ad8xt0ln7ohj","geo_precision":"unmatched","state":"AZ"},"type":"Feature","geometry":null},{"properties":{"city":"Mishawaka","geo_score":0.714,"id":"ad8xt0lmgcwf","geo_precision":"city","state":"IN"},"type":"Feature","geometry":{"type":"Point","coordinates":[-86.287884,41.61536]}},{"properties":{"city":"Newark","geo_score":0.714,"id":"ad8xt0iymsbu","geo_precision":"city","state":"DE"},"type":"Feature","geometry":{"type":"Point","coordinates":[-75.701277,39.614737]}},{"properties":{"city":"West Chester","geo_score":0.714,"id":"ad8xt0mklhxr","geo_precision":"city","state":"OH"},"type":"Feature","geometry":{"type":"Point","coordinates":[-81.344278,40.23368]}},{"properties":{"city":"Columbus","geo_score":0.714,"id":"ad8xt0jpq90p","geo_precision":"city","state":"OH"},"type":"Feature","geometry":{"type":"Point","coordinates":[-84.15053,40.97793]}},{"properties":{"city":"Williamsburg","geo_score":0.714,"id":"ad8xt0tzphx1","geo_precision":"city","state":"VA"},"type":"Feature","geometry":{"type":"Point","coordinates":[-76.746769,37.310451]}},{"properties":{"city":"Memphis","geo_score":0.714,"id":"ad8xt0hw7ygt","geo_precision":"city","state":"TN"},"type":"Feature","geometry":{"type":"Point","coordinates":[-89.990415,35.169255]}},{"properties":{"city":"Orange","geo_score":0.714,"id":"ad8xt0n0bkxa","geo_precision":"city","state":"CA"},"type":"Feature","geometry":{"type":"Point","coordinates":[-117.853112,33.787795]}},{"properties":{"city":"Pittsburgh","geo_score":0.714,"id":"ad8xt0pp11ln","geo_precision":"city","state":"PA"},"type":"Feature","geometry":{"type":"Point","coordinates":[-80.024817,40.434436]}},{"properties":{"city":"Richardson","geo_score":0.714,"id":"ad8xt0v27d17","geo_precision":"city","state":"TX"},"type":"Feature","geometry":{"type":"Point","coordinates":[-96.726826,32.962811]}},{"properties":{"city":"Louisville","geo_score":0.714,"id":"ad8xt0l901jy","geo_precision":"city","state":"KY"},"type":"Feature","geometry":{"type":"Point","coordinates":[-85.676819,38.188962]}},{"properties":{"city":"Uniondale","geo_score":0.714,"id":"ad8xt0w59puw","geo_precision":"city","state":"NY"},"type":"Feature","geometry":{"type":"Point","coordinates":[-73.591421,40.705868]}},{"properties":{"city":"Wheatfield","geo_score":0.714,"id":"ad8xt0tln0a1","geo_precision":"city","state":"NY"},"type":"Feature","geometry":{"type":"Point","coordinates":[-74.224314,41.81426]}},{"properties":{"city":"Richardson","geo_score":0.714,"id":"ad8xt0x3v4d5","geo_precision":"city","state":"TX"},"type":"Feature","geometry":{"type":"Point","coordinates":[-96.726826,32.962811]}},{"properties":{"city":"Voorhees","geo_score":0.714,"id":"ad8xt0jeexca","geo_precision":"city","state":"NJ"},"type":"Feature","geometry":{"type":"Point","coordinates":[-74.965057,39.839156]}},{"properties":{"city":"Owings Mills","geo_score":0.714,"id":"ad8xt0hnripr","geo_precision":"city","state":"MD"},"type":"Feature","geometry":{"type":"Point","coordinates":[-76.787696,39.429055]}},{"properties":{"city":"Boston","geo_score":0.714,"id":"ad8xt0t57sus","geo_precision":"city","state":"MA"},"type":"Feature","geometry":{"type":"Point","coordinates":[-71.026964,42.370567]}},{"properties":{"city":"Henderson","geo_score":0.714,"id":"ad8xt0nxbpbo","geo_precision":"city","state":"NV"},"type":"Feature","geometry":{"type":"Point","coordinates":[-114.972061,35.927901]}},{"properties":{"city":"Chicago","geo_score":0.714,"id":"ad8xt0qg1a1k","geo_precision":"city","state":"IL"},"type":"Feature","geometry":{"type":"Point","coordinates":[-87.68732,41.811929]}},{"properties":{"city":"Troy","geo_score":0.714,"id":"ad8xt0iyiaeg","geo_precision":"city","state":"MI"},"type":"Feature","geometry":{"type":"Point","coordinates":[-82.89105,43.675016]}},{"properties":{"city":"Hunt Valley","geo_score":0.714,"id":"ad8xt0hnneut","geo_precision":"city","state":"MD"},"type":"Feature","geometry":{"type":"Point","coordinates":[-76.39135,39.53344]}},{"properties":{"city":"Sacramento","geo_score":0.714,"id":"ad8xt0wz4wpt","geo_precision":"city","state":"CA"},"type":"Feature","geometry":{"type":"Point","coordinates":[-121.555406,38.380456]}},{"properties":{"city":"Boston","geo_score":0.714,"id":"ad8xt0jtqi31","geo_precision":"city","state":"MA"},"type":"Feature","geometry":{"type":"Point","coordinates":[-71.026964,42.370567]}},{"properties":{"city":"Kennesaw","geo_score":0.714,"id":"ad8xt0rucxd4","geo_precision":"city","state":"GA"},"type":"Feature","geometry":{"type":"Point","coordinates":[-84.597433,34.03384]}},{"properties":{"city":"Orange","geo_score":0.714,"id":"ad8xt0qjhn1i","geo_precision":"city","state":"CA"},"type":"Feature","geometry":{"type":"Point","coordinates":[-117.853112,33.787795]}},{"properties":{"city":"Bangor","geo_score":0.714,"id":"ad8xt0qkezg4","geo_precision":"city","state":"ME"},"type":"Feature","geometry":{"type":"Point","coordinates":[-68.878893,45.061744]}},{"properties":{"city":"Allentown","geo_score":0.714,"id":"ad8xt0uzuwpc","geo_precision":"city","state":"PA"},"type":"Feature","geometry":{"type":"Point","coordinates":[-75.470026,40.607497]}},{"properties":{"city":"Covington","geo_score":0.714,"id":"ad8xt0slnd32","geo_precision":"city","state":"LA"},"type":"Feature","geometry":{"type":"Point","coordinates":[-90.011991,30.435893]}},{"properties":{"city":"Victor","geo_score":0.714,"id":"ad8xt0slwcjv","geo_precision":"city","state":"NY"},"type":"Feature","geometry":{"type":"Point","coordinates":[-77.426906,42.973715]}},{"properties":{"city":"New York","geo_score":0.714,"id":"ad8xt0m6wo7i","geo_precision":"city","state":"NY"},"type":"Feature","geometry":{"type":"Point","coordinates":[-74.005973,40.714269]}},{"properties":{"city":"Elk Grove","geo_score":0.714,"id":"ad8xt0q9ogdu","geo_precision":"city","state":"CA"},"type":"Feature","geometry":{"type":"Point","coordinates":[-123.618031,39.076371]}},{"properties":{"city":"Boston","geo_score":0.714,"id":"ad8xt0h0g447","geo_precision":"city","state":"MA"},"type":"Feature","geometry":{"type":"Point","coordinates":[-71.026964,42.370567]}},{"properties":{"city":"Boston","geo_score":0.714,"id":"ad8xt0q4hcq5","geo_precision":"city","state":"MA"},"type":"Feature","geometry":{"type":"Point","coordinates":[-71.026964,42.370567]}},{"properties":{"city":"Farmingdale","geo_score":0.714,"id":"ad8xt0hsk3sy","geo_precision":"city","state":"NY"},"type":"Feature","geometry":{"type":"Point","coordinates":[-73.601772,40.754757]}},{"properties":{"city":"Irving","geo_score":0.714,"id":"ad8xt0mh1289","geo_precision":"city","state":"TX"},"type":"Feature","geometry":{"type":"Point","coordinates":[-96.777626,32.767268]}},{"properties":{"city":"Irving","geo_score":0.714,"id":"ad8xt0nrrg6j","geo_precision":"city","state":"TX"},"type":"Feature","geometry":{"type":"Point","coordinates":[-96.777626,32.767268]}},{"properties":{"city":"Centennial","geo_score":0.714,"id":"ad8xt0o9ody3","geo_precision":"city","state":"CO"},"type":"Feature","geometry":{"type":"Point","coordinates":[-104.876923,39.579155]}},{"properties":{"city":"Middlebury","geo_score":0.714,"id":"ad8xt0ujaefv","geo_precision":"city","state":"CT"},"type":"Feature","geometry":{"type":"Point","coordinates":[-73.116458,41.528274]}},{"properties":{"city":"Middlebury","geo_score":0.714,"id":"ad8xt0sk1qog","geo_precision":"city","state":"CT"},"type":"Feature","geometry":{"type":"Point","coordinates":[-73.116458,41.528274]}},{"properties":{"city":"Dover","geo_score":0.714,"id":"ad8xt0sj85tm","geo_precision":"city","state":"NH"},"type":"Feature","geometry":{"type":"Point","coordinates":[-70.992042,43.297309]}},{"properties":{"city":"Saddle Brook","geo_score":0.714,"id":"ad8xt0h98wp2","geo_precision":"city","state":"NJ"},"type":"Feature","geometry":{"type":"Point","coordinates":[-74.092642,40.898988]}},{"properties":{"city":"Saddle Brook","geo_score":0.714,"id":"ad8xt0iarog7","geo_precision":"city","state":"NJ"},"type":"Feature","geometry":{"type":"Point","coordinates":[-74.092642,40.898988]}},{"properties":{"city":"Rocky Hill","geo_score":0.0,"id":"ad8xt0j6di90","geo_precision":"unmatched","state":"CT"},"type":"Feature","geometry":null},{"properties":{"city":"Irving","geo_score":0.714,"id":"ad8xt0r1p5d3","geo_precision":"city","state":"TX"},"type":"Feature","geometry":{"type":"Point","coordinates":[-96.777626,32.767268]}},{"properties":{"city":"Covington","geo_score":0.714,"id":"ad8xt0p5qkc4","geo_precision":"city","state":"LA"},"type":"Feature","geometry":{"type":"Point","coordinates":[-90.011991,30.435893]}},{"properties":{"city":"Phoenix","geo_score":0.0,"id":"ad8xt0osdhcq","geo_precision":"unmatched","state":"AZ"},"type":"Feature","geometry":null},{"properties":{"city":"Walnut Creek","geo_score":0.714,"id":"ad8xt0ta24j9","geo_precision":"city","state":"CA"},"type":"Feature","geometry":{"type":"Point","coordinates":[-122.481647,38.517964]}},{"properties":{"city":"Irving","geo_score":0.714,"id":"ad8xt0pp8fqx","geo_precision":"city","state":"TX"},"type":"Feature","geometry":{"type":"Point","coordinates":[-96.777626,32.767268]}},{"properties":{"city":"Heathrow","geo_score":0.714,"id":"ad8xt0soxm97","geo_precision":"city","state":"FL"},"type":"Feature","geometry":{"type":"Point","coordinates":[-81.372245,28.763333]}},{"properties":{"city":"Williamsburg","geo_score":0.714,"id":"ad8xt0i7q4e1","geo_precision":"city","state":"VA"},"type":"Feature","geometry":{"type":"Point","coordinates":[-76.746769,37.310451]}},{"properties":{"city":"Hunt Valley","geo_score":0.714,"id":"ad8xt0ntr9ds","geo_precision":"city","state":"MD"},"type":"Feature","geometry":{"type":"Point","coordinates":[-76.39135,39.53344]}},{"properties":{"city":"Miami","geo_score":0.714,"id":"ad8xt0sn0044","geo_precision":"city","state":"FL"},"type":"Feature","geometry":{"type":"Point","coordinates":[-80.193659,25.774266]}},{"properties":{"city":"Heathrow","geo_score":0.714,"id":"ad8xt0psb6kj","geo_precision":"city","state":"FL"},"type":"Feature","geometry":{"type":"Point","coordinates":[-81.372245,28.763333]}},{"properties":{"city":"Boston","geo_score":0.714,"id":"ad8xt0m5c30r","geo_precision":"city","state":"MA"},"type":"Feature","geometry":{"type":"Point","coordinates":[-71.026964,42.370567]}},{"properties":{"city":"St Peters","geo_score":0.0,"id":"ad8xt0lgbicj","geo_precision":"unmatched","state":"MO"},"type":"Feature","geometry":null},{"properties":{"city":"Boston","geo_score":0.714,"id":"ad8xt0oxkkme","geo_precision":"city","state":"MA"},"type":"Feature","geometry":{"type":"Point","coordinates":[-71.026964,42.370567]}},{"properties":{"city":"Spokane Valley","geo_score":0.714,"id":"ad8xt0m530am","geo_precision":"city","state":"WA"},"type":"Feature","geometry":{"type":"Point","coordinates":[-122.656235,46.845101]}},{"properties":{"city":"Nashville","geo_score":0.714,"id":"ad8xt0ixikdb","geo_precision":"city","state":"TN"},"type":"Feature","geometry":{"type":"Point","coordinates":[-86.778098,36.165688]}},{"properties":{"city":"Holland","geo_score":0.714,"id":"ad8xt0srog9p","geo_precision":"city","state":"MI"},"type":"Feature","geometry":{"type":"Point","coordinates":[-83.422549,42.701111]}},{"properties":{"city":"Boston","geo_score":0.714,"id":"ad8xt0tiqhzl","geo_precision":"city","state":"MA"},"type":"Feature","geometry":{"type":"Point","coordinates":[-71.026964,42.370567]}},{"properties":{"city":"Georgetown","geo_score":0.714,"id":"ad8xt0t500um","geo_precision":"city","state":"TX"},"type":"Feature","geometry":{"type":"Point","coordinates":[-97.574706,30.668034]}},{"properties":{"city":"Ruston","geo_score":0.714,"id":"ad8xt0mqt0ca","geo_precision":"city","state":"LA"},"type":"Feature","geometry":{"type":"Point","coordinates":[-92.639756,32.580553]}},{"properties":{"city":"Henderson","geo_score":0.714,"id":"ad8xt0hnwg3i","geo_precision":"city","state":"NV"},"type":"Feature","geometry":{"type":"Point","coordinates":[-114.972061,35.927901]}},{"properties":{"city":"Springfield","geo_score":0.714,"id":"ad8xt0x88hdw","geo_precision":"city","state":"MO"},"type":"Feature","geometry":{"type":"Point","coordinates":[-92.02405,37.762541]}},{"properties":{"city":"El Paso","geo_score":0.714,"id":"ad8xt0sg7kwm","geo_precision":"city","state":"TX"},"type":"Feature","geometry":{"type":"Point","coordinates":[-99.561747,32.342351]}},{"properties":{"city":"Roseland","geo_score":0.714,"id":"ad8xt0i7sbaq","geo_precision":"city","state":"NJ"},"type":"Feature","geometry":{"type":"Point","coordinates":[-74.306093,40.820499]}},{"properties":{"city":"Walnut Creek","geo_score":0.714,"id":"ad8xt0j3eciq","geo_precision":"city","state":"CA"},"type":"Feature","geometry":{"type":"Point","coordinates":[-122.481647,38.517964]}},{"properties":{"city":"Lexington","geo_score":0.0,"id":"ad8xt0poprhm","geo_precision":"unmatched","state":"KY"},"type":"Feature","geometry":null},{"properties":{"city":"Frisco","geo_score":0.714,"id":"ad8xt0u5t5xz","geo_precision":"city","state":"TX"},"type":"Feature","geometry":{"type":"Point","coordinates":[-96.542746,30.642421]}},{"properties":{"city":"Providence","geo_score":0.714,"id":"ad8xt0luuplz","geo_precision":"city","state":"RI"},"type":"Feature","geometry":{"type":"Point","coordinates":[-71.414451,41.82275]}},{"properties":{"city":"Phoenix","geo_score":0.0,"id":"ad8xt0o5nqb8","geo_precision":"unmatched","state":"AZ"},"type":"Feature","geometry":null},{"properties":{"city":"Bangor","geo_score":0.714,"id":"ad8xt0tok3i4","geo_precision":"city","state":"ME"},"type":"Feature","geometry":{"type":"Point","coordinates":[-68.878893,45.061744]}},{"properties":{"city":"Weston","geo_score":0.714,"id":"ad8xt0plo6ah","geo_precision":"city","state":"MA"},"type":"Feature","geometry":{"type":"Point","coordinates":[-71.459405,42.446396]}},{"properties":{"city":"McKinney","geo_score":0.714,"id":"ad8xt0iqv7u2","geo_precision":"city","state":"TX"},"type":"Feature","geometry":{"type":"Point","coordinates":[-95.127718,33.088731]}},{"properties":{"city":"St Louis","geo_score":0.0,"id":"ad8xt0qihlxg","geo_precision":"unmatched","state":"MO"},"type":"Feature","geometry":null},{"properties":{"city":"Federal Way","geo_score":0.714,"id":"ad8xt0n71esp","geo_precision":"city","state":"WA"},"type":"Feature","geometry":{"type":"Point","coordinates":[-121.803388,47.432251]}},{"properties":{"city":"Houston","geo_score":0.714,"id":"ad8xt0kyqtvv","geo_precision":"city","state":"TX"},"type":"Feature","geometry":{"type":"Point","coordinates":[-96.919704,29.845783]}},{"properties":{"city":"Orange","geo_score":0.714,"id":"ad8xt0lkifw3","geo_precision":"city","state":"CA"},"type":"Feature","geometry":{"type":"Point","coordinates":[-117.853112,33.787795]}},{"properties":{"city":"Warrenville","geo_score":0.714,"id":"ad8xt0qfio6t","geo_precision":"city","state":"IL"},"type":"Feature","geometry":{"type":"Point","coordinates":[-88.171551,41.805422]}},{"properties":{"city":"Warrenville","geo_score":0.714,"id":"ad8xt0lmaaqn","geo_precision":"city","state":"IL"},"type":"Feature","geometry":{"type":"Point","coordinates":[-88.171551,41.805422]}},{"properties":{"city":"Uniondale","geo_score":0.714,"id":"ad8xt0i9ff32","geo_precision":"city","state":"NY"},"type":"Feature","geometry":{"type":"Point","coordinates":[-73.591421,40.705868]}},{"properties":{"city":"Salt Lake City","geo_score":0.714,"id":"ad8xt0tilwzt","geo_precision":"city","state":"UT"},"type":"Feature","geometry":{"type":"Point","coordinates":[-111.900719,40.756095]}},{"properties":{"city":"Arlington Heights","geo_score":0.714,"id":"ad8xt0pm555w","geo_precision":"city","state":"IL"},"type":"Feature","geometry":{"type":"Point","coordinates":[-89.240006,41.43043]}},{"properties":{"city":"Phoenix","geo_score":0.0,"id":"ad8xt0le10ew","geo_precision":"unmatched","state":"AZ"},"type":"Feature","geometry":null},{"properties":{"city":"El Paso","geo_score":0.714,"id":"ad8xt0n2ji6a","geo_precision":"city","state":"TX"},"type":"Feature","geometry":{"type":"Point","coordinates":[-99.561747,32.342351]}},{"properties":{"city":"Centennial","geo_score":0.714,"id":"ad8xt0w49yy7","geo_precision":"city","state":"CO"},"type":"Feature","geometry":{"type":"Point","coordinates":[-104.876923,39.579155]}},{"properties":{"city":"Albany","geo_score":0.714,"id":"ad8xt0t9sppk","geo_precision":"city","state":"NY"},"type":"Feature","geometry":{"type":"Point","coordinates":[-73.970812,42.614852]}},{"properties":{"city":"Southfield","geo_score":0.714,"id":"ad8xt0wt3k1y","geo_precision":"city","state":"MI"},"type":"Feature","geometry":{"type":"Point","coordinates":[-83.279164,42.478495]}},{"properties":{"city":"Charlotte","geo_score":0.714,"id":"ad8xt0jlyyjz","geo_precision":"city","state":"NC"},"type":"Feature","geometry":{"type":"Point","coordinates":[-80.804151,35.26002]}},{"properties":{"city":"Phoenix","geo_score":0.0,"id":"ad8xt0ug8yoz","geo_precision":"unmatched","state":"AZ"},"type":"Feature","geometry":null},{"properties":{"city":"Irving","geo_score":0.714,"id":"ad8xt0r42abh","geo_precision":"city","state":"TX"},"type":"Feature","geometry":{"type":"Point","coordinates":[-96.777626,32.767268]}},{"properties":{"city":"Houston","geo_score":0.714,"id":"ad8xt0rn5l0q","geo_precision":"city","state":"TX"},"type":"Feature","geometry":{"type":"Point","coordinates":[-96.919704,29.845783]}},{"properties":{"city":"Centennial","geo_score":0.714,"id":"ad8xt0kcw9lc","geo_precision":"city","state":"CO"},"type":"Feature","geometry":{"type":"Point","coordinates":[-104.876923,39.579155]}},{"properties":{"city":"Ruston","geo_score":0.714,"id":"ad8xt0qxbvvc","geo_precision":"city","state":"LA"},"type":"Feature","geometry":{"type":"Point","coordinates":[-92.639756,32.580553]}},{"properties":{"city":"East Syracuse","geo_score":0.714,"id":"ad8xt0kv0yun","geo_precision":"city","state":"NY"},"type":"Feature","geometry":{"type":"Point","coordinates":[-76.047426,43.096216]}},{"properties":{"city":"New York","geo_score":0.714,"id":"ad8xt0hsf1d2","geo_precision":"city","state":"NY"},"type":"Feature","geometry":{"type":"Point","coordinates":[-74.005973,40.714269]}},{"properties":{"city":"Tampa","geo_score":0.714,"id":"ad8xt0jljgrq","geo_precision":"city","state":"FL"},"type":"Feature","geometry":{"type":"Point","coordinates":[-82.582035,27.996097]}},{"properties":{"city":"Wallingford","geo_score":0.714,"id":"ad8xt0pdyylw","geo_precision":"city","state":"CT"},"type":"Feature","geometry":{"type":"Point","coordinates":[-72.81892,41.449868]}},{"properties":{"city":"Farmingdale","geo_score":0.714,"id":"ad8xt0s53emr","geo_precision":"city","state":"NY"},"type":"Feature","geometry":{"type":"Point","coordinates":[-73.601772,40.754757]}},{"properties":{"city":"Multi","geo_score":0.571,"id":"ad8xt0m68mut","geo_precision":"city","state":"Sites"},"type":"Feature","geometry":{"type":"Point","coordinates":[-99.1992,28.581928]}},{"properties":{"city":"Mooresville","geo_score":0.714,"id":"ad8xt0vvyz8q","geo_precision":"city","state":"NC"},"type":"Feature","geometry":{"type":"Point","coordinates":[-80.819825,35.688136]}},{"properties":{"city":"Weston","geo_score":0.714,"id":"ad8xt0guxkg4","geo_precision":"city","state":"MA"},"type":"Feature","geometry":{"type":"Point","coordinates":[-71.459405,42.446396]}},{"properties":{"city":"Toledo","geo_score":0.714,"id":"ad8xt0r1in50","geo_precision":"city","state":"OH"},"type":"Feature","geometry":{"type":"Point","coordinates":[-84.124257,41.58568]}},{"properties":{"city":"Walnut Creek","geo_score":0.714,"id":"ad8xt0oyqfdl","geo_precision":"city","state":"CA"},"type":"Feature","geometry":{"type":"Point","coordinates":[-122.481647,38.517964]}},{"properties":{"city":"Farmington","geo_score":0.714,"id":"ad8xt0w1l37p","geo_precision":"city","state":"CT"},"type":"Feature","geometry":{"type":"Point","coordinates":[-72.718832,41.791776]}},{"properties":{"city":"Saddle Brook","geo_score":0.714,"id":"ad8xt0ixou0x","geo_precision":"city","state":"NJ"},"type":"Feature","geometry":{"type":"Point","coordinates":[-74.092642,40.898988]}},{"properties":{"city":"Saddle Brook","geo_score":0.714,"id":"ad8xt0oe76gm","geo_precision":"city","state":"NJ"},"type":"Feature","geometry":{"type":"Point","coordinates":[-74.092642,40.898988]}},{"properties":{"city":"Eagan","geo_score":0.714,"id":"ad8xt0rt7xys","geo_precision":"city","state":"MN"},"type":"Feature","geometry":{"type":"Point","coordinates":[-93.166886,44.804132]}},{"properties":{"city":"Albuquerque","geo_score":0.714,"id":"ad8xt0mi193w","geo_precision":"city","state":"NM"},"type":"Feature","geometry":{"type":"Point","coordinates":[-106.651137,35.084491]}},{"properties":{"city":"Murfreesboro","geo_score":0.714,"id":"ad8xt0sol0ey","geo_precision":"city","state":"TN"},"type":"Feature","geometry":{"type":"Point","coordinates":[-86.372158,35.762951]}},{"properties":{"city":"Portsmouth","geo_score":0.714,"id":"ad8xt0qioyu9","geo_precision":"city","state":"NH"},"type":"Feature","geometry":{"type":"Point","coordinates":[-71.013202,43.005895]}},{"properties":{"city":"Portsmouth","geo_score":0.714,"id":"ad8xt0vlfngn","geo_precision":"city","state":"NH"},"type":"Feature","geometry":{"type":"Point","coordinates":[-71.013202,43.005895]}},{"properties":{"city":"Portsmouth","geo_score":0.714,"id":"ad8xt0ot6cx1","geo_precision":"city","state":"NH"},"type":"Feature","geometry":{"type":"Point","coordinates":[-71.013202,43.005895]}},{"properties":{"city":"Georgetown","geo_score":0.714,"id":"ad8xt0iuivq7","geo_precision":"city","state":"TX"},"type":"Feature","geometry":{"type":"Point","coordinates":[-97.574706,30.668034]}},{"properties":{"city":"Rocky Hill","geo_score":0.0,"id":"ad8xt0gwl3lo","geo_precision":"unmatched","state":"CT"},"type":"Feature","geometry":null},{"properties":{"city":"East Syracuse","geo_score":0.714,"id":"ad8xt0ubn49f","geo_precision":"city","state":"NY"},"type":"Feature","geometry":{"type":"Point","coordinates":[-76.047426,43.096216]}},{"properties":{"city":"El Paso","geo_score":0.714,"id":"ad8xt0pa7qdd","geo_precision":"city","state":"TX"},"type":"Feature","geometry":{"type":"Point","coordinates":[-99.561747,32.342351]}},{"properties":{"city":"Shreveport","geo_score":0.714,"id":"ad8xt0wg4j56","geo_precision":"city","state":"LA"},"type":"Feature","geometry":{"type":"Point","coordinates":[-93.750228,32.498202]}},{"properties":{"city":"Portsmouth","geo_score":0.714,"id":"ad8xt0gzxd5l","geo_precision":"city","state":"NH"},"type":"Feature","geometry":{"type":"Point","coordinates":[-71.013202,43.005895]}},{"properties":{"city":"Aliso Viejo","geo_score":0.714,"id":"ad8xt0pnd4g5","geo_precision":"city","state":"CA"},"type":"Feature","geometry":{"type":"Point","coordinates":[-117.751341,33.603459]}},{"properties":{"city":"Waukasha","geo_score":0.714,"id":"ad8xt0m5v5q3","geo_precision":"city","state":"WI"},"type":"Feature","geometry":{"type":"Point","coordinates":[-88.217715,42.987835]}},{"properties":{"city":"Phoenix","geo_score":0.0,"id":"ad8xt0wz93t9","geo_precision":"unmatched","state":"AZ"},"type":"Feature","geometry":null},{"properties":{"city":"Liberty Lake","geo_score":0.714,"id":"ad8xt0nmskp6","geo_precision":"city","state":"WA"},"type":"Feature","geometry":{"type":"Point","coordinates":[-117.085845,47.651635]}},{"properties":{"city":"Houston","geo_score":0.714,"id":"ad8xt0tvreim","geo_precision":"city","state":"TX"},"type":"Feature","geometry":{"type":"Point","coordinates":[-96.919704,29.845783]}},{"properties":{"city":"Irving","geo_score":0.714,"id":"ad8xt0qwsavs","geo_precision":"city","state":"TX"},"type":"Feature","geometry":{"type":"Point","coordinates":[-96.777626,32.767268]}},{"properties":{"city":"Scottsdale","geo_score":0.714,"id":"ad8xt0i35e2a","geo_precision":"city","state":"AZ"},"type":"Feature","geometry":{"type":"Point","coordinates":[-111.874248,33.524143]}},{"properties":{"city":"Weston","geo_score":0.714,"id":"ad8xt0tzsk0l","geo_precision":"city","state":"MA"},"type":"Feature","geometry":{"type":"Point","coordinates":[-71.459405,42.446396]}},{"properties":{"city":"Wausau","geo_score":0.714,"id":"ad8xt0vyzyw7","geo_precision":"city","state":"WI"},"type":"Feature","geometry":{"type":"Point","coordinates":[-89.794002,44.961874]}},{"properties":{"city":"Tucson","geo_score":0.714,"id":"ad8xt0tf5vzf","geo_precision":"city","state":"AZ"},"type":"Feature","geometry":{"type":"Point","coordinates":[-110.970869,32.217975]}},{"properties":{"city":"Prescott","geo_score":0.714,"id":"ad8xt0iulu3b","geo_precision":"city","state":"AZ"},"type":"Feature","geometry":{"type":"Point","coordinates":[-112.307777,34.668291]}},{"properties":{"city":"Hunt Valley","geo_score":0.714,"id":"ad8xt0t0ls86","geo_precision":"city","state":"MD"},"type":"Feature","geometry":{"type":"Point","coordinates":[-76.39135,39.53344]}},{"properties":{"city":"Shreveport","geo_score":0.714,"id":"ad8xt0ud3js5","geo_precision":"city","state":"LA"},"type":"Feature","geometry":{"type":"Point","coordinates":[-93.750228,32.498202]}},{"properties":{"city":"Vestal","geo_score":0.714,"id":"ad8xt0v8sadp","geo_precision":"city","state":"NY"},"type":"Feature","geometry":{"type":"Point","coordinates":[-76.027088,42.055476]}},{"properties":{"city":"Shreveport","geo_score":0.714,"id":"ad8xt0vb2buq","geo_precision":"city","state":"LA"},"type":"Feature","geometry":{"type":"Point","coordinates":[-93.750228,32.498202]}},{"properties":{"city":"Chicago","geo_score":0.714,"id":"ad8xt0hx1lx7","geo_precision":"city","state":"IL"},"type":"Feature","geometry":{"type":"Point","coordinates":[-87.68732,41.811929]}},{"properties":{"city":"Richardson","geo_score":0.714,"id":"ad8xt0h0tmjt","geo_precision":"city","state":"TX"},"type":"Feature","geometry":{"type":"Point","coordinates":[-96.726826,32.962811]}},{"properties":{"city":"Maple Grove","geo_score":0.714,"id":"ad8xt0r5s0b0","geo_precision":"city","state":"MN"},"type":"Feature","geometry":{"type":"Point","coordinates":[-93.455788,45.072464]}},{"properties":{"city":"Albuquerque","geo_score":0.714,"id":"ad8xt0so76pu","geo_precision":"city","state":"NM"},"type":"Feature","geometry":{"type":"Point","coordinates":[-106.651137,35.084491]}},{"properties":{"city":"Middleton","geo_score":0.714,"id":"ad8xt0u9lcko","geo_precision":"city","state":"WI"},"type":"Feature","geometry":{"type":"Point","coordinates":[-89.529153,43.114772]}},{"properties":{"city":"Boston","geo_score":0.714,"id":"ad8xt0khp718","geo_precision":"city","state":"MA"},"type":"Feature","geometry":{"type":"Point","coordinates":[-71.026964,42.370567]}},{"properties":{"city":"Mooresville","geo_score":0.714,"id":"ad8xt0snl9ox","geo_precision":"city","state":"NC"},"type":"Feature","geometry":{"type":"Point","coordinates":[-80.819825,35.688136]}},{"properties":{"city":"Albuquerque","geo_score":0.714,"id":"ad8xt0na83mp","geo_precision":"city","state":"NM"},"type":"Feature","geometry":{"type":"Point","coordinates":[-106.651137,35.084491]}},{"properties":{"city":"Ramsey","geo_score":0.714,"id":"ad8xt0igev1z","geo_precision":"city","state":"NJ"},"type":"Feature","geometry":{"type":"Point","coordinates":[-74.133441,41.059124]}},{"properties":{"city":"Greece","geo_score":0.714,"id":"ad8xt0ie3eem","geo_precision":"city","state":"NY"},"type":"Feature","geometry":{"type":"Point","coordinates":[-74.3159,44.21955]}},{"properties":{"city":"Mahwah","geo_score":0.714,"id":"ad8xt0n5m7o5","geo_precision":"city","state":"NJ"},"type":"Feature","geometry":{"type":"Point","coordinates":[-74.172766,41.053446]}},{"properties":{"city":"Brentwood","geo_score":0.714,"id":"ad8xt0mp1s0y","geo_precision":"city","state":"TN"},"type":"Feature","geometry":{"type":"Point","coordinates":[-86.907565,35.874553]}},{"properties":{"city":"Dallas","geo_score":0.714,"id":"ad8xt0s82djp","geo_precision":"city","state":"TX"},"type":"Feature","geometry":{"type":"Point","coordinates":[-96.240533,32.370699]}},{"properties":{"city":"Boston","geo_score":0.714,"id":"ad8xt0ks52ep","geo_precision":"city","state":"MA"},"type":"Feature","geometry":{"type":"Point","coordinates":[-71.026964,42.370567]}},{"properties":{"city":"Rocky Hill","geo_score":0.0,"id":"ad8xt0imv3ce","geo_precision":"unmatched","state":"CT"},"type":"Feature","geometry":null},{"properties":{"city":"Greece","geo_score":0.714,"id":"ad8xt0sd8p70","geo_precision":"city","state":"NY"},"type":"Feature","geometry":{"type":"Point","coordinates":[-74.3159,44.21955]}},{"properties":{"city":"Scottsdale","geo_score":0.714,"id":"ad8xt0slufsa","geo_precision":"city","state":"AZ"},"type":"Feature","geometry":{"type":"Point","coordinates":[-111.874248,33.524143]}},{"properties":{"city":"Irving","geo_score":0.714,"id":"ad8xt0ik0g5x","geo_precision":"city","state":"TX"},"type":"Feature","geometry":{"type":"Point","coordinates":[-96.777626,32.767268]}},{"properties":{"city":"Farmingdale","geo_score":0.714,"id":"ad8xt0m0x8k0","geo_precision":"city","state":"NY"},"type":"Feature","geometry":{"type":"Point","coordinates":[-73.601772,40.754757]}},{"properties":{"city":"Sewell","geo_score":0.714,"id":"ad8xt0nu7us2","geo_precision":"city","state":"NJ"},"type":"Feature","geometry":{"type":"Point","coordinates":[-75.201593,39.75521]}},{"properties":{"city":"Tampa","geo_score":0.714,"id":"ad8xt0tark30","geo_precision":"city","state":"FL"},"type":"Feature","geometry":{"type":"Point","coordinates":[-82.582035,27.996097]}},{"properties":{"city":"Irving","geo_score":0.714,"id":"ad8xt0idmn0p","geo_precision":"city","state":"TX"},"type":"Feature","geometry":{"type":"Point","coordinates":[-96.777626,32.767268]}},{"properties":{"city":"Roseland","geo_score":0.714,"id":"ad8xt0rdcccz","geo_precision":"city","state":"NJ"},"type":"Feature","geometry":{"type":"Point","coordinates":[-74.306093,40.820499]}},{"properties":{"city":"Port Jefferson Station","geo_score":0.714,"id":"ad8xt0vhzez1","geo_precision":"city","state":"NY"},"type":"Feature","geometry":{"type":"Point","coordinates":[-74.905417,41.782874]}},{"properties":{"city":"Bedford","geo_score":0.714,"id":"ad8xt0s831jr","geo_precision":"city","state":"NH"},"type":"Feature","geometry":{"type":"Point","coordinates":[-71.535515,42.93743]}},{"properties":{"city":"Hoffman Estates","geo_score":0.714,"id":"ad8xt0p7viuv","geo_precision":"city","state":"IL"},"type":"Feature","geometry":{"type":"Point","coordinates":[-88.223655,42.079336]}},{"properties":{"city":"Commack","geo_score":0.0,"id":"ad8xt0tl2g1u","geo_precision":"unmatched","state":"NY"},"type":"Feature","geometry":null},{"properties":{"city":"Hunt Valley","geo_score":0.714,"id":"ad8xt0iywznv","geo_precision":"city","state":"MD"},"type":"Feature","geometry":{"type":"Point","coordinates":[-76.39135,39.53344]}},{"properties":{"city":"Middlebury","geo_score":0.714,"id":"ad8xt0hr2rea","geo_precision":"city","state":"CT"},"type":"Feature","geometry":{"type":"Point","coordinates":[-73.116458,41.528274]}},{"properties":{"city":"Allentown","geo_score":0.714,"id":"ad8xt0gxsgs9","geo_precision":"city","state":"PA"},"type":"Feature","geometry":{"type":"Point","coordinates":[-75.470026,40.607497]}},{"properties":{"city":"Houston","geo_score":0.714,"id":"ad8xt0nbni7o","geo_precision":"city","state":"TX"},"type":"Feature","geometry":{"type":"Point","coordinates":[-96.919704,29.845783]}},{"properties":{"city":"Kingwood","geo_score":0.714,"id":"ad8xt0uncutx","geo_precision":"city","state":"TX"},"type":"Feature","geometry":{"type":"Point","coordinates":[-95.261044,30.033553]}},{"properties":{"city":"Ontario","geo_score":0.714,"id":"ad8xt0pk17i8","geo_precision":"city","state":"CA"},"type":"Feature","geometry":{"type":"Point","coordinates":[-115.967051,34.839964]}},{"properties":{"city":"Port Jefferson Station","geo_score":0.714,"id":"ad8xt0w2qbul","geo_precision":"city","state":"NY"},"type":"Feature","geometry":{"type":"Point","coordinates":[-74.905417,41.782874]}},{"properties":{"city":"Phoenix","geo_score":0.0,"id":"ad8xt0l8yui8","geo_precision":"unmatched","state":"AZ"},"type":"Feature","geometry":null},{"properties":{"city":"Gaineville","geo_score":0.0,"id":"ad8xt0mbnwr4","geo_precision":"unmatched","state":"GA"},"type":"Feature","geometry":null},{"properties":{"city":"San Antonio","geo_score":0.714,"id":"ad8xt0rzfske","geo_precision":"city","state":"TX"},"type":"Feature","geometry":{"type":"Point","coordinates":[-102.192713,33.770506]}},{"properties":{"city":"Walnut Creek","geo_score":0.714,"id":"ad8xt0hpe7u3","geo_precision":"city","state":"CA"},"type":"Feature","geometry":{"type":"Point","coordinates":[-122.481647,38.517964]}},{"properties":{"city":"Hunt Valley","geo_score":0.714,"id":"ad8xt0nzwa6j","geo_precision":"city","state":"MD"},"type":"Feature","geometry":{"type":"Point","coordinates":[-76.39135,39.53344]}},{"properties":{"city":"Chino Hills","geo_score":0.714,"id":"ad8xt0igq8sj","geo_precision":"city","state":"CA"},"type":"Feature","geometry":{"type":"Point","coordinates":[-115.967051,34.839964]}},{"properties":{"city":"Saddle Brook","geo_score":0.714,"id":"ad8xt0i1iq11","geo_precision":"city","state":"NJ"},"type":"Feature","geometry":{"type":"Point","coordinates":[-74.092642,40.898988]}},{"properties":{"city":"Shreveport","geo_score":0.714,"id":"ad8xt0q0miul","geo_precision":"city","state":"LA"},"type":"Feature","geometry":{"type":"Point","coordinates":[-93.750228,32.498202]}},{"properties":{"city":"Phoenix","geo_score":0.0,"id":"ad8xt0hsx7jm","geo_precision":"unmatched","state":"AZ"},"type":"Feature","geometry":null},{"properties":{"city":"Weston","geo_score":0.714,"id":"ad8xt0oqxhed","geo_precision":"city","state":"MA"},"type":"Feature","geometry":{"type":"Point","coordinates":[-71.459405,42.446396]}},{"properties":{"city":"Orange","geo_score":0.714,"id":"ad8xt0q2ygfl","geo_precision":"city","state":"CA"},"type":"Feature","geometry":{"type":"Point","coordinates":[-117.853112,33.787795]}},{"properties":{"city":"Vestal","geo_score":0.714,"id":"ad8xt0gx37d6","geo_precision":"city","state":"NY"},"type":"Feature","geometry":{"type":"Point","coordinates":[-76.027088,42.055476]}},{"properties":{"city":"Richardson","geo_score":0.714,"id":"ad8xt0sl0ztc","geo_precision":"city","state":"TX"},"type":"Feature","geometry":{"type":"Point","coordinates":[-96.726826,32.962811]}},{"properties":{"city":"Roseland","geo_score":0.714,"id":"ad8xt0w5k23m","geo_precision":"city","state":"NJ"},"type":"Feature","geometry":{"type":"Point","coordinates":[-74.306093,40.820499]}},{"properties":{"city":"Roseland","geo_score":0.714,"id":"ad8xt0x7p2rb","geo_precision":"city","state":"NJ"},"type":"Feature","geometry":{"type":"Point","coordinates":[-74.306093,40.820499]}},{"properties":{"city":"Roseland","geo_score":0.714,"id":"ad8xt0khew4e","geo_precision":"city","state":"NJ"},"type":"Feature","geometry":{"type":"Point","coordinates":[-74.306093,40.820499]}},{"properties":{"city":"Denver","geo_score":0.714,"id":"ad8xt0nqptuf","geo_precision":"city","state":"CO"},"type":"Feature","geometry":{"type":"Point","coordinates":[-104.856808,39.726303]}},{"properties":{"city":"CENTENNIAL","geo_score":0.714,"id":"ad8xt0tl1a4l","geo_precision":"city","state":"CO"},"type":"Feature","geometry":{"type":"Point","coordinates":[-104.876923,39.579155]}},{"properties":{"city":"GOLDEN","geo_score":0.714,"id":"ad8xt0kbjglv","geo_precision":"city","state":"CO"},"type":"Feature","geometry":{"type":"Point","coordinates":[-104.500735,40.536158]}},{"properties":{"city":"CENTENNIAL","geo_score":0.714,"id":"ad8xt0h183n7","geo_precision":"city","state":"CO"},"type":"Feature","geometry":{"type":"Point","coordinates":[-104.876923,39.579155]}},{"properties":{"city":"MIAMI","geo_score":0.714,"id":"ad8xt0rmhr46","geo_precision":"city","state":"FL"},"type":"Feature","geometry":{"type":"Point","coordinates":[-80.193659,25.774266]}},{"properties":{"city":"ROSELAND","geo_score":0.714,"id":"ad8xt0s4swev","geo_precision":"city","state":"NJ"},"type":"Feature","geometry":{"type":"Point","coordinates":[-74.306093,40.820499]}},{"properties":{"city":"OVERLAND PARK","geo_score":0.714,"id":"ad8xt0qxt97v","geo_precision":"city","state":"KS"},"type":"Feature","geometry":{"type":"Point","coordinates":[-100.233439,39.063922]}},{"properties":{"city":"OVERLAND PARK","geo_score":0.714,"id":"ad8xt0tux5oj","geo_precision":"city","state":"KS"},"type":"Feature","geometry":{"type":"Point","coordinates":[-100.233439,39.063922]}},{"properties":{"city":"KANSAS CITY","geo_score":0.714,"id":"ad8xt0ibjo40","geo_precision":"city","state":"MO"},"type":"Feature","geometry":{"type":"Point","coordinates":[-94.598583,39.102404]}},{"properties":{"city":"KANSAS CITY","geo_score":0.714,"id":"ad8xt0nrsdny","geo_precision":"city","state":"MO"},"type":"Feature","geometry":{"type":"Point","coordinates":[-94.598583,39.102404]}},{"properties":{"city":"NORTH ALBUQUERQUE","geo_score":0.714,"id":"ad8xt0w4zxl5","geo_precision":"city","state":"NM"},"type":"Feature","geometry":{"type":"Point","coordinates":[-106.651137,35.084491]}},{"properties":{"city":"PHOENIX","geo_score":0.0,"id":"ad8xt0h1wnb9","geo_precision":"unmatched","state":"AZ"},"type":"Feature","geometry":null},{"properties":{"city":"GILBERT","geo_score":0.714,"id":"ad8xt0j4byao","geo_precision":"city","state":"AZ"},"type":"Feature","geometry":{"type":"Point","coordinates":[-111.815281,33.335401]}},{"properties":{"city":"PHOENIX","geo_score":0.0,"id":"ad8xt0km6cl9","geo_precision":"unmatched","state":"AZ"},"type":"Feature","geometry":null},{"properties":{"city":"CHANDLER","geo_score":0.714,"id":"ad8xt0x56v2w","geo_precision":"city","state":"AZ"},"type":"Feature","geometry":{"type":"Point","coordinates":[-111.686171,33.212186]}},{"properties":{"city":"PHOENIX","geo_score":0.0,"id":"ad8xt0vppplj","geo_precision":"unmatched","state":"AZ"},"type":"Feature","geometry":null},{"properties":{"city":"SAN DIEGO","geo_score":0.714,"id":"ad8xt0jtezbg","geo_precision":"city","state":"CA"},"type":"Feature","geometry":{"type":"Point","coordinates":[-117.174366,32.7211]}},{"properties":{"city":"CARLSBAD","geo_score":0.714,"id":"ad8xt0x3i0hw","geo_precision":"city","state":"CA"},"type":"Feature","geometry":{"type":"Point","coordinates":[-116.846046,33.016928]}},{"properties":{"city":"BIRMINGHAM","geo_score":0.714,"id":"ad8xt0hzhl6p","geo_precision":"city","state":"AL"},"type":"Feature","geometry":{"type":"Point","coordinates":[-86.801904,33.456412]}},{"properties":{"city":"WALNUT CREEK","geo_score":0.714,"id":"ad8xt0ms13fz","geo_precision":"city","state":"CA"},"type":"Feature","geometry":{"type":"Point","coordinates":[-122.481647,38.517964]}},{"properties":{"city":"Pleasanton","geo_score":0.714,"id":"ad8xt0t064h3","geo_precision":"city","state":"CA"},"type":"Feature","geometry":{"type":"Point","coordinates":[-120.662985,38.68296]}},{"properties":{"city":"SAN FRANCISCO","geo_score":0.714,"id":"ad8xt0u28syf","geo_precision":"city","state":"CA"},"type":"Feature","geometry":{"type":"Point","coordinates":[-118.298662,33.786594]}},{"properties":{"city":"Elk Grove","geo_score":0.714,"id":"ad8xt0j1hoa3","geo_precision":"city","state":"CA"},"type":"Feature","geometry":{"type":"Point","coordinates":[-123.618031,39.076371]}},{"properties":{"city":"SAN RAMON","geo_score":0.714,"id":"ad8xt0n2mi29","geo_precision":"city","state":"CA"},"type":"Feature","geometry":{"type":"Point","coordinates":[-116.976549,33.031572]}},{"properties":{"city":"SACRAMENTO","geo_score":0.714,"id":"ad8xt0r2eml6","geo_precision":"city","state":"CA"},"type":"Feature","geometry":{"type":"Point","coordinates":[-121.555406,38.380456]}},{"properties":{"city":"Tucson","geo_score":0.714,"id":"ad8xt0v6t9m8","geo_precision":"city","state":"AZ"},"type":"Feature","geometry":{"type":"Point","coordinates":[-110.970869,32.217975]}},{"properties":{"city":"Omaha","geo_score":0.714,"id":"ad8xt0nefmik","geo_precision":"city","state":"NE"},"type":"Feature","geometry":{"type":"Point","coordinates":[-96.171104,41.291736]}},{"properties":{"city":"Des Moines","geo_score":0.714,"id":"ad8xt0mkcs1c","geo_precision":"city","state":"IA"},"type":"Feature","geometry":{"type":"Point","coordinates":[-93.572173,41.672687]}},{"properties":{"city":"Honolulu","geo_score":0.714,"id":"ad8xt0vyw1g9","geo_precision":"city","state":"HI"},"type":"Feature","geometry":{"type":"Point","coordinates":[-168.021815,24.859832]}},{"properties":{"city":"Aiea","geo_score":0.714,"id":"ad8xt0pakan7","geo_precision":"city","state":"HI"},"type":"Feature","geometry":{"type":"Point","coordinates":[-157.927829,21.39065]}},{"properties":{"city":"Woodland Hills","geo_score":0.714,"id":"ad8xt0i0glxo","geo_precision":"city","state":"CA"},"type":"Feature","geometry":{"type":"Point","coordinates":[-121.397892,39.08337]}},{"properties":{"city":"Glendale","geo_score":0.714,"id":"ad8xt0x39ksk","geo_precision":"city","state":"CA"},"type":"Feature","geometry":{"type":"Point","coordinates":[-118.298662,33.786594]}},{"properties":{"city":"Ontario","geo_score":0.714,"id":"ad8xt0lhsjdl","geo_precision":"city","state":"CA"},"type":"Feature","geometry":{"type":"Point","coordinates":[-115.967051,34.839964]}},{"properties":{"city":"Los Angeles","geo_score":0.714,"id":"ad8xt0kzql7u","geo_precision":"city","state":"CA"},"type":"Feature","geometry":{"type":"Point","coordinates":[-120.618608,38.052816]}},{"properties":{"city":"CARLSBAD","geo_score":0.714,"id":"ad8xt0i5uvg8","geo_precision":"city","state":"CA"},"type":"Feature","geometry":{"type":"Point","coordinates":[-116.846046,33.016928]}},{"properties":{"city":"OVERLAND PARK","geo_score":0.714,"id":"ad8xt0h3xk5m","geo_precision":"city","state":"KS"},"type":"Feature","geometry":{"type":"Point","coordinates":[-100.233439,39.063922]}},{"properties":{"city":"SAN FRANCISCO","geo_score":0.714,"id":"ad8xt0vl7d8e","geo_precision":"city","state":"CA"},"type":"Feature","geometry":{"type":"Point","coordinates":[-118.298662,33.786594]}},{"properties":{"city":"Boise","geo_score":0.714,"id":"ad8xt0npy866","geo_precision":"city","state":"ID"},"type":"Feature","geometry":{"type":"Point","coordinates":[-116.272921,43.603768]}},{"properties":{"city":"Blue Bell","geo_score":0.714,"id":"ad8xt0o9ar2m","geo_precision":"city","state":"PA"},"type":"Feature","geometry":{"type":"Point","coordinates":[-77.071369,40.473417]}},{"properties":{"city":"Camp Hill","geo_score":0.714,"id":"ad8xt0qkfkf8","geo_precision":"city","state":"PA"},"type":"Feature","geometry":{"type":"Point","coordinates":[-75.24019,41.482733]}},{"properties":{"city":"Bowie","geo_score":0.714,"id":"ad8xt0tb15fn","geo_precision":"city","state":"MD"},"type":"Feature","geometry":{"type":"Point","coordinates":[-76.74379,38.982612]}},{"properties":{"city":"Towson","geo_score":0.714,"id":"ad8xt0uy5opt","geo_precision":"city","state":"MD"},"type":"Feature","geometry":{"type":"Point","coordinates":[-78.943637,39.477593]}},{"properties":{"city":"Lafayette","geo_score":0.714,"id":"ad8xt0lgplhy","geo_precision":"city","state":"LA"},"type":"Feature","geometry":{"type":"Point","coordinates":[-92.066574,30.232955]}},{"properties":{"city":"Lexington","geo_score":0.0,"id":"ad8xt0id2n1f","geo_precision":"unmatched","state":"KY"},"type":"Feature","geometry":null},{"properties":{"city":"Stamford","geo_score":0.714,"id":"ad8xt0sul1vc","geo_precision":"city","state":"CT"},"type":"Feature","geometry":{"type":"Point","coordinates":[-73.536216,41.054082]}},{"properties":{"city":"Ft. Lauderdale","geo_score":0.714,"id":"ad8xt0m92u7c","geo_precision":"city","state":"FL"},"type":"Feature","geometry":{"type":"Point","coordinates":[-80.208381,26.166474]}},{"properties":{"city":"Sacramento","geo_score":0.714,"id":"ad8xt0vh8y9b","geo_precision":"city","state":"CA"},"type":"Feature","geometry":{"type":"Point","coordinates":[-121.555406,38.380456]}},{"properties":{"city":"San Ramon","geo_score":0.714,"id":"ad8xt0j284ru","geo_precision":"city","state":"CA"},"type":"Feature","geometry":{"type":"Point","coordinates":[-116.976549,33.031572]}},{"properties":{"city":"Elk Grove","geo_score":0.714,"id":"ad8xt0h5q5yx","geo_precision":"city","state":"CA"},"type":"Feature","geometry":{"type":"Point","coordinates":[-123.618031,39.076371]}},{"properties":{"city":"Newark","geo_score":0.714,"id":"ad8xt0rhvd5w","geo_precision":"city","state":"DE"},"type":"Feature","geometry":{"type":"Point","coordinates":[-75.701277,39.614737]}}],"is_temporal":false,"author":{"url":"","metadata":"","contact_name":"","contact_address":"","source":"","contact_phone":""},"source":"","pagination":{"sort":null,"start":0,"total":295,"limit":1000000},"state":"complete","tags":"","published":"2014-08-16T23:34:52-04:00","id":338683}