{"type":"FeatureCollection","data_type":"Dataset","url_type":null,"permissions":[{"permissions":{"download":true,"view":true},"group_id":"everyone"}],"classification":null,"title":"Brooklyn","count":67,"stream_id":338743,"contributor":{"url":"http://geocommons.com/users/68292","name":"kylechristensen3"},"data_attributes":null,"calculation_params":null,"icon_link":null,"link":"http://geocommons.com/overlays/338743.json","extent":[-74.0303,40.5779,-73.8659,40.7305],"geometry_types":["point"],"unique_name":null,"name":"Brooklyn","feature_count":67,"description":"Firehouses in BK","next_feature":null,"is_raster":false,"short_classification":"Y","stats":{},"features":[{"properties":{"city":"Brooklyn","zip":"11205","geo_score":1.0,"id":"ad96g8aomfes","address":"850 Bedford Ave","geo_precision":"range","firehouse":"Engine 209","state":"NY"},"type":"Feature","geometry":{"type":"Point","coordinates":[-73.956393,40.695735]}},{"properties":{"city":"Brooklyn","zip":"11220","geo_score":0.916,"id":"ad96g8baucii","address":"5209 Fifth Ave","geo_precision":"range","firehouse":"Ladder 114","state":"NY"},"type":"Feature","geometry":{"type":"Point","coordinates":[-74.01197,40.643424]}},{"properties":{"city":"Brooklyn","zip":"11230","geo_score":1.0,"id":"ad96g8fdrv5g","address":"126 Foster Ave","geo_precision":"range","firehouse":"Engine 250","state":"NY"},"type":"Feature","geometry":{"type":"Point","coordinates":[-73.974965,40.628238]}},{"properties":{"city":"Brooklyn","zip":"11216","geo_score":1.0,"id":"ad96g8j5rv1d","address":"206 Monroe St","geo_precision":"range","firehouse":"Engine 235 Battalion 57","state":"NY"},"type":"Feature","geometry":{"type":"Point","coordinates":[-73.952997,40.685026]}},{"properties":{"city":"Brooklyn","zip":"11214","geo_score":0.927,"id":"ad96g89w9iiw","address":"8653 18th Ave","geo_precision":"range","firehouse":"Engine 243 Ladder 168 Battalion 42","state":"NY"},"type":"Feature","geometry":{"type":"Point","coordinates":[-74.003567,40.606519]}},{"properties":{"city":"Brooklyn","zip":"11228","geo_score":0.585,"id":"ad96g8c4ph0m","address":"1157 79 St","geo_precision":"zip","firehouse":"Engine 284 Ladder 149 Satellite 3","state":"NY"},"type":"Feature","geometry":{"type":"Point","coordinates":[-74.009584,40.621493]}},{"properties":{"city":"Brooklyn","zip":"11225","geo_score":1.0,"id":"ad96g8bfdpq9","address":"491 Rogers Ave","geo_precision":"range","firehouse":"Engine 249 Ladder 113","state":"NY"},"type":"Feature","geometry":{"type":"Point","coordinates":[-73.953423,40.660395]}},{"properties":{"city":"Brooklyn","zip":"11218","geo_score":1.0,"id":"ad96g89pjdpd","address":"1307 Prospect Ave","geo_precision":"range","firehouse":"Engine 240","state":"NY"},"type":"Feature","geometry":{"type":"Point","coordinates":[-73.975548,40.650526]}},{"properties":{"city":"Brooklyn","zip":"11233","geo_score":0.585,"id":"ad96g8g5v7d7","address":"495 Hancock St","geo_precision":"zip","firehouse":"Engine 214 Ladder 111","state":"NY"},"type":"Feature","geometry":{"type":"Point","coordinates":[-73.941249,40.683436]}},{"properties":{"city":"Brooklyn","zip":"11233","geo_score":1.0,"id":"ad96g8g1g2yz","address":"423 Ralph Ave","geo_precision":"range","firehouse":"Engine 227","state":"NY"},"type":"Feature","geometry":{"type":"Point","coordinates":[-73.921929,40.675188]}},{"properties":{"city":"Brooklyn","zip":"11213","geo_score":1.0,"id":"ad96g8cdb5wk","address":"1472 Bergen St","geo_precision":"range","firehouse":"Rescue Company 2","state":"NY"},"type":"Feature","geometry":{"type":"Point","coordinates":[-73.934109,40.675171]}},{"properties":{"city":"Brooklyn","zip":"11217","geo_score":1.0,"id":"ad96g8bcp4ki","address":"494 Dean St","geo_precision":"range","firehouse":"Engine 219 Ladder 105","state":"NY"},"type":"Feature","geometry":{"type":"Point","coordinates":[-73.971307,40.680825]}},{"properties":{"city":"Brooklyn","zip":"11226","geo_score":1.0,"id":"ad96g8gilcq4","address":"2990 Snyder Ave","geo_precision":"range","firehouse":"Engine 248 Battalion 44","state":"NY"},"type":"Feature","geometry":{"type":"Point","coordinates":[-73.951507,40.648724]}},{"properties":{"city":"Brooklyn","zip":"11221","geo_score":0.585,"id":"ad96g89sf0ip","address":"582 Knickerbocker Ave","geo_precision":"zip","firehouse":"Engine 277 Ladder 112","state":"NY"},"type":"Feature","geometry":{"type":"Point","coordinates":[-73.918748,40.69427]}},{"properties":{"city":"Brooklyn","zip":"11224","geo_score":1.0,"id":"ad96g8fl5r12","address":"2510 Neptune Ave","geo_precision":"range","firehouse":"Engine 318 Ladder 166","state":"NY"},"type":"Feature","geometry":{"type":"Point","coordinates":[-73.99364,40.577936]}},{"properties":{"city":"Brooklyn","zip":"11217","geo_score":1.0,"id":"ad96g8lhk70z","address":"409 State St","geo_precision":"range","firehouse":"Engine 226","state":"NY"},"type":"Feature","geometry":{"type":"Point","coordinates":[-73.983489,40.687449]}},{"properties":{"city":"Brooklyn","zip":"11238","geo_score":1.0,"id":"ad96g89siend","address":"489 St Johns Place","geo_precision":"range","firehouse":"Engine 280 Ladder 132","state":"NY"},"type":"Feature","geometry":{"type":"Point","coordinates":[-73.961591,40.673442]}},{"properties":{"city":"Brooklyn","zip":"11206","geo_score":1.0,"id":"ad96g8eqvigm","address":"701 Park Ave","geo_precision":"range","firehouse":"Engine 230","state":"NY"},"type":"Feature","geometry":{"type":"Point","coordinates":[-73.94827,40.697761]}},{"properties":{"city":"Brooklyn","zip":"11233","geo_score":0.585,"id":"ad96g8kuwf74","address":"25 Rockaway Ave","geo_precision":"zip","firehouse":"Engine 233 Ladder 176","state":"NY"},"type":"Feature","geometry":{"type":"Point","coordinates":[-73.941249,40.683436]}},{"properties":{"city":"Brooklyn","zip":"11221","geo_score":1.0,"id":"ad96g8egmyvg","address":"650 Hart St","geo_precision":"range","firehouse":"Engine 218","state":"NY"},"type":"Feature","geometry":{"type":"Point","coordinates":[-73.92675,40.698285]}},{"properties":{"city":"Brooklyn","zip":"11211","geo_score":1.0,"id":"ad96g8cqewda","address":"75 Richardson St","geo_precision":"range","firehouse":"Engine 229 Ladder 146","state":"NY"},"type":"Feature","geometry":{"type":"Point","coordinates":[-73.949284,40.718423]}},{"properties":{"city":"Brooklyn","zip":"11205","geo_score":1.0,"id":"ad96g8a47fds","address":"160 Carlton Ave","geo_precision":"range","firehouse":"Engine 210","state":"NY"},"type":"Feature","geometry":{"type":"Point","coordinates":[-73.972691,40.692044]}},{"properties":{"city":"Brooklyn","zip":"11207","geo_score":1.0,"id":"ad96g8fslyx5","address":"165 Bradford St","geo_precision":"range","firehouse":"Engine 332 Ladder 175","state":"NY"},"type":"Feature","geometry":{"type":"Point","coordinates":[-73.892849,40.675783]}},{"properties":{"city":"Brooklyn","zip":"11220","geo_score":0.916,"id":"ad96g8dnoakg","address":"6630 Third Ave","geo_precision":"range","firehouse":"Engine 241 Ladder 109","state":"NY"},"type":"Feature","geometry":{"type":"Point","coordinates":[-74.025134,40.637858]}},{"properties":{"city":"Brooklyn","zip":"11215","geo_score":1.0,"id":"ad96g8je6ikb","address":"788 Union St","geo_precision":"range","firehouse":"Squad 1","state":"NY"},"type":"Feature","geometry":{"type":"Point","coordinates":[-73.976692,40.675012]}},{"properties":{"city":"Brooklyn","zip":"11212","geo_score":1.0,"id":"ad96g8kougva","address":"107 Watkins St","geo_precision":"range","firehouse":"Engine 231 Ladder 120 Battalion 44","state":"NY"},"type":"Feature","geometry":{"type":"Point","coordinates":[-73.908107,40.671159]}},{"properties":{"city":"Brooklyn","zip":"11209","geo_score":0.916,"id":"ad96g89nb604","address":"9219 Fifth Ave","geo_precision":"range","firehouse":"Engine 242","state":"NY"},"type":"Feature","geometry":{"type":"Point","coordinates":[-74.030257,40.61673]}},{"properties":{"city":"Brooklyn","zip":"11229","geo_score":1.0,"id":"ad96g8ljq4ep","address":"2165 Gerritsen Ave","geo_precision":"range","firehouse":"Engine 321 Brush Fire 6 Foam Unit 321","state":"NY"},"type":"Feature","geometry":{"type":"Point","coordinates":[-73.935695,40.602629]}},{"properties":{"city":"Brooklyn","zip":"11215","geo_score":0.585,"id":"ad96g8lecn1v","address":"530 11 St","geo_precision":"zip","firehouse":"Engine 220 Ladder 122","state":"NY"},"type":"Feature","geometry":{"type":"Point","coordinates":[-73.985972,40.670103]}},{"properties":{"city":"Brooklyn","zip":"11208","geo_score":1.0,"id":"ad96g8bhatcy","address":"998 Liberty Ave","geo_precision":"range","firehouse":"Engine 236","state":"NY"},"type":"Feature","geometry":{"type":"Point","coordinates":[-73.872849,40.67776]}},{"properties":{"city":"Brooklyn","zip":"11213","geo_score":1.0,"id":"ad96g8fyoaiu","address":"1352 St Johns Place","geo_precision":"range","firehouse":"Engine 234 Ladder 123 Battalion 38","state":"NY"},"type":"Feature","geometry":{"type":"Point","coordinates":[-73.931106,40.670519]}},{"properties":{"city":"Brooklyn","zip":"11219","geo_score":0.927,"id":"ad96g8jhdage","address":"4210 12th Ave","geo_precision":"range","firehouse":"Engine 282 Ladder 148","state":"NY"},"type":"Feature","geometry":{"type":"Point","coordinates":[-73.990836,40.63982]}},{"properties":{"city":"Brooklyn","zip":"11221","geo_score":1.0,"id":"ad96g8bkycm8","address":"940 Dekalb Ave","geo_precision":"range","firehouse":"Engine 217","state":"NY"},"type":"Feature","geometry":{"type":"Point","coordinates":[-73.938761,40.692683]}},{"properties":{"city":"Brooklyn","zip":"11207","geo_score":1.0,"id":"ad96g8juk65o","address":"480 Sheffield Ave","geo_precision":"range","firehouse":"Engine 290 Ladder 103","state":"NY"},"type":"Feature","geometry":{"type":"Point","coordinates":[-73.895285,40.665604]}},{"properties":{"city":"Brooklyn","zip":"11203","geo_score":1.0,"id":"ad96g8dpnb4x","address":"5105 Snyder Ave","geo_precision":"range","firehouse":"Engine 310 Ladder 174 Battalion 58","state":"NY"},"type":"Feature","geometry":{"type":"Point","coordinates":[-73.9283,40.6503]}},{"properties":{"city":"Brooklyn","zip":"11212","geo_score":1.0,"id":"ad96g85ua4cy","address":"885 Howard Ave","geo_precision":"range","firehouse":"Engine 283 Division 15","state":"NY"},"type":"Feature","geometry":{"type":"Point","coordinates":[-73.918703,40.662693]}},{"properties":{"city":"Brooklyn","zip":"11214","geo_score":0.585,"id":"ad96g8e6e153","address":"2429 86 St","geo_precision":"zip","firehouse":"Engine 253","state":"NY"},"type":"Feature","geometry":{"type":"Point","coordinates":[-74.004306,40.604549]}},{"properties":{"city":"Brooklyn","zip":"11231","geo_score":1.0,"id":"ad96g8fc1htv","address":"31 Richards St","geo_precision":"range","firehouse":"Engine 202 Ladder 101 Battalion 32","state":"NY"},"type":"Feature","geometry":{"type":"Point","coordinates":[-74.005718,40.6812]}},{"properties":{"city":"Brooklyn","zip":"11207","geo_score":1.0,"id":"ad96g87ehe7v","address":"617 Central Ave","geo_precision":"range","firehouse":"Engine 252","state":"NY"},"type":"Feature","geometry":{"type":"Point","coordinates":[-73.908372,40.688698]}},{"properties":{"city":"Brooklyn","zip":"11210","geo_score":1.0,"id":"ad96g8gpl3e6","address":"1367 Rogers Ave","geo_precision":"range","firehouse":"Engine 255 Ladder 157","state":"NY"},"type":"Feature","geometry":{"type":"Point","coordinates":[-73.950997,40.638135]}},{"properties":{"city":"Brooklyn","zip":"11237","geo_score":1.0,"id":"ad96g8h2whcf","address":"43 Morgan Ave","geo_precision":"range","firehouse":"Engine 237","state":"NY"},"type":"Feature","geometry":{"type":"Point","coordinates":[-73.931692,40.705253]}},{"properties":{"city":"Brooklyn","zip":"11223","geo_score":1.0,"id":"ad96g8hy53nb","address":"901 Ave U","geo_precision":"range","firehouse":"Engine 254 Ladder 153","state":"NY"},"type":"Feature","geometry":{"type":"Point","coordinates":[-73.961185,40.598312]}},{"properties":{"city":"Brooklyn","zip":"11201","geo_score":0.659,"id":"ad96g8iy13oe","address":"74 Middagh St","geo_precision":"range","firehouse":"Engine 205 Ladder 118","state":"NY"},"type":"Feature","geometry":{"type":"Point","coordinates":[-73.934923,40.710912]}},{"properties":{"city":"Brooklyn","zip":"11208","geo_score":1.0,"id":"ad96g8ked4zn","address":"799 Lincoln Ave","geo_precision":"range","firehouse":"Engine 225 Ladder 107 Battalion 39","state":"NY"},"type":"Feature","geometry":{"type":"Point","coordinates":[-73.865892,40.67047]}},{"properties":{"city":"Brooklyn","zip":"11224","geo_score":0.927,"id":"ad96g8b7mkdm","address":"2929 W 8 St","geo_precision":"range","firehouse":"Engine 245 Ladder 161 Battalion 43","state":"NY"},"type":"Feature","geometry":{"type":"Point","coordinates":[-73.976305,40.578458]}},{"properties":{"city":"Brooklyn","zip":"11218","geo_score":1.0,"id":"ad96g8l0gzwa","address":"1210 Cortelyou Rd","geo_precision":"range","firehouse":"Engine 281 Ladder 147","state":"NY"},"type":"Feature","geometry":{"type":"Point","coordinates":[-73.966203,40.640327]}},{"properties":{"city":"Brooklyn","zip":"11220","geo_score":0.916,"id":"ad96g8dli4nu","address":"5113 Fourth Ave","geo_precision":"range","firehouse":"Engine 201","state":"NY"},"type":"Feature","geometry":{"type":"Point","coordinates":[-74.013628,40.645371]}},{"properties":{"city":"Brooklyn","zip":"11204","geo_score":0.585,"id":"ad96g8e7ly6o","address":"2312 65 St","geo_precision":"zip","firehouse":"Engine 330 Ladder 172","state":"NY"},"type":"Feature","geometry":{"type":"Point","coordinates":[-73.978472,40.63316]}},{"properties":{"city":"Brooklyn","zip":"11234","geo_score":0.935,"id":"ad96g8ic6798","address":"1851 E 48 St","geo_precision":"range","firehouse":"Engine 309 Ladder 159","state":"NY"},"type":"Feature","geometry":{"type":"Point","coordinates":[-73.928438,40.615773]}},{"properties":{"city":"Brooklyn","zip":"11221","geo_score":1.0,"id":"ad96g8hnwe7x","address":"32 Ralph Ave","geo_precision":"range","firehouse":"Engine 222 Battalion 37","state":"NY"},"type":"Feature","geometry":{"type":"Point","coordinates":[-73.924127,40.690005]}},{"properties":{"city":"Brooklyn","zip":"11236","geo_score":0.585,"id":"ad96g8c3xtjh","address":"1361 Rockaway Pkway","geo_precision":"zip","firehouse":"Engine 257 Ladder 170 Battalion 58","state":"NY"},"type":"Feature","geometry":{"type":"Point","coordinates":[-73.900692,40.643715]}},{"properties":{"city":"Brooklyn","zip":"11211","geo_score":1.0,"id":"ad96g88wiuwz","address":"187 Union Ave","geo_precision":"range","firehouse":"Engine 216 Ladder 108","state":"NY"},"type":"Feature","geometry":{"type":"Point","coordinates":[-73.950406,40.706652]}},{"properties":{"city":"Brooklyn","zip":"11229","geo_score":0.935,"id":"ad96g8cfc0bm","address":"1635 E 14 St","geo_precision":"range","firehouse":"Engine 276 Ladder 156 Battalion 33","state":"NY"},"type":"Feature","geometry":{"type":"Point","coordinates":[-73.959178,40.609059]}},{"properties":{"city":"Brooklyn","zip":"11201","geo_score":1.0,"id":"ad96g8b2yxb5","address":"172 Tillary St","geo_precision":"range","firehouse":"Engine 207 Ladder 110 Battalion 31 Division 11","state":"NY"},"type":"Feature","geometry":{"type":"Point","coordinates":[-73.982401,40.69584]}},{"properties":{"city":"Brooklyn","zip":"11211","geo_score":1.0,"id":"ad96g8ldys45","address":"187 Union Ave","geo_precision":"range","firehouse":"Engine 216 Ladder 108 Battalion 35","state":"NY"},"type":"Feature","geometry":{"type":"Point","coordinates":[-73.950406,40.706652]}},{"properties":{"city":"Brooklyn","zip":"11234","geo_score":0.89,"id":"ad96g88licpt","address":"6405 Ave N","geo_precision":"range","firehouse":"Engine 323","state":"NY"},"type":"Feature","geometry":{"type":"Point","coordinates":[-73.915258,40.620252]}},{"properties":{"city":"Brooklyn","zip":"11219","geo_score":0.585,"id":"ad96g8j74hd4","address":"1336 60 St","geo_precision":"zip","firehouse":"Engine 247 Thawing Apparatus 64","state":"NY"},"type":"Feature","geometry":{"type":"Point","coordinates":[-73.996953,40.633157]}},{"properties":{"city":"Brooklyn","zip":"11215","geo_score":0.916,"id":"ad96g8f7jzi7","address":"395 Fourth Ave","geo_precision":"range","firehouse":"Engine 239","state":"NY"},"type":"Feature","geometry":{"type":"Point","coordinates":[-73.987422,40.671879]}},{"properties":{"city":"Brooklyn","zip":"11235","geo_score":0.935,"id":"ad96g87180h2","address":"2732 E 11 St","geo_precision":"range","firehouse":"Engine 246 Ladder 169","state":"NY"},"type":"Feature","geometry":{"type":"Point","coordinates":[-73.959133,40.584604]}},{"properties":{"city":"Brooklyn","zip":"11211","geo_score":1.0,"id":"ad96g8fivt08","address":"1201 Grand St","geo_precision":"range","firehouse":"Engine 206 Foam Unit 206","state":"NY"},"type":"Feature","geometry":{"type":"Point","coordinates":[-73.927299,40.715354]}},{"properties":{"city":"Brooklyn","zip":"11237","geo_score":1.0,"id":"ad96g87wvadq","address":"392 Himrod St","geo_precision":"range","firehouse":"Engine 271 Ladder 124 Battalion 28","state":"NY"},"type":"Feature","geometry":{"type":"Point","coordinates":[-73.916471,40.70321]}},{"properties":{"city":"Brooklyn","zip":"11222","geo_score":1.0,"id":"ad96g8fia4o6","address":"205 Greenpoint Ave","geo_precision":"range","firehouse":"Engine 238 Ladder 106","state":"NY"},"type":"Feature","geometry":{"type":"Point","coordinates":[-73.951494,40.73046]}},{"properties":{"city":"Brooklyn","zip":"11232","geo_score":0.585,"id":"ad96g86t7y02","address":"436 39 St","geo_precision":"zip","firehouse":"Engine 228","state":"NY"},"type":"Feature","geometry":{"type":"Point","coordinates":[-73.971708,40.671186]}},{"properties":{"city":"Brooklyn","zip":"11201","geo_score":0.585,"id":"ad96g8cgww49","address":"274 Hicks St","geo_precision":"zip","firehouse":"Engine 224","state":"NY"},"type":"Feature","geometry":{"type":"Point","coordinates":[-73.989319,40.694481]}},{"properties":{"city":"Brooklyn","zip":"11211","geo_score":0.927,"id":"ad96g8e87ysg","address":"161 South 2 St","geo_precision":"range","firehouse":"Engine 221 Ladder 104","state":"NY"},"type":"Feature","geometry":{"type":"Point","coordinates":[-73.961262,40.713134]}},{"properties":{"city":"Brooklyn","zip":"11231","geo_score":1.0,"id":"ad96g8fy2lyu","address":"252 Lorraine St","geo_precision":"range","firehouse":"Engine 279 Ladder 131","state":"NY"},"type":"Feature","geometry":{"type":"Point","coordinates":[-74.00024,40.672519]}},{"properties":{"city":"Brooklyn","zip":"11211","geo_score":1.0,"id":"ad96g86maiyk","address":"26 Hooper St","geo_precision":"range","firehouse":"Engine 211 Ladder 119","state":"NY"},"type":"Feature","geometry":{"type":"Point","coordinates":[-73.962269,40.701393]}}],"is_temporal":false,"author":{"url":"http://Lahman","metadata":null,"contact_name":null,"contact_address":null,"source":null,"contact_phone":null},"source":"http://Lahman","pagination":{"sort":null,"start":0,"total":67,"limit":1000000},"state":"complete","tags":"","published":"2014-08-16T23:37:57-04:00","id":338743}