{"type":"FeatureCollection","data_type":"Dataset","url_type":null,"permissions":[{"permissions":{"download":true,"view":true},"group_id":"everyone"}],"classification":null,"title":"GeoCommons","count":24,"stream_id":339724,"contributor":{"url":"http://geocommons.com/users/62476","name":"laura.jerzyk"},"data_attributes":null,"calculation_params":null,"icon_link":null,"link":"http://geocommons.com/overlays/339724.json","extent":[-77.3418,38.6035,-76.1094,39.3348],"geometry_types":["point"],"unique_name":null,"name":"GeoCommons","feature_count":24,"description":"","next_feature":null,"is_raster":false,"short_classification":"Y","stats":{"provider system key":{"max":3643,"variance":948870.85326087,"mean":2834.375,"stdev":974.100022205559,"min":172,"median":3425}},"features":[{"properties":{"provider system key":2159,"city":"Washington","alternative hospital":null,"county":"District of Columbia","hospital":"Georgetown University Hospital","geo_score":0.857,"zip code":"20007","threat vs. current":"Threat","id":"adbo0s8oo6xz","system affiliation":"MedStar Health","geo_precision":"zip","state":"DC"},"type":"Feature","geometry":{"type":"Point","coordinates":[-77.075649,38.914561]}},{"properties":{"provider system key":2159,"city":"Washington","alternative hospital":null,"county":"District of Columbia","hospital":"Washington Hospital Center","geo_score":0.857,"zip code":"20010","threat vs. current":"Threat","id":"adbo0ryhj2k4","system affiliation":"MedStar Health","geo_precision":"zip","state":"DC"},"type":"Feature","geometry":{"type":"Point","coordinates":[-77.030248,38.932711]}},{"properties":{"provider system key":2159,"city":"Washington","alternative hospital":"x","county":"District of Columbia","hospital":"National Rehabilitation Hospital","geo_score":0.857,"zip code":"20010","threat vs. current":"Threat","id":"adbo0rw4pymi","system affiliation":"MedStar Health","geo_precision":"zip","state":"DC"},"type":"Feature","geometry":{"type":"Point","coordinates":[-77.030248,38.932711]}},{"properties":{"provider system key":3426,"city":"Washington","alternative hospital":null,"county":"District of Columbia","hospital":"Sibley Memorial Hospital","geo_score":0.857,"zip code":"20016","threat vs. current":"Threat and Current","id":"adbo0s79quoz","system affiliation":"The Johns Hopkins Hospital &amp; Health System","geo_precision":"zip","state":"DC"},"type":"Feature","geometry":{"type":"Point","coordinates":[-77.091149,38.93826]}},{"properties":{"provider system key":3616,"city":"Washington","alternative hospital":null,"county":"District of Columbia","hospital":"The George Washington University Hospital","geo_score":0.857,"zip code":"20037","threat vs. current":"Threat","id":"adbo0s8orkdo","system affiliation":"Universal Health Services, Inc.","geo_precision":"zip","state":"DC"},"type":"Feature","geometry":{"type":"Point","coordinates":[-77.061781,38.918903]}},{"properties":{"provider system key":172,"city":"Baltimore","alternative hospital":null,"county":"Baltimore City","hospital":"Saint Agnes Hospital","geo_score":0.857,"zip code":"21229","threat vs. current":"Threat","id":"adbo0rysge08","system affiliation":"Ascension Health","geo_precision":"zip","state":"MD"},"type":"Feature","geometry":{"type":"Point","coordinates":[-76.718305,39.287607]}},{"properties":{"provider system key":2158,"city":"Brooklyn","alternative hospital":null,"county":"Anne Arundel County","hospital":"Harbor Hospital","geo_score":0.857,"zip code":"21225","threat vs. current":"Threat and Current","id":"adbo0rw0cxng","system affiliation":"MedStar Health","geo_precision":"zip","state":"MD"},"type":"Feature","geometry":{"type":"Point","coordinates":[-76.616356,39.228441]}},{"properties":{"provider system key":2158,"city":"Baltimore","alternative hospital":null,"county":"Baltimore City","hospital":"Union Memorial Hospital","geo_score":0.857,"zip code":"21218","threat vs. current":"Threat and Current","id":"adbo0sc92dts","system affiliation":"MedStar Health","geo_precision":"zip","state":"MD"},"type":"Feature","geometry":{"type":"Point","coordinates":[-76.618023,39.334829]}},{"properties":{"provider system key":2158,"city":"Rosedale","alternative hospital":null,"county":"Baltimore County","hospital":"Franklin Square Hospital Center","geo_score":0.857,"zip code":"21237","threat vs. current":"Threat and Current","id":"adbo0s12xzo3","system affiliation":"MedStar Health","geo_precision":"zip","state":"MD"},"type":"Feature","geometry":{"type":"Point","coordinates":[-76.521908,39.332607]}},{"properties":{"provider system key":2158,"city":"Olney","alternative hospital":null,"county":"Montgomery County","hospital":"Montgomery General Hospital","geo_score":0.857,"zip code":"20832","threat vs. current":"Threat and Current","id":"adbo0sahp159","system affiliation":"MedStar Health","geo_precision":"zip","state":"MD"},"type":"Feature","geometry":{"type":"Point","coordinates":[-77.077651,39.150364]}},{"properties":{"provider system key":3425,"city":"Baltimore","alternative hospital":null,"county":"Baltimore City","hospital":"Johns Hopkins Bayview Medical Center","geo_score":0.857,"zip code":"21224","threat vs. current":"Threat and Current","id":"adbo0s6ot6ng","system affiliation":"The Johns Hopkins Hospital &amp; Health System","geo_precision":"zip","state":"MD"},"type":"Feature","geometry":{"type":"Point","coordinates":[-76.557237,39.279207]}},{"properties":{"provider system key":3425,"city":"Baltimore","alternative hospital":null,"county":"Baltimore City","hospital":"The Johns Hopkins Hospital","geo_score":0.857,"zip code":"21287","threat vs. current":"Threat and Current","id":"adbo0saayb1a","system affiliation":"The Johns Hopkins Hospital &amp; Health System","geo_precision":"zip","state":"MD"},"type":"Feature","geometry":{"type":"Point","coordinates":[-76.592738,39.297457]}},{"properties":{"provider system key":3425,"city":"Columbia","alternative hospital":null,"county":"Howard County","hospital":"Howard County General Hospital","geo_score":0.857,"zip code":"21044","threat vs. current":"Threat and Current","id":"adbo0s9a2bbk","system affiliation":"The Johns Hopkins Hospital &amp; Health System","geo_precision":"zip","state":"MD"},"type":"Feature","geometry":{"type":"Point","coordinates":[-76.886642,39.234828]}},{"properties":{"provider system key":3425,"city":"Bethesda","alternative hospital":null,"county":"Montgomery County","hospital":"Suburban Hospital","geo_score":0.857,"zip code":"20814","threat vs. current":"Threat and Current","id":"adbo0s04pwfu","system affiliation":"The Johns Hopkins Hospital &amp; Health System","geo_precision":"zip","state":"MD"},"type":"Feature","geometry":{"type":"Point","coordinates":[-77.109978,38.98261]}},{"properties":{"provider system key":3643,"city":"Glen Burnie","alternative hospital":null,"county":"Anne Arundel County","hospital":"Baltimore Washington Medical Center","geo_score":0.857,"zip code":"21061","threat vs. current":"Threat and Current","id":"adbo0rwml358","system affiliation":"University of Maryland Medical System","geo_precision":"zip","state":"MD"},"type":"Feature","geometry":{"type":"Point","coordinates":[-76.6258,39.128998]}},{"properties":{"provider system key":3643,"city":"Baltimore","alternative hospital":null,"county":"Baltimore City","hospital":"University of Maryland Medical Center","geo_score":0.857,"zip code":"21201","threat vs. current":"Threat and Current","id":"adbo0rvxnzn8","system affiliation":"University of Maryland Medical System","geo_precision":"zip","state":"MD"},"type":"Feature","geometry":{"type":"Point","coordinates":[-76.623489,39.296536]}},{"properties":{"provider system key":3643,"city":"Baltimore","alternative hospital":null,"county":"Baltimore City","hospital":"Maryland General Hospital","geo_score":0.857,"zip code":"21201","threat vs. current":"Threat and Current","id":"adbo0ry83act","system affiliation":"University of Maryland Medical System","geo_precision":"zip","state":"MD"},"type":"Feature","geometry":{"type":"Point","coordinates":[-76.623489,39.296536]}},{"properties":{"provider system key":3643,"city":"Baltimore","alternative hospital":null,"county":"Baltimore City","hospital":"University Specialty Hospital","geo_score":0.857,"zip code":"21230","threat vs. current":"Threat and Current","id":"adbo0rwn6pid","system affiliation":"University of Maryland Medical System","geo_precision":"zip","state":"MD"},"type":"Feature","geometry":{"type":"Point","coordinates":[-76.635523,39.262052]}},{"properties":{"provider system key":3643,"city":"Gwynn Oak","alternative hospital":null,"county":"Baltimore County","hospital":"Kernan Hospital","geo_score":0.857,"zip code":"21207","threat vs. current":"Threat and Current","id":"adbo0s6po0nw","system affiliation":"University of Maryland Medical System","geo_precision":"zip","state":"MD"},"type":"Feature","geometry":{"type":"Point","coordinates":[-76.728028,39.322884]}},{"properties":{"provider system key":3643,"city":"Cambridge","alternative hospital":null,"county":"Dorchester County","hospital":"Dorchester General Hospital in Cambridge","geo_score":0.857,"zip code":"21613","threat vs. current":"Threat and Current","id":"adbo0s7z75uw","system affiliation":"University of Maryland Medical System","geo_precision":"zip","state":"MD"},"type":"Feature","geometry":{"type":"Point","coordinates":[-76.23689,38.603453]}},{"properties":{"provider system key":3643,"city":"Chestertown","alternative hospital":null,"county":"Kent County","hospital":"Chester River Hospital Center","geo_score":0.857,"zip code":"21620","threat vs. current":"Threat and Current","id":"adbo0s4r2bj3","system affiliation":"University of Maryland Medical System","geo_precision":"zip","state":"MD"},"type":"Feature","geometry":{"type":"Point","coordinates":[-76.109392,39.162332]}},{"properties":{"provider system key":3643,"city":"Easton","alternative hospital":null,"county":"Talbot County","hospital":"The Memorial Hospital at Easton","geo_score":0.857,"zip code":"21601","threat vs. current":"Threat and Current","id":"adbo0rxotce8","system affiliation":"University of Maryland Medical System","geo_precision":"zip","state":"MD"},"type":"Feature","geometry":{"type":"Point","coordinates":[-76.139667,38.813449]}},{"properties":{"provider system key":1429,"city":"Reston","alternative hospital":null,"county":"Fairfax County","hospital":"Reston Hospital Center","geo_score":0.857,"zip code":"20190","threat vs. current":"Threat","id":"adbo0rwotfkz","system affiliation":"HCA","geo_precision":"zip","state":"VA"},"type":"Feature","geometry":{"type":"Point","coordinates":[-77.3418,38.96146]}},{"properties":{"provider system key":1429,"city":"Falls Church","alternative hospital":null,"county":"Fairfax County","hospital":"Dominion Hospital","geo_score":0.857,"zip code":"22044","threat vs. current":"Threat","id":"adbo0s95c36h","system affiliation":"HCA","geo_precision":"zip","state":"VA"},"type":"Feature","geometry":{"type":"Point","coordinates":[-77.16248,38.851501]}}],"is_temporal":false,"author":{"url":"","metadata":"","contact_name":"","contact_address":"","source":"","contact_phone":""},"source":"","pagination":{"sort":null,"start":0,"total":24,"limit":1000000},"state":"complete","tags":"","published":"2014-08-17T00:45:23-04:00","id":339724}