{"type":"FeatureCollection","data_type":"Dataset","url_type":null,"permissions":[{"permissions":{"download":true,"view":true},"group_id":"everyone"}],"classification":null,"title":"Idaho Department of Parks and Recreation SitesIDPR Parks and Sites","count":56,"stream_id":340597,"contributor":{"url":"http://geocommons.com/users/68642","name":"gochnour44"},"data_attributes":null,"calculation_params":null,"icon_link":null,"link":"http://geocommons.com/overlays/340597.json","extent":[-117.054,42.0293,-111.258,48.7334],"geometry_types":["point"],"unique_name":null,"name":"Idaho Department of Parks and Recreation SitesIDPR Parks and Sites","feature_count":56,"description":"This data set shows Idaho Department of Parks and Recreation managed areas (State Parks) and units within those State Parks. The dataset is point data that only shows the location of the parks, not the actual park boundaries. This dataset does not contain the Coeur d' Alene Parkway or Trail of the Coeur d' Alenes.","next_feature":null,"is_raster":false,"short_classification":"Y","stats":{"X":{"max":2727004.81227405,"variance":490056819622.447,"mean":2181024.63328878,"stdev":700040.584268117,"min":0.0,"median":2333919.16883437},"Y":{"max":1951767.19195795,"variance":232747327826.011,"mean":1381110.80636411,"stdev":482438.936888402,"min":0.0,"median":1481701.56657545},"Id":{"max":0,"variance":0.0,"mean":0.0,"stdev":0.0,"min":0,"median":0}},"features":[{"properties":{"City":"Coolin","Zip":83821,"X":2292460.31630893,"Park_Unit":"Lionhead","Y":1951767.19195795,"Park_Name":"Priest Lake State Park","Id":0,"State":"ID","id":"adck8hhiktj0","Address":"East Side Rd"},"type":"Feature","geometry":{"type":"Point","coordinates":[-116.82403080551,48.733383417957]}},{"properties":{"City":"Coolin","Zip":83821,"X":2291391.03030167,"Park_Unit":"Indian Creek","Y":1938648.91451214,"Park_Name":"Priest Lake State Park","Id":0,"State":"ID","id":"adck8hidzvja","Address":"314 Indian Creek Road"},"type":"Feature","geometry":{"type":"Point","coordinates":[-116.830431418897,48.6140926864025]}},{"properties":{"City":"Coolin","Zip":83821,"X":2285735.50886689,"Park_Unit":"Dickensheet","Y":1920419.87172766,"Park_Name":"Priest Lake State Park","Id":0,"State":"iD","id":"adck8h8w61ys","Address":"Dickensheet Rd"},"type":"Feature","geometry":{"type":"Point","coordinates":[-116.900168168503,48.4513498170872]}},{"properties":{"City":"Sagle","Zip":83860,"X":2303951.76510675,"Park_Unit":"Round Lake State Park","Y":1888427.24324149,"Park_Name":"Round Lake State Park","Id":0,"State":"ID","id":"adck8hidwapk","Address":"Dufort Road"},"type":"Feature","geometry":{"type":"Point","coordinates":[-116.636763826593,48.1668139587979]}},{"properties":{"City":"Athol","Zip":83801,"X":2305701.24306444,"Park_Unit":"Farragut State Park","Y":1864408.14280803,"Park_Name":"Farragut State Park","Id":0,"State":"ID","id":"adck8hi3p6r0","Address":"13550 East Highway 54"},"type":"Feature","geometry":{"type":"Point","coordinates":[-116.602349598084,47.9514730760548]}},{"properties":{"City":"Coeur d' Alene","Zip":83805,"X":2298124.57708964,"Park_Unit":"Higgins Point","Y":1828870.94554206,"Park_Name":"Coeur d' Alene Parkway","Id":0,"State":"ID","id":"adck8h4yqp3k","Address":"E Coeur d' Alene Lake Dr"},"type":"Feature","geometry":{"type":"Point","coordinates":[-116.687186391096,47.6297376313562]}},{"properties":{"City":"Cataldo","Zip":83810,"X":2322779.44589227,"Park_Unit":"Old Mission State Park","Y":1819119.85557359,"Park_Name":"Old Mission","Id":0,"State":"ID","id":"adck8h6v7nm6","Address":"Exit 39, I 90"},"type":"Feature","geometry":{"type":"Point","coordinates":[-116.355370425776,47.5492892605212]}},{"properties":{"City":"Worely","Zip":83876,"X":2283720.71542145,"Park_Unit":"Mowry State Park","Y":1811038.7425047,"Park_Name":"Mowry State Park","Id":0,"State":"ID","id":"adck8hbf8l25","Address":"Mowry Road"},"type":"Feature","geometry":{"type":"Point","coordinates":[-116.869909068955,47.4648385446194]}},{"properties":{"City":"Plummer","Zip":83851,"X":2290664.52349128,"Park_Unit":"Heyburn State Park","Y":1798378.12742548,"Park_Name":"Heyburn State Park","Id":0,"State":"ID","id":"adck8hihz00x","Address":"1291 Chatcolet RD"},"type":"Feature","geometry":{"type":"Point","coordinates":[-116.771900414285,47.3533188689152]}},{"properties":{"City":"Desmet","Zip":83824,"X":2282622.24349723,"Park_Unit":"Mary Minvera McCroskey State Park","Y":1765612.96760456,"Park_Name":"Mary Minvera McCroskey State Park","Id":0,"State":"ID","id":"adck8hjnka2v","Address":"Skyline Dr"},"type":"Feature","geometry":{"type":"Point","coordinates":[-116.862359864973,47.0562304445202]}},{"properties":{"City":"Lewiston","Zip":83501,"X":2265075.44072506,"Park_Unit":"Hells Gate State Park","Y":1689821.68853548,"Park_Name":"Hells Gate State Park","Id":0,"State":"ID","id":"adck8hikmekz","Address":"4832 Hells Gate Road"},"type":"Feature","geometry":{"type":"Point","coordinates":[-117.054377127158,46.369146407222]}},{"properties":{"City":"Orofino","Zip":83544,"X":2325363.33114518,"Park_Unit":"Freeman Creek Campground","Y":1710525.7721141,"Park_Name":"Dworshak State Park","Id":0,"State":"ID","id":"adck8hg48fev","Address":"Freeman Creek Rd"},"type":"Feature","geometry":{"type":"Point","coordinates":[-116.279997794317,46.575873788297]}},{"properties":{"City":"Orofino","Zip":83544,"X":2323900.4370853,"Park_Unit":"Three Meadows Group Camp","Y":1713945.34644105,"Park_Name":"Dworshak State Park","Id":0,"State":"ID","id":"adck8hgslhe2","Address":"Freeman Creek Rd"},"type":"Feature","geometry":{"type":"Point","coordinates":[-116.299417781672,46.6039430717511]}},{"properties":{"City":"Lolo Pass","Zip":0,"X":2455868.34150756,"Park_Unit":"Glade Creek State Park","Y":1714081.15536284,"Park_Name":"Glade Creek State Park","Id":0,"State":"ID","id":"adck8hfmpdxf","Address":"Clearwater Nat Forest Road #5670"},"type":"Feature","geometry":{"type":"Point","coordinates":[-114.576483415646,46.6268259990463]}},{"properties":{"City":"Winchester","Zip":83555,"X":2297273.04594816,"Park_Unit":"Winchester State park","Y":1673927.08883784,"Park_Name":"Winchester State park","Id":0,"State":"ID","id":"adck8h4p9w89","Address":"Olander Road"},"type":"Feature","geometry":{"type":"Point","coordinates":[-116.629389496537,46.2366606982128]}},{"properties":{"City":"McCall","Zip":83638,"X":2335677.4239442,"Park_Unit":"Ponderosa","Y":1527247.69071477,"Park_Name":"Ponderosa State Park","Id":0,"State":"ID","id":"adck8h4ts5wz","Address":"Miles Standish Road"},"type":"Feature","geometry":{"type":"Point","coordinates":[-116.082286890909,44.9276629045584]}},{"properties":{"City":"McCall","Zip":83638,"X":2337392.43626977,"Park_Unit":"North Beach","Y":1536013.38397445,"Park_Name":"Ponderosa State Park","Id":0,"State":"ID","id":"adck8ha9shtx","Address":"East Side Road"},"type":"Feature","geometry":{"type":"Point","coordinates":[-116.063394904524,45.0069144001402]}},{"properties":{"City":"Cascade","Zip":83611,"X":2331601.70179566,"Park_Unit":"Huckleberry Campground","Y":1501648.52443162,"Park_Name":"Lake Cascade State Park","Id":0,"State":"ID","id":"adck8hin9r4y","Address":"West Mountain Road"},"type":"Feature","geometry":{"type":"Point","coordinates":[-116.125419976523,44.6964197636693]}},{"properties":{"City":"Cascade","Zip":83611,"X":2331711.74187586,"Park_Unit":"Curlew Campground","Y":1501499.22160527,"Park_Name":"Lake Cascade State Park","Id":0,"State":"ID","id":"adck8h65bctm","Address":"West Mountain Road"},"type":"Feature","geometry":{"type":"Point","coordinates":[-116.123982948882,44.695102435921]}},{"properties":{"City":"Donnelly","Zip":83615,"X":2333803.41348549,"Park_Unit":"Boulder Creek Day Use Area","Y":1500390.79786191,"Park_Name":"Lake Cascade State Park","Id":0,"State":"ID","id":"adck8he33xzx","Address":"Hereford Road"},"type":"Feature","geometry":{"type":"Point","coordinates":[-116.09724146008,44.6856184389129]}},{"properties":{"City":"Donnelly","Zip":83615,"X":2332450.0004228,"Park_Unit":"Buttercup Campground","Y":1500089.96739177,"Park_Name":"Lake Cascade State Park","Id":0,"State":"ID","id":"adck8h5t855q","Address":"West Mountain Road"},"type":"Feature","geometry":{"type":"Point","coordinates":[-116.11421020194,44.6825972559231]}},{"properties":{"City":"Donnelly","Zip":83615,"X":2332635.07488564,"Park_Unit":"West Mountain Campground","Y":1499302.18841682,"Park_Name":"Lake Cascade State Park","Id":0,"State":"ID","id":"adck8hf90077","Address":"West Mountain Road"},"type":"Feature","geometry":{"type":"Point","coordinates":[-116.111618905085,44.6755533491878]}},{"properties":{"City":"Donnelly","Zip":83615,"X":2332729.80002599,"Park_Unit":"Poison Creek Campground","Y":1498596.28655663,"Park_Name":"Lake Cascade State Park","Id":0,"State":"ID","id":"adck8h9rby1c","Address":"West Mountain Road"},"type":"Feature","geometry":{"type":"Point","coordinates":[-116.110194019224,44.6692249090394]}},{"properties":{"City":"McCall","Zip":83638,"X":2331169.62838878,"Park_Unit":"Osprey Point Yurts","Y":1494630.49924856,"Park_Name":"Lake Cascade State Park","Id":0,"State":"ID","id":"adck8hdb92he","Address":"West Mountain Road"},"type":"Feature","geometry":{"type":"Point","coordinates":[-116.127044926129,44.6330161863996]}},{"properties":{"City":"Cascade","Zip":83611,"X":2335907.18081812,"Park_Unit":"Sugar Loaf Campground","Y":1489685.46134312,"Park_Name":"Lake Cascade State Park","Id":0,"State":"ID","id":"adck8ha1gvk2","Address":null},"type":"Feature","geometry":{"type":"Point","coordinates":[-116.067287296301,44.5897908915892]}},{"properties":{"City":"Cascade","Zip":83611,"X":2336595.65322998,"Park_Unit":"Crown Point Campground","Y":1482574.23664623,"Park_Name":"Lake Cascade State Park","Id":0,"State":"ID","id":"adck8hccejco","Address":"Lake Way"},"type":"Feature","geometry":{"type":"Point","coordinates":[-116.056363774059,44.525969166249]}},{"properties":{"City":"Cascade","Zip":83611,"X":2336742.91446982,"Park_Unit":"Van Wyck Park","Y":1481701.56657545,"Park_Name":"Lake Cascade State Park","Id":0,"State":"ID","id":"adck8hk4k23n","Address":"Lakeshore Drive"},"type":"Feature","geometry":{"type":"Point","coordinates":[-116.054235720638,44.5181511956233]}},{"properties":{"City":"Cascade","Zip":83611,"X":2336668.88022863,"Park_Unit":"Blue Heron Campgournd","Y":1478987.16791641,"Park_Name":"Lake Cascade State Park","Id":0,"State":"ID","id":"adck8hhvasvm","Address":"Lakeshore Drive"},"type":"Feature","geometry":{"type":"Point","coordinates":[-116.054308439038,44.4937132386562]}},{"properties":{"City":"Cascade","Zip":83611,"X":2336716.68276935,"Park_Unit":"Snowbank Day Use Area","Y":1478722.27986168,"Park_Name":"Lake Cascade State Park","Id":0,"State":"ID","id":"adck8hf58kgn","Address":"Lakeshore Drive"},"type":"Feature","geometry":{"type":"Point","coordinates":[-116.053623913507,44.4913408672859]}},{"properties":{"City":"Cascade","Zip":83611,"X":2336576.30726802,"Park_Unit":"Carbarton Day Use Area","Y":1478291.57168995,"Park_Name":"Lake Cascade State Park","Id":0,"State":"ID","id":"adck8hbye3m3","Address":"Lakeshore Drive"},"type":"Feature","geometry":{"type":"Point","coordinates":[-116.055252151987,44.4874340638446]}},{"properties":{"City":"Eagle","Zip":83616,"X":2306306.34902221,"Park_Unit":"Eagle Island State Park","Y":1389903.07662772,"Park_Name":"Eagle Island State Park","Id":0,"State":"ID","id":"adck8h9js7vf","Address":"4000 W Hatchery Rd"},"type":"Feature","geometry":{"type":"Point","coordinates":[-116.403195774924,43.684867960203]}},{"properties":{"City":"Boise","Zip":83716,"X":2333080.37450091,"Park_Unit":"Discovery Day Use Area","Y":1371502.52402265,"Park_Name":"Lucky Peak State Park","Id":0,"State":"ID","id":"adck8hff2pl1","Address":"9723  East Highway 21"},"type":"Feature","geometry":{"type":"Point","coordinates":[-116.065560059948,43.525795498876]}},{"properties":{"City":"Boise","Zip":83716,"X":2333919.16883437,"Park_Unit":"Sandy Point Day Use Area","Y":1371952.35063681,"Park_Name":"Lucky Peak State Park","Id":0,"State":"ID","id":"adck8ha4989g","Address":"9725 East Highway 21"},"type":"Feature","geometry":{"type":"Point","coordinates":[-116.055324414733,43.5300302473282]}},{"properties":{"City":"Boise","Zip":83716,"X":2340457.88968679,"Park_Unit":"Spring Shores Day Use Area","Y":1378952.95527234,"Park_Name":"Lucky Peak State Park","Id":0,"State":"ID","id":"adck8hdjfwox","Address":"Arrowrock Road"},"type":"Feature","geometry":{"type":"Point","coordinates":[-115.976512367775,43.5944532966641]}},{"properties":{"City":"Mountain Home","Zip":83647,"X":2360447.42153328,"Park_Unit":"Bruneau Dunes State Park","Y":1302471.31074776,"Park_Name":"Bruneau Dunes State Park","Id":0,"State":"ID","id":"adck8hg0gp2i","Address":"27608 Sand Dunes Rd"},"type":"Feature","geometry":{"type":"Point","coordinates":[-115.709616346591,42.9100832845351]}},{"properties":{"City":"Glenns Ferry","Zip":83623,"X":2392478.05138411,"Park_Unit":"Three Island State Park","Y":1305737.81715901,"Park_Name":"Three Island State Park","Id":0,"State":"ID","id":"adck8h8xgwi1","Address":"West Madison Ave"},"type":"Feature","geometry":{"type":"Point","coordinates":[-115.317962188499,42.9446782859298]}},{"properties":{"City":"Hagerman","Zip":83332,"X":2430485.69425715,"Park_Unit":"Malad Gorge State Park","Y":1296104.52347496,"Park_Name":"Malad Gorge State Park","Id":0,"State":"ID","id":"adck8hjemz9c","Address":"Ritchie Rd"},"type":"Feature","geometry":{"type":"Point","coordinates":[-114.850949450509,42.8623536662185]}},{"properties":{"City":"Jerome","Zip":83338,"X":2445156.71532633,"Park_Unit":"Niagara Springs State Park","Y":1273747.74512677,"Park_Name":"Niagara Springs State Park","Id":0,"State":"ID","id":"adck8h5azgp6","Address":"Niagara Springs Rd"},"type":"Feature","geometry":{"type":"Point","coordinates":[-114.669199591564,42.6622281806201]}},{"properties":{"City":"Jerome","Zip":83338,"X":2447318.71704194,"Park_Unit":"Crystal Springs State Park","Y":1273452.65938148,"Park_Name":"Crystal Springs State Park","Id":0,"State":"ID","id":"adck8hfwv42x","Address":"Niagara Springs Rd"},"type":"Feature","geometry":{"type":"Point","coordinates":[-114.642793051278,42.6597219836717]}},{"properties":{"City":"Wendell","Zip":83355,"X":2433616.38486732,"Park_Unit":"Box Canyon State Park","Y":1278927.40244685,"Park_Name":"Box Canyon","Id":0,"State":"ID","id":"adck8he9tio4","Address":"E 1500"},"type":"Feature","geometry":{"type":"Point","coordinates":[-114.810608761513,42.7079602663573]}},{"properties":{"City":"Hagerman","Zip":83332,"X":2428827.9638502,"Park_Unit":"Billingsley Creek State Park","Y":1291714.13011153,"Park_Name":"Billingsley Creek","Id":0,"State":"ID","id":"adck8he5mrf3","Address":"Norwood Rd"},"type":"Feature","geometry":{"type":"Point","coordinates":[-114.870684723019,42.8226686495563]}},{"properties":{"City":"Rupert","Zip":83550,"X":2542349.16876477,"Park_Unit":"Lake Walcott State Park","Y":1275073.17138379,"Park_Name":"Lake Walcott State Park","Id":0,"State":"ID","id":"adck8hdi9crr","Address":"959 East Minidoka Dam"},"type":"Feature","geometry":{"type":"Point","coordinates":[-113.483148216885,42.6749531051895]}},{"properties":{"City":"Almo","Zip":83312,"X":2528961.66934568,"Park_Unit":"Castle Rocks State Park","Y":1211883.46011176,"Park_Name":"Castle Rocks State Park","Id":0,"State":"ID","id":"adck8h4irysd","Address":"Big Cove Ranch RD"},"type":"Feature","geometry":{"type":"Point","coordinates":[-113.65888805082,42.1258244070473]}},{"properties":{"City":"Almo","Zip":83312,"X":2530345.95273748,"Park_Unit":"City of Rocks National Reserve","Y":1209904.73314831,"Park_Name":"City of Rocks National Reserve","Id":0,"State":"ID","id":"adck8hcj5rh3","Address":"3035 Elba Almo RD"},"type":"Feature","geometry":{"type":"Point","coordinates":[-113.633071663872,42.0886213398857]}},{"properties":{"City":"American Falls","Zip":83221,"X":2582389.05543709,"Park_Unit":"Massacre Rocks State Park","Y":1274901.0148841,"Park_Name":"Massacre Rocks State Park","Id":0,"State":"ID","id":"adck8hkn8qwk","Address":"3592 Park Lane"},"type":"Feature","geometry":{"type":"Point","coordinates":[-112.994560624564,42.6701561318726]}},{"properties":{"City":null,"Zip":83254,"X":2726141.56021198,"Park_Unit":"North Beach Day Use Area","Y":1215728.04286051,"Park_Name":"Bear Lake State Park","Id":0,"State":"ID","id":"adck8h4tvmed","Address":"Beach Rd"},"type":"Feature","geometry":{"type":"Point","coordinates":[-111.26483445829,42.1090442417159]}},{"properties":{"City":"St. Charles","Zip":83272,"X":2727004.81227405,"Park_Unit":"East Beach","Y":1206886.17762321,"Park_Name":"Bear Lake State Park","Id":0,"State":"ID","id":"adck8hjqswxy","Address":"East Shore Rd"},"type":"Feature","geometry":{"type":"Point","coordinates":[-111.257833218374,42.0292516934059]}},{"properties":{"City":"Ashton","Zip":83420,"X":2713539.97303757,"Park_Unit":"Mesa Falls Intrepretative Center","Y":1446464.06596763,"Park_Name":"Mesa Falls Intrepretative Center","Id":0,"State":"ID","id":"adck8hhzd8y2","Address":"Upper Mesa Falls Rd"},"type":"Feature","geometry":{"type":"Point","coordinates":[-111.328118609086,44.1881315984163]}},{"properties":{"City":"Island Park","Zip":83429,"X":2702452.51875379,"Park_Unit":"Harriman State Park","Y":1461034.65756348,"Park_Name":"Harriman State Park","Id":0,"State":"ID","id":"adck8hhatk55","Address":"3489 Green Canyon Rd"},"type":"Feature","geometry":{"type":"Point","coordinates":[-111.461073809356,44.3223429295875]}},{"properties":{"City":"Challis","Zip":83226,"X":2483265.27852519,"Park_Unit":"Land of Yankee Fork","Y":1474935.26713405,"Park_Name":"Land of Yankee Fork","Id":0,"State":"ID","id":"adck8hbbrrta","Address":"US Highway 93 &amp; State Highway 75"},"type":"Feature","geometry":{"type":"Point","coordinates":[-114.210417562349,44.4755196070866]}},{"properties":{"City":"Island Park","Zip":83429,"X":2705823.93944943,"Park_Unit":"Henrys Lake State Park","Y":1492554.17228199,"Park_Name":"Henrys Lake State Park","Id":0,"State":"ID","id":"adck8h8z5d76","Address":"3917 E. 5100 N."},"type":"Feature","geometry":{"type":"Point","coordinates":[-111.367526199069,44.6181986053908]}},{"properties":{"City":"Hagerman","Zip":83332,"X":0.0,"Park_Unit":"Ritter Island State Park","Y":0.0,"Park_Name":"Ritter Island State Park","Id":0,"State":"ID","id":"adck8hi6d0am","Address":"Thousand Springs Grade"},"type":"Feature","geometry":{"type":"Point","coordinates":[-114.842137389641,42.7423031612686]}},{"properties":{"City":"Bayhorse","Zip":83226,"X":0.0,"Park_Unit":"Land of Yankee Fork","Y":0.0,"Park_Name":"Bayhorse State Park","Id":0,"State":"ID","id":"adck8hfewt3x","Address":"Bayhorse"},"type":"Feature","geometry":{"type":"Point","coordinates":[-114.318512921612,44.3987521317309]}},{"properties":{"City":"Custer","Zip":83226,"X":0.0,"Park_Unit":"Custer","Y":0.0,"Park_Name":"Land of the Yankee Fork","Id":0,"State":"ID","id":"adck8hd9dkmo","Address":"Custer"},"type":"Feature","geometry":{"type":"Point","coordinates":[-114.698204188419,44.3872433981043]}},{"properties":{"City":"Coeur d' Alene","Zip":83815,"X":0.0,"Park_Unit":"North Region Office","Y":0.0,"Park_Name":"North Region","Id":0,"State":"ID","id":"adck8hggb788","Address":"2885 Kathleen Ave."},"type":"Feature","geometry":{"type":"Point","coordinates":[-116.825322012913,47.7211068027873]}},{"properties":{"City":null,"Zip":0,"X":0.0,"Park_Unit":"Nesbitt","Y":0.0,"Park_Name":"Enid Nesbitt Memorial State Park","Id":0,"State":null,"id":"adck8hi4wru5","Address":null},"type":"Feature","geometry":{"type":"Point","coordinates":[-116.431403328,48.2537023680798]}}],"is_temporal":false,"author":{"url":"","metadata":"","contact_name":"Jeff Cook","contact_address":"P.O. Box 83720, Boise, ID, 83720-0065","source":"Idaho Deparment of Parks and Recreation","contact_phone":"(208) 334-4199"},"source":"","pagination":{"sort":null,"start":0,"total":56,"limit":1000000},"state":"complete","tags":"","published":"2006-03-15T17:00:00Z","id":340597}