{"type":"FeatureCollection","data_type":"Dataset","url_type":null,"permissions":[{"permissions":{"download":true,"view":true},"group_id":"everyone"}],"classification":null,"title":"serotype1","count":115,"stream_id":340616,"contributor":{"url":"http://geocommons.com/users/66881","name":"twliska"},"data_attributes":null,"calculation_params":null,"icon_link":null,"link":"http://geocommons.com/overlays/340616.json","extent":[-111.806,0.0,0.0,45.6131],"geometry_types":["point"],"unique_name":null,"name":"serotype1","feature_count":115,"description":"","next_feature":null,"is_raster":false,"short_classification":"Y","stats":{"s2v":{"max":16,"variance":8.06285278413425,"mean":2.18260869565217,"stdev":2.83951629404275,"min":0,"median":1},"field1":{"max":115,"variance":1111.66666666667,"mean":58.0,"stdev":33.3416656252603,"min":1,"median":58},"s1v":{"max":6,"variance":1.8372234935164,"mean":0.669565217391304,"stdev":1.35544217638245,"min":0,"median":0},"dsv":{"max":2,"variance":0.0976353928299008,"mean":0.0869565217391304,"stdev":0.312466626745803,"min":0,"median":0},"s6v":{"max":19,"variance":5.07124332570557,"mean":0.773913043478261,"stdev":2.25194212308078,"min":0,"median":0},"lat":{"max":45.6130541,"variance":82.1364125950878,"mean":30.4042048834783,"stdev":9.06291413371482,"min":0.0,"median":31.3295205},"long":{"max":0.0,"variance":627.945435071048,"mean":-89.3641215313043,"stdev":25.0588394597804,"min":-111.8064345,"median":-96.7081633}},"features":[{"properties":{"field1":1,"s2v":2,"zip":"25305","s1v":0,"zipcode":"25305","dsv":0,"zips":"25305","s6v":0,"field8":null,"id":"adckfuo0dmx7","lat":38.3376291,"long":-81.6127421},"type":"Feature","geometry":{"type":"Point","coordinates":[-81.6127421,38.3376291]}},{"properties":{"field1":2,"s2v":0,"zip":"32303","s1v":0,"zipcode":"32303","dsv":0,"zips":"32303","s6v":3,"field8":null,"id":"adckfuzyp3kh","lat":30.5155165,"long":-84.3416293},"type":"Feature","geometry":{"type":"Point","coordinates":[-84.3416293,30.5155165]}},{"properties":{"field1":3,"s2v":0,"zip":"32351","s1v":0,"zipcode":"32351","dsv":0,"zips":"32351","s6v":1,"field8":null,"id":"adckfuo330o4","lat":30.5203919,"long":-84.6750226},"type":"Feature","geometry":{"type":"Point","coordinates":[-84.6750226,30.5203919]}},{"properties":{"field1":4,"s2v":2,"zip":"32533","s1v":0,"zipcode":"32533","dsv":0,"zips":"32533","s6v":0,"field8":null,"id":"adckfuso8h4s","lat":30.6105059,"long":-87.3267825},"type":"Feature","geometry":{"type":"Point","coordinates":[-87.3267825,30.6105059]}},{"properties":{"field1":5,"s2v":2,"zip":"32615","s1v":0,"zipcode":"32615","dsv":0,"zips":"32615","s6v":0,"field8":null,"id":"adckfv0tkf5h","lat":29.8190938,"long":-82.486085},"type":"Feature","geometry":{"type":"Point","coordinates":[-82.486085,29.8190938]}},{"properties":{"field1":6,"s2v":2,"zip":"32680","s1v":0,"zipcode":"32680","dsv":0,"zips":"32680","s6v":0,"field8":null,"id":"adckfuxsbjdv","lat":29.5425617,"long":-83.1323099},"type":"Feature","geometry":{"type":"Point","coordinates":[-83.1323099,29.5425617]}},{"properties":{"field1":7,"s2v":0,"zip":"32696","s1v":2,"zipcode":"32696","dsv":0,"zips":"32696","s6v":0,"field8":null,"id":"adckfv2n283w","lat":29.397511,"long":-82.4618184},"type":"Feature","geometry":{"type":"Point","coordinates":[-82.4618184,29.397511]}},{"properties":{"field1":8,"s2v":1,"zip":"34450","s1v":0,"zipcode":"34450","dsv":0,"zips":"34450","s6v":0,"field8":null,"id":"adckfv0n9uum","lat":28.8303948,"long":-82.2676838},"type":"Feature","geometry":{"type":"Point","coordinates":[-82.2676838,28.8303948]}},{"properties":{"field1":9,"s2v":0,"zip":"34601","s1v":0,"zipcode":"34601","dsv":0,"zips":"34601","s6v":1,"field8":null,"id":"adckfuztkacq","lat":28.5886442,"long":-82.3510978},"type":"Feature","geometry":{"type":"Point","coordinates":[-82.3510978,28.5886442]}},{"properties":{"field1":10,"s2v":0,"zip":"36037","s1v":0,"zipcode":"36037","dsv":0,"zips":"36037","s6v":1,"field8":null,"id":"adckfuwuaqka","lat":31.7990087,"long":-86.6286153},"type":"Feature","geometry":{"type":"Point","coordinates":[-86.6286153,31.7990087]}},{"properties":{"field1":11,"s2v":1,"zip":"39762","s1v":0,"zipcode":"39762","dsv":0,"zips":"39762","s6v":0,"field8":null,"id":"adckfuvz59so","lat":33.4527794,"long":-88.7952201},"type":"Feature","geometry":{"type":"Point","coordinates":[-88.7952201,33.4527794]}},{"properties":{"field1":12,"s2v":1,"zip":"0","s1v":0,"zipcode":"57503","dsv":0,"zips":"57503","s6v":0,"field8":null,"id":"adckfuudsnt1","lat":0.0,"long":0.0},"type":"Feature","geometry":{"type":"Point","coordinates":[0.0,0.0]}},{"properties":{"field1":13,"s2v":1,"zip":"59101","s1v":0,"zipcode":"59101","dsv":0,"zips":"59101","s6v":0,"field8":null,"id":"adckfupic8q9","lat":45.6130541,"long":-108.3903047},"type":"Feature","geometry":{"type":"Point","coordinates":[-108.3903047,45.6130541]}},{"properties":{"field1":14,"s2v":0,"zip":"61802","s1v":0,"zipcode":"61802","dsv":0,"zips":"61802","s6v":3,"field8":null,"id":"adckfusx1ms3","lat":40.1314982,"long":-88.1567696},"type":"Feature","geometry":{"type":"Point","coordinates":[-88.1567696,40.1314982]}},{"properties":{"field1":15,"s2v":1,"zip":"63435","s1v":0,"zipcode":"63435","dsv":0,"zips":"63435","s6v":0,"field8":null,"id":"adckfv0w8ajc","lat":40.1991367,"long":-91.58368},"type":"Feature","geometry":{"type":"Point","coordinates":[-91.58368,40.1991367]}},{"properties":{"field1":16,"s2v":4,"zip":"64402","s1v":0,"zipcode":"64402","dsv":0,"zips":"64402","s6v":1,"field8":null,"id":"adckfuo0hp8u","lat":40.257169,"long":-94.3273285},"type":"Feature","geometry":{"type":"Point","coordinates":[-94.3273285,40.257169]}},{"properties":{"field1":17,"s2v":2,"zip":"65017","s1v":0,"zipcode":"65017","dsv":0,"zips":"65017","s6v":0,"field8":null,"id":"adckfuv472n7","lat":38.0923068,"long":-92.4945033},"type":"Feature","geometry":{"type":"Point","coordinates":[-92.4945033,38.0923068]}},{"properties":{"field1":18,"s2v":2,"zip":"65026","s1v":0,"zipcode":"65026","dsv":0,"zips":"65026","s6v":0,"field8":null,"id":"adckfusfxhjo","lat":38.3243614,"long":-92.564791},"type":"Feature","geometry":{"type":"Point","coordinates":[-92.564791,38.3243614]}},{"properties":{"field1":19,"s2v":1,"zip":"65059","s1v":0,"zipcode":"65059","dsv":0,"zips":"65059","s6v":1,"field8":null,"id":"adckfux7f71z","lat":38.7006608,"long":-91.867637},"type":"Feature","geometry":{"type":"Point","coordinates":[-91.867637,38.7006608]}},{"properties":{"field1":20,"s2v":2,"zip":"65084","s1v":0,"zipcode":"65084","dsv":0,"zips":"65084","s6v":0,"field8":null,"id":"adckfuuhretw","lat":38.4342395,"long":-92.8561278},"type":"Feature","geometry":{"type":"Point","coordinates":[-92.8561278,38.4342395]}},{"properties":{"field1":21,"s2v":1,"zip":"65613","s1v":0,"zipcode":"65613","dsv":0,"zips":"65613","s6v":0,"field8":null,"id":"adckfv2fcbbe","lat":37.6369016,"long":-93.3964269},"type":"Feature","geometry":{"type":"Point","coordinates":[-93.3964269,37.6369016]}},{"properties":{"field1":22,"s2v":1,"zip":"65706","s1v":0,"zipcode":"65706","dsv":0,"zips":"65706","s6v":0,"field8":null,"id":"adckfusuln80","lat":37.3228201,"long":-92.8986348},"type":"Feature","geometry":{"type":"Point","coordinates":[-92.8986348,37.3228201]}},{"properties":{"field1":23,"s2v":1,"zip":"65757","s1v":0,"zipcode":"65757","dsv":0,"zips":"65757","s6v":0,"field8":null,"id":"adckfut48hjj","lat":37.2828477,"long":-93.0989402},"type":"Feature","geometry":{"type":"Point","coordinates":[-93.0989402,37.2828477]}},{"properties":{"field1":24,"s2v":2,"zip":"66436","s1v":0,"zipcode":"66436","dsv":0,"zips":"66436","s6v":0,"field8":null,"id":"adckfv1di58a","lat":39.4678814,"long":-95.6982762},"type":"Feature","geometry":{"type":"Point","coordinates":[-95.6982762,39.4678814]}},{"properties":{"field1":25,"s2v":3,"zip":"66506","s1v":1,"zipcode":"66506","dsv":0,"zips":"66506","s6v":0,"field8":null,"id":"adckfv1dye3k","lat":39.1958595,"long":-96.5815713},"type":"Feature","geometry":{"type":"Point","coordinates":[-96.5815713,39.1958595]}},{"properties":{"field1":26,"s2v":1,"zip":"67042","s1v":0,"zipcode":"67042","dsv":0,"zips":"67042","s6v":0,"field8":null,"id":"adckfur31lfw","lat":37.8572635,"long":-96.780718},"type":"Feature","geometry":{"type":"Point","coordinates":[-96.780718,37.8572635]}},{"properties":{"field1":27,"s2v":1,"zip":"67212","s1v":0,"zipcode":"67212","dsv":0,"zips":"67212","s6v":0,"field8":null,"id":"adckfutm1j4d","lat":37.7024038,"long":-97.4388985},"type":"Feature","geometry":{"type":"Point","coordinates":[-97.4388985,37.7024038]}},{"properties":{"field1":28,"s2v":16,"zip":"69001","s1v":1,"zipcode":"69001","dsv":0,"zips":"69001","s6v":0,"field8":null,"id":"adckfuxsvna7","lat":40.246709,"long":-100.6439421},"type":"Feature","geometry":{"type":"Point","coordinates":[-100.6439421,40.246709]}},{"properties":{"field1":29,"s2v":1,"zip":"70607","s1v":0,"zipcode":"70607","dsv":0,"zips":"70607","s6v":0,"field8":null,"id":"adckfusg1avp","lat":30.0384253,"long":-93.190125},"type":"Feature","geometry":{"type":"Point","coordinates":[-93.190125,30.0384253]}},{"properties":{"field1":30,"s2v":0,"zip":"70791","s1v":6,"zipcode":"70791","dsv":0,"zips":"70791","s6v":10,"field8":null,"id":"adckfunz4n7q","lat":30.651982,"long":-91.1544402},"type":"Feature","geometry":{"type":"Point","coordinates":[-91.1544402,30.651982]}},{"properties":{"field1":31,"s2v":4,"zip":"71075","s1v":0,"zipcode":"71075","dsv":0,"zips":"71075","s6v":0,"field8":null,"id":"adckfv25zncn","lat":32.9949473,"long":-93.5091767},"type":"Feature","geometry":{"type":"Point","coordinates":[-93.5091767,32.9949473]}},{"properties":{"field1":32,"s2v":10,"zip":"71291","s1v":0,"zipcode":"71291","dsv":0,"zips":"71291","s6v":0,"field8":null,"id":"adckfv0uu3oy","lat":32.5656639,"long":-92.1729259},"type":"Feature","geometry":{"type":"Point","coordinates":[-92.1729259,32.5656639]}},{"properties":{"field1":33,"s2v":1,"zip":"71295","s1v":3,"zipcode":"71295","dsv":0,"zips":"71295","s6v":0,"field8":null,"id":"adckfunkr3ek","lat":32.148625,"long":-91.7072923},"type":"Feature","geometry":{"type":"Point","coordinates":[-91.7072923,32.148625]}},{"properties":{"field1":34,"s2v":1,"zip":"73570","s1v":0,"zipcode":"73570","dsv":0,"zips":"73570","s6v":0,"field8":null,"id":"adckfup20ih1","lat":34.5146304,"long":-99.1147717},"type":"Feature","geometry":{"type":"Point","coordinates":[-99.1147717,34.5146304]}},{"properties":{"field1":35,"s2v":1,"zip":"73644","s1v":0,"zipcode":"73644","dsv":0,"zips":"73644","s6v":0,"field8":null,"id":"adckfv2nj726","lat":35.4195936,"long":-99.4377906},"type":"Feature","geometry":{"type":"Point","coordinates":[-99.4377906,35.4195936]}},{"properties":{"field1":36,"s2v":1,"zip":"74045","s1v":0,"zipcode":"74045","dsv":1,"zips":"74045","s6v":0,"field8":null,"id":"adckfuv7zhqm","lat":36.2211283,"long":-96.7081633},"type":"Feature","geometry":{"type":"Point","coordinates":[-96.7081633,36.2211283]}},{"properties":{"field1":37,"s2v":1,"zip":"75070","s1v":0,"zipcode":"75070","dsv":0,"zips":"75070","s6v":1,"field8":null,"id":"adckfutgia1m","lat":33.1720334,"long":-96.6962702},"type":"Feature","geometry":{"type":"Point","coordinates":[-96.6962702,33.1720334]}},{"properties":{"field1":38,"s2v":0,"zip":"75103","s1v":1,"zipcode":"75103","dsv":0,"zips":"75103","s6v":0,"field8":null,"id":"adckfutubypy","lat":32.5181456,"long":-95.8888648},"type":"Feature","geometry":{"type":"Point","coordinates":[-95.8888648,32.5181456]}},{"properties":{"field1":39,"s2v":1,"zip":"75160","s1v":2,"zipcode":"75160","dsv":0,"zips":"75160","s6v":0,"field8":null,"id":"adckfuqykyr1","lat":32.758408,"long":-96.3013232},"type":"Feature","geometry":{"type":"Point","coordinates":[-96.3013232,32.758408]}},{"properties":{"field1":40,"s2v":2,"zip":"75482","s1v":0,"zipcode":"75482","dsv":0,"zips":"75482","s6v":0,"field8":null,"id":"adckfuveg2cp","lat":33.1679794,"long":-95.6082193},"type":"Feature","geometry":{"type":"Point","coordinates":[-95.6082193,33.1679794]}},{"properties":{"field1":41,"s2v":1,"zip":"75647","s1v":0,"zipcode":"75647","dsv":0,"zips":"75647","s6v":0,"field8":null,"id":"adckfv2lb1cb","lat":32.514636,"long":-94.9532657},"type":"Feature","geometry":{"type":"Point","coordinates":[-94.9532657,32.514636]}},{"properties":{"field1":42,"s2v":10,"zip":"75751","s1v":0,"zipcode":"75751","dsv":0,"zips":"75751","s6v":2,"field8":null,"id":"adckfv2hmjld","lat":32.0943482,"long":-95.9060473},"type":"Feature","geometry":{"type":"Point","coordinates":[-95.9060473,32.0943482]}},{"properties":{"field1":43,"s2v":1,"zip":"75831","s1v":0,"zipcode":"75831","dsv":0,"zips":"75831","s6v":0,"field8":null,"id":"adckfuvr3qav","lat":31.4737276,"long":-96.0091749},"type":"Feature","geometry":{"type":"Point","coordinates":[-96.0091749,31.4737276]}},{"properties":{"field1":44,"s2v":1,"zip":"75846","s1v":0,"zipcode":"75846","dsv":0,"zips":"75846","s6v":0,"field8":null,"id":"adckfv1v4n7y","lat":31.3295205,"long":-96.1527782},"type":"Feature","geometry":{"type":"Point","coordinates":[-96.1527782,31.3295205]}},{"properties":{"field1":45,"s2v":0,"zip":"0","s1v":0,"zipcode":"75963","dsv":0,"zips":"75963","s6v":1,"field8":null,"id":"adckfupv655e","lat":0.0,"long":0.0},"type":"Feature","geometry":{"type":"Point","coordinates":[0.0,0.0]}},{"properties":{"field1":46,"s2v":1,"zip":"76009","s1v":0,"zipcode":"76009","dsv":0,"zips":"76009","s6v":0,"field8":null,"id":"adckfv07z71z","lat":32.4149439,"long":-97.1963674},"type":"Feature","geometry":{"type":"Point","coordinates":[-97.1963674,32.4149439]}},{"properties":{"field1":47,"s2v":4,"zip":"76066","s1v":2,"zipcode":"76066","dsv":0,"zips":"76066","s6v":0,"field8":null,"id":"adckfv26uh59","lat":32.7044558,"long":-97.9931485},"type":"Feature","geometry":{"type":"Point","coordinates":[-97.9931485,32.7044558]}},{"properties":{"field1":48,"s2v":1,"zip":"76107","s1v":0,"zipcode":"76107","dsv":0,"zips":"76107","s6v":0,"field8":null,"id":"adckfuqiove9","lat":32.7420578,"long":-97.38173},"type":"Feature","geometry":{"type":"Point","coordinates":[-97.38173,32.7420578]}},{"properties":{"field1":49,"s2v":11,"zip":"76179","s1v":3,"zipcode":"76179","dsv":0,"zips":"76179","s6v":0,"field8":null,"id":"adckfuqmf16q","lat":32.9135217,"long":-97.4338354},"type":"Feature","geometry":{"type":"Point","coordinates":[-97.4338354,32.9135217]}},{"properties":{"field1":50,"s2v":7,"zip":"76234","s1v":6,"zipcode":"76234","dsv":0,"zips":"76234","s6v":1,"field8":null,"id":"adckfuw713z4","lat":33.2763185,"long":-97.5141785},"type":"Feature","geometry":{"type":"Point","coordinates":[-97.5141785,33.2763185]}},{"properties":{"field1":51,"s2v":0,"zip":"76240","s1v":0,"zipcode":"76240","dsv":0,"zips":"76240","s6v":1,"field8":null,"id":"adckfutzydof","lat":33.6615833,"long":-97.1763497},"type":"Feature","geometry":{"type":"Point","coordinates":[-97.1763497,33.6615833]}},{"properties":{"field1":52,"s2v":0,"zip":"76374","s1v":1,"zipcode":"76374","dsv":0,"zips":"76374","s6v":0,"field8":null,"id":"adckfuuwhb4i","lat":33.3586565,"long":-98.7400556},"type":"Feature","geometry":{"type":"Point","coordinates":[-98.7400556,33.3586565]}},{"properties":{"field1":53,"s2v":0,"zip":"76401","s1v":1,"zipcode":"76401","dsv":0,"zips":"76401","s6v":0,"field8":null,"id":"adckfuuc2afz","lat":32.2822351,"long":-98.1967174},"type":"Feature","geometry":{"type":"Point","coordinates":[-98.1967174,32.2822351]}},{"properties":{"field1":54,"s2v":0,"zip":"76424","s1v":1,"zipcode":"76424","dsv":0,"zips":"76424","s6v":0,"field8":null,"id":"adckfuujp4qy","lat":32.8042717,"long":-98.8924664},"type":"Feature","geometry":{"type":"Point","coordinates":[-98.8924664,32.8042717]}},{"properties":{"field1":55,"s2v":1,"zip":"76437","s1v":0,"zipcode":"76437","dsv":0,"zips":"76437","s6v":1,"field8":null,"id":"adckfutnme7d","lat":32.401501,"long":-99.0351947},"type":"Feature","geometry":{"type":"Point","coordinates":[-99.0351947,32.401501]}},{"properties":{"field1":56,"s2v":1,"zip":"76455","s1v":0,"zipcode":"76455","dsv":0,"zips":"76455","s6v":0,"field8":null,"id":"adckfuzv29m1","lat":31.8133321,"long":-98.384478},"type":"Feature","geometry":{"type":"Point","coordinates":[-98.384478,31.8133321]}},{"properties":{"field1":57,"s2v":4,"zip":"76457","s1v":0,"zipcode":"76457","dsv":0,"zips":"76457","s6v":0,"field8":null,"id":"adckfv20gqtb","lat":31.9446624,"long":-98.0279721},"type":"Feature","geometry":{"type":"Point","coordinates":[-98.0279721,31.9446624]}},{"properties":{"field1":58,"s2v":3,"zip":"76528","s1v":1,"zipcode":"76528","dsv":0,"zips":"76528","s6v":1,"field8":null,"id":"adckfuvbuwsr","lat":31.4172557,"long":-97.7556038},"type":"Feature","geometry":{"type":"Point","coordinates":[-97.7556038,31.4172557]}},{"properties":{"field1":59,"s2v":5,"zip":"76542","s1v":1,"zipcode":"76542","dsv":1,"zips":"76542","s6v":2,"field8":null,"id":"adckfuwy7p4e","lat":31.0096405,"long":-97.7464174},"type":"Feature","geometry":{"type":"Point","coordinates":[-97.7464174,31.0096405]}},{"properties":{"field1":60,"s2v":0,"zip":"76556","s1v":1,"zipcode":"76556","dsv":0,"zips":"76556","s6v":0,"field8":null,"id":"adckfutg88b9","lat":30.7003846,"long":-96.8305497},"type":"Feature","geometry":{"type":"Point","coordinates":[-96.8305497,30.7003846]}},{"properties":{"field1":61,"s2v":1,"zip":"76574","s1v":0,"zipcode":"76574","dsv":0,"zips":"76574","s6v":0,"field8":null,"id":"adckfur0u65c","lat":30.579327,"long":-97.3886221},"type":"Feature","geometry":{"type":"Point","coordinates":[-97.3886221,30.579327]}},{"properties":{"field1":62,"s2v":8,"zip":"76665","s1v":0,"zipcode":"76665","dsv":0,"zips":"76665","s6v":1,"field8":null,"id":"adckfuru2jh9","lat":31.9162153,"long":-97.7101226},"type":"Feature","geometry":{"type":"Point","coordinates":[-97.7101226,31.9162153]}},{"properties":{"field1":63,"s2v":0,"zip":"76832","s1v":0,"zipcode":"76832","dsv":0,"zips":"76832","s6v":1,"field8":null,"id":"adckfup04m36","lat":30.9857767,"long":-98.7355347},"type":"Feature","geometry":{"type":"Point","coordinates":[-98.7355347,30.9857767]}},{"properties":{"field1":64,"s2v":3,"zip":"76834","s1v":0,"zipcode":"76834","dsv":0,"zips":"76834","s6v":1,"field8":null,"id":"adckfv0k4pox","lat":31.8813348,"long":-99.4811642},"type":"Feature","geometry":{"type":"Point","coordinates":[-99.4811642,31.8813348]}},{"properties":{"field1":65,"s2v":0,"zip":"76856","s1v":0,"zipcode":"76856","dsv":0,"zips":"76856","s6v":1,"field8":null,"id":"adckfv0ii4dk","lat":30.6908899,"long":-99.2762385},"type":"Feature","geometry":{"type":"Point","coordinates":[-99.2762385,30.6908899]}},{"properties":{"field1":66,"s2v":1,"zip":"76859","s1v":0,"zipcode":"76859","dsv":0,"zips":"76859","s6v":0,"field8":null,"id":"adckfupvdtq9","lat":30.8837069,"long":-99.8549364},"type":"Feature","geometry":{"type":"Point","coordinates":[-99.8549364,30.8837069]}},{"properties":{"field1":67,"s2v":10,"zip":"76903","s1v":4,"zipcode":"76903","dsv":0,"zips":"76903","s6v":3,"field8":null,"id":"adckfup6bb6q","lat":31.4848193,"long":-100.4378699},"type":"Feature","geometry":{"type":"Point","coordinates":[-100.4378699,31.4848193]}},{"properties":{"field1":68,"s2v":1,"zip":"76950","s1v":0,"zipcode":"76950","dsv":0,"zips":"76950","s6v":0,"field8":null,"id":"adckfv15vh86","lat":30.441414,"long":-100.5606199},"type":"Feature","geometry":{"type":"Point","coordinates":[-100.5606199,30.441414]}},{"properties":{"field1":69,"s2v":1,"zip":"77066","s1v":0,"zipcode":"77066","dsv":0,"zips":"77066","s6v":0,"field8":null,"id":"adckfuy9tw7q","lat":29.9572335,"long":-95.5032578},"type":"Feature","geometry":{"type":"Point","coordinates":[-95.5032578,29.9572335]}},{"properties":{"field1":70,"s2v":1,"zip":"77085","s1v":0,"zipcode":"77085","dsv":0,"zips":"77085","s6v":0,"field8":null,"id":"adckfuudb8bz","lat":29.6207355,"long":-95.4861501},"type":"Feature","geometry":{"type":"Point","coordinates":[-95.4861501,29.6207355]}},{"properties":{"field1":71,"s2v":0,"zip":"77327","s1v":0,"zipcode":"77327","dsv":1,"zips":"77327","s6v":0,"field8":null,"id":"adckfv38o9jr","lat":30.3175691,"long":-94.9176692},"type":"Feature","geometry":{"type":"Point","coordinates":[-94.9176692,30.3175691]}},{"properties":{"field1":72,"s2v":4,"zip":"77445","s1v":0,"zipcode":"77445","dsv":0,"zips":"77445","s6v":0,"field8":null,"id":"adckfuz6j1x7","lat":30.0999308,"long":-96.0655537},"type":"Feature","geometry":{"type":"Point","coordinates":[-96.0655537,30.0999308]}},{"properties":{"field1":73,"s2v":1,"zip":"77450","s1v":0,"zipcode":"77450","dsv":0,"zips":"77450","s6v":0,"field8":null,"id":"adckfv1hc5lq","lat":29.7456808,"long":-95.7421433},"type":"Feature","geometry":{"type":"Point","coordinates":[-95.7421433,29.7456808]}},{"properties":{"field1":74,"s2v":2,"zip":"77488","s1v":0,"zipcode":"77488","dsv":0,"zips":"77488","s6v":0,"field8":null,"id":"adckfv1jtx60","lat":29.3072153,"long":-96.0912906},"type":"Feature","geometry":{"type":"Point","coordinates":[-96.0912906,29.3072153]}},{"properties":{"field1":75,"s2v":1,"zip":"77656","s1v":0,"zipcode":"77656","dsv":0,"zips":"77656","s6v":0,"field8":null,"id":"adckfv2dx1gl","lat":30.4147736,"long":-94.1736561},"type":"Feature","geometry":{"type":"Point","coordinates":[-94.1736561,30.4147736]}},{"properties":{"field1":76,"s2v":0,"zip":"77802","s1v":0,"zipcode":"77802","dsv":1,"zips":"77802","s6v":0,"field8":null,"id":"adckfux1cakf","lat":30.6612518,"long":-96.322612},"type":"Feature","geometry":{"type":"Point","coordinates":[-96.322612,30.6612518]}},{"properties":{"field1":77,"s2v":7,"zip":"77833","s1v":5,"zipcode":"77833","dsv":0,"zips":"77833","s6v":1,"field8":null,"id":"adckfuukrntt","lat":30.2150752,"long":-96.4102717},"type":"Feature","geometry":{"type":"Point","coordinates":[-96.4102717,30.2150752]}},{"properties":{"field1":78,"s2v":6,"zip":"0","s1v":1,"zipcode":"77841","dsv":0,"zips":"77841","s6v":1,"field8":null,"id":"adckfuuvc7sh","lat":0.0,"long":0.0},"type":"Feature","geometry":{"type":"Point","coordinates":[0.0,0.0]}},{"properties":{"field1":79,"s2v":2,"zip":"0","s1v":0,"zipcode":"77843","dsv":0,"zips":"77843","s6v":0,"field8":null,"id":"adckfv1be41n","lat":0.0,"long":0.0},"type":"Feature","geometry":{"type":"Point","coordinates":[0.0,0.0]}},{"properties":{"field1":80,"s2v":1,"zip":"77845","s1v":0,"zipcode":"77845","dsv":0,"zips":"77845","s6v":0,"field8":null,"id":"adckfuomcfsw","lat":30.5613848,"long":-96.2725828},"type":"Feature","geometry":{"type":"Point","coordinates":[-96.2725828,30.5613848]}},{"properties":{"field1":81,"s2v":4,"zip":"77868","s1v":0,"zipcode":"77868","dsv":0,"zips":"77868","s6v":2,"field8":null,"id":"adckfuvqqd3y","lat":30.3692938,"long":-96.054766},"type":"Feature","geometry":{"type":"Point","coordinates":[-96.054766,30.3692938]}},{"properties":{"field1":82,"s2v":4,"zip":"77879","s1v":3,"zipcode":"77879","dsv":0,"zips":"77879","s6v":2,"field8":null,"id":"adckfv22y3zy","lat":30.398612,"long":-96.4978518},"type":"Feature","geometry":{"type":"Point","coordinates":[-96.4978518,30.398612]}},{"properties":{"field1":83,"s2v":0,"zip":"0","s1v":0,"zipcode":"77882","dsv":1,"zips":"77882","s6v":0,"field8":null,"id":"adckfv0aw3ck","lat":0.0,"long":0.0},"type":"Feature","geometry":{"type":"Point","coordinates":[0.0,0.0]}},{"properties":{"field1":84,"s2v":2,"zip":"77954","s1v":1,"zipcode":"77954","dsv":0,"zips":"77954","s6v":0,"field8":null,"id":"adckfupcthmf","lat":29.0970347,"long":-97.2824132},"type":"Feature","geometry":{"type":"Point","coordinates":[-97.2824132,29.0970347]}},{"properties":{"field1":85,"s2v":0,"zip":"77964","s1v":0,"zipcode":"77964","dsv":0,"zips":"77964","s6v":1,"field8":null,"id":"adckfv0ommar","lat":29.3800359,"long":-96.8361887},"type":"Feature","geometry":{"type":"Point","coordinates":[-96.8361887,29.3800359]}},{"properties":{"field1":86,"s2v":2,"zip":"78017","s1v":0,"zipcode":"78017","dsv":0,"zips":"78017","s6v":0,"field8":null,"id":"adckfuzvglzv","lat":28.7033962,"long":-99.1911884},"type":"Feature","geometry":{"type":"Point","coordinates":[-99.1911884,28.7033962]}},{"properties":{"field1":87,"s2v":2,"zip":"78027","s1v":0,"zipcode":"78027","dsv":0,"zips":"78027","s6v":0,"field8":null,"id":"adckfur87kj7","lat":29.9690742,"long":-98.5392092},"type":"Feature","geometry":{"type":"Point","coordinates":[-98.5392092,29.9690742]}},{"properties":{"field1":88,"s2v":0,"zip":"78061","s1v":5,"zipcode":"78061","dsv":0,"zips":"78061","s6v":4,"field8":null,"id":"adckfv3lwcf0","lat":28.8908548,"long":-99.1418292},"type":"Feature","geometry":{"type":"Point","coordinates":[-99.1418292,28.8908548]}},{"properties":{"field1":89,"s2v":6,"zip":"78064","s1v":1,"zipcode":"78064","dsv":0,"zips":"78064","s6v":4,"field8":null,"id":"adckfutd6rvd","lat":28.9357786,"long":-98.4289959},"type":"Feature","geometry":{"type":"Point","coordinates":[-98.4289959,28.9357786]}},{"properties":{"field1":90,"s2v":5,"zip":"78104","s1v":4,"zipcode":"78104","dsv":0,"zips":"78104","s6v":9,"field8":null,"id":"adckfuw4dimy","lat":28.5225411,"long":-97.7619579},"type":"Feature","geometry":{"type":"Point","coordinates":[-97.7619579,28.5225411]}},{"properties":{"field1":91,"s2v":0,"zip":"78119","s1v":0,"zipcode":"78119","dsv":0,"zips":"78119","s6v":1,"field8":null,"id":"adckfuo5ua81","lat":28.7334114,"long":-97.8949579},"type":"Feature","geometry":{"type":"Point","coordinates":[-97.8949579,28.7334114]}},{"properties":{"field1":92,"s2v":1,"zip":"78155","s1v":1,"zipcode":"78155","dsv":1,"zips":"78155","s6v":0,"field8":null,"id":"adckfup6gsnr","lat":29.54277,"long":-97.937078},"type":"Feature","geometry":{"type":"Point","coordinates":[-97.937078,29.54277]}},{"properties":{"field1":93,"s2v":13,"zip":"78355","s1v":5,"zipcode":"78355","dsv":1,"zips":"78355","s6v":19,"field8":null,"id":"adckfuw7fyoj","lat":27.1940741,"long":-98.207295},"type":"Feature","geometry":{"type":"Point","coordinates":[-98.207295,27.1940741]}},{"properties":{"field1":94,"s2v":1,"zip":"78602","s1v":0,"zipcode":"78602","dsv":0,"zips":"78602","s6v":0,"field8":null,"id":"adckfuye5245","lat":30.1238203,"long":-97.3277099},"type":"Feature","geometry":{"type":"Point","coordinates":[-97.3277099,30.1238203]}},{"properties":{"field1":95,"s2v":4,"zip":"78611","s1v":0,"zipcode":"78611","dsv":0,"zips":"78611","s6v":0,"field8":null,"id":"adckfuv2r2n7","lat":30.8007179,"long":-98.2830249},"type":"Feature","geometry":{"type":"Point","coordinates":[-98.2830249,30.8007179]}},{"properties":{"field1":96,"s2v":2,"zip":"78621","s1v":2,"zipcode":"78621","dsv":1,"zips":"78621","s6v":0,"field8":null,"id":"adckfv01349s","lat":30.338584,"long":-97.3612237},"type":"Feature","geometry":{"type":"Point","coordinates":[-97.3612237,30.338584]}},{"properties":{"field1":97,"s2v":2,"zip":"78624","s1v":3,"zipcode":"78624","dsv":0,"zips":"78624","s6v":2,"field8":null,"id":"adckfuwzyauu","lat":30.2809383,"long":-98.8766835},"type":"Feature","geometry":{"type":"Point","coordinates":[-98.8766835,30.2809383]}},{"properties":{"field1":98,"s2v":0,"zip":"78642","s1v":1,"zipcode":"78642","dsv":0,"zips":"78642","s6v":0,"field8":null,"id":"adckfv2e3llg","lat":30.6908798,"long":-97.9414258},"type":"Feature","geometry":{"type":"Point","coordinates":[-97.9414258,30.6908798]}},{"properties":{"field1":99,"s2v":2,"zip":"78659","s1v":0,"zipcode":"78659","dsv":0,"zips":"78659","s6v":0,"field8":null,"id":"adckfv1wefj1","lat":30.2074166,"long":-97.1253892},"type":"Feature","geometry":{"type":"Point","coordinates":[-97.1253892,30.2074166]}},{"properties":{"field1":100,"s2v":4,"zip":"78802","s1v":3,"zipcode":"78802","dsv":2,"zips":"78802","s6v":2,"field8":null,"id":"adckfur6ocnm","lat":29.1510115,"long":-100.01587},"type":"Feature","geometry":{"type":"Point","coordinates":[-100.01587,29.1510115]}},{"properties":{"field1":101,"s2v":0,"zip":"78832","s1v":2,"zipcode":"78832","dsv":0,"zips":"78832","s6v":0,"field8":null,"id":"adckfurgwlzg","lat":29.3956211,"long":-100.4399849},"type":"Feature","geometry":{"type":"Point","coordinates":[-100.4399849,29.3956211]}},{"properties":{"field1":102,"s2v":4,"zip":"78861","s1v":0,"zipcode":"78861","dsv":0,"zips":"78861","s6v":1,"field8":null,"id":"adckfuvbtuu8","lat":29.4273749,"long":-99.141134},"type":"Feature","geometry":{"type":"Point","coordinates":[-99.141134,29.4273749]}},{"properties":{"field1":103,"s2v":1,"zip":"78934","s1v":0,"zipcode":"78934","dsv":0,"zips":"78934","s6v":0,"field8":null,"id":"adckfuqxvggc","lat":29.693447,"long":-96.5574006},"type":"Feature","geometry":{"type":"Point","coordinates":[-96.5574006,29.693447]}},{"properties":{"field1":104,"s2v":2,"zip":"79015","s1v":0,"zipcode":"79015","dsv":0,"zips":"79015","s6v":0,"field8":null,"id":"adckfuxw06ne","lat":34.9374723,"long":-101.9160362},"type":"Feature","geometry":{"type":"Point","coordinates":[-101.9160362,34.9374723]}},{"properties":{"field1":105,"s2v":0,"zip":"0","s1v":1,"zipcode":"79073","dsv":0,"zips":"79073","s6v":0,"field8":null,"id":"adckfurhqb7y","lat":0.0,"long":0.0},"type":"Feature","geometry":{"type":"Point","coordinates":[0.0,0.0]}},{"properties":{"field1":106,"s2v":1,"zip":"79512","s1v":0,"zipcode":"79512","dsv":0,"zips":"79512","s6v":0,"field8":null,"id":"adckfv2t646t","lat":32.3145046,"long":-100.9183563},"type":"Feature","geometry":{"type":"Point","coordinates":[-100.9183563,32.3145046]}},{"properties":{"field1":107,"s2v":0,"zip":"79556","s1v":1,"zipcode":"79556","dsv":0,"zips":"79556","s6v":1,"field8":null,"id":"adckfusdd2lh","lat":32.4587865,"long":-100.357939},"type":"Feature","geometry":{"type":"Point","coordinates":[-100.357939,32.4587865]}},{"properties":{"field1":108,"s2v":1,"zip":"79606","s1v":0,"zipcode":"79606","dsv":0,"zips":"79606","s6v":0,"field8":null,"id":"adckfv3hdb3r","lat":32.3627828,"long":-99.8173143},"type":"Feature","geometry":{"type":"Point","coordinates":[-99.8173143,32.3627828]}},{"properties":{"field1":109,"s2v":1,"zip":"79707","s1v":0,"zipcode":"79707","dsv":0,"zips":"79707","s6v":0,"field8":null,"id":"adckfuvhxkqi","lat":32.053604,"long":-102.2016599},"type":"Feature","geometry":{"type":"Point","coordinates":[-102.2016599,32.053604]}},{"properties":{"field1":110,"s2v":1,"zip":"0","s1v":0,"zipcode":"79832","dsv":0,"zips":"79832","s6v":0,"field8":null,"id":"adckfuqq5xfs","lat":0.0,"long":0.0},"type":"Feature","geometry":{"type":"Point","coordinates":[0.0,0.0]}},{"properties":{"field1":111,"s2v":2,"zip":"80102","s1v":0,"zipcode":"80102","dsv":0,"zips":"80102","s6v":0,"field8":null,"id":"adckfv0psqqv","lat":39.7456052,"long":-104.4429952},"type":"Feature","geometry":{"type":"Point","coordinates":[-104.4429952,39.7456052]}},{"properties":{"field1":112,"s2v":5,"zip":"80526","s1v":0,"zipcode":"80526","dsv":0,"zips":"80526","s6v":1,"field8":null,"id":"adckfuqjpgpt","lat":40.5188357,"long":-105.1432242},"type":"Feature","geometry":{"type":"Point","coordinates":[-105.1432242,40.5188357]}},{"properties":{"field1":113,"s2v":1,"zip":"84341","s1v":0,"zipcode":"84341","dsv":0,"zips":"84341","s6v":0,"field8":null,"id":"adckfv0cpskx","lat":41.7755265,"long":-111.8064345},"type":"Feature","geometry":{"type":"Point","coordinates":[-111.8064345,41.7755265]}},{"properties":{"field1":114,"s2v":2,"zip":"88316","s1v":1,"zipcode":"88316","dsv":0,"zips":"88316","s6v":0,"field8":null,"id":"adckfuz2szgm","lat":33.7976563,"long":-105.3228926},"type":"Feature","geometry":{"type":"Point","coordinates":[-105.3228926,33.7976563]}},{"properties":{"field1":115,"s2v":2,"zip":"0","s1v":0,"zipcode":"95617","dsv":0,"zips":"95617","s6v":0,"field8":null,"id":"adckfuw2475h","lat":0.0,"long":0.0},"type":"Feature","geometry":{"type":"Point","coordinates":[0.0,0.0]}}],"is_temporal":false,"author":{"url":"","metadata":"","contact_name":"","contact_address":"","source":"","contact_phone":""},"source":"","pagination":{"sort":null,"start":0,"total":115,"limit":1000000},"state":"complete","tags":"","published":"2014-08-16T13:43:07-04:00","id":340616}