{"type":"FeatureCollection","data_type":"Dataset","url_type":null,"permissions":[{"permissions":{"download":true,"view":true},"group_id":"everyone"}],"classification":null,"title":"Diversity Index","count":35,"stream_id":340718,"contributor":{"url":"http://geocommons.com/users/68681","name":"michaela2134"},"data_attributes":null,"calculation_params":null,"icon_link":null,"link":"http://geocommons.com/overlays/340718.json","extent":[0.0,0.0,0.0,0.0],"geometry_types":[],"unique_name":null,"name":"Diversity Index","feature_count":35,"description":"","next_feature":null,"is_raster":false,"short_classification":"Y","stats":{"1980":{"max":0.520162012,"variance":0.0172382638504267,"mean":0.317213400828571,"stdev":0.13129456900583,"min":0.112832629,"median":0.323361001},"1970":{"max":0.500997471,"variance":0.0162808669307046,"mean":0.303886695457143,"stdev":0.127596500464177,"min":0.094513669,"median":0.298030987},"1960":{"max":0.499632416,"variance":0.0157182473271525,"mean":0.312853115914286,"stdev":0.125372434478846,"min":0.094203158,"median":0.331336408},"2010":{"max":0.661509924,"variance":0.0182552497750276,"mean":0.425882767342857,"stdev":0.135111989753047,"min":0.157429537,"median":0.425393336},"2000":{"max":0.608080005,"variance":0.0176532978094364,"mean":0.3774836568,"stdev":0.132865713445706,"min":0.140967981,"median":0.376063262},"1990":{"max":0.529780498,"variance":0.0182276993016254,"mean":0.316336114285714,"stdev":0.135009997043276,"min":0.108488436,"median":0.332794851}},"features":[{"properties":{"1980":0.32498362,"1970":0.293370649,"1960":0.286226969,"county":"Alamance","geo_score":0.0,"2010":0.500187011,"2000":0.435641172,"id":"adcma8wzjxjy","1990":0.332794851,"geo_precision":"unmatched","state":"North Carolina"},"type":"Feature","geometry":null},{"properties":{"1980":0.141121731,"1970":0.138492325,"1960":0.127249498,"county":"Alexander","geo_score":0.0,"2010":0.223524624,"2000":0.169913529,"id":"adcma97zl2m8","1990":0.132685042,"geo_precision":"unmatched","state":"North Carolina"},"type":"Feature","geometry":null},{"properties":{"1980":0.511695519,"1970":0.499284753,"1960":0.499632416,"county":"Anson","geo_score":0.0,"2010":0.554899957,"2000":0.523318982,"id":"adcma97tswuj","1990":0.505735545,"geo_precision":"unmatched","state":"North Carolina"},"type":"Feature","geometry":null},{"properties":{"1980":0.258834684,"1970":0.270360311,"1960":0.267401399,"county":"Cabarrus","geo_score":0.0,"2010":0.454787321,"2000":0.328318448,"id":"adcma9bpqvtl","1990":0.245687559,"geo_precision":"unmatched","state":"North Carolina"},"type":"Feature","geometry":null},{"properties":{"1980":0.501384535,"1970":0.499202517,"1960":0.4996306,"county":"Caswell","geo_score":0.0,"2010":0.510906911,"2000":0.499923236,"id":"adcma8yaims4","1990":0.49295557,"geo_precision":"unmatched","state":"North Carolina"},"type":"Feature","geometry":null},{"properties":{"1980":0.184931016,"1970":0.160079225,"1960":0.168904154,"county":"Catawba","geo_score":0.0,"2010":0.376203366,"2000":0.315013078,"id":"adcma9bldo5m","1990":0.193551762,"geo_precision":"unmatched","state":"North Carolina"},"type":"Feature","geometry":null},{"properties":{"1980":0.407209848,"1970":0.42569624,"1960":0.43104611,"county":"Chatham","geo_score":0.0,"2010":0.459632959,"2000":0.449209972,"id":"adcma95lmwgj","1990":0.380957939,"geo_precision":"unmatched","state":"North Carolina"},"type":"Feature","geometry":null},{"properties":{"1980":0.340623984,"1970":0.326989396,"1960":0.347831075,"county":"Cleveland","geo_score":0.0,"2010":0.405531865,"2000":0.376063262,"id":"adcma942qj1y","1990":0.346517487,"geo_precision":"unmatched","state":"North Carolina"},"type":"Feature","geometry":null},{"properties":{"1980":0.195382317,"1970":0.178843655,"1960":0.193957214,"county":"Davidson","geo_score":0.0,"2010":0.316257198,"2000":0.256455346,"id":"adcma95skzqh","1990":0.19573067,"geo_precision":"unmatched","state":"North Carolina"},"type":"Feature","geometry":null},{"properties":{"1980":0.200309,"1970":0.210776057,"1960":0.217042296,"county":"Davie","geo_score":0.0,"2010":0.261368252,"2000":0.210821244,"id":"adcma93wbu85","1990":0.179376431,"geo_precision":"unmatched","state":"North Carolina"},"type":"Feature","geometry":null},{"properties":{"1980":0.483837971,"1970":0.442561346,"1960":0.437387848,"county":"Durham","geo_score":0.0,"2010":0.661509924,"2000":0.608080005,"id":"adcma96t6fh1","1990":0.504724551,"geo_precision":"unmatched","state":"North Carolina"},"type":"Feature","geometry":null},{"properties":{"1980":0.386260124,"1970":0.349554862,"1960":0.36674846,"county":"Forsyth","geo_score":0.0,"2010":0.575100392,"2000":0.495288337,"id":"adcma8wh15gz","1990":0.396989109,"geo_precision":"unmatched","state":"North Carolina"},"type":"Feature","geometry":null},{"properties":{"1980":0.49779545,"1970":0.486787746,"1960":0.495040926,"county":"Franklin","geo_score":0.0,"2010":0.521030106,"2000":0.496621328,"id":"adcma8vtqul8","1990":0.470728544,"geo_precision":"unmatched","state":"North Carolina"},"type":"Feature","geometry":null},{"properties":{"1980":0.232829208,"1970":0.215075318,"1960":0.227600468,"county":"Gaston","geo_score":0.0,"2010":0.398163228,"2000":0.318206062,"id":"adcma8w3o281","1990":0.246478347,"geo_precision":"unmatched","state":"North Carolina"},"type":"Feature","geometry":null},{"properties":{"1980":0.509483318,"1970":0.493334995,"1960":0.49397105,"county":"Granville","geo_score":0.0,"2010":0.556222276,"2000":0.525376473,"id":"adcma960c86u","1990":0.49241143,"geo_precision":"unmatched","state":"North Carolina"},"type":"Feature","geometry":null},{"properties":{"1980":0.398978012,"1970":0.351028792,"1960":0.331336408,"county":"Guilford","geo_score":0.0,"2010":0.59471036,"2000":0.517742549,"id":"adcma94ef67n","1990":0.421656063,"geo_precision":"unmatched","state":"North Carolina"},"type":"Feature","geometry":null},{"properties":{"1980":0.30178278,"1970":0.285293753,"1960":0.292746994,"county":"Iredell","geo_score":0.0,"2010":0.375058448,"2000":0.328467317,"id":"adcma963akpx","1990":0.289799404,"geo_precision":"unmatched","state":"North Carolina"},"type":"Feature","geometry":null},{"properties":{"1980":0.182919245,"1970":0.178518125,"1960":0.214818242,"county":"Lincoln","geo_score":0.0,"2010":0.256461594,"2000":0.241098417,"id":"adcma93cwrds","1990":0.180655404,"geo_precision":"unmatched","state":"North Carolina"},"type":"Feature","geometry":null},{"properties":{"1980":0.42117128,"1970":0.367085209,"1960":0.371440394,"county":"Mecklenburg","geo_score":0.0,"2010":0.635122163,"2000":0.544412818,"id":"adcma8ytvnad","1990":0.43403677,"geo_precision":"unmatched","state":"North Carolina"},"type":"Feature","geometry":null},{"properties":{"1980":0.386329866,"1970":0.376509145,"1960":0.374454663,"county":"Montgomery","geo_score":0.0,"2010":0.531450837,"2000":0.515601163,"id":"adcma9alp0sg","1990":0.43024696,"geo_precision":"unmatched","state":"North Carolina"},"type":"Feature","geometry":null},{"properties":{"1980":0.323361001,"1970":0.298030987,"1960":0.362991688,"county":"Orange","geo_score":0.0,"2010":0.473726422,"2000":0.402264681,"id":"adcma8yaqr46","1990":0.334590833,"geo_precision":"unmatched","state":"North Carolina"},"type":"Feature","geometry":null},{"properties":{"1980":0.449310255,"1970":0.442703458,"1960":0.465130594,"county":"Person","geo_score":0.0,"2010":0.480038722,"2000":0.455921071,"id":"adcma9294kqj","1990":0.440984234,"geo_precision":"unmatched","state":"North Carolina"},"type":"Feature","geometry":null},{"properties":{"1980":0.184763278,"1970":0.217794517,"1960":0.218590873,"county":"Polk","geo_score":0.0,"2010":0.213835389,"2000":0.184460866,"id":"adcma8wym4iu","1990":0.156055804,"geo_precision":"unmatched","state":"North Carolina"},"type":"Feature","geometry":null},{"properties":{"1980":0.136410745,"1970":0.137525222,"1960":0.152927986,"county":"Randolph","geo_score":0.0,"2010":0.325283254,"2000":0.252017371,"id":"adcma91scx8p","1990":0.138942333,"geo_precision":"unmatched","state":"North Carolina"},"type":"Feature","geometry":null},{"properties":{"1980":0.341154402,"1970":0.327076118,"1960":0.332769499,"county":"Rockingham","geo_score":0.0,"2010":0.422740409,"2000":0.380770025,"id":"adcma93w9w71","1990":0.341627302,"geo_precision":"unmatched","state":"North Carolina"},"type":"Feature","geometry":null},{"properties":{"1980":0.281355819,"1970":0.269713058,"1960":0.280355127,"county":"Rowan","geo_score":0.0,"2010":0.425393336,"2000":0.362825299,"id":"adcma8xq1b9r","1990":0.289592911,"geo_precision":"unmatched","state":"North Carolina"},"type":"Feature","geometry":null},{"properties":{"1980":0.228462237,"1970":0.190848787,"1960":0.21087952,"county":"Rutherford","geo_score":0.0,"2010":0.280472023,"2000":0.251238102,"id":"adcma974i9qy","1990":0.218485809,"geo_precision":"unmatched","state":"North Carolina"},"type":"Feature","geometry":null},{"properties":{"1980":0.219454187,"1970":0.19515646,"1960":0.195917567,"county":"Stanly","geo_score":0.0,"2010":0.308671728,"2000":0.286067081,"id":"adcma93zpytu","1990":0.227568773,"geo_precision":"unmatched","state":"North Carolina"},"type":"Feature","geometry":null},{"properties":{"1980":0.153069798,"1970":0.166938583,"1960":0.182790267,"county":"Stokes","geo_score":0.0,"2010":0.157429537,"2000":0.140967981,"id":"adcma948wiea","1990":0.123480428,"geo_precision":"unmatched","state":"North Carolina"},"type":"Feature","geometry":null},{"properties":{"1980":0.112832629,"1970":0.094513669,"1960":0.10970827,"county":"Surry","geo_score":0.0,"2010":0.266905749,"2000":0.219758305,"id":"adcma9bz5qse","1990":0.109465826,"geo_precision":"unmatched","state":"North Carolina"},"type":"Feature","geometry":null},{"properties":{"1980":0.298862164,"1970":0.309790395,"1960":0.337037939,"county":"Union","geo_score":0.0,"2010":0.419385118,"2000":0.345008177,"id":"adcma8x6we9p","1990":0.291187166,"geo_precision":"unmatched","state":"North Carolina"},"type":"Feature","geometry":null},{"properties":{"1980":0.500397396,"1970":0.489128455,"1960":0.492734219,"county":"Vance","geo_score":0.0,"2010":0.573624979,"2000":0.553277149,"id":"adcma9a2xuiz","1990":0.505975553,"geo_precision":"unmatched","state":"North Carolina"},"type":"Feature","geometry":null},{"properties":{"1980":0.371893599,"1970":0.351457032,"1960":0.386578426,"county":"Wake","geo_score":0.0,"2010":0.558925756,"2000":0.468284325,"id":"adcma8ze85ft","1990":0.381818656,"geo_precision":"unmatched","state":"North Carolina"},"type":"Feature","geometry":null},{"properties":{"1980":0.520162012,"1970":0.500997471,"1960":0.48277674,"county":"Warren","geo_score":0.0,"2010":0.581143645,"2000":0.555683811,"id":"adcma99a3be7","1990":0.529780498,"geo_precision":"unmatched","state":"North Carolina"},"type":"Feature","geometry":null},{"properties":{"1980":0.113115999,"1970":0.09551571,"1960":0.094203158,"county":"Yadkin","geo_score":0.0,"2010":0.250191998,"2000":0.197811006,"id":"adcma8ymjggt","1990":0.108488436,"geo_precision":"unmatched","state":"North Carolina"},"type":"Feature","geometry":null}],"is_temporal":false,"author":{"url":"","metadata":"","contact_name":"","contact_address":"","source":"","contact_phone":""},"source":"","pagination":{"sort":null,"start":0,"total":35,"limit":1000000},"state":"complete","tags":"diversity,nc","published":"2014-08-16T13:48:45-04:00","id":340718}