{"type":"FeatureCollection","data_type":"Dataset","url_type":null,"permissions":[{"permissions":{"download":true,"view":true},"group_id":"everyone"}],"classification":null,"title":"Groceries","count":29,"stream_id":34131,"contributor":{"url":"http://geocommons.com/users/11796","name":"puck_lo"},"data_attributes":null,"calculation_params":null,"icon_link":null,"link":"http://geocommons.com/overlays/34131.json","extent":[-122.28,37.7376,-122.165,37.8504],"geometry_types":["point"],"unique_name":null,"name":"Groceries","feature_count":29,"description":"","next_feature":null,"is_raster":false,"short_classification":"Y","stats":{"geo_score":{"max":1.0,"mean":0.91348275862069,"variance":0.0150916157635468,"stdev":0.122847937563261,"min":0.633,"median":1.0}},"features":[{"properties":{"city":"Oakland","name":"Farmer Joe's Produce &amp; Market Place","geo_score":1.0,"zip code":"94602","id":"a62v7kwiakkq","geo_precision":"range","address":"3426 Fruitvale Avenue","state":"CA"},"type":"Feature","geometry":{"type":"Point","coordinates":[-122.216487,37.799496]}},{"properties":{"city":"Oakland","name":"Farmer Joe's Produce &amp; Market Place","geo_score":1.0,"zip code":"94619","id":"a62v7ktv8ctf","geo_precision":"range","address":"3501 MacArthur Boulevard","state":"CA"},"type":"Feature","geometry":{"type":"Point","coordinates":[-122.200653,37.793713]}},{"properties":{"city":"Oakland","name":"FoodMaxx","geo_score":1.0,"zip code":"94603","id":"a62v7kq22pbt","geo_precision":"range","address":"10950 International Boulevard","state":"CA"},"type":"Feature","geometry":{"type":"Point","coordinates":[-122.165374,37.737551]}},{"properties":{"city":"Oakland","name":"Gazzali's Supermarket","geo_score":1.0,"zip code":"94605","id":"a62v7kzw988n","geo_precision":"range","address":"7000 Bancroft Avenue","state":"CA"},"type":"Feature","geometry":{"type":"Point","coordinates":[-122.179015,37.767476]}},{"properties":{"city":"Oakland","name":"Grocery Outlet","geo_score":0.915,"zip code":"94611","id":"a62v7kzy42g4","geo_precision":"range","address":"2900 Broadway","state":"CA"},"type":"Feature","geometry":{"type":"Point","coordinates":[-122.263084,37.817449]}},{"properties":{"city":"Oakland","name":"Koreana Plaza","geo_score":1.0,"zip code":"94612","id":"a62v7ktwddcs","geo_precision":"range","address":"2370 Telegraph Avenue","state":"CA"},"type":"Feature","geometry":{"type":"Point","coordinates":[-122.268655,37.813648]}},{"properties":{"city":"Oakland","name":"Lucky","geo_score":0.915,"zip code":"94611","id":"a62v7l4xvvdv","geo_precision":"range","address":"1967 Mountain Boulevard","state":"CA"},"type":"Feature","geometry":{"type":"Point","coordinates":[-122.210429,37.827937]}},{"properties":{"city":"Oakland","name":"Lucky","geo_score":1.0,"zip code":"94619","id":"a62v7l5h9mjx","geo_precision":"range","address":"4055 MacArthur Boulevard","state":"CA"},"type":"Feature","geometry":{"type":"Point","coordinates":[-122.196684,37.789319]}},{"properties":{"city":"Oakland","name":"Lucky","geo_score":0.643,"zip code":"94601","id":"a62v7ktlxl4u","geo_precision":"street","address":"3000 E. 9th Street","state":"CA"},"type":"Feature","geometry":{"type":"Point","coordinates":[-122.236628,37.778023]}},{"properties":{"city":"Oakland","name":"Lucky","geo_score":0.633,"zip code":"94606","id":"a62v7l0ge1n5","geo_precision":"street","address":"247 E. 18th Street","state":"CA"},"type":"Feature","geometry":{"type":"Point","coordinates":[-122.25458,37.800927]}},{"properties":{"city":"Oakland","name":"Mi Pueblo","geo_score":0.807,"zip code":"94601","id":"a62v7l2g7ilu","geo_precision":"street","address":"1630 High Street","state":"CA"},"type":"Feature","geometry":{"type":"Point","coordinates":[-122.211799,37.774625]}},{"properties":{"city":"Emeryville","name":"Pak-N-Save","geo_score":1.0,"zip code":"94608","id":"a62v7l3ol1t4","geo_precision":"range","address":"3889 San Pablo Avenue","state":"CA"},"type":"Feature","geometry":{"type":"Point","coordinates":[-122.27951,37.82959]}},{"properties":{"city":"Oakland","name":"Pak-N-Save","geo_score":1.0,"zip code":"94621","id":"a62v7l1hz2kf","geo_precision":"range","address":"610 Hegenberger Road","state":"CA"},"type":"Feature","geometry":{"type":"Point","coordinates":[-122.196076,37.74568]}},{"properties":{"city":"Oakland","name":"People's Grocery","geo_score":0.902,"zip code":"94608","id":"a62v7krhzcih","geo_precision":"range","address":"3236 Market Street","state":"CA"},"type":"Feature","geometry":{"type":"Point","coordinates":[-122.275934,37.823049]}},{"properties":{"city":"Oakland","name":"Piedmont Grocery Store","geo_score":0.915,"zip code":"94611","id":"a62v7l41t5o5","geo_precision":"range","address":"4038 Piedmont Avenue","state":"CA"},"type":"Feature","geometry":{"type":"Point","coordinates":[-122.253298,37.825828]}},{"properties":{"city":"Oakland","name":"Safeway","geo_score":1.0,"zip code":"94610","id":"a62v7kz27xij","geo_precision":"range","address":"3747 Grand Avenue","state":"CA"},"type":"Feature","geometry":{"type":"Point","coordinates":[-122.245512,37.816658]}},{"properties":{"city":"Oakland","name":"Safeway","geo_score":1.0,"zip code":"94610","id":"a62v7kqphshh","geo_precision":"range","address":"3747 Grand Avenue","state":"CA"},"type":"Feature","geometry":{"type":"Point","coordinates":[-122.245512,37.816658]}},{"properties":{"city":"Oakland","name":"Safeway","geo_score":1.0,"zip code":"94602","id":"a62v7kvjwaw1","geo_precision":"range","address":"3550 Fruitvale Avenue","state":"CA"},"type":"Feature","geometry":{"type":"Point","coordinates":[-122.215987,37.801214]}},{"properties":{"city":"Oakland","name":"Safeway","geo_score":0.915,"zip code":"94611","id":"a62v7kpkx0j9","geo_precision":"range","address":"2096 Mountain Boulevard","state":"CA"},"type":"Feature","geometry":{"type":"Point","coordinates":[-122.20959,37.826751]}},{"properties":{"city":"Emeryville","name":"Safeway","geo_score":1.0,"zip code":"94608","id":"a62v7l3f6j91","geo_precision":"range","address":"3889 San Pablo Avenue","state":"CA"},"type":"Feature","geometry":{"type":"Point","coordinates":[-122.27951,37.82959]}},{"properties":{"city":"Oakland","name":"Safeway","geo_score":1.0,"zip code":"94618","id":"a62v7l2mtvhq","geo_precision":"range","address":"6310 College Avenue","state":"CA"},"type":"Feature","geometry":{"type":"Point","coordinates":[-122.252456,37.85042]}},{"properties":{"city":"Oakland","name":"Safeway","geo_score":0.805,"zip code":"94602","id":"a62v7l38u18k","geo_precision":"range","address":"4100 Redwood Road","state":"CA"},"type":"Feature","geometry":{"type":"Point","coordinates":[-122.183287,37.797616]}},{"properties":{"city":"Oakland","name":"Safeway","geo_score":0.808,"zip code":"94618","id":"a62v7l2g17me","geo_precision":"street","address":"5130 Broadway","state":"CA"},"type":"Feature","geometry":{"type":"Point","coordinates":[-122.251711,37.835712]}},{"properties":{"city":"Oakland","name":"Smart &amp; Final","geo_score":0.722,"zip code":"94601","id":"a62v7kw2k6b9","geo_precision":"street","address":"1243 42nd Avenue","state":"CA"},"type":"Feature","geometry":{"type":"Point","coordinates":[-122.216226,37.773061]}},{"properties":{"city":"Oakland","name":"Smart &amp; Final","geo_score":1.0,"zip code":"94607","id":"a62v7kseaw2y","geo_precision":"range","address":"933 Broadway","state":"CA"},"type":"Feature","geometry":{"type":"Point","coordinates":[-122.273316,37.801144]}},{"properties":{"city":"Oakland","name":"Thien Loi Hoa Supermarket","geo_score":0.633,"zip code":"94606","id":"a62v7kvcqs5j","geo_precision":"street","address":"1199 E. 12th Street","state":"CA"},"type":"Feature","geometry":{"type":"Point","coordinates":[-122.257977,37.797968]}},{"properties":{"city":"Oakland","name":"Trader Joe's","geo_score":1.0,"zip code":"94610","id":"a62v7kylfybo","geo_precision":"range","address":"3250 Lakeshore Avenue","state":"CA"},"type":"Feature","geometry":{"type":"Point","coordinates":[-122.24563,37.810269]}},{"properties":{"city":"Oakland","name":"Trader Joe's","geo_score":1.0,"zip code":"94618","id":"a62v7l2yhcta","geo_precision":"range","address":"5727 College Avenue","state":"CA"},"type":"Feature","geometry":{"type":"Point","coordinates":[-122.251928,37.8454]}},{"properties":{"city":"Oakland","name":"Whole Foods Market","geo_score":0.878,"zip code":"94612","id":"a62v7l4kcvoe","geo_precision":"range","address":"230 Bay Place","state":"CA"},"type":"Feature","geometry":{"type":"Point","coordinates":[-122.262355,37.813563]}}],"is_temporal":false,"author":{"url":"","metadata":"","contact_name":"","contact_address":"","source":"www.maps.google.com","contact_phone":""},"source":"","pagination":{"sort":null,"start":0,"total":29,"limit":1000000},"state":"complete","tags":"access,emeryville,food,grocery,liquor,oakland,stores","published":"2014-08-10T14:43:56-04:00","id":34131}