{"type":"FeatureCollection","data_type":"Dataset","url_type":null,"permissions":[{"permissions":{"download":true,"view":true},"group_id":"everyone"}],"classification":null,"title":"CO_Counties_w_MHCs","count":75,"stream_id":341756,"contributor":{"url":"http://geocommons.com/users/68910","name":"jcouncilman@cbhc.org"},"data_attributes":null,"calculation_params":null,"icon_link":null,"link":"http://geocommons.com/overlays/341756.json","extent":[-108.509,37.1982,-102.352,40.8757],"geometry_types":["point"],"unique_name":null,"name":"CO_Counties_w_MHCs","feature_count":75,"description":"","next_feature":null,"is_raster":false,"short_classification":"Y","stats":{"latitude":{"max":40.87570669,"variance":1.10506376835421,"mean":39.0425223484,"stdev":1.05122013315681,"min":37.19822181,"median":39.21654851},"longitude":{"max":-102.352447,"variance":2.98150505578946,"mean":-105.389407396,"stdev":1.7267035228404,"min":-108.5089388,"median":-105.2233784}},"features":[{"properties":{"latitude":39.86967482,"county":"ADAMS","mhc":"Community Reach","longitude":-104.3794209,"id":"adeatxuln7p3"},"type":"Feature","geometry":{"type":"Point","coordinates":[-104.3794209,39.86967482]}},{"properties":{"latitude":39.86967482,"county":"ADAMS","mhc":"Servicios de la Raza","longitude":-104.3794209,"id":"adeatxnpeqd8"},"type":"Feature","geometry":{"type":"Point","coordinates":[-104.3794209,39.86967482]}},{"properties":{"latitude":37.55416038,"county":"ALAMOSA","mhc":"San Luis Valley","longitude":-105.7459929,"id":"adeatxldsxgc"},"type":"Feature","geometry":{"type":"Point","coordinates":[-105.7459929,37.55416038]}},{"properties":{"latitude":39.65201471,"county":"ARAPAHOE","mhc":"Asian Pacific","longitude":-104.3801854,"id":"adeatxndrfy0"},"type":"Feature","geometry":{"type":"Point","coordinates":[-104.3801854,39.65201471]}},{"properties":{"latitude":39.65201471,"county":"ARAPAHOE","mhc":"Aurora MHC","longitude":-104.3801854,"id":"adeatxnb0f0e"},"type":"Feature","geometry":{"type":"Point","coordinates":[-104.3801854,39.65201471]}},{"properties":{"latitude":39.65201471,"county":"ARAPAHOE","mhc":"Servicios de la Raza","longitude":-104.3801854,"id":"adeatxpkuqz9"},"type":"Feature","geometry":{"type":"Point","coordinates":[-104.3801854,39.65201471]}},{"properties":{"latitude":37.2077666,"county":"ARCHULETA","mhc":"Axis Health","longitude":-106.9795555,"id":"adeatxgu941n"},"type":"Feature","geometry":{"type":"Point","coordinates":[-106.9795555,37.2077666]}},{"properties":{"latitude":37.31865023,"county":"BACA","mhc":"Southeast Mental health","longitude":-102.564513,"id":"adeatxufwa29"},"type":"Feature","geometry":{"type":"Point","coordinates":[-102.564513,37.31865023]}},{"properties":{"latitude":37.95550561,"county":"BENT","mhc":"Southeast Mental health","longitude":-103.0723873,"id":"adeatxhj15py"},"type":"Feature","geometry":{"type":"Point","coordinates":[-103.0723873,37.95550561]}},{"properties":{"latitude":40.08844643,"county":"BOULDER","mhc":"Mental Health Partners","longitude":-105.3738995,"id":"adeatxh4tttt"},"type":"Feature","geometry":{"type":"Point","coordinates":[-105.3738995,40.08844643]}},{"properties":{"latitude":39.96623209,"county":"BOULDER","mhc":"Mental Health Partners","longitude":-105.0682128,"id":"adeatxod78dz"},"type":"Feature","geometry":{"type":"Point","coordinates":[-105.0682128,39.96623209]}},{"properties":{"latitude":39.96666438,"county":"BROOMFIELD","mhc":"Mental Health Partners","longitude":-105.0640867,"id":"adeatxiswbnh"},"type":"Feature","geometry":{"type":"Point","coordinates":[-105.0640867,39.96666438]}},{"properties":{"latitude":39.95758938,"county":"BROOMFIELD","mhc":"Mental Health Partners","longitude":-105.10062,"id":"adeatxonbr30"},"type":"Feature","geometry":{"type":"Point","coordinates":[-105.10062,39.95758938]}},{"properties":{"latitude":38.74001942,"county":"CHAFFEE","mhc":"WestCentral","longitude":-106.2388067,"id":"adeatxo9lzck"},"type":"Feature","geometry":{"type":"Point","coordinates":[-106.2388067,38.74001942]}},{"properties":{"latitude":38.82971143,"county":"CHEYENNE","mhc":"Cenntenial","longitude":-102.6089376,"id":"adeatxw4el4v"},"type":"Feature","geometry":{"type":"Point","coordinates":[-102.6089376,38.82971143]}},{"properties":{"latitude":39.7084221,"county":"CLEAR CREEK","mhc":"Jefferson Cetner","longitude":-105.6624013,"id":"adeatxuchl2p"},"type":"Feature","geometry":{"type":"Point","coordinates":[-105.6624013,39.7084221]}},{"properties":{"latitude":37.19822181,"county":"CONEJOS","mhc":"San Luis Valley","longitude":-106.1982825,"id":"adeatxj5xthg"},"type":"Feature","geometry":{"type":"Point","coordinates":[-106.1982825,37.19822181]}},{"properties":{"latitude":37.32675128,"county":"COSTILLA","mhc":"San Luis Valley","longitude":-105.4504797,"id":"adeatxn70mqt"},"type":"Feature","geometry":{"type":"Point","coordinates":[-105.4504797,37.32675128]}},{"properties":{"latitude":38.31787817,"county":"CROWLEY","mhc":"Southeast Mental health","longitude":-103.7800079,"id":"adeatxvsfgs9"},"type":"Feature","geometry":{"type":"Point","coordinates":[-103.7800079,38.31787817]}},{"properties":{"latitude":38.07739942,"county":"CUSTER","mhc":"WestCentral","longitude":-105.4226587,"id":"adeatxlbg0hl"},"type":"Feature","geometry":{"type":"Point","coordinates":[-105.4226587,38.07739942]}},{"properties":{"latitude":38.94302446,"county":"DELTA","mhc":"The Center for Mental Health","longitude":-107.9395665,"id":"adeatxk9gxze"},"type":"Feature","geometry":{"type":"Point","coordinates":[-107.9395665,38.94302446]}},{"properties":{"latitude":39.76419619,"county":"DENVER","mhc":"Asian Pacific","longitude":-104.8551429,"id":"adeatxmyuyrr"},"type":"Feature","geometry":{"type":"Point","coordinates":[-104.8551429,39.76419619]}},{"properties":{"latitude":39.76419619,"county":"DENVER","mhc":"MCHD","longitude":-104.8551429,"id":"adeatxl3jye0"},"type":"Feature","geometry":{"type":"Point","coordinates":[-104.8551429,39.76419619]}},{"properties":{"latitude":39.76419619,"county":"DENVER","mhc":"Servicios de la Raza","longitude":-104.8551429,"id":"adeatxp6x0qh"},"type":"Feature","geometry":{"type":"Point","coordinates":[-104.8551429,39.76419619]}},{"properties":{"latitude":37.68996474,"county":"DOLORES","mhc":"Axis Health","longitude":-108.4519844,"id":"adeatxru5x0u"},"type":"Feature","geometry":{"type":"Point","coordinates":[-108.4519844,37.68996474]}},{"properties":{"latitude":39.34825856,"county":"DOUGLAS","mhc":"Arapahoe Douglas","longitude":-104.9949034,"id":"adeatxjexhea"},"type":"Feature","geometry":{"type":"Point","coordinates":[-104.9949034,39.34825856]}},{"properties":{"latitude":39.34825856,"county":"DOUGLAS","mhc":"Servicios de la Raza","longitude":-104.9949034,"id":"adeatxt9xa2n"},"type":"Feature","geometry":{"type":"Point","coordinates":[-104.9949034,39.34825856]}},{"properties":{"latitude":39.63730119,"county":"EAGLE","mhc":"Colorado West","longitude":-106.6448272,"id":"adeatxvryyyu"},"type":"Feature","geometry":{"type":"Point","coordinates":[-106.6448272,39.63730119]}},{"properties":{"latitude":38.82439289,"county":"EL PASO","mhc":"Asian Pacific","longitude":-104.5619948,"id":"adeatxkfbseo"},"type":"Feature","geometry":{"type":"Point","coordinates":[-104.5619948,38.82439289]}},{"properties":{"latitude":38.82439289,"county":"EL PASO","mhc":"AspenPointe","longitude":-104.5619948,"id":"adeatxwi93f8"},"type":"Feature","geometry":{"type":"Point","coordinates":[-104.5619948,38.82439289]}},{"properties":{"latitude":39.21654851,"county":"ELBERT","mhc":"Cenntenial","longitude":-104.1885613,"id":"adeatxjjhjxk"},"type":"Feature","geometry":{"type":"Point","coordinates":[-104.1885613,39.21654851]}},{"properties":{"latitude":38.47764334,"county":"FREMONT","mhc":"WestCentral","longitude":-105.4765376,"id":"adeatxkodiz3"},"type":"Feature","geometry":{"type":"Point","coordinates":[-105.4765376,38.47764334]}},{"properties":{"latitude":39.72858123,"county":"GARFIELD","mhc":"Colorado West","longitude":-108.0415638,"id":"adeatxpizl57"},"type":"Feature","geometry":{"type":"Point","coordinates":[-108.0415638,39.72858123]}},{"properties":{"latitude":39.84208548,"county":"GILPIN","mhc":"Jefferson Cetner","longitude":-105.5493567,"id":"adeatxibcqt9"},"type":"Feature","geometry":{"type":"Point","coordinates":[-105.5493567,39.84208548]}},{"properties":{"latitude":40.08511698,"county":"GRAND","mhc":"Colorado West","longitude":-106.139559,"id":"adeatxin5d2j"},"type":"Feature","geometry":{"type":"Point","coordinates":[-106.139559,40.08511698]}},{"properties":{"latitude":38.70237466,"county":"GUNNISON","mhc":"The Center for Mental Health","longitude":-106.9403618,"id":"adeatxrtydd6"},"type":"Feature","geometry":{"type":"Point","coordinates":[-106.9403618,38.70237466]}},{"properties":{"latitude":37.78498501,"county":"HINSDALE","mhc":"The Center for Mental Health","longitude":-107.2958916,"id":"adeatxw4t9v7"},"type":"Feature","geometry":{"type":"Point","coordinates":[-107.2958916,37.78498501]}},{"properties":{"latitude":37.65399916,"county":"HUERFANO","mhc":"Spanish Peaks","longitude":-104.9260749,"id":"adeatxqtfju3"},"type":"Feature","geometry":{"type":"Point","coordinates":[-104.9260749,37.65399916]}},{"properties":{"latitude":40.66306745,"county":"JACKSON","mhc":"Colorado West","longitude":-106.3624187,"id":"adeatxgua604"},"type":"Feature","geometry":{"type":"Point","coordinates":[-106.3624187,40.66306745]}},{"properties":{"latitude":39.5218837,"county":"JEFFERSON","mhc":"Jefferson Cetner","longitude":-105.2233784,"id":"adeatxlhtdc4"},"type":"Feature","geometry":{"type":"Point","coordinates":[-105.2233784,39.5218837]}},{"properties":{"latitude":39.5218837,"county":"JEFFERSON","mhc":"Servicios de la Raza","longitude":-105.2233784,"id":"adeatxw2h75f"},"type":"Feature","geometry":{"type":"Point","coordinates":[-105.2233784,39.5218837]}},{"properties":{"latitude":38.44019132,"county":"KIOWA","mhc":"Southeast Mental health","longitude":-102.7756878,"id":"adeatxiwne44"},"type":"Feature","geometry":{"type":"Point","coordinates":[-102.7756878,38.44019132]}},{"properties":{"latitude":39.30600286,"county":"KIT CARSON","mhc":"Cenntenial","longitude":-102.6048924,"id":"adeatxixcy29"},"type":"Feature","geometry":{"type":"Point","coordinates":[-102.6048924,39.30600286]}},{"properties":{"latitude":37.31974586,"county":"LA PLATA","mhc":"Axis Health","longitude":-107.9308812,"id":"adeatxq4ix5e"},"type":"Feature","geometry":{"type":"Point","coordinates":[-107.9308812,37.31974586]}},{"properties":{"latitude":39.21855659,"county":"LAKE","mhc":"WestCentral","longitude":-106.361216,"id":"adeatxmd7yaa"},"type":"Feature","geometry":{"type":"Point","coordinates":[-106.361216,39.21855659]}},{"properties":{"latitude":40.62816207,"county":"LARIMER","mhc":"Touchstone","longitude":-105.5690201,"id":"adeatxumdl03"},"type":"Feature","geometry":{"type":"Point","coordinates":[-105.5690201,40.62816207]}},{"properties":{"latitude":37.40508173,"county":"LAS ANIMAS","mhc":"Spanish Peaks","longitude":-104.114884,"id":"adeatxpyavcy"},"type":"Feature","geometry":{"type":"Point","coordinates":[-104.114884,37.40508173]}},{"properties":{"latitude":39.04153617,"county":"LINCOLN","mhc":"Cenntenial","longitude":-103.6048113,"id":"adeatxmdz3l1"},"type":"Feature","geometry":{"type":"Point","coordinates":[-103.6048113,39.04153617]}},{"properties":{"latitude":40.71892923,"county":"LOGAN","mhc":"Cenntenial","longitude":-103.1162726,"id":"adeatxtyhfgm"},"type":"Feature","geometry":{"type":"Point","coordinates":[-103.1162726,40.71892923]}},{"properties":{"latitude":38.93331231,"county":"MESA","mhc":"Colorado West","longitude":-108.218785,"id":"adeatxtrns7u"},"type":"Feature","geometry":{"type":"Point","coordinates":[-108.218785,38.93331231]}},{"properties":{"latitude":37.68360318,"county":"MINERAL","mhc":"San Luis Valley","longitude":-106.9193752,"id":"adeatxtz0fr2"},"type":"Feature","geometry":{"type":"Point","coordinates":[-106.9193752,37.68360318]}},{"properties":{"latitude":40.61161576,"county":"MOFFAT","mhc":"Colorado West","longitude":-108.1822246,"id":"adeatxw7rsh7"},"type":"Feature","geometry":{"type":"Point","coordinates":[-108.1822246,40.61161576]}},{"properties":{"latitude":37.31918783,"county":"MONTEZUMA","mhc":"Axis Health","longitude":-108.5089388,"id":"adeatxpb6e2v"},"type":"Feature","geometry":{"type":"Point","coordinates":[-108.5089388,37.31918783]}},{"properties":{"latitude":38.41041535,"county":"MONTROSE","mhc":"The Center for Mental Health","longitude":-108.2800799,"id":"adeatxuw92r8"},"type":"Feature","geometry":{"type":"Point","coordinates":[-108.2800799,38.41041535]}},{"properties":{"latitude":40.26268741,"county":"MORGAN","mhc":"Cenntenial","longitude":-103.8074417,"id":"adeatxm5ytix"},"type":"Feature","geometry":{"type":"Point","coordinates":[-103.8074417,40.26268741]}},{"properties":{"latitude":37.95413833,"county":"OTERO","mhc":"Southeast Mental health","longitude":-103.7291828,"id":"adeatxnvdvcl"},"type":"Feature","geometry":{"type":"Point","coordinates":[-103.7291828,37.95413833]}},{"properties":{"latitude":38.11203904,"county":"OURAY","mhc":"The Center for Mental Health","longitude":-107.8211487,"id":"adeatxvoc9q2"},"type":"Feature","geometry":{"type":"Point","coordinates":[-107.8211487,38.11203904]}},{"properties":{"latitude":39.13063236,"county":"PARK","mhc":"AspenPointe","longitude":-105.7695395,"id":"adeatxr4bw2p"},"type":"Feature","geometry":{"type":"Point","coordinates":[-105.7695395,39.13063236]}},{"properties":{"latitude":40.59415453,"county":"PHILLIPS","mhc":"Cenntenial","longitude":-102.3584786,"id":"adeatxo5km8f"},"type":"Feature","geometry":{"type":"Point","coordinates":[-102.3584786,40.59415453]}},{"properties":{"latitude":39.17199726,"county":"PITKIN","mhc":"Colorado West","longitude":-106.9426338,"id":"adeatxw2gtqu"},"type":"Feature","geometry":{"type":"Point","coordinates":[-106.9426338,39.17199726]}},{"properties":{"latitude":37.95608847,"county":"PROWERS","mhc":"Southeast Mental health","longitude":-102.3947408,"id":"adeatxkdl0im"},"type":"Feature","geometry":{"type":"Point","coordinates":[-102.3947408,37.95608847]}},{"properties":{"latitude":38.12822833,"county":"PUEBLO","mhc":"Spanish Peaks","longitude":-104.5523305,"id":"adeatxjj7g4w"},"type":"Feature","geometry":{"type":"Point","coordinates":[-104.5523305,38.12822833]}},{"properties":{"latitude":39.93784742,"county":"RIO BLANCO","mhc":"Colorado West","longitude":-108.0443132,"id":"adeatxtq353t"},"type":"Feature","geometry":{"type":"Point","coordinates":[-108.0443132,39.93784742]}},{"properties":{"latitude":37.61549863,"county":"RIO GRANDE","mhc":"San Luis Valley","longitude":-106.3751385,"id":"adeatxprwgom"},"type":"Feature","geometry":{"type":"Point","coordinates":[-106.3751385,37.61549863]}},{"properties":{"latitude":40.4610498,"county":"ROUTT","mhc":"Colorado West","longitude":-107.03389,"id":"adeatxrue1xm"},"type":"Feature","geometry":{"type":"Point","coordinates":[-107.03389,40.4610498]}},{"properties":{"latitude":38.10301977,"county":"SAGUACHE","mhc":"San Luis Valley","longitude":-106.2148037,"id":"adeatxphrbsj"},"type":"Feature","geometry":{"type":"Point","coordinates":[-106.2148037,38.10301977]}},{"properties":{"latitude":37.80224707,"county":"SAN JUAN","mhc":"Axis Health","longitude":-107.7165264,"id":"adeatxumu9nt"},"type":"Feature","geometry":{"type":"Point","coordinates":[-107.7165264,37.80224707]}},{"properties":{"latitude":37.96412335,"county":"SAN MIGUEL","mhc":"The Center for Mental Health","longitude":-108.3878501,"id":"adeatxj7ft6f"},"type":"Feature","geometry":{"type":"Point","coordinates":[-108.3878501,37.96412335]}},{"properties":{"latitude":40.87570669,"county":"SEDGWICK","mhc":"Cenntenial","longitude":-102.352447,"id":"adeatxr5hebu"},"type":"Feature","geometry":{"type":"Point","coordinates":[-102.352447,40.87570669]}},{"properties":{"latitude":39.64112028,"county":"SUMMIT","mhc":"Colorado West","longitude":-106.108234,"id":"adeatxgo6j53"},"type":"Feature","geometry":{"type":"Point","coordinates":[-106.108234,39.64112028]}},{"properties":{"latitude":38.88862347,"county":"TELLER","mhc":"AspenPointe","longitude":-105.1346447,"id":"adeatxsr7tu5"},"type":"Feature","geometry":{"type":"Point","coordinates":[-105.1346447,38.88862347]}},{"properties":{"latitude":40.00215919,"county":"WASHINGTON","mhc":"Cenntenial","longitude":-103.2435556,"id":"adeatxwcjj42"},"type":"Feature","geometry":{"type":"Point","coordinates":[-103.2435556,40.00215919]}},{"properties":{"latitude":40.501018,"county":"WELD","mhc":"NorthRange","longitude":-104.3148347,"id":"adeatxwea1kz"},"type":"Feature","geometry":{"type":"Point","coordinates":[-104.3148347,40.501018]}},{"properties":{"latitude":40.03146817,"county":"WELD","mhc":"NorthRange","longitude":-104.9769958,"id":"adeatxv292i5"},"type":"Feature","geometry":{"type":"Point","coordinates":[-104.9769958,40.03146817]}},{"properties":{"latitude":40.00382472,"county":"YUMA","mhc":"Cenntenial","longitude":-102.4268302,"id":"adeatxi4q9ms"},"type":"Feature","geometry":{"type":"Point","coordinates":[-102.4268302,40.00382472]}}],"is_temporal":false,"author":{"url":"","metadata":null,"contact_name":null,"contact_address":null,"source":null,"contact_phone":null},"source":"","pagination":{"sort":null,"start":0,"total":75,"limit":1000000},"state":"complete","tags":"","published":"2014-08-16T14:49:18-04:00","id":341756}