{"type":"FeatureCollection","url":"http://www.editgrid.com/user/gravellj/dpc3-16.csv","data_type":"Data Feed","url_type":"csv","permissions":[{"permissions":{"download":true,"view":true},"group_id":"everyone"}],"classification":null,"title":"dpcx5","count":75,"stream_id":34210,"contributor":{"url":"http://geocommons.com/users/11204","name":"joegravellese"},"data_attributes":null,"calculation_params":null,"icon_link":null,"link":"http://geocommons.com/overlays/34210.json","extent":[-73.2481,41.6334,-70.423,42.8535],"geometry_types":["point"],"unique_name":null,"name":"dpcx5","feature_count":75,"description":"","next_feature":null,"is_raster":false,"short_classification":"Y","stats":{"fieldevent":{"max":16,"mean":0.68,"variance":3.57189189189189,"stdev":1.88994494414305,"min":0,"median":0},"jobs":{"max":12,"mean":0.626666666666667,"variance":2.48036036036036,"stdev":1.5749159851752,"min":0,"median":0},"governor":{"max":52,"mean":1.26666666666667,"variance":36.2252252252253,"stdev":6.01873950468246,"min":0,"median":0},"latitude":{"max":42.853539,"mean":42.3249621333333,"variance":0.0568977382929279,"stdev":0.238532468005779,"min":41.633416,"median":42.372596},"mapped":{"max":118,"mean":3.53333333333333,"variance":183.495495495496,"stdev":13.5460509188286,"min":0,"median":1},"laborjobsite":{"max":2,"mean":0.0933333333333333,"variance":0.112792792792793,"stdev":0.335846382729951,"min":0,"median":0},"seniors":{"max":1,"mean":0.04,"variance":0.0389189189189189,"stdev":0.197278784766429,"min":0,"median":0},"bostonpress":{"max":27,"mean":0.36,"variance":9.71999999999998,"stdev":3.11769145362398,"min":0,"median":0},"advocacy":{"max":6,"mean":0.146666666666667,"variance":0.532252252252251,"stdev":0.729556202257408,"min":0,"median":0},"schoolvisit":{"max":2,"mean":0.173333333333333,"variance":0.199279279279279,"stdev":0.446407077989674,"min":0,"median":0},"teachers":{"max":2,"mean":0.08,"variance":0.101621621621622,"stdev":0.318781463735929,"min":0,"median":0},"dpcfund":{"max":80,"mean":1.34666666666667,"variance":85.6890090090093,"stdev":9.2568357989655,"min":0,"median":0},"localpress":{"max":2,"mean":0.0666666666666667,"variance":0.09009009009009,"stdev":0.300150112593832,"min":0,"median":0},"longitude":{"max":-70.423,"mean":-71.3507154133333,"variance":0.301483860173003,"stdev":0.549075459452526,"min":-73.24807,"median":-71.1833},"statehouse":{"max":80,"mean":1.06666666666667,"variance":85.3333333333335,"stdev":9.23760430703402,"min":0,"median":0}},"features":[{"properties":{"city":"Agawam","governor":0,"jobs":1,"fieldevent":0,"mapped":2,"latitude":42.069,"laborjobsite":0,"seniors":0,"bostonpress":0,"schoolvisit":0,"advocacy":1,"localpress":0,"dpcfund":0,"teachers":0,"statehouse":0,"longitude":-72.6966,"id":"a6h7t4wwihct","state":"Massachusetts"},"type":"Feature","geometry":{"type":"Point","coordinates":[-72.6966,42.069]}},{"properties":{"city":"Amesbury","governor":1,"jobs":0,"fieldevent":0,"mapped":1,"latitude":42.853539,"laborjobsite":0,"seniors":0,"bostonpress":0,"schoolvisit":0,"advocacy":0,"localpress":0,"dpcfund":0,"teachers":0,"statehouse":0,"longitude":-70.948211,"id":"a6h7t4s8rln4","state":"Massachusetts"},"type":"Feature","geometry":{"type":"Point","coordinates":[-70.948211,42.853539]}},{"properties":{"city":"Andover","governor":0,"jobs":0,"fieldevent":1,"mapped":1,"latitude":42.647991,"laborjobsite":0,"seniors":0,"bostonpress":0,"schoolvisit":0,"advocacy":0,"localpress":0,"dpcfund":0,"teachers":0,"statehouse":0,"longitude":-71.165685,"id":"a6h7t528e5av","state":"Massachusetts"},"type":"Feature","geometry":{"type":"Point","coordinates":[-71.165685,42.647991]}},{"properties":{"city":"Arlington","governor":0,"jobs":0,"fieldevent":1,"mapped":2,"latitude":42.417695,"laborjobsite":0,"seniors":0,"bostonpress":0,"schoolvisit":1,"advocacy":0,"localpress":0,"dpcfund":0,"teachers":0,"statehouse":0,"longitude":-71.167083,"id":"a6h7t53gfaa2","state":"Massachusetts"},"type":"Feature","geometry":{"type":"Point","coordinates":[-71.167083,42.417695]}},{"properties":{"city":"Attleboro","governor":0,"jobs":0,"fieldevent":0,"mapped":0,"latitude":41.938976,"laborjobsite":0,"seniors":0,"bostonpress":0,"schoolvisit":0,"advocacy":0,"localpress":0,"dpcfund":1,"teachers":0,"statehouse":0,"longitude":-71.302297,"id":"a6h7t4xax6yp","state":"Massachusetts"},"type":"Feature","geometry":{"type":"Point","coordinates":[-71.302297,41.938976]}},{"properties":{"city":"Bedford","governor":0,"jobs":1,"fieldevent":0,"mapped":1,"latitude":42.516205,"laborjobsite":0,"seniors":0,"bostonpress":0,"schoolvisit":0,"advocacy":0,"localpress":0,"dpcfund":0,"teachers":0,"statehouse":0,"longitude":-71.270891,"id":"a6h7t511s2sw","state":"Massachusetts"},"type":"Feature","geometry":{"type":"Point","coordinates":[-71.270891,42.516205]}},{"properties":{"city":"Belmont","governor":0,"jobs":0,"fieldevent":1,"mapped":2,"latitude":42.446396,"laborjobsite":0,"seniors":0,"bostonpress":0,"schoolvisit":0,"advocacy":0,"localpress":0,"dpcfund":0,"teachers":1,"statehouse":0,"longitude":-71.459405,"id":"a6h7t4zclv2u","state":"Massachusetts"},"type":"Feature","geometry":{"type":"Point","coordinates":[-71.459405,42.446396]}},{"properties":{"city":"Boston","governor":52,"jobs":12,"fieldevent":16,"mapped":118,"latitude":42.358431,"laborjobsite":2,"seniors":0,"bostonpress":27,"schoolvisit":2,"advocacy":6,"localpress":0,"dpcfund":80,"teachers":1,"statehouse":80,"longitude":-71.059773,"id":"a6h7t57exijn","state":"Massachusetts"},"type":"Feature","geometry":{"type":"Point","coordinates":[-71.059773,42.358431]}},{"properties":{"city":"Brockton","governor":2,"jobs":0,"fieldevent":1,"mapped":7,"latitude":42.083434,"laborjobsite":1,"seniors":0,"bostonpress":0,"schoolvisit":2,"advocacy":0,"localpress":1,"dpcfund":0,"teachers":0,"statehouse":0,"longitude":-71.018379,"id":"a6h7t57k463r","state":"Massachusetts"},"type":"Feature","geometry":{"type":"Point","coordinates":[-71.018379,42.083434]}},{"properties":{"city":"Brookline","governor":1,"jobs":0,"fieldevent":1,"mapped":2,"latitude":42.3333,"laborjobsite":0,"seniors":0,"bostonpress":0,"schoolvisit":0,"advocacy":0,"localpress":0,"dpcfund":0,"teachers":0,"statehouse":0,"longitude":-71.0,"id":"a6h7t4ukx2ju","state":"Massachusetts"},"type":"Feature","geometry":{"type":"Point","coordinates":[-71.0,42.3333]}},{"properties":{"city":"Burlington","governor":0,"jobs":1,"fieldevent":0,"mapped":1,"latitude":42.504844,"laborjobsite":0,"seniors":0,"bostonpress":0,"schoolvisit":0,"advocacy":0,"localpress":0,"dpcfund":0,"teachers":0,"statehouse":0,"longitude":-71.201539,"id":"a6h7t55fnpua","state":"Massachusetts"},"type":"Feature","geometry":{"type":"Point","coordinates":[-71.201539,42.504844]}},{"properties":{"city":"Cambridge","governor":2,"jobs":2,"fieldevent":1,"mapped":7,"latitude":42.358431,"laborjobsite":0,"seniors":0,"bostonpress":0,"schoolvisit":1,"advocacy":1,"localpress":0,"dpcfund":1,"teachers":0,"statehouse":0,"longitude":-71.103663,"id":"a6h7t5586182","state":"Massachusetts"},"type":"Feature","geometry":{"type":"Point","coordinates":[-71.103663,42.358431]}},{"properties":{"city":"Canton","governor":0,"jobs":0,"fieldevent":1,"mapped":1,"latitude":42.179146,"laborjobsite":0,"seniors":0,"bostonpress":0,"schoolvisit":0,"advocacy":0,"localpress":0,"dpcfund":0,"teachers":0,"statehouse":0,"longitude":-71.121185,"id":"a6h7t4zo7hwn","state":"Massachusetts"},"type":"Feature","geometry":{"type":"Point","coordinates":[-71.121185,42.179146]}},{"properties":{"city":"Chelmsford","governor":0,"jobs":0,"fieldevent":1,"mapped":1,"latitude":42.446396,"laborjobsite":0,"seniors":0,"bostonpress":0,"schoolvisit":0,"advocacy":0,"localpress":0,"dpcfund":0,"teachers":0,"statehouse":0,"longitude":-71.459405,"id":"a6h7t4t1i9kc","state":"Massachusetts"},"type":"Feature","geometry":{"type":"Point","coordinates":[-71.459405,42.446396]}},{"properties":{"city":"Chelsea","governor":0,"jobs":0,"fieldevent":2,"mapped":2,"latitude":42.378197,"laborjobsite":0,"seniors":0,"bostonpress":0,"schoolvisit":0,"advocacy":0,"localpress":0,"dpcfund":0,"teachers":0,"statehouse":0,"longitude":-71.038894,"id":"a6h7t4sjfl95","state":"Massachusetts"},"type":"Feature","geometry":{"type":"Point","coordinates":[-71.038894,42.378197]}},{"properties":{"city":"Clinton","governor":1,"jobs":0,"fieldevent":0,"mapped":1,"latitude":42.413972,"laborjobsite":0,"seniors":0,"bostonpress":0,"schoolvisit":0,"advocacy":0,"localpress":0,"dpcfund":0,"teachers":0,"statehouse":0,"longitude":-71.687523,"id":"a6h7t4tvcn4r","state":"Massachusetts"},"type":"Feature","geometry":{"type":"Point","coordinates":[-71.687523,42.413972]}},{"properties":{"city":"Concord","governor":0,"jobs":0,"fieldevent":0,"mapped":0,"latitude":42.4129,"laborjobsite":0,"seniors":0,"bostonpress":0,"schoolvisit":0,"advocacy":0,"localpress":0,"dpcfund":1,"teachers":0,"statehouse":0,"longitude":-71.3567,"id":"a6h7t53qn18q","state":"Massachusetts"},"type":"Feature","geometry":{"type":"Point","coordinates":[-71.3567,42.4129]}},{"properties":{"city":"Danvers","governor":0,"jobs":1,"fieldevent":1,"mapped":2,"latitude":42.548428,"laborjobsite":0,"seniors":0,"bostonpress":0,"schoolvisit":0,"advocacy":0,"localpress":0,"dpcfund":0,"teachers":0,"statehouse":0,"longitude":-70.920328,"id":"a6h7t4r8micc","state":"Massachusetts"},"type":"Feature","geometry":{"type":"Point","coordinates":[-70.920328,42.548428]}},{"properties":{"city":"Easthampton","governor":0,"jobs":0,"fieldevent":1,"mapped":1,"latitude":42.338,"laborjobsite":0,"seniors":0,"bostonpress":0,"schoolvisit":0,"advocacy":0,"localpress":0,"dpcfund":0,"teachers":0,"statehouse":0,"longitude":-72.683,"id":"a6h7t4zutw62","state":"Massachusetts"},"type":"Feature","geometry":{"type":"Point","coordinates":[-72.683,42.338]}},{"properties":{"city":"FALLRIVER","governor":1,"jobs":2,"fieldevent":1,"mapped":5,"latitude":41.731,"laborjobsite":0,"seniors":0,"bostonpress":0,"schoolvisit":1,"advocacy":0,"localpress":0,"dpcfund":1,"teachers":0,"statehouse":0,"longitude":-71.117,"id":"a6h7t4uoyacr","state":"Massachusetts"},"type":"Feature","geometry":{"type":"Point","coordinates":[-71.117,41.731]}},{"properties":{"city":"Framingham","governor":1,"jobs":0,"fieldevent":1,"mapped":5,"latitude":42.297318,"laborjobsite":0,"seniors":0,"bostonpress":0,"schoolvisit":1,"advocacy":0,"localpress":2,"dpcfund":0,"teachers":0,"statehouse":0,"longitude":-71.437006,"id":"a6h7t4rbapig","state":"Massachusetts"},"type":"Feature","geometry":{"type":"Point","coordinates":[-71.437006,42.297318]}},{"properties":{"city":"Grafton","governor":0,"jobs":0,"fieldevent":1,"mapped":1,"latitude":42.203944,"laborjobsite":0,"seniors":0,"bostonpress":0,"schoolvisit":0,"advocacy":0,"localpress":0,"dpcfund":0,"teachers":0,"statehouse":0,"longitude":-71.682862,"id":"a6h7t4uzvv2a","state":"Massachusetts"},"type":"Feature","geometry":{"type":"Point","coordinates":[-71.682862,42.203944]}},{"properties":{"city":"Greenfield","governor":0,"jobs":0,"fieldevent":0,"mapped":1,"latitude":42.602,"laborjobsite":1,"seniors":0,"bostonpress":0,"schoolvisit":0,"advocacy":0,"localpress":0,"dpcfund":0,"teachers":0,"statehouse":0,"longitude":-72.61,"id":"a6h7t4sc5sx1","state":"Massachusetts"},"type":"Feature","geometry":{"type":"Point","coordinates":[-72.61,42.602]}},{"properties":{"city":"Holyoke","governor":0,"jobs":0,"fieldevent":1,"mapped":1,"latitude":42.198291,"laborjobsite":0,"seniors":0,"bostonpress":0,"schoolvisit":0,"advocacy":0,"localpress":0,"dpcfund":0,"teachers":0,"statehouse":0,"longitude":-72.64207,"id":"a6h7t54r6urs","state":"Massachusetts"},"type":"Feature","geometry":{"type":"Point","coordinates":[-72.64207,42.198291]}},{"properties":{"city":"Lawrence","governor":1,"jobs":0,"fieldevent":0,"mapped":1,"latitude":42.70734,"laborjobsite":0,"seniors":0,"bostonpress":0,"schoolvisit":0,"advocacy":0,"localpress":0,"dpcfund":0,"teachers":0,"statehouse":0,"longitude":-71.161052,"id":"a6h7t55eiyga","state":"Massachusetts"},"type":"Feature","geometry":{"type":"Point","coordinates":[-71.161052,42.70734]}},{"properties":{"city":"Leominster","governor":0,"jobs":0,"fieldevent":0,"mapped":2,"latitude":42.471316,"laborjobsite":1,"seniors":0,"bostonpress":0,"schoolvisit":0,"advocacy":0,"localpress":1,"dpcfund":0,"teachers":0,"statehouse":0,"longitude":-71.837509,"id":"a6h7t4r5l0qv","state":"Massachusetts"},"type":"Feature","geometry":{"type":"Point","coordinates":[-71.837509,42.471316]}},{"properties":{"city":"Lexington","governor":0,"jobs":0,"fieldevent":1,"mapped":2,"latitude":42.446396,"laborjobsite":1,"seniors":0,"bostonpress":0,"schoolvisit":0,"advocacy":0,"localpress":0,"dpcfund":1,"teachers":0,"statehouse":0,"longitude":-71.459405,"id":"a6h7t574gdg9","state":"Massachusetts"},"type":"Feature","geometry":{"type":"Point","coordinates":[-71.459405,42.446396]}},{"properties":{"city":"Lowell","governor":0,"jobs":1,"fieldevent":0,"mapped":1,"latitude":42.446396,"laborjobsite":0,"seniors":0,"bostonpress":0,"schoolvisit":0,"advocacy":0,"localpress":0,"dpcfund":0,"teachers":0,"statehouse":0,"longitude":-71.459405,"id":"a6h7t4z60tr4","state":"Massachusetts"},"type":"Feature","geometry":{"type":"Point","coordinates":[-71.459405,42.446396]}},{"properties":{"city":"Ludlow","governor":0,"jobs":0,"fieldevent":1,"mapped":1,"latitude":42.164,"laborjobsite":0,"seniors":0,"bostonpress":0,"schoolvisit":0,"advocacy":0,"localpress":0,"dpcfund":0,"teachers":0,"statehouse":0,"longitude":-72.457,"id":"a6h7t51ilr4i","state":"Massachusetts"},"type":"Feature","geometry":{"type":"Point","coordinates":[-72.457,42.164]}},{"properties":{"city":"Lynn","governor":1,"jobs":1,"fieldevent":0,"mapped":2,"latitude":42.461246,"laborjobsite":0,"seniors":0,"bostonpress":0,"schoolvisit":0,"advocacy":0,"localpress":0,"dpcfund":0,"teachers":0,"statehouse":0,"longitude":-70.946743,"id":"a6h7t4xs8tdq","state":"Massachusetts"},"type":"Feature","geometry":{"type":"Point","coordinates":[-70.946743,42.461246]}},{"properties":{"city":"Malden","governor":1,"jobs":0,"fieldevent":1,"mapped":2,"latitude":42.436545,"laborjobsite":0,"seniors":0,"bostonpress":0,"schoolvisit":0,"advocacy":0,"localpress":0,"dpcfund":0,"teachers":0,"statehouse":0,"longitude":-71.085396,"id":"a6h7t4tbm2u0","state":"Massachusetts"},"type":"Feature","geometry":{"type":"Point","coordinates":[-71.085396,42.436545]}},{"properties":{"city":"Marlborough","governor":0,"jobs":2,"fieldevent":0,"mapped":2,"latitude":42.716759,"laborjobsite":0,"seniors":0,"bostonpress":0,"schoolvisit":0,"advocacy":0,"localpress":0,"dpcfund":0,"teachers":0,"statehouse":0,"longitude":-70.97311,"id":"a6h7t4s5a121","state":"Massachusetts"},"type":"Feature","geometry":{"type":"Point","coordinates":[-70.97311,42.716759]}},{"properties":{"city":"Maynard","governor":0,"jobs":1,"fieldevent":0,"mapped":1,"latitude":42.446396,"laborjobsite":0,"seniors":0,"bostonpress":0,"schoolvisit":0,"advocacy":0,"localpress":0,"dpcfund":0,"teachers":0,"statehouse":0,"longitude":-71.459405,"id":"a6h7t53oj4r7","state":"Massachusetts"},"type":"Feature","geometry":{"type":"Point","coordinates":[-71.459405,42.446396]}},{"properties":{"city":"Medford","governor":0,"jobs":0,"fieldevent":0,"mapped":2,"latitude":42.412596,"laborjobsite":0,"seniors":0,"bostonpress":0,"schoolvisit":0,"advocacy":0,"localpress":0,"dpcfund":1,"teachers":2,"statehouse":0,"longitude":-71.125331,"id":"a6h7t56d9p1r","state":"Massachusetts"},"type":"Feature","geometry":{"type":"Point","coordinates":[-71.125331,42.412596]}},{"properties":{"city":"Melrose","governor":0,"jobs":1,"fieldevent":0,"mapped":1,"latitude":42.458995,"laborjobsite":0,"seniors":0,"bostonpress":0,"schoolvisit":0,"advocacy":0,"localpress":0,"dpcfund":0,"teachers":0,"statehouse":0,"longitude":-71.053095,"id":"a6h7t4tt8iih","state":"Massachusetts"},"type":"Feature","geometry":{"type":"Point","coordinates":[-71.053095,42.458995]}},{"properties":{"city":"Milton","governor":1,"jobs":0,"fieldevent":0,"mapped":1,"latitude":42.436545,"laborjobsite":0,"seniors":0,"bostonpress":0,"schoolvisit":0,"advocacy":0,"localpress":0,"dpcfund":8,"teachers":0,"statehouse":0,"longitude":-71.085396,"id":"a6h7t4vlbnwr","state":"Massachusetts"},"type":"Feature","geometry":{"type":"Point","coordinates":[-71.085396,42.436545]}},{"properties":{"city":"Natick","governor":0,"jobs":0,"fieldevent":0,"mapped":1,"latitude":42.446396,"laborjobsite":0,"seniors":1,"bostonpress":0,"schoolvisit":0,"advocacy":0,"localpress":0,"dpcfund":0,"teachers":0,"statehouse":0,"longitude":-71.459405,"id":"a6h7t55gg4f5","state":"Massachusetts"},"type":"Feature","geometry":{"type":"Point","coordinates":[-71.459405,42.446396]}},{"properties":{"city":"Needham","governor":0,"jobs":0,"fieldevent":0,"mapped":2,"latitude":42.2935,"laborjobsite":0,"seniors":0,"bostonpress":0,"schoolvisit":1,"advocacy":0,"localpress":0,"dpcfund":0,"teachers":1,"statehouse":0,"longitude":-71.25,"id":"a6h7t51aa47f","state":"Massachusetts"},"type":"Feature","geometry":{"type":"Point","coordinates":[-71.25,42.2935]}},{"properties":{"city":"newbedford","governor":3,"jobs":4,"fieldevent":0,"mapped":9,"latitude":41.633416,"laborjobsite":0,"seniors":0,"bostonpress":0,"schoolvisit":1,"advocacy":0,"localpress":1,"dpcfund":0,"teachers":0,"statehouse":0,"longitude":-70.951045,"id":"a6h7t557llfh","state":"Massachusetts"},"type":"Feature","geometry":{"type":"Point","coordinates":[-70.951045,41.633416]}},{"properties":{"city":"Newburyport","governor":0,"jobs":0,"fieldevent":0,"mapped":0,"latitude":42.80965,"laborjobsite":0,"seniors":0,"bostonpress":0,"schoolvisit":0,"advocacy":0,"localpress":0,"dpcfund":1,"teachers":0,"statehouse":0,"longitude":-70.873196,"id":"a6h7t51fgmvm","state":"Massachusetts"},"type":"Feature","geometry":{"type":"Point","coordinates":[-70.873196,42.80965]}},{"properties":{"city":"newton","governor":4,"jobs":0,"fieldevent":1,"mapped":6,"latitude":42.3146,"laborjobsite":0,"seniors":1,"bostonpress":0,"schoolvisit":0,"advocacy":0,"localpress":0,"dpcfund":1,"teachers":0,"statehouse":0,"longitude":-71.1931,"id":"a6h7t4vofbt9","state":"Massachusetts"},"type":"Feature","geometry":{"type":"Point","coordinates":[-71.1931,42.3146]}},{"properties":{"city":"North Andover","governor":0,"jobs":1,"fieldevent":0,"mapped":1,"latitude":42.706,"laborjobsite":0,"seniors":0,"bostonpress":0,"schoolvisit":0,"advocacy":0,"localpress":0,"dpcfund":0,"teachers":0,"statehouse":0,"longitude":-71.163,"id":"a6h7t4st8sci","state":"Massachusetts"},"type":"Feature","geometry":{"type":"Point","coordinates":[-71.163,42.706]}},{"properties":{"city":"North Chelmsford","governor":0,"jobs":0,"fieldevent":0,"mapped":1,"latitude":42.446396,"laborjobsite":0,"seniors":0,"bostonpress":0,"schoolvisit":1,"advocacy":0,"localpress":0,"dpcfund":0,"teachers":0,"statehouse":0,"longitude":-71.459405,"id":"a6h7t4wc7zjw","state":"Massachusetts"},"type":"Feature","geometry":{"type":"Point","coordinates":[-71.459405,42.446396]}},{"properties":{"city":"Northampton","governor":0,"jobs":0,"fieldevent":1,"mapped":1,"latitude":42.415154,"laborjobsite":0,"seniors":0,"bostonpress":0,"schoolvisit":0,"advocacy":0,"localpress":0,"dpcfund":0,"teachers":0,"statehouse":0,"longitude":-72.76927,"id":"a6h7t53u3kp9","state":"Massachusetts"},"type":"Feature","geometry":{"type":"Point","coordinates":[-72.76927,42.415154]}},{"properties":{"city":"Pittsfield","governor":1,"jobs":0,"fieldevent":0,"mapped":1,"latitude":42.479475,"laborjobsite":0,"seniors":0,"bostonpress":0,"schoolvisit":0,"advocacy":0,"localpress":0,"dpcfund":0,"teachers":0,"statehouse":0,"longitude":-73.24807,"id":"a6h7t56mkunq","state":"Massachusetts"},"type":"Feature","geometry":{"type":"Point","coordinates":[-73.24807,42.479475]}},{"properties":{"city":"Plymouth","governor":0,"jobs":0,"fieldevent":0,"mapped":1,"latitude":41.965,"laborjobsite":1,"seniors":0,"bostonpress":0,"schoolvisit":0,"advocacy":0,"localpress":0,"dpcfund":0,"teachers":0,"statehouse":0,"longitude":-70.69,"id":"a6h7t4xpnoa0","state":"Massachusetts"},"type":"Feature","geometry":{"type":"Point","coordinates":[-70.69,41.965]}},{"properties":{"city":"Quincy","governor":1,"jobs":1,"fieldevent":0,"mapped":2,"latitude":42.241799,"laborjobsite":0,"seniors":0,"bostonpress":0,"schoolvisit":0,"advocacy":0,"localpress":0,"dpcfund":0,"teachers":0,"statehouse":0,"longitude":-71.006042,"id":"a6h7t51k0y0p","state":"Massachusetts"},"type":"Feature","geometry":{"type":"Point","coordinates":[-71.006042,42.241799]}},{"properties":{"city":"Revere","governor":0,"jobs":3,"fieldevent":0,"mapped":3,"latitude":42.437,"laborjobsite":0,"seniors":0,"bostonpress":0,"schoolvisit":0,"advocacy":0,"localpress":0,"dpcfund":0,"teachers":0,"statehouse":0,"longitude":-71.003,"id":"a6h7t563cpux","state":"Massachusetts"},"type":"Feature","geometry":{"type":"Point","coordinates":[-71.003,42.437]}},{"properties":{"city":"Saugus","governor":0,"jobs":0,"fieldevent":1,"mapped":1,"latitude":42.472112,"laborjobsite":0,"seniors":0,"bostonpress":0,"schoolvisit":0,"advocacy":0,"localpress":0,"dpcfund":0,"teachers":0,"statehouse":0,"longitude":-70.997794,"id":"a6h7t51qld5s","state":"Massachusetts"},"type":"Feature","geometry":{"type":"Point","coordinates":[-70.997794,42.472112]}},{"properties":{"city":"Springfield","governor":2,"jobs":1,"fieldevent":3,"mapped":6,"latitude":42.101483,"laborjobsite":0,"seniors":0,"bostonpress":0,"schoolvisit":0,"advocacy":0,"localpress":0,"dpcfund":0,"teachers":0,"statehouse":0,"longitude":-72.589811,"id":"a6h7t52m939k","state":"Massachusetts"},"type":"Feature","geometry":{"type":"Point","coordinates":[-72.589811,42.101483]}},{"properties":{"city":"Sturbridge","governor":0,"jobs":1,"fieldevent":0,"mapped":1,"latitude":42.10273,"laborjobsite":0,"seniors":0,"bostonpress":0,"schoolvisit":0,"advocacy":0,"localpress":0,"dpcfund":0,"teachers":0,"statehouse":0,"longitude":-72.080996,"id":"a6h7t53vdkja","state":"Massachusetts"},"type":"Feature","geometry":{"type":"Point","coordinates":[-72.080996,42.10273]}},{"properties":{"city":"Swampscott","governor":0,"jobs":0,"fieldevent":1,"mapped":1,"latitude":42.513295,"laborjobsite":0,"seniors":0,"bostonpress":0,"schoolvisit":0,"advocacy":0,"localpress":0,"dpcfund":0,"teachers":0,"statehouse":0,"longitude":-70.905893,"id":"a6h7t53q1laj","state":"Massachusetts"},"type":"Feature","geometry":{"type":"Point","coordinates":[-70.905893,42.513295]}},{"properties":{"city":"Taunton","governor":3,"jobs":1,"fieldevent":1,"mapped":8,"latitude":41.731,"laborjobsite":0,"seniors":0,"bostonpress":0,"schoolvisit":1,"advocacy":1,"localpress":0,"dpcfund":1,"teachers":1,"statehouse":0,"longitude":-71.117,"id":"a6h7t5593w05","state":"Massachusetts"},"type":"Feature","geometry":{"type":"Point","coordinates":[-71.117,41.731]}},{"properties":{"city":"Walpole","governor":0,"jobs":0,"fieldevent":1,"mapped":1,"latitude":42.148624,"laborjobsite":0,"seniors":0,"bostonpress":0,"schoolvisit":0,"advocacy":0,"localpress":0,"dpcfund":0,"teachers":0,"statehouse":0,"longitude":-71.255533,"id":"a6h7t57icx4s","state":"Massachusetts"},"type":"Feature","geometry":{"type":"Point","coordinates":[-71.255533,42.148624]}},{"properties":{"city":"Waltham","governor":1,"jobs":2,"fieldevent":1,"mapped":5,"latitude":42.388938,"laborjobsite":0,"seniors":0,"bostonpress":0,"schoolvisit":0,"advocacy":1,"localpress":0,"dpcfund":1,"teachers":0,"statehouse":0,"longitude":-71.2398,"id":"a6h7t55q4g3v","state":"Massachusetts"},"type":"Feature","geometry":{"type":"Point","coordinates":[-71.2398,42.388938]}},{"properties":{"city":"Watertown","governor":0,"jobs":0,"fieldevent":1,"mapped":2,"latitude":42.372596,"laborjobsite":0,"seniors":0,"bostonpress":0,"schoolvisit":0,"advocacy":1,"localpress":0,"dpcfund":0,"teachers":0,"statehouse":0,"longitude":-71.177998,"id":"a6h7t57bk31s","state":"Massachusetts"},"type":"Feature","geometry":{"type":"Point","coordinates":[-71.177998,42.372596]}},{"properties":{"city":"Wellesley","governor":0,"jobs":0,"fieldevent":0,"mapped":0,"latitude":42.300596,"laborjobsite":0,"seniors":0,"bostonpress":0,"schoolvisit":0,"advocacy":0,"localpress":0,"dpcfund":1,"teachers":0,"statehouse":0,"longitude":-71.27875,"id":"a6h7t4w0bvvd","state":"Massachusetts"},"type":"Feature","geometry":{"type":"Point","coordinates":[-71.27875,42.300596]}},{"properties":{"city":"Westford","governor":0,"jobs":1,"fieldevent":0,"mapped":1,"latitude":42.612,"laborjobsite":0,"seniors":0,"bostonpress":0,"schoolvisit":0,"advocacy":0,"localpress":0,"dpcfund":0,"teachers":0,"statehouse":0,"longitude":-71.457,"id":"a6h7t4u5y1hf","state":"Massachusetts"},"type":"Feature","geometry":{"type":"Point","coordinates":[-71.457,42.612]}},{"properties":{"city":"Westwood","governor":0,"jobs":0,"fieldevent":0,"mapped":0,"latitude":42.220548,"laborjobsite":0,"seniors":0,"bostonpress":0,"schoolvisit":0,"advocacy":0,"localpress":0,"dpcfund":1,"teachers":0,"statehouse":0,"longitude":-71.199238,"id":"a6h7t4ynkeug","state":"Massachusetts"},"type":"Feature","geometry":{"type":"Point","coordinates":[-71.199238,42.220548]}},{"properties":{"city":"Woburn","governor":1,"jobs":0,"fieldevent":0,"mapped":1,"latitude":42.488595,"laborjobsite":0,"seniors":0,"bostonpress":0,"schoolvisit":0,"advocacy":0,"localpress":0,"dpcfund":0,"teachers":0,"statehouse":0,"longitude":-71.157271,"id":"a6h7t53dw7rj","state":"Massachusetts"},"type":"Feature","geometry":{"type":"Point","coordinates":[-71.157271,42.488595]}},{"properties":{"city":"Worcester","governor":4,"jobs":0,"fieldevent":1,"mapped":6,"latitude":42.262593,"laborjobsite":0,"seniors":0,"bostonpress":0,"schoolvisit":1,"advocacy":0,"localpress":0,"dpcfund":0,"teachers":0,"statehouse":0,"longitude":-71.802293,"id":"a6h7t574om5v","state":"Massachusetts"},"type":"Feature","geometry":{"type":"Point","coordinates":[-71.802293,42.262593]}},{"properties":{"city":"Sharon","governor":0,"jobs":0,"fieldevent":1,"mapped":1,"latitude":42.1243,"laborjobsite":0,"seniors":0,"bostonpress":0,"schoolvisit":0,"advocacy":0,"localpress":0,"dpcfund":0,"teachers":0,"statehouse":0,"longitude":-71.1833,"id":"a6h7t4wgx5ov","state":"Massachusetts"},"type":"Feature","geometry":{"type":"Point","coordinates":[-71.1833,42.1243]}},{"properties":{"city":"Medway","governor":0,"jobs":0,"fieldevent":1,"mapped":1,"latitude":42.1094,"laborjobsite":0,"seniors":0,"bostonpress":0,"schoolvisit":0,"advocacy":0,"localpress":0,"dpcfund":0,"teachers":0,"statehouse":0,"longitude":-71.4034,"id":"a6h7t53cigog","state":"Massachusetts"},"type":"Feature","geometry":{"type":"Point","coordinates":[-71.4034,42.1094]}},{"properties":{"city":"Holliston","governor":0,"jobs":0,"fieldevent":1,"mapped":1,"latitude":42.164,"laborjobsite":0,"seniors":0,"bostonpress":0,"schoolvisit":0,"advocacy":0,"localpress":0,"dpcfund":0,"teachers":0,"statehouse":0,"longitude":-71.457,"id":"a6h7t4r58aaz","state":"Massachusetts"},"type":"Feature","geometry":{"type":"Point","coordinates":[-71.457,42.164]}},{"properties":{"city":"Randolph","governor":1,"jobs":0,"fieldevent":0,"mapped":1,"latitude":42.189,"laborjobsite":0,"seniors":0,"bostonpress":0,"schoolvisit":0,"advocacy":0,"localpress":0,"dpcfund":0,"teachers":0,"statehouse":0,"longitude":-71.057,"id":"a6h7t50ovcux","state":"Massachusetts"},"type":"Feature","geometry":{"type":"Point","coordinates":[-71.057,42.189]}},{"properties":{"city":"Salem","governor":1,"jobs":1,"fieldevent":0,"mapped":2,"latitude":42.537,"laborjobsite":0,"seniors":0,"bostonpress":0,"schoolvisit":0,"advocacy":0,"localpress":0,"dpcfund":0,"teachers":0,"statehouse":0,"longitude":-70.876,"id":"a6h7t556f9sp","state":"Massachusetts"},"type":"Feature","geometry":{"type":"Point","coordinates":[-70.876,42.537]}},{"properties":{"city":"Dedham","governor":1,"jobs":0,"fieldevent":0,"mapped":1,"latitude":42.254,"laborjobsite":0,"seniors":0,"bostonpress":0,"schoolvisit":0,"advocacy":0,"localpress":0,"dpcfund":0,"teachers":0,"statehouse":0,"longitude":-71.19,"id":"a6h7t56f52ju","state":"Massachusetts"},"type":"Feature","geometry":{"type":"Point","coordinates":[-71.19,42.254]}},{"properties":{"city":"East Sandwich","governor":1,"jobs":0,"fieldevent":0,"mapped":1,"latitude":41.731,"laborjobsite":0,"seniors":0,"bostonpress":0,"schoolvisit":0,"advocacy":0,"localpress":0,"dpcfund":0,"teachers":0,"statehouse":0,"longitude":-70.423,"id":"a6h7t4syrfkn","state":"Massachusetts"},"type":"Feature","geometry":{"type":"Point","coordinates":[-70.423,41.731]}},{"properties":{"city":"Hingham","governor":0,"jobs":0,"fieldevent":0,"mapped":1,"latitude":42.2487,"laborjobsite":0,"seniors":1,"bostonpress":0,"schoolvisit":0,"advocacy":0,"localpress":0,"dpcfund":0,"teachers":0,"statehouse":0,"longitude":-70.8967,"id":"a6h7t543qjrn","state":"Massachusetts"},"type":"Feature","geometry":{"type":"Point","coordinates":[-70.8967,42.2487]}},{"properties":{"city":"Scituate","governor":0,"jobs":0,"fieldevent":0,"mapped":0,"latitude":42.2089,"laborjobsite":0,"seniors":0,"bostonpress":0,"schoolvisit":0,"advocacy":0,"localpress":0,"dpcfund":1,"teachers":0,"statehouse":0,"longitude":-70.75,"id":"a6h7t56238fe","state":"Massachusetts"},"type":"Feature","geometry":{"type":"Point","coordinates":[-70.75,42.2089]}},{"properties":{"city":"Duxbury","governor":0,"jobs":0,"fieldevent":1,"mapped":1,"latitude":42.055,"laborjobsite":0,"seniors":0,"bostonpress":0,"schoolvisit":0,"advocacy":0,"localpress":0,"dpcfund":0,"teachers":0,"statehouse":0,"longitude":-70.677,"id":"a6h7t4thre3l","state":"Massachusetts"},"type":"Feature","geometry":{"type":"Point","coordinates":[-70.677,42.055]}},{"properties":{"city":"Abington","governor":1,"jobs":0,"fieldevent":0,"mapped":1,"latitude":42.134,"laborjobsite":0,"seniors":0,"bostonpress":0,"schoolvisit":0,"advocacy":0,"localpress":0,"dpcfund":0,"teachers":0,"statehouse":0,"longitude":-70.97,"id":"a6h7t4wbj78m","state":"Massachusetts"},"type":"Feature","geometry":{"type":"Point","coordinates":[-70.97,42.134]}},{"properties":{"city":"Norwood","governor":1,"jobs":0,"fieldevent":0,"mapped":1,"latitude":42.199,"laborjobsite":0,"seniors":0,"bostonpress":0,"schoolvisit":0,"advocacy":0,"localpress":0,"dpcfund":0,"teachers":0,"statehouse":0,"longitude":-71.21,"id":"a6h7t4vv3c2z","state":"Massachusetts"},"type":"Feature","geometry":{"type":"Point","coordinates":[-71.21,42.199]}},{"properties":{"city":"Somerville","governor":4,"jobs":3,"fieldevent":0,"mapped":7,"latitude":42.398,"laborjobsite":0,"seniors":0,"bostonpress":0,"schoolvisit":0,"advocacy":0,"localpress":0,"dpcfund":0,"teachers":0,"statehouse":0,"longitude":-71.103,"id":"a6h7t4vy9xx1","state":"Massachusetts"},"type":"Feature","geometry":{"type":"Point","coordinates":[-71.103,42.398]}},{"properties":{"city":"Hopkinton","governor":0,"jobs":2,"fieldevent":0,"mapped":2,"latitude":42.234,"laborjobsite":0,"seniors":0,"bostonpress":0,"schoolvisit":0,"advocacy":0,"localpress":0,"dpcfund":0,"teachers":0,"statehouse":0,"longitude":-71.53,"id":"a6h7t551zbjv","state":"Massachusetts"},"type":"Feature","geometry":{"type":"Point","coordinates":[-71.53,42.234]}}],"is_temporal":false,"author":{"url":"","metadata":"","contact_name":"","contact_address":"","source":"","contact_phone":""},"source":"","pagination":{"sort":null,"start":0,"total":75,"limit":1000000},"state":"complete","tags":"","published":"2014-08-10T14:49:20-04:00","id":34210}