{"type":"FeatureCollection","data_type":"Dataset","url_type":null,"permissions":[{"permissions":{"download":true,"edit":true,"view":true},"group_id":"everyone"}],"classification":null,"title":"Test","count":65,"stream_id":343198,"contributor":{"url":"http://geocommons.com/users/69407","name":"tomvranas"},"data_attributes":null,"calculation_params":null,"icon_link":null,"link":"http://geocommons.com/overlays/343198.json","extent":[0.0,0.0,0.0,0.0],"geometry_types":[],"unique_name":null,"name":"Test","feature_count":65,"description":"","next_feature":null,"is_raster":false,"short_classification":"Y","stats":{},"features":[{"properties":{"name":"Dan Decker","city":"Aurora","district":"Aurora R-VIII School District","geo_score":0.0,"id":"adhpumejic1x","geo_precision":"unmatched","state":"MO"},"type":"Feature","geometry":null},{"properties":{"name":"Dallas Dance","city":"Baltimore","district":"Baltimore County Public Schools","geo_score":0.0,"id":"adhpumc6f7gq","geo_precision":"unmatched","state":"MD"},"type":"Feature","geometry":null},{"properties":{"name":"Marian Brown","city":null,"district":"Benjamin Banneker Charter School District","geo_score":0.0,"id":"adhpume1e6xe","geo_precision":"","state":null},"type":"Feature","geometry":null},{"properties":{"name":"David Baugh","city":null,"district":"Bensalem Township School District","geo_score":0.0,"id":"adhpum5pots1","geo_precision":"","state":null},"type":"Feature","geometry":null},{"properties":{"name":"Judith Lundsten","city":null,"district":"Cranston Public Schools","geo_score":0.0,"id":"adhpumbndzsf","geo_precision":"","state":null},"type":"Feature","geometry":null},{"properties":{"name":"Russell Ragon","city":null,"district":"Cumberland CUSD 77","geo_score":0.0,"id":"adhpumb24yns","geo_precision":"","state":null},"type":"Feature","geometry":null},{"properties":{"name":"Ana Riley","city":null,"district":"Dartmouth Public Schools","geo_score":0.0,"id":"adhpum2h9njx","geo_precision":"","state":null},"type":"Feature","geometry":null},{"properties":{"name":"Michael Bregy","city":null,"district":"District 300 Schools","geo_score":0.0,"id":"adhpum4cqcrf","geo_precision":"","state":null},"type":"Feature","geometry":null},{"properties":{"name":"Scott Helton","city":null,"district":"DuPage High School District 88","geo_score":0.0,"id":"adhpumg7refd","geo_precision":"","state":null},"type":"Feature","geometry":null},{"properties":{"name":"Bernard Taylor","city":null,"district":"East Baton Rouge Parrish Schools","geo_score":0.0,"id":"adhpumgibajk","geo_precision":"","state":null},"type":"Feature","geometry":null},{"properties":{"name":"Richard Tomko","city":null,"district":"Elmwood Park Public Schools","geo_score":0.0,"id":"adhpum9mvi17","geo_precision":"","state":null},"type":"Feature","geometry":null},{"properties":{"name":"Davida Irving","city":null,"district":"Foster, RI","geo_score":0.0,"id":"adhpum96joxo","geo_precision":"","state":null},"type":"Feature","geometry":null},{"properties":{"name":"Scott Bogner","city":null,"district":"Grant Public Schools","geo_score":0.0,"id":"adhpum6jnfhu","geo_precision":"","state":null},"type":"Feature","geometry":null},{"properties":{"name":"Timothy Farley","city":null,"district":"Granville","geo_score":0.0,"id":"adhpum4twjuw","geo_precision":"","state":null},"type":"Feature","geometry":null},{"properties":{"name":"Nicholas Young","city":null,"district":"Hadley Public Schools","geo_score":0.0,"id":"adhpum9sxgxf","geo_precision":"","state":null},"type":"Feature","geometry":null},{"properties":{"name":"Brett Stanton","city":null,"district":"Haralson County Schools","geo_score":0.0,"id":"adhpum5f3wn3","geo_precision":"","state":null},"type":"Feature","geometry":null},{"properties":{"name":"Julie Morris","city":null,"district":"Harlem Consolidated SD #122","geo_score":0.0,"id":"adhpum1u27b6","geo_precision":"","state":null},"type":"Feature","geometry":null},{"properties":{"name":"TJ Parks","city":null,"district":"Hobbs Municipal Schools","geo_score":0.0,"id":"adhpumdzomwp","geo_precision":"","state":null},"type":"Feature","geometry":null},{"properties":{"name":"Verna Ruffin","city":null,"district":"Jackson-Madison County","geo_score":0.0,"id":"adhpumacadjb","geo_precision":"","state":null},"type":"Feature","geometry":null},{"properties":{"name":"Les  Huddle","city":null,"district":"Jacksonville School District #117","geo_score":0.0,"id":"adhpum2g4vho","geo_precision":"","state":null},"type":"Feature","geometry":null},{"properties":{"name":"Valorie Moore","city":null,"district":"Lindop District 92","geo_score":0.0,"id":"adhpumdoex6s","geo_precision":"","state":null},"type":"Feature","geometry":null},{"properties":{"name":"Lisa Wilmore","city":null,"district":"Madison Parish School District","geo_score":0.0,"id":"adhpumh15a1a","geo_precision":"","state":null},"type":"Feature","geometry":null},{"properties":{"name":"Gerri Martin","city":null,"district":"McDowell County Schools","geo_score":0.0,"id":"adhpum81fg9i","geo_precision":"","state":null},"type":"Feature","geometry":null},{"properties":{"name":"Demond Means","city":null,"district":"Mequon-Thiensville School District","geo_score":0.0,"id":"adhpum4o7wz7","geo_precision":"","state":null},"type":"Feature","geometry":null},{"properties":{"name":"Stevie Roberts","city":null,"district":"Miracle Educational Systems, INC.","geo_score":0.0,"id":"adhpum9s1z2o","geo_precision":"","state":null},"type":"Feature","geometry":null},{"properties":{"name":"John Jungmann","city":null,"district":"Monett R-1 School District","geo_score":0.0,"id":"adhpum4r39xu","geo_precision":"","state":null},"type":"Feature","geometry":null},{"properties":{"name":"John Ewald","city":null,"district":"Montgomery County Public Schools","geo_score":0.0,"id":"adhpum6e5lcf","geo_precision":"","state":null},"type":"Feature","geometry":null},{"properties":{"name":"Phil Collins","city":null,"district":"Morton Grove School District 70","geo_score":0.0,"id":"adhpume01eic","geo_precision":"","state":null},"type":"Feature","geometry":null},{"properties":{"name":"Mary Todora","city":null,"district":"Neshannock Township SD","geo_score":0.0,"id":"adhpumgkcr2n","geo_precision":"","state":null},"type":"Feature","geometry":null},{"properties":{"name":"Karen Perry","city":null,"district":"Oakwood CUSD #76","geo_score":0.0,"id":"adhpumdmdy9z","geo_precision":"","state":null},"type":"Feature","geometry":null},{"properties":{"name":"Lisa Gonzales","city":null,"district":"Odem-Edroy ISD","geo_score":0.0,"id":"adhpumafoy3a","geo_precision":"","state":null},"type":"Feature","geometry":null},{"properties":{"name":"Cynthia Wilson","city":null,"district":"Orangeburg Consolidated School District 5","geo_score":0.0,"id":"adhpum2q0j79","geo_precision":"","state":null},"type":"Feature","geometry":null},{"properties":{"name":"Titus Campos","city":null,"district":"Para los Ninos Charter Schools","geo_score":0.0,"id":"adhpumcjwjqp","geo_precision":"","state":null},"type":"Feature","geometry":null},{"properties":{"name":"Louise Johnson","city":null,"district":"Ripon Unified School District","geo_score":0.0,"id":"adhpumalnte3","geo_precision":"","state":null},"type":"Feature","geometry":null},{"properties":{"name":"Dennis Sawyer","city":null,"district":"Roanoke Rapids Graded School District","geo_score":0.0,"id":"adhpumgcaotb","geo_precision":"","state":null},"type":"Feature","geometry":null},{"properties":{"name":"Earl Metzler","city":null,"district":"SAU 55","geo_score":0.0,"id":"adhpumbmpbdh","geo_precision":"","state":null},"type":"Feature","geometry":null},{"properties":{"name":"Carlos Lopez","city":null,"district":"School District of the City of River Rouge, Michigan","geo_score":0.0,"id":"adhpum6qlsjw","geo_precision":"","state":null},"type":"Feature","geometry":null},{"properties":{"name":"Rick Stout","city":null,"district":"Scotland County","geo_score":0.0,"id":"adhpumfku7do","geo_precision":"","state":null},"type":"Feature","geometry":null},{"properties":{"name":"David Peterson","city":null,"district":"Scottsdale Unified","geo_score":0.0,"id":"adhpum6g7cva","geo_precision":"","state":null},"type":"Feature","geometry":null},{"properties":{"name":"William King","city":null,"district":"Scranton Scholl District","geo_score":0.0,"id":"adhpum1pgzjt","geo_precision":"","state":null},"type":"Feature","geometry":null},{"properties":{"name":"Janelle James","city":null,"district":"Southwest Schools","geo_score":0.0,"id":"adhpum0nc5kw","geo_precision":"","state":null},"type":"Feature","geometry":null},{"properties":{"name":"Charles Rick","city":null,"district":"St. Louis County Schools, ISD 2142","geo_score":0.0,"id":"adhpumd6r63b","geo_precision":"","state":null},"type":"Feature","geometry":null},{"properties":{"name":"Angelina Bua","city":null,"district":"Steaward ESD 220","geo_score":0.0,"id":"adhpum0tv8y4","geo_precision":"","state":null},"type":"Feature","geometry":null},{"properties":{"name":"Lynne Celli","city":null,"district":"Swampscott Public Schools","geo_score":0.0,"id":"adhpum2zvj85","geo_precision":"","state":null},"type":"Feature","geometry":null},{"properties":{"name":"Timothy Long","city":null,"district":"The Jay School Corporation","geo_score":0.0,"id":"adhpumdra7a1","geo_precision":"","state":null},"type":"Feature","geometry":null},{"properties":{"name":"Rebecca Lowry","city":null,"district":"Westmoreland County Public Schools","geo_score":0.0,"id":"adhpum4pz05c","geo_precision":"","state":null},"type":"Feature","geometry":null},{"properties":{"name":"Edward Lyman","city":null,"district":"Westwood ISD","geo_score":0.0,"id":"adhpumavocmd","geo_precision":"","state":null},"type":"Feature","geometry":null},{"properties":{"name":"Donald Andrews","city":null,"district":"Randolph County Schools","geo_score":0.0,"id":"adhpum4iy74e","geo_precision":"","state":null},"type":"Feature","geometry":null},{"properties":{"name":"Helen Ballard","city":null,"district":"Prince Georges County","geo_score":0.0,"id":"adhpum1wwy15","geo_precision":"","state":null},"type":"Feature","geometry":null},{"properties":{"name":"Warletta Brookins","city":null,"district":"Permbroke #259","geo_score":0.0,"id":"adhpum7uxvlt","geo_precision":"","state":null},"type":"Feature","geometry":null},{"properties":{"name":"Kathy Countryman","city":null,"district":"Sycamore Community Schools","geo_score":0.0,"id":"adhpumdws5zp","geo_precision":"","state":null},"type":"Feature","geometry":null},{"properties":{"name":"Fred Czerwonka","city":null,"district":"West Plains Public Schools","geo_score":0.0,"id":"adhpum671jij","geo_precision":"","state":null},"type":"Feature","geometry":null},{"properties":{"name":"Mervin Daugherty","city":null,"district":"Red Clay Consolidated School District","geo_score":0.0,"id":"adhpumd93bbh","geo_precision":"","state":null},"type":"Feature","geometry":null},{"properties":{"name":"James Hammack","city":null,"district":"Hinckley-Big Rock CUSD #429","geo_score":0.0,"id":"adhpum9yjz2t","geo_precision":"","state":null},"type":"Feature","geometry":null},{"properties":{"name":"Anthony Jackson","city":null,"district":"Nash-Rocky Mount Public Schools","geo_score":0.0,"id":"adhpum5j3a8y","geo_precision":"","state":null},"type":"Feature","geometry":null},{"properties":{"name":"Mike Kuzniewski","city":null,"district":"J Sterling Morton High School District 201","geo_score":0.0,"id":"adhpume6oz4p","geo_precision":"","state":null},"type":"Feature","geometry":null},{"properties":{"name":"Colleen A. Legge","city":null,"district":"Kankakee SD 111","geo_score":0.0,"id":"adhpum8501a4","geo_precision":"","state":null},"type":"Feature","geometry":null},{"properties":{"name":"Thomas Mahoney","city":null,"district":"Oregon CUSD 220","geo_score":0.0,"id":"adhpumfb2lfi","geo_precision":"","state":null},"type":"Feature","geometry":null},{"properties":{"name":"Timothy Markley","city":null,"district":"New Hanover County Schools","geo_score":0.0,"id":"adhpum6sldjc","geo_precision":"","state":null},"type":"Feature","geometry":null},{"properties":{"name":"Michael McFarland","city":null,"district":"Lancaster Independent School District","geo_score":0.0,"id":"adhpum6coyzc","geo_precision":"","state":null},"type":"Feature","geometry":null},{"properties":{"name":"Carolyn Medlock","city":null,"district":"Macon County","geo_score":0.0,"id":"adhpum5hf0nh","geo_precision":"","state":null},"type":"Feature","geometry":null},{"properties":{"name":"Manuel Rodriguez","city":null,"district":"Trinidad School District # 1","geo_score":0.0,"id":"adhpumaslpbz","geo_precision":"","state":null},"type":"Feature","geometry":null},{"properties":{"name":"Randy Rutherford","city":null,"district":"Bryant School District","geo_score":0.0,"id":"adhpum2l8hhu","geo_precision":"","state":null},"type":"Feature","geometry":null},{"properties":{"name":"Deonia Simmons","city":null,"district":"Hampton County School District 2","geo_score":0.0,"id":"adhpum2g7h4s","geo_precision":"","state":null},"type":"Feature","geometry":null},{"properties":{"name":"Angel Carlos Vega","city":null,"district":"San Ardo Union Elementary","geo_score":0.0,"id":"adhpum49u2ry","geo_precision":"","state":null},"type":"Feature","geometry":null}],"is_temporal":false,"author":{"url":"","metadata":null,"contact_name":null,"contact_address":null,"source":null,"contact_phone":null},"source":"","pagination":{"sort":null,"start":0,"total":65,"limit":1000000},"state":"complete","tags":"","published":"2014-08-16T16:43:06-04:00","id":343198}