{"type":"FeatureCollection","data_type":"Dataset","url_type":null,"permissions":[{"permissions":{"download":true,"view":true},"group_id":"everyone"}],"classification":null,"title":"TDSBSchool MTM3","count":588,"stream_id":346262,"contributor":{"url":"http://geocommons.com/users/25180","name":"jpasalis"},"data_attributes":null,"calculation_params":null,"icon_link":null,"link":"http://geocommons.com/overlays/346262.json","extent":[360.0,180.0,360.0,180.0],"geometry_types":["point"],"unique_name":null,"name":"TDSBSchool MTM3","feature_count":588,"description":"","next_feature":null,"is_raster":false,"short_classification":"Y","stats":{},"features":[{"properties":{"City":"East York","PostalCode":"M4H 1K3","SchName":"Thorncliffe Park Public School","METPanelID":"E","id":"adnll50ewedw","Address":"80 Thorncliffe Park Drive"},"type":"Feature","geometry":{"type":"Point","coordinates":[317398.877926735,4840370.63571906]}},{"properties":{"City":"Etobicoke","PostalCode":"M9V 2C9","SchName":"Highfield Junior School","METPanelID":"E","id":"adnll5121uau","Address":"85 Mount Olive Drive"},"type":"Feature","geometry":{"type":"Point","coordinates":[297592.229624302,4844877.03292181]}},{"properties":{"City":"North York","PostalCode":"M4A 1T7","SchName":"Victoria Village Public School","METPanelID":"E","id":"adnll5d6hkt4","Address":"88 Sweeney Drive"},"type":"Feature","geometry":{"type":"Point","coordinates":[319751.011444238,4843795.91644559]}},{"properties":{"City":"North York","PostalCode":"M3C 1C3","SchName":"Grenoble Public School","METPanelID":"E","id":"adnll5g314z0","Address":"9 Grenoble Drive"},"type":"Feature","geometry":{"type":"Point","coordinates":[318255.022170772,4841503.16419082]}},{"properties":{"City":"Scarborough","PostalCode":"M1R 3V8","SchName":"Manhattan Park Junior Public School","METPanelID":"E","id":"adnll50w144l","Address":"90 Manhattan Drive"},"type":"Feature","geometry":{"type":"Point","coordinates":[321271.796827401,4845736.95315722]}},{"properties":{"City":"North York","PostalCode":"M2J 3Y6","SchName":"Brian Public School","METPanelID":"E","id":"adnll50ee9gu","Address":"95 Brian Drive"},"type":"Feature","geometry":{"type":"Point","coordinates":[318326.035972269,4848944.98648445]}},{"properties":{"City":"Toronto","PostalCode":"M5N 2M6","SchName":"North Preparatory Junior Public School","METPanelID":"E","id":"adnll5ceo7kw","Address":"1100 Spadina Road"},"type":"Feature","geometry":{"type":"Point","coordinates":[311203.976995658,4840414.26284776]}},{"properties":{"City":"Etobicoke","PostalCode":"M9R 3C8","SchName":"Kingsview Village Junior School","METPanelID":"E","id":"adnll5fosk6p","Address":"1 York Road"},"type":"Feature","geometry":{"type":"Point","coordinates":[300684.385012862,4839526.95316913]}},{"properties":{"City":"Scarborough","PostalCode":"M1M 3N8","SchName":"Bliss Carman Senior Public School","METPanelID":"E","id":"adnll5a5dwwy","Address":"10 Bellamy Road South"},"type":"Feature","geometry":{"type":"Point","coordinates":[326895.601800277,4843433.16561015]}},{"properties":{"City":"North York","PostalCode":"M6A 2N4","SchName":"Flemington Public School","METPanelID":"E","id":"adnll5bcaxl8","Address":"10 Flemington Road"},"type":"Feature","geometry":{"type":"Point","coordinates":[309268.735176432,4842056.86182413]}},{"properties":{"City":"Etobicoke","PostalCode":"M9C 2H3","SchName":"Bloordale Middle School","METPanelID":"E","id":"adnll576ta4o","Address":"10 Toledo Road"},"type":"Feature","geometry":{"type":"Point","coordinates":[298946.608026896,4833029.46386889]}},{"properties":{"City":"Scarborough","PostalCode":"M1N 2T6","SchName":"Courcelette Public School","METPanelID":"E","id":"adnll50t2cap","Address":"100 Fallingbrook Road"},"type":"Feature","geometry":{"type":"Point","coordinates":[322631.016809218,4837508.57007054]}},{"properties":{"City":"North York","PostalCode":"M3J 1R7","SchName":"Derrydown Public School","METPanelID":"E","id":"adnll50xa8oz","Address":"120 Derrydown Road"},"type":"Feature","geometry":{"type":"Point","coordinates":[305289.006826859,4846306.64365036]}},{"properties":{"City":"West Hill","PostalCode":"M1E 1W7","SchName":"Maplewood High School","METPanelID":"S","id":"adnll53aqzcf","Address":"120 Galloway Road"},"type":"Feature","geometry":{"type":"Point","coordinates":[329368.290317961,4846386.42787455]}},{"properties":{"City":"Scarborough","PostalCode":"M1G 3G9","SchName":"George B Little Public School","METPanelID":"E","id":"adnll5fi1r86","Address":"125 Orton Park Road"},"type":"Feature","geometry":{"type":"Point","coordinates":[328283.021908204,4847734.61558993]}},{"properties":{"City":"Etobicoke","PostalCode":"M9B 5K1","SchName":"John G Althouse Middle School","METPanelID":"E","id":"adnll59r00zw","Address":"130 Lloyd Manor Road"},"type":"Feature","geometry":{"type":"Point","coordinates":[300416.576835351,4836269.15531818]}},{"properties":{"City":"Scarborough","PostalCode":"M1J 1G5","SchName":"Pringdale Gardens Junior Public School","METPanelID":"E","id":"adnll578a87l","Address":"1325 Danforth Road"},"type":"Feature","geometry":{"type":"Point","coordinates":[325370.148924403,4844482.29561228]}},{"properties":{"City":"York","PostalCode":"M6S 4P4","SchName":"Warren Park Junior Public School","METPanelID":"E","id":"adnll55wyw4c","Address":"135 Varsity Road"},"type":"Feature","geometry":{"type":"Point","coordinates":[304829.414814217,4835655.61135426]}},{"properties":{"City":"York","PostalCode":"M6S 2H7","SchName":"Humbercrest Public School","METPanelID":"E","id":"adnll50c0hn2","Address":"14 Saint Marks Road"},"type":"Feature","geometry":{"type":"Point","coordinates":[305505.511083027,4835390.10688498]}},{"properties":{"City":"North York","PostalCode":"M2H 2E4","SchName":"Cliffwood Public School","METPanelID":"E","id":"adnll51d9939","Address":"140 Cliffwood Road"},"type":"Feature","geometry":{"type":"Point","coordinates":[316043.099430989,4851601.58483313]}},{"properties":{"City":"York","PostalCode":"M6C 1W4","SchName":"Cedarvale Community School","METPanelID":"E","id":"adnll56bji0a","Address":"145 Ava Road"},"type":"Feature","geometry":{"type":"Point","coordinates":[310385.816808271,4839343.88451715]}},{"properties":{"City":"North York","PostalCode":"M3C 1N1","SchName":"Greenland Public School","METPanelID":"E","id":"adnll5dsziqm","Address":"15 Greenland Road"},"type":"Feature","geometry":{"type":"Point","coordinates":[317791.409729394,4843529.69348796]}},{"properties":{"City":"North York","PostalCode":"M3A 2V1","SchName":"Victoria Park Collegiate Institute","METPanelID":"S","id":"adnll5fuzae4","Address":"15 Wallingford Road"},"type":"Feature","geometry":{"type":"Point","coordinates":[319161.0291569,4846026.81871199]}},{"properties":{"City":"Agincourt","PostalCode":"M1S 2Z1","SchName":"White Haven Junior Public School","METPanelID":"E","id":"adnll5grcmw5","Address":"105 Invergordon Avenue"},"type":"Feature","geometry":{"type":"Point","coordinates":[325127.807226217,4849536.50739229]}},{"properties":{"City":"Scarborough","PostalCode":"M1R 2H1","SchName":"Wexford Public School","METPanelID":"E","id":"adnll520et6u","Address":"1050 Pharmacy Avenue"},"type":"Feature","geometry":{"type":"Point","coordinates":[320557.861855991,4844244.10454789]}},{"properties":{"City":"Etobicoke","PostalCode":"M8V 3B5","SchName":"Seventh Street Junior School","METPanelID":"E","id":"adnll5g62ls8","Address":"101 Seventh Street"},"type":"Feature","geometry":{"type":"Point","coordinates":[304462.289223867,4828641.84425114]}},{"properties":{"City":"Etobicoke","PostalCode":"M8Z 2R1","SchName":"Norseman Junior Middle School","METPanelID":"E","id":"adnll5100nvz","Address":"105 Norseman Street"},"type":"Feature","geometry":{"type":"Point","coordinates":[303466.404234148,4832485.42267716]}},{"properties":{"City":"North York","PostalCode":"M2M 3G1","SchName":"Lillian Public School","METPanelID":"E","id":"adnll5188epi","Address":"1059 Lillian Street"},"type":"Feature","geometry":{"type":"Point","coordinates":[311994.600557553,4850654.98649325]}},{"properties":{"City":"Toronto","PostalCode":"M4M 2A1","SchName":"Riverdale Collegiate Institute","METPanelID":"S","id":"adnll5f2rfa3","Address":"1094 Gerrard Street East"},"type":"Feature","geometry":{"type":"Point","coordinates":[318101.326897054,4836469.14568646]}},{"properties":{"City":"Toronto","PostalCode":"M5S 2P1","SchName":"King Edward Junior and Senior Public School","METPanelID":"E","id":"adnll53gp0s0","Address":"112 Lippincott Street"},"type":"Feature","geometry":{"type":"Point","coordinates":[312252.311056025,4835148.73654162]}},{"properties":{"City":"Toronto","PostalCode":"M6H 1M9","SchName":"Bloor Collegiate Institute","METPanelID":"S","id":"adnll56oc6vx","Address":"1141 Bloor Street West"},"type":"Feature","geometry":{"type":"Point","coordinates":[309866.105642307,4835237.36197885]}},{"properties":{"City":"Toronto","PostalCode":"M4J 1G6","SchName":"Monarch Park Collegiate Institute","METPanelID":"S","id":"adnll543wpb4","Address":"1 Hanson Street"},"type":"Feature","geometry":{"type":"Point","coordinates":[319024.82391166,4837482.24690633]}},{"properties":{"City":"York","PostalCode":"M9N 3A8","SchName":"C R Marchant Middle School","METPanelID":"E","id":"adnll57ifyks","Address":"1 Ralph Street"},"type":"Feature","geometry":{"type":"Point","coordinates":[303741.773494473,4839974.99034087]}},{"properties":{"City":"Etobicoke","PostalCode":"M9R 3H1","SchName":"Central Etobicoke High School","METPanelID":"S","id":"adnll5ehkto5","Address":"10 Denfield Street"},"type":"Feature","geometry":{"type":"Point","coordinates":[300310.168708571,4837454.16109426]}},{"properties":{"City":"York","PostalCode":"M9N 2Y9","SchName":"Weston Collegiate Institute","METPanelID":"S","id":"adnll5565yyr","Address":"100 Pine Street"},"type":"Feature","geometry":{"type":"Point","coordinates":[304024.851695649,4840207.64597003]}},{"properties":{"City":"Toronto","PostalCode":"M5T 1V1","SchName":"Contact Alternative School","METPanelID":"S","id":"adnll52s3gt1","Address":"132 St Patrick Street, 3rd Floor"},"type":"Feature","geometry":{"type":"Point","coordinates":[313629.302452327,4834648.91424846]}},{"properties":{"City":"Scarborough","PostalCode":"M1J 3P2","SchName":"Scarborough Village Public School","METPanelID":"E","id":"adnll5eddu57","Address":"15 Luella Street"},"type":"Feature","geometry":{"type":"Point","coordinates":[327149.547731514,4844720.70496982]}},{"properties":{"City":"Toronto","PostalCode":"M4X 1C7","SchName":"Winchester Junior and Senior Public School","METPanelID":"E","id":"adnll58hm8ik","Address":"15 Prospect Street"},"type":"Feature","geometry":{"type":"Point","coordinates":[315189.212860389,4836050.12938776]}},{"properties":{"City":"York","PostalCode":"M6M 3W5","SchName":"George Harvey Collegiate Institute","METPanelID":"S","id":"adnll5c7qknw","Address":"1700 Keele Street"},"type":"Feature","geometry":{"type":"Point","coordinates":[306938.713796591,4838048.66152672]}},{"properties":{"City":"Toronto","PostalCode":"M5T 1N7","SchName":"Orde Street Junior Public School","METPanelID":"E","id":"adnll522gsp5","Address":"18 Orde Street"},"type":"Feature","geometry":{"type":"Point","coordinates":[313474.123940669,4835192.82863274]}},{"properties":{"City":"Toronto","PostalCode":"M5A 3E1","SchName":"Inglenook Community School","METPanelID":"S","id":"adnll56wq50l","Address":"19 Sackville Street"},"type":"Feature","geometry":{"type":"Point","coordinates":[316125.35937406,4834679.95990826]}},{"properties":{"City":"York","PostalCode":"M6M 3X7","SchName":"Charles E Webster Junior Public School","METPanelID":"E","id":"adnll594t97r","Address":"1900 Keele Street"},"type":"Feature","geometry":{"type":"Point","coordinates":[306791.429035154,4839054.42069278]}},{"properties":{"City":"Toronto","PostalCode":"M5V 2M1","SchName":"ALPHA Alternative Junior School","METPanelID":"E","id":"adnll5f6n9hk","Address":"20 Brant Street"},"type":"Feature","geometry":{"type":"Point","coordinates":[312994.99882263,4833758.38564135]}},{"properties":{"City":"Toronto","PostalCode":"M5V 2M1","SchName":"Oasis Alternative Secondary School","METPanelID":"S","id":"adnll5com20x","Address":"20 Brant Street"},"type":"Feature","geometry":{"type":"Point","coordinates":[312994.99882263,4833758.38564135]}},{"properties":{"City":"Toronto","PostalCode":"M5A 3N6","SchName":"Regent Park/Duke of York Junior Public School","METPanelID":"E","id":"adnll5gls44i","Address":"20 Regent Street"},"type":"Feature","geometry":{"type":"Point","coordinates":[315732.444050991,4835118.45212072]}},{"properties":{"City":"West Hill","PostalCode":"M1E 2E5","SchName":"Eastview Junior Public School","METPanelID":"E","id":"adnll5fi47oh","Address":"20 Waldock Street"},"type":"Feature","geometry":{"type":"Point","coordinates":[329645.89830015,4846383.26476306]}},{"properties":{"City":"York","PostalCode":"M9N 1K2","SchName":"Weston Memorial Junior Public School","METPanelID":"E","id":"adnll5g46ug3","Address":"200 John Street"},"type":"Feature","geometry":{"type":"Point","coordinates":[304032.288765419,4840447.80419745]}},{"properties":{"City":"Etobicoke","PostalCode":"M8Y 1B7","SchName":"George R Gauld Junior School","METPanelID":"E","id":"adnll5086lqw","Address":"200 Melrose Street"},"type":"Feature","geometry":{"type":"Point","coordinates":[304903.557332565,4830966.82387347]}},{"properties":{"City":"Toronto","PostalCode":"M6J 2L3","SchName":"Niagara Street Junior Public School","METPanelID":"E","id":"adnll5ak2i64","Address":"222 Niagara Street"},"type":"Feature","geometry":{"type":"Point","coordinates":[312186.038911473,4833559.17587779]}},{"properties":{"City":"York","PostalCode":"M6E 3S5","SchName":"Fairbank Middle School","METPanelID":"E","id":"adnll584jq9z","Address":"2335 Dufferin Street"},"type":"Feature","geometry":{"type":"Point","coordinates":[308876.391321865,4839161.46374477]}},{"properties":{"City":"Toronto","PostalCode":"M4M 3C9","SchName":"Leslieville Junior Public School","METPanelID":"E","id":"adnll5et0amg","Address":"254 Leslie Street"},"type":"Feature","geometry":{"type":"Point","coordinates":[318299.666819986,4836166.59348434]}},{"properties":{"City":"Toronto","PostalCode":"M6P 1R3","SchName":"Annette Street Junior and Senior Public School","METPanelID":"E","id":"adnll541hann","Address":"265 Annette Street"},"type":"Feature","geometry":{"type":"Point","coordinates":[306975.369380157,4835498.21859326]}},{"properties":{"City":"Toronto","PostalCode":"M6P 1R3","SchName":"High Park Alternative Junior School","METPanelID":"E","id":"adnll5ab3isk","Address":"265 Annette Street"},"type":"Feature","geometry":{"type":"Point","coordinates":[306975.369380157,4835498.21859326]}},{"properties":{"City":"Toronto","PostalCode":"M6P 1Y1","SchName":"Lucy McCormick Senior School","METPanelID":"E","id":"adnll5att2ie","Address":"2717 Dundas Street West"},"type":"Feature","geometry":{"type":"Point","coordinates":[307995.579814199,4835855.15728679]}},{"properties":{"City":"North York","PostalCode":"M3M 2G7","SchName":"Downsview Public School","METPanelID":"E","id":"adnll5ajsqzc","Address":"2829 Keele Street"},"type":"Feature","geometry":{"type":"Point","coordinates":[306199.229945488,4843240.27377126]}},{"properties":{"City":"Toronto","PostalCode":"M6G 1G5","SchName":"Harbord Collegiate Institute","METPanelID":"S","id":"adnll57qp0ze","Address":"286 Harbord Street"},"type":"Feature","geometry":{"type":"Point","coordinates":[311698.886314639,4835486.53353219]}},{"properties":{"City":"York","PostalCode":"M9N 1K9","SchName":"H J Alexander Community School","METPanelID":"E","id":"adnll5717obt","Address":"30 King Street"},"type":"Feature","geometry":{"type":"Point","coordinates":[303157.780271084,4840040.8261435]}},{"properties":{"City":"Toronto","PostalCode":"M6R 1T2","SchName":"Howard Junior Public School","METPanelID":"E","id":"adnll5fr9o2i","Address":"30 Marmaduke Street"},"type":"Feature","geometry":{"type":"Point","coordinates":[308605.363370411,4834274.11701875]}},{"properties":{"City":"Toronto","PostalCode":"M5A 2Z7","SchName":"Lord Dufferin Junior and Senior Public School","METPanelID":"E","id":"adnll5cma3ym","Address":"350 Parliament Street"},"type":"Feature","geometry":{"type":"Point","coordinates":[315514.779446216,4835439.86660194]}},{"properties":{"City":"Toronto","PostalCode":"M6N 2Z4","SchName":"Carleton Village Junior and Senior Public School","METPanelID":"E","id":"adnll5g2mbcq","Address":"315 Osler Street"},"type":"Feature","geometry":{"type":"Point","coordinates":[308007.325397674,4836712.82196671]}},{"properties":{"City":"Etobicoke","PostalCode":"M8V 1M6","SchName":"David Hornell Junior School","METPanelID":"E","id":"adnll5e9lwyw","Address":"32 Victoria Street"},"type":"Feature","geometry":{"type":"Point","coordinates":[305680.449926944,4830822.02151596]}},{"properties":{"City":"Toronto","PostalCode":"M5T 1A8","SchName":"Ogden Junior Public School","METPanelID":"E","id":"adnll58aqhwo","Address":"33 Phoebe Street"},"type":"Feature","geometry":{"type":"Point","coordinates":[313225.248445113,4834219.37469171]}},{"properties":{"City":"Toronto","PostalCode":"M5S 2K2","SchName":"Lord Lansdowne Junior and Senior Public School","METPanelID":"E","id":"adnll598i38w","Address":"33 Robert Street"},"type":"Feature","geometry":{"type":"Point","coordinates":[312695.736057042,4835227.99398673]}},{"properties":{"City":"Toronto","PostalCode":"M6K 1S9","SchName":"City View Alternative Senior School","METPanelID":"E","id":"adnll52gcme9","Address":"38 Shirley Street"},"type":"Feature","geometry":{"type":"Point","coordinates":[309888.825920428,4834066.73102251]}},{"properties":{"City":"Toronto","PostalCode":"M6K 1S9","SchName":"Shirley Street Junior Public School","METPanelID":"E","id":"adnll5734tmj","Address":"38 Shirley Street"},"type":"Feature","geometry":{"type":"Point","coordinates":[309888.825920428,4834066.73102251]}},{"properties":{"City":"Etobicoke","PostalCode":"M9P 3M7","SchName":"School of Experiential Education","METPanelID":"S","id":"adnll5cvz41k","Address":"40 McArthur Street"},"type":"Feature","geometry":{"type":"Point","coordinates":[301021.341619824,4839949.06740451]}},{"properties":{"City":"Toronto","PostalCode":"M5T 1S9","SchName":"Horizon Alternative Senior School","METPanelID":"E","id":"adnll51z4vpf","Address":"401 College Street"},"type":"Feature","geometry":{"type":"Point","coordinates":[312387.843850733,4834943.75854216]}},{"properties":{"City":"Toronto","PostalCode":"M5T 1S9","SchName":"Kensington Community School","METPanelID":"E","id":"adnll58db3tj","Address":"401 College Street"},"type":"Feature","geometry":{"type":"Point","coordinates":[312387.843850733,4834943.75854216]}},{"properties":{"City":"Etobicoke","PostalCode":"M9B 1M5","SchName":"Bloorlea Middle School","METPanelID":"E","id":"adnll54j15pz","Address":"4050 Bloor Street West"},"type":"Feature","geometry":{"type":"Point","coordinates":[300342.194811154,4832869.79854864]}},{"properties":{"City":"Toronto","PostalCode":"M5A 1X6","SchName":"Nelson Mandela Park Public School","METPanelID":"E","id":"adnll51242ov","Address":"440 Shuter Street"},"type":"Feature","geometry":{"type":"Point","coordinates":[316018.611930665,4835145.47216494]}},{"properties":{"City":"Agincourt","PostalCode":"M1T 2T6","SchName":"Inglewood Heights Junior Public School","METPanelID":"E","id":"adnll5emu8xf","Address":"45 Dempster Street"},"type":"Feature","geometry":{"type":"Point","coordinates":[321501.614412012,4848626.19304812]}},{"properties":{"City":"North York","PostalCode":"M3N 2K7","SchName":"Brookview Middle School","METPanelID":"E","id":"adnll585ea8y","Address":"4505 Jane Street"},"type":"Feature","geometry":{"type":"Point","coordinates":[303395.783803449,4847277.85795957]}},{"properties":{"City":"North York","PostalCode":"M3M 1L8","SchName":"Tumpane Public School","METPanelID":"E","id":"adnll56u9c44","Address":"48 Tumpane Street"},"type":"Feature","geometry":{"type":"Point","coordinates":[304602.57872059,4842738.15673032]}},{"properties":{"City":"Toronto","PostalCode":"M4Y 2G8","SchName":"Jarvis Collegiate Institute","METPanelID":"S","id":"adnll513y8pg","Address":"495 Jarvis Street"},"type":"Feature","geometry":{"type":"Point","coordinates":[314701.613017065,4835985.29312787]}},{"properties":{"City":"Toronto","PostalCode":"M6G 1T3","SchName":"Hawthorne II Bilingual Alternative Junior School","METPanelID":"E","id":"adnll51b62f0","Address":"50 Essex Street"},"type":"Feature","geometry":{"type":"Point","coordinates":[311052.758796698,4836259.57860043]}},{"properties":{"City":"Toronto","PostalCode":"M6G 1T3","SchName":"Essex Junior and Senior Public School","METPanelID":"E","id":"adnll5c7edlk","Address":"50 Essex Street"},"type":"Feature","geometry":{"type":"Point","coordinates":[311052.758796698,4836259.57860043]}},{"properties":{"City":"York","PostalCode":"M6N 3X3","SchName":"Harwood Public School","METPanelID":"E","id":"adnll5eqby83","Address":"50 Leigh Street"},"type":"Feature","geometry":{"type":"Point","coordinates":[306524.777775292,4837138.14300127]}},{"properties":{"City":"Toronto","PostalCode":"M5R 2R6","SchName":"Huron Street Junior Public School","METPanelID":"E","id":"adnll5fqaigr","Address":"541 Huron Street"},"type":"Feature","geometry":{"type":"Point","coordinates":[312657.095273357,4836510.77425309]}},{"properties":{"City":"Scarborough","PostalCode":"M1J 2V6","SchName":"Cedarbrook Junior Public School","METPanelID":"E","id":"adnll55plx5n","Address":"56 Nelson Street"},"type":"Feature","geometry":{"type":"Point","coordinates":[326513.893049514,4845072.7657492]}},{"properties":{"City":"York","PostalCode":"M6S 4A3","SchName":"Runnymede Collegiate Institute","METPanelID":"S","id":"adnll54tzqim","Address":"569 Jane Street"},"type":"Feature","geometry":{"type":"Point","coordinates":[305626.405577574,4835709.74672461]}},{"properties":{"City":"Toronto","PostalCode":"M6G 3L6","SchName":"Central Commerce Collegiate Institute","METPanelID":"S","id":"adnll54xm8qp","Address":"570 Shaw Street"},"type":"Feature","geometry":{"type":"Point","coordinates":[311075.634084909,4835118.05481147]}},{"properties":{"City":"North York","PostalCode":"M2H 1J9","SchName":"Zion Heights Junior High School","METPanelID":"ES","id":"adnll53gekfv","Address":"5900 Leslie Street"},"type":"Feature","geometry":{"type":"Point","coordinates":[315157.161836632,4850669.44709224]}},{"properties":{"City":"Toronto","PostalCode":"M5T 1L4","SchName":"Beverley School","METPanelID":"E","id":"adnll51zo8yi","Address":"64 Baldwin Street"},"type":"Feature","geometry":{"type":"Point","coordinates":[313196.654754161,4834874.47519937]}},{"properties":{"City":"Toronto","PostalCode":"M4X 1N4","SchName":"Rose Avenue Junior Public School","METPanelID":"E","id":"adnll543iryz","Address":"675 Ontario Street"},"type":"Feature","geometry":{"type":"Point","coordinates":[315046.542605424,4836482.14840793]}},{"properties":{"City":"Toronto","PostalCode":"M5T 1K1","SchName":"Heydon Park Secondary School","METPanelID":"S","id":"adnll52p9yo9","Address":"70 D'Arcy Street"},"type":"Feature","geometry":{"type":"Point","coordinates":[313291.174904728,4834785.65207941]}},{"properties":{"City":"Toronto","PostalCode":"M5A 2J1","SchName":"Sprucecourt Junior Public School","METPanelID":"E","id":"adnll56k87zs","Address":"70 Spruce Street"},"type":"Feature","geometry":{"type":"Point","coordinates":[315766.189331009,4835847.03966417]}},{"properties":{"City":"Toronto","PostalCode":"M4M 1Y4","SchName":"Eastdale Collegiate Institute","METPanelID":"S","id":"adnll5g2q8hf","Address":"701 Gerrard Street East"},"type":"Feature","geometry":{"type":"Point","coordinates":[316976.510228218,4836009.1541865]}},{"properties":{"City":"Etobicoke","PostalCode":"M8V 2X4","SchName":"Second Street Junior Middle School","METPanelID":"E","id":"adnll50xtvtq","Address":"71 Second Street"},"type":"Feature","geometry":{"type":"Point","coordinates":[304782.568518883,4829151.94200517]}},{"properties":{"City":"Toronto","PostalCode":"M4W 1J4","SchName":"Rosedale Heights School of the Arts","METPanelID":"S","id":"adnll51vrtxb","Address":"711 Bloor Street East"},"type":"Feature","geometry":{"type":"Point","coordinates":[315588.183447465,4836897.01729168]}},{"properties":{"City":"Toronto","PostalCode":"M5S 2R5","SchName":"Central Technical School","METPanelID":"S","id":"adnll56qmcaw","Address":"725 Bathurst Street"},"type":"Feature","geometry":{"type":"Point","coordinates":[312183.923442586,4835670.57229868]}},{"properties":{"City":"Toronto","PostalCode":"M6G 1L6","SchName":"West End Alternative School","METPanelID":"S","id":"adnll5d2ar3e","Address":"777 Bloor Street West"},"type":"Feature","geometry":{"type":"Point","coordinates":[311249.711535499,4835612.77139321]}},{"properties":{"City":"Toronto","PostalCode":"M4Y 1B7","SchName":"Church Street Junior Public School","METPanelID":"E","id":"adnll54psm0f","Address":"83 Alexander Street"},"type":"Feature","geometry":{"type":"Point","coordinates":[314528.487963087,4835747.64665228]}},{"properties":{"City":"Toronto","PostalCode":"M5E 1R8","SchName":"Downtown Alternative School","METPanelID":"E","id":"adnll548l1wd","Address":"85 Lower Jarvis Street"},"type":"Feature","geometry":{"type":"Point","coordinates":[315237.92947558,4833985.36452026]}},{"properties":{"City":"Toronto","PostalCode":"M6P 3E3","SchName":"Ursula Franklin Academy","METPanelID":"S","id":"adnll5bb0nlc","Address":"146 Glendonwynne Road"},"type":"Feature","geometry":{"type":"Point","coordinates":[306834.357732379,4835016.97368726]}},{"properties":{"City":"Etobicoke","PostalCode":"M8W 3E9","SchName":"James S Bell Junior Middle School","METPanelID":"E","id":"adnll5avjevx","Address":"90 Thirty First Street"},"type":"Feature","geometry":{"type":"Point","coordinates":[302350.495363557,4827997.44365102]}},{"properties":{"City":"Toronto","PostalCode":"M6H 3S4","SchName":"Brock Junior Public School","METPanelID":"E","id":"adnll5dh93gw","Address":"93 Margueretta Street"},"type":"Feature","geometry":{"type":"Point","coordinates":[309797.949284465,4834569.41305455]}},{"properties":{"City":"Toronto","PostalCode":"M4M 1R4","SchName":"Dundas Junior Public School","METPanelID":"E","id":"adnll5dbyld8","Address":"935 Dundas Street East"},"type":"Feature","geometry":{"type":"Point","coordinates":[316987.982698679,4835581.59904854]}},{"properties":{"City":"Toronto","PostalCode":"M4M 1R4","SchName":"First Nations Junior and Senior School of Toronto","METPanelID":"E","id":"adnll517wno6","Address":"935 Dundas Street East"},"type":"Feature","geometry":{"type":"Point","coordinates":[316987.982698679,4835581.59904854]}},{"properties":{"City":"North York","PostalCode":"M5M 4K1","SchName":"Ledbury Park Elementary and Middle School","METPanelID":"E","id":"adnll51p6vnz","Address":"95 Falkirk Street"},"type":"Feature","geometry":{"type":"Point","coordinates":[310663.208276161,4842865.97208198]}},{"properties":{"City":"Toronto","PostalCode":"M6H 4B4","SchName":"Kent Senior Public School","METPanelID":"E","id":"adnll586t4k1","Address":"980 Dufferin Street"},"type":"Feature","geometry":{"type":"Point","coordinates":[309989.496188859,4835190.04173085]}},{"properties":{"City":"York","PostalCode":"M6N 4E2","SchName":"Roselands Junior Public School","METPanelID":"E","id":"adnll58gieyf","Address":"990 Jane Street"},"type":"Feature","geometry":{"type":"Point","coordinates":[304859.816314136,4837697.97769964]}},{"properties":{"City":"Toronto","PostalCode":"M6G 3S8","SchName":"Winona Drive Senior Public School","METPanelID":"E","id":"adnll530l3p0","Address":"101 Winona Drive"},"type":"Feature","geometry":{"type":"Point","coordinates":[310359.125702871,4837230.8434014]}},{"properties":{"City":"North York","PostalCode":"M2M 2Y1","SchName":"Steelesview Public School","METPanelID":"E","id":"adnll52h79ab","Address":"105 Bestview Drive"},"type":"Feature","geometry":{"type":"Point","coordinates":[313986.778158502,4851195.60072622]}},{"properties":{"City":"Agincourt","PostalCode":"M1S 3H5","SchName":"Sir William Osler High School","METPanelID":"S","id":"adnll5bt3dhx","Address":"1050 Huntingwood Drive"},"type":"Feature","geometry":{"type":"Point","coordinates":[321892.303439286,4850644.59978771]}},{"properties":{"City":"Scarborough","PostalCode":"M1K 4V4","SchName":"Glen Ravine Junior Public School","METPanelID":"E","id":"adnll5dtyedj","Address":"11 Gadsby Drive"},"type":"Feature","geometry":{"type":"Point","coordinates":[324594.745307413,4844059.32389505]}},{"properties":{"City":"North York","PostalCode":"M3A 2C7","SchName":"Roywood Public School","METPanelID":"E","id":"adnll568irle","Address":"11 Roywood Drive"},"type":"Feature","geometry":{"type":"Point","coordinates":[319134.116700099,4846989.38900805]}},{"properties":{"City":"Scarborough","PostalCode":"M1H 1X9","SchName":"William Tredway Junior Public School","METPanelID":"E","id":"adnll55tqxie","Address":"112 Sedgemount Drive"},"type":"Feature","geometry":{"type":"Point","coordinates":[326102.267272676,4847041.84987547]}},{"properties":{"City":"Toronto","PostalCode":"M6G 3S8","SchName":"McMurrich Junior Public School","METPanelID":"E","id":"adnll5bw4spn","Address":"115 Winona Drive"},"type":"Feature","geometry":{"type":"Point","coordinates":[310342.641871943,4837350.18130001]}},{"properties":{"City":"North York","PostalCode":"M2K 1J3","SchName":"Elkhorn Public School","METPanelID":"E","id":"adnll5a7rrn6","Address":"10 Elkhorn Drive"},"type":"Feature","geometry":{"type":"Point","coordinates":[314439.940507591,4847702.16233968]}},{"properties":{"City":"Etobicoke","PostalCode":"M9V 3R4","SchName":"Elmbank Junior Middle Academy","METPanelID":"E","id":"adnll54snxnw","Address":"10 Pittsboro Drive"},"type":"Feature","geometry":{"type":"Point","coordinates":[297530.760873466,4843842.748564]}},{"properties":{"City":"North York","PostalCode":"M3L 1L4","SchName":"Chalkfarm Public School","METPanelID":"E","id":"adnll52omf3c","Address":"100 Chalkfarm Drive"},"type":"Feature","geometry":{"type":"Point","coordinates":[303624.716052152,4842795.03945534]}},{"properties":{"City":"North York","PostalCode":"M3A 2J9","SchName":"Milne Valley Middle School","METPanelID":"E","id":"adnll54jltqw","Address":"100 Underhill Drive"},"type":"Feature","geometry":{"type":"Point","coordinates":[318740.749421878,4845041.95897843]}},{"properties":{"City":"North York","PostalCode":"M2J 2W3","SchName":"Crestview Public School","METPanelID":"E","id":"adnll58gyzcn","Address":"101 Seneca Hill Drive"},"type":"Feature","geometry":{"type":"Point","coordinates":[316064.269581255,4849617.43079959]}},{"properties":{"City":"Toronto","PostalCode":"M4T 1C7","SchName":"Whitney Junior Public School","METPanelID":"E","id":"adnll5e8a628","Address":"119 Rosedale Heights Drive"},"type":"Feature","geometry":{"type":"Point","coordinates":[314587.686608809,4838364.27261398]}},{"properties":{"City":"Scarborough","PostalCode":"M1H 1X9","SchName":"J S Woodsworth Senior Public School","METPanelID":"E","id":"adnll57s4ygb","Address":"120 Sedgemount Drive"},"type":"Feature","geometry":{"type":"Point","coordinates":[326117.19244337,4847111.74733301]}},{"properties":{"City":"Agincourt","PostalCode":"M1S 1K7","SchName":"Henry Kelsey Senior Public School","METPanelID":"E","id":"adnll5enimcb","Address":"1200 Huntingwood Drive"},"type":"Feature","geometry":{"type":"Point","coordinates":[322720.153842056,4850799.6924887]}},{"properties":{"City":"Toronto","PostalCode":"M4R 1S1","SchName":"Lawrence Park Collegiate Institute","METPanelID":"S","id":"adnll5fvgk88","Address":"125 Chatsworth Drive"},"type":"Feature","geometry":{"type":"Point","coordinates":[312000.339879922,4842256.28448747]}},{"properties":{"City":"North York","PostalCode":"M2R 1K1","SchName":"Yorkview Public School","METPanelID":"E","id":"adnll59v79p8","Address":"130 Yorkview Drive"},"type":"Feature","geometry":{"type":"Point","coordinates":[309971.489414963,4847848.10394058]}},{"properties":{"City":"North York","PostalCode":"M3A 2V9","SchName":"Fenside Public School","METPanelID":"E","id":"adnll51tc4kc","Address":"131 Fenside Drive"},"type":"Feature","geometry":{"type":"Point","coordinates":[318542.088790645,4846972.21299119]}},{"properties":{"City":"Etobicoke","PostalCode":"M9W 4S7","SchName":"West Humber Junior Middle School","METPanelID":"E","id":"adnll53wwivc","Address":"15 Delsing Drive"},"type":"Feature","geometry":{"type":"Point","coordinates":[298281.570915695,4842433.78071177]}},{"properties":{"City":"Etobicoke","PostalCode":"M9C 2P7","SchName":"Eatonville Junior School","METPanelID":"E","id":"adnll554bn9f","Address":"15 Rossburn Drive"},"type":"Feature","geometry":{"type":"Point","coordinates":[299425.987192465,4832842.87735903]}},{"properties":{"City":"Etobicoke","PostalCode":"M9P 1N8","SchName":"Scarlett Heights Entrepreneurial Academy","METPanelID":"S","id":"adnll58i6rta","Address":"15 Trehorne Drive"},"type":"Feature","geometry":{"type":"Point","coordinates":[302260.32346458,4838632.88066934]}},{"properties":{"City":"Scarborough","PostalCode":"M1K 4X5","SchName":"Hunter's Glen Junior Public School","METPanelID":"E","id":"adnll5d1w66u","Address":"16 Haileybury Drive"},"type":"Feature","geometry":{"type":"Point","coordinates":[324097.425255896,4844888.26748566]}},{"properties":{"City":"Scarborough","PostalCode":"M1K 3W5","SchName":"Lord Roberts Junior Public School","METPanelID":"E","id":"adnll59n2rtd","Address":"165 Lord Roberts Drive"},"type":"Feature","geometry":{"type":"Point","coordinates":[323820.389860345,4844412.77918526]}},{"properties":{"City":"North York","PostalCode":"M4A 1W5","SchName":"O'Connor Public School","METPanelID":"E","id":"adnll56bq8y2","Address":"1665 O'Connor Drive"},"type":"Feature","geometry":{"type":"Point","coordinates":[320565.485651974,4841635.97998063]}},{"properties":{"City":"North York","PostalCode":"M2J 3Y8","SchName":"Pleasant View Junior High School","METPanelID":"ES","id":"adnll5c09s9z","Address":"175 Brian Drive"},"type":"Feature","geometry":{"type":"Point","coordinates":[318152.475325555,4849516.35937186]}},{"properties":{"City":"Etobicoke","PostalCode":"M9V 2E3","SchName":"Smithfield Middle School","METPanelID":"E","id":"adnll57cch2q","Address":"175 Mount Olive Drive"},"type":"Feature","geometry":{"type":"Point","coordinates":[297083.315469384,4845313.76033307]}},{"properties":{"City":"North York","PostalCode":"M2J 2G3","SchName":"Dallington Public School","METPanelID":"E","id":"adnll57io92j","Address":"18 Dallington Drive"},"type":"Feature","geometry":{"type":"Point","coordinates":[316476.186319473,4848362.2951344]}},{"properties":{"City":"North York","PostalCode":"M9N 2M1","SchName":"Pelmo Park Public School","METPanelID":"E","id":"adnll56oo80a","Address":"180 Gary Drive"},"type":"Feature","geometry":{"type":"Point","coordinates":[303324.350068099,4841123.22423347]}},{"properties":{"City":"Etobicoke","PostalCode":"M9A 2J1","SchName":"Rosethorn Junior School","METPanelID":"E","id":"adnll5314bq5","Address":"2 Remington Drive"},"type":"Feature","geometry":{"type":"Point","coordinates":[301600.052930906,4835346.88262699]}},{"properties":{"City":"North York","PostalCode":"M2L 2S1","SchName":"Dunlace Public School","METPanelID":"E","id":"adnll59zzlpv","Address":"20 Dunlace Drive"},"type":"Feature","geometry":{"type":"Point","coordinates":[315222.773372879,4846730.58399874]}},{"properties":{"City":"North York","PostalCode":"M3A 2S3","SchName":"Donview Middle School","METPanelID":"E","id":"adnll5br6dgb","Address":"20 Evermede Drive"},"type":"Feature","geometry":{"type":"Point","coordinates":[318348.362289169,4846945.69475777]}},{"properties":{"City":"North York","PostalCode":"M3A 3A6","SchName":"George S Henry Academy","METPanelID":"S","id":"adnll5e2ac24","Address":"200 Graydon Hall Drive"},"type":"Feature","geometry":{"type":"Point","coordinates":[317673.126689758,4846945.97962743]}},{"properties":{"City":"Etobicoke","PostalCode":"M9V 3Z5","SchName":"John D Parker Junior School","METPanelID":"E","id":"adnll549hivi","Address":"202 Mount Olive Drive"},"type":"Feature","geometry":{"type":"Point","coordinates":[297022.351791202,4845723.48620966]}},{"properties":{"City":"East York","PostalCode":"M4G 3K2","SchName":"Bessborough Drive Elementary and Middle School","METPanelID":"E","id":"adnll58p4vte","Address":"211 Bessborough Drive"},"type":"Feature","geometry":{"type":"Point","coordinates":[315250.264796193,4840593.23262236]}},{"properties":{"City":"Toronto","PostalCode":"M4W 1R1","SchName":"Rosedale Junior Public School","METPanelID":"E","id":"adnll5f6efs3","Address":"22 South Drive"},"type":"Feature","geometry":{"type":"Point","coordinates":[314324.045501821,4837307.95230625]}},{"properties":{"City":"Etobicoke","PostalCode":"M9C 4S5","SchName":"Wellesworth Junior School","METPanelID":"E","id":"adnll56jhq41","Address":"225 Wellesworth Drive"},"type":"Feature","geometry":{"type":"Point","coordinates":[298596.114337399,4834969.01868499]}},{"properties":{"City":"North York","PostalCode":"M9M 2A8","SchName":"Daystrom Public School","METPanelID":"E","id":"adnll51tz59q","Address":"25 Daystrom Drive"},"type":"Feature","geometry":{"type":"Point","coordinates":[301002.007767859,4845111.31702455]}},{"properties":{"City":"Etobicoke","PostalCode":"M9R 1K8","SchName":"Westway Junior School","METPanelID":"E","id":"adnll5fjz17t","Address":"25 Poynter Drive"},"type":"Feature","geometry":{"type":"Point","coordinates":[300834.634602142,4838765.24578681]}},{"properties":{"City":"West Hill","PostalCode":"M1E 2J3","SchName":"Peter Secor Junior Public School","METPanelID":"E","id":"adnll518jboi","Address":"255 Coronation Drive"},"type":"Feature","geometry":{"type":"Point","coordinates":[330568.694391496,4846767.46756284]}},{"properties":{"City":"North York","PostalCode":"M3M 1S5","SchName":"Beverley Heights Middle School","METPanelID":"E","id":"adnll55191wb","Address":"26 Troutbrooke Drive"},"type":"Feature","geometry":{"type":"Point","coordinates":[304399.89422966,4843452.41718849]}},{"properties":{"City":"Scarborough","PostalCode":"M1N 1M1","SchName":"Cliffside Public School","METPanelID":"E","id":"adnll5gphpco","Address":"27 East Haven Drive"},"type":"Feature","geometry":{"type":"Point","coordinates":[324897.992615427,4840356.88222935]}},{"properties":{"City":"North York","PostalCode":"M6M 2Y8","SchName":"George Anderson Public School","METPanelID":"E","id":"adnll56rp085","Address":"30 George Anderson Drive"},"type":"Feature","geometry":{"type":"Point","coordinates":[306480.888433935,4840389.62499886]}},{"properties":{"City":"Etobicoke","PostalCode":"M9W 4C9","SchName":"Rivercrest Junior School","METPanelID":"E","id":"adnll57574d7","Address":"30 Harefield Drive"},"type":"Feature","geometry":{"type":"Point","coordinates":[299183.812281854,4843087.28889582]}},{"properties":{"City":"Etobicoke","PostalCode":"M9R 3T9","SchName":"Parkfield Junior School","METPanelID":"E","id":"adnll57umjvt","Address":"31 Redgrave Drive"},"type":"Feature","geometry":{"type":"Point","coordinates":[299149.086071068,4837810.18436876]}},{"properties":{"City":"North York","PostalCode":"M3N 2S6","SchName":"Shoreham Public School","METPanelID":"E","id":"adnll5gep7vh","Address":"31 Shoreham Drive"},"type":"Feature","geometry":{"type":"Point","coordinates":[303384.436004833,4847426.9845524]}},{"properties":{"City":"North York","PostalCode":"M3N 1J5","SchName":"Oakdale Park Middle School","METPanelID":"E","id":"adnll52tpa5o","Address":"315 Grandravine Drive"},"type":"Feature","geometry":{"type":"Point","coordinates":[303818.520137359,4845056.74227329]}},{"properties":{"City":"North York","PostalCode":"M3L 1V5","SchName":"Calico Public School","METPanelID":"E","id":"adnll567bxth","Address":"35 Calico Drive"},"type":"Feature","geometry":{"type":"Point","coordinates":[304494.97559842,4843994.70217871]}},{"properties":{"City":"Etobicoke","PostalCode":"M9P 2E8","SchName":"Valleyfield Junior School","METPanelID":"E","id":"adnll5es2rqr","Address":"35 Saskatoon Drive"},"type":"Feature","geometry":{"type":"Point","coordinates":[301653.511087047,4839128.10862303]}},{"properties":{"City":"Etobicoke","PostalCode":"M9P 1N8","SchName":"Hilltop Middle School","METPanelID":"E","id":"adnll51yeaqr","Address":"35 Trehorne Drive"},"type":"Feature","geometry":{"type":"Point","coordinates":[302120.107552944,4838571.78556846]}},{"properties":{"City":"Etobicoke","PostalCode":"M9V 3J4","SchName":"Claireville Junior School","METPanelID":"E","id":"adnll51rw1xf","Address":"350 Silverstone Drive"},"type":"Feature","geometry":{"type":"Point","coordinates":[296812.974088695,4845114.20725271]}},{"properties":{"City":"Toronto","PostalCode":"M4S 1N2","SchName":"Maurice Cody Junior Public School","METPanelID":"E","id":"adnll55yrcls","Address":"364 Belsize Drive"},"type":"Feature","geometry":{"type":"Point","coordinates":[314630.604201395,4840324.69974435]}},{"properties":{"City":"Scarborough","PostalCode":"M1G 3N2","SchName":"Woburn Junior Public School","METPanelID":"E","id":"adnll5chvijn","Address":"40 Dormington Drive"},"type":"Feature","geometry":{"type":"Point","coordinates":[326759.163640246,4848651.92584029]}},{"properties":{"City":"Etobicoke","PostalCode":"M9C 3G6","SchName":"Broadacres Junior School","METPanelID":"E","id":"adnll5aym40l","Address":"45 Crendon Drive"},"type":"Feature","geometry":{"type":"Point","coordinates":[298974.186812399,4834016.52506509]}},{"properties":{"City":"Etobicoke","PostalCode":"M9W 2H8","SchName":"The Elms Junior Middle School","METPanelID":"E","id":"adnll586g6jw","Address":"45 Golfdown Drive"},"type":"Feature","geometry":{"type":"Point","coordinates":[300585.336795233,4842254.30135043]}},{"properties":{"City":"Scarborough","PostalCode":"M1G 1P1","SchName":"Willow Park Junior Public School","METPanelID":"E","id":"adnll51g4c2r","Address":"45 Windover Drive"},"type":"Feature","geometry":{"type":"Point","coordinates":[328168.699446391,4846623.07985289]}},{"properties":{"City":"North York","PostalCode":"M2H 1M1","SchName":"Cresthaven Public School","METPanelID":"E","id":"adnll52fmzrb","Address":"46 Cresthaven Drive"},"type":"Feature","geometry":{"type":"Point","coordinates":[315759.423110846,4850604.44228506]}},{"properties":{"City":"Scarborough","PostalCode":"M1H 2E6","SchName":"Bellmere Junior Public School","METPanelID":"E","id":"adnll5gp5xwd","Address":"470 Brimorton Drive"},"type":"Feature","geometry":{"type":"Point","coordinates":[326106.185899866,4847812.85963306]}},{"properties":{"City":"North York","PostalCode":"M2H 2G6","SchName":"A Y Jackson Secondary School","METPanelID":"S","id":"adnll56ypdtf","Address":"50 Francine Drive"},"type":"Feature","geometry":{"type":"Point","coordinates":[315532.398654358,4851451.05614258]}},{"properties":{"City":"Etobicoke","PostalCode":"M9W 1V4","SchName":"Elmlea Junior School","METPanelID":"E","id":"adnll50iy40e","Address":"50 Hadrian Drive"},"type":"Feature","geometry":{"type":"Point","coordinates":[300763.894610523,4841556.17660393]}},{"properties":{"City":"Agincourt","PostalCode":"M1S 1J1","SchName":"Lynnwood Heights Junior Public School","METPanelID":"E","id":"adnll5fzu0ju","Address":"50 Southlawn Drive"},"type":"Feature","geometry":{"type":"Point","coordinates":[321574.87099436,4850535.86349925]}},{"properties":{"City":"North York","PostalCode":"M3J 1A7","SchName":"Stilecroft Public School","METPanelID":"E","id":"adnll5g8vppy","Address":"50 Stilecroft Drive"},"type":"Feature","geometry":{"type":"Point","coordinates":[305331.548872212,4845455.59941604]}},{"properties":{"City":"Agincourt","PostalCode":"M1T 1M6","SchName":"Vradenburg Junior Public School","METPanelID":"E","id":"adnll50zoxzg","Address":"50 Vradenberg Drive"},"type":"Feature","geometry":{"type":"Point","coordinates":[320217.562427663,4848060.34948279]}},{"properties":{"City":"Etobicoke","PostalCode":"M9B 3G7","SchName":"Martingrove Collegiate Institute","METPanelID":"S","id":"adnll56rv7g7","Address":"50 Winterton Drive"},"type":"Feature","geometry":{"type":"Point","coordinates":[299886.36209823,4836828.34141032]}},{"properties":{"City":"Scarborough","PostalCode":"M1M 2K8","SchName":"Chine Drive Public School","METPanelID":"E","id":"adnll5cw8m96","Address":"51 Chine Drive"},"type":"Feature","geometry":{"type":"Point","coordinates":[325592.151541039,4840924.80434361]}},{"properties":{"City":"Etobicoke","PostalCode":"M9V 3L5","SchName":"Melody Village Junior School","METPanelID":"E","id":"adnll58qbp5h","Address":"520 Silverstone Drive"},"type":"Feature","geometry":{"type":"Point","coordinates":[297144.682337192,4844024.58347011]}},{"properties":{"City":"Etobicoke","PostalCode":"M8X 2M6","SchName":"Lambton-Kingsway Junior Middle School","METPanelID":"E","id":"adnll55r9c7i","Address":"525 Prince Edward Drive"},"type":"Feature","geometry":{"type":"Point","coordinates":[304032.700833455,4835190.70933281]}},{"properties":{"City":"North York","PostalCode":"M2H 3H6","SchName":"Arbor Glen Public School","METPanelID":"E","id":"adnll57yq5v6","Address":"55 Freshmeadow Drive"},"type":"Feature","geometry":{"type":"Point","coordinates":[316393.220973151,4851957.06987175]}},{"properties":{"City":"Scarborough","PostalCode":"M1P 3Z1","SchName":"Alternative Scarborough Education 1","METPanelID":"S","id":"adnll55qefe3","Address":"60 Brimorton Drive"},"type":"Feature","geometry":{"type":"Point","coordinates":[324526.068582093,4847216.52150749]}},{"properties":{"City":"Scarborough","PostalCode":"M1P 3Z1","SchName":"St Andrews Public School","METPanelID":"E","id":"adnll56r9snd","Address":"60 Brimorton Drive"},"type":"Feature","geometry":{"type":"Point","coordinates":[324526.068582093,4847216.52150749]}},{"properties":{"City":"Scarborough","PostalCode":"M1M 3B1","SchName":"George P Mackie Junior Public School","METPanelID":"E","id":"adnll5cnmplv","Address":"60 Heathfield Drive"},"type":"Feature","geometry":{"type":"Point","coordinates":[327997.117105126,4844190.98617275]}},{"properties":{"City":"Etobicoke","PostalCode":"M9C 4R3","SchName":"Briarcrest Junior School","METPanelID":"E","id":"adnll5b261ie","Address":"60 Wellesworth Drive"},"type":"Feature","geometry":{"type":"Point","coordinates":[298326.459185345,4836061.17127993]}},{"properties":{"City":"Scarborough","PostalCode":"M1H 1M4","SchName":"Bendale Junior Public School","METPanelID":"E","id":"adnll5at0in9","Address":"61 Benshire Drive"},"type":"Feature","geometry":{"type":"Point","coordinates":[325325.806470768,4846765.88189856]}},{"properties":{"City":"North York","PostalCode":"M2J 2W6","SchName":"Seneca Hill Public School","METPanelID":"E","id":"adnll5ddlczo","Address":"625 Seneca Hill Drive"},"type":"Feature","geometry":{"type":"Point","coordinates":[316832.377501214,4849889.63507054]}},{"properties":{"City":"Etobicoke","PostalCode":"M9C 2N6","SchName":"Hollycrest Middle School","METPanelID":"E","id":"adnll57pupuh","Address":"630 Renforth Drive"},"type":"Feature","geometry":{"type":"Point","coordinates":[298112.982460932,4834910.26568661]}},{"properties":{"City":"Etobicoke","PostalCode":"M9B 5Y7","SchName":"Princess Margaret Junior School","METPanelID":"E","id":"adnll5aqnbrn","Address":"65 Tromley Drive"},"type":"Feature","geometry":{"type":"Point","coordinates":[300014.462507622,4836584.05971294]}},{"properties":{"City":"North York","PostalCode":"M6M 4N8","SchName":"Brookhaven Public School","METPanelID":"E","id":"adnll5b242oo","Address":"70 Brookhaven Drive"},"type":"Feature","geometry":{"type":"Point","coordinates":[305131.240099036,4840062.04698932]}},{"properties":{"City":"Etobicoke","PostalCode":"M9V 1T1","SchName":"Beaumonde Heights Junior Middle School","METPanelID":"E","id":"adnll56gxu3c","Address":"70 Monterrey Drive"},"type":"Feature","geometry":{"type":"Point","coordinates":[298773.314934689,4844517.97660504]}},{"properties":{"City":"Toronto","PostalCode":"M6C 2J6","SchName":"West Preparatory Junior Public School","METPanelID":"E","id":"adnll55oey0l","Address":"70 Ridge Hill Drive"},"type":"Feature","geometry":{"type":"Point","coordinates":[310173.121245028,4840074.97686907]}},{"properties":{"City":"Etobicoke","PostalCode":"M8Y 4B6","SchName":"Park Lawn Junior Middle School","METPanelID":"E","id":"adnll5ccbf68","Address":"71 Ballacaine Drive"},"type":"Feature","geometry":{"type":"Point","coordinates":[305070.715613026,4832863.14720533]}},{"properties":{"City":"Scarborough","PostalCode":"M1G 2S4","SchName":"Churchill Heights Public School","METPanelID":"E","id":"adnll51o6m7q","Address":"749 Brimorton Drive"},"type":"Feature","geometry":{"type":"Point","coordinates":[326965.446898046,4847937.11258183]}},{"properties":{"City":"East York","PostalCode":"M4G 1B1","SchName":"Bennington Heights Elementary School","METPanelID":"E","id":"adnll5f3tu4s","Address":"76 Bennington Heights Drive"},"type":"Feature","geometry":{"type":"Point","coordinates":[315368.631063303,4839133.50512173]}},{"properties":{"City":"North York","PostalCode":"M3A 3B7","SchName":"Three Valleys Public School","METPanelID":"E","id":"adnll5bz3jlc","Address":"76 Three Valleys Drive"},"type":"Feature","geometry":{"type":"Point","coordinates":[317851.156092976,4845419.21754776]}},{"properties":{"City":"Scarborough","PostalCode":"M1B 2L2","SchName":"Lester B Pearson Collegiate Institute","METPanelID":"S","id":"adnll523hohz","Address":"150 Tapscott Road"},"type":"Feature","geometry":{"type":"Point","coordinates":[326856.710384883,4851318.43809976]}},{"properties":{"City":"Toronto","PostalCode":"M4L 2Y1","SchName":"Roden Junior Public School","METPanelID":"E","id":"adnll55zlvjk","Address":"151 Hiawatha Road"},"type":"Feature","geometry":{"type":"Point","coordinates":[319050.636599811,4836896.08313583]}},{"properties":{"City":"Scarborough","PostalCode":"M1N 1S2","SchName":"Birch Cliff Public School","METPanelID":"E","id":"adnll560wv9m","Address":"1650 Kingston Road"},"type":"Feature","geometry":{"type":"Point","coordinates":[323682.151158173,4838920.0581364]}},{"properties":{"City":"Etobicoke","PostalCode":"M9V 3S3","SchName":"West Humber Collegiate Institute","METPanelID":"S","id":"adnll50vwuhq","Address":"1675 Martin Grove Road"},"type":"Feature","geometry":{"type":"Point","coordinates":[297799.294192022,4843222.59459473]}},{"properties":{"City":"East York","PostalCode":"M4J 2R2","SchName":"Diefenbaker Elementary School","METPanelID":"E","id":"adnll584v9lv","Address":"175 Plains Road"},"type":"Feature","geometry":{"type":"Point","coordinates":[318381.023957495,4839254.63197314]}},{"properties":{"City":"Toronto","PostalCode":"M4E 1K5","SchName":"Glen Ames Senior Public School","METPanelID":"E","id":"adnll5amm4ia","Address":"18 Williamson Road"},"type":"Feature","geometry":{"type":"Point","coordinates":[321049.139523239,4836935.1512336]}},{"properties":{"City":"West Hill","PostalCode":"M1E 1X2","SchName":"Galloway Road Public School","METPanelID":"E","id":"adnll50jcw9n","Address":"192 Galloway Road"},"type":"Feature","geometry":{"type":"Point","coordinates":[329216.870356445,4847042.83066447]}},{"properties":{"City":"Agincourt","PostalCode":"M1S 2B1","SchName":"C D Farquharson Junior Public School","METPanelID":"E","id":"adnll55klsfp","Address":"1965 Brimley Road"},"type":"Feature","geometry":{"type":"Point","coordinates":[323609.991607212,4849193.86892544]}},{"properties":{"City":"Etobicoke","PostalCode":"M9V 5C7","SchName":"North Kipling Junior Middle School","METPanelID":"E","id":"adnll577kutc","Address":"2 Rowntree Road"},"type":"Feature","geometry":{"type":"Point","coordinates":[297993.649558755,4845548.59733746]}},{"properties":{"City":"North York","PostalCode":"M9M 1S3","SchName":"Gulfstream Public School","METPanelID":"E","id":"adnll5a6710a","Address":"20 Gulfstream Road"},"type":"Feature","geometry":{"type":"Point","coordinates":[301400.442582663,4844125.81736674]}},{"properties":{"City":"North York","PostalCode":"M3A 3L6","SchName":"Rene Gordon Elementary School","METPanelID":"E","id":"adnll5ef8fkz","Address":"20 Karen Road"},"type":"Feature","geometry":{"type":"Point","coordinates":[317661.144070713,4846675.29222864]}},{"properties":{"City":"Scarborough","PostalCode":"M1B 5B5","SchName":"Fleming Public School","METPanelID":"E","id":"adnll55vn7mm","Address":"20 Littles Road"},"type":"Feature","geometry":{"type":"Point","coordinates":[328646.264846095,4852647.87810798]}},{"properties":{"City":"North York","PostalCode":"M3H 5R2","SchName":"William Lyon Mackenzie Collegiate Institute","METPanelID":"S","id":"adnll524b0iz","Address":"20 Tillplain Road"},"type":"Feature","geometry":{"type":"Point","coordinates":[307853.01698204,4845724.60863664]}},{"properties":{"City":"East York","PostalCode":"M4G 3N8","SchName":"Leaside High School","METPanelID":"S","id":"adnll5e5zwrt","Address":"200 Hanna Road"},"type":"Feature","geometry":{"type":"Point","coordinates":[315025.401053794,4841022.32879653]}},{"properties":{"City":"West Hill","PostalCode":"M1E 1Z7","SchName":"Sir Robert L Borden Business and Technical Institute","METPanelID":"S","id":"adnll51ufrt8","Address":"200 Poplar Road"},"type":"Feature","geometry":{"type":"Point","coordinates":[329672.182266912,4846847.02003128]}},{"properties":{"City":"North York","PostalCode":"M2H 3B5","SchName":"Highland Junior High School","METPanelID":"ES","id":"adnll5fp58vk","Address":"201 Cliffwood Road"},"type":"Feature","geometry":{"type":"Point","coordinates":[316414.761656273,4851665.36331947]}},{"properties":{"City":"North York","PostalCode":"M3B 1H4","SchName":"Rippleton Public School","METPanelID":"E","id":"adnll528ophb","Address":"21 Rippleton Road"},"type":"Feature","geometry":{"type":"Point","coordinates":[316051.036543579,4844337.26970078]}},{"properties":{"City":"North York","PostalCode":"M3J 1T7","SchName":"Elia Middle School","METPanelID":"E","id":"adnll58nh0vn","Address":"215 Sentinel Road"},"type":"Feature","geometry":{"type":"Point","coordinates":[304908.505176835,4845760.35846968]}},{"properties":{"City":"Etobicoke","PostalCode":"M9C 1Y2","SchName":"Millwood Junior School","METPanelID":"E","id":"adnll5evjf53","Address":"222 Mill Road"},"type":"Feature","geometry":{"type":"Point","coordinates":[298555.29530175,4832403.68281537]}},{"properties":{"City":"Scarborough","PostalCode":"M1G 3M3","SchName":"Woburn Collegiate Institute","METPanelID":"S","id":"adnll58qyjk1","Address":"2222 Ellesmere Road"},"type":"Feature","geometry":{"type":"Point","coordinates":[326642.375979925,4848502.93167973]}},{"properties":{"City":"Scarborough","PostalCode":"M1E 1L8","SchName":"Guildwood Junior Public School","METPanelID":"E","id":"adnll57lgaoi","Address":"225 Livingston Road"},"type":"Feature","geometry":{"type":"Point","coordinates":[328945.190110611,4845472.97631915]}},{"properties":{"City":"North York","PostalCode":"M2R 1P6","SchName":"Willowdale Middle School","METPanelID":"E","id":"adnll590ijcy","Address":"225 Senlac Road"},"type":"Feature","geometry":{"type":"Point","coordinates":[310750.164323755,4847522.47405817]}},{"properties":{"City":"Scarborough","PostalCode":"M1P 3S4","SchName":"Edgewood Public School","METPanelID":"E","id":"adnll52ba9nj","Address":"230 Birkdale Road"},"type":"Feature","geometry":{"type":"Point","coordinates":[323639.276576963,4847176.25254166]}},{"properties":{"City":"York","PostalCode":"M6C 1X3","SchName":"J R Wilcox Community School","METPanelID":"E","id":"adnll577ep4c","Address":"231 Ava Road"},"type":"Feature","geometry":{"type":"Point","coordinates":[309918.528239506,4839224.10227436]}},{"properties":{"City":"West Hill","PostalCode":"M1E 1X5","SchName":"St Margaret's Public School","METPanelID":"E","id":"adnll536fvbp","Address":"235 Galloway Road"},"type":"Feature","geometry":{"type":"Point","coordinates":[329274.130877735,4847368.96018757]}},{"properties":{"City":"Toronto","PostalCode":"M6J 3L2","SchName":"Alexander Muir/Gladstone Ave Junior and Senior Public School","METPanelID":"E","id":"adnll5c3f68p","Address":"108 Gladstone Avenue"},"type":"Feature","geometry":{"type":"Point","coordinates":[310537.529313813,4833762.79514111]}},{"properties":{"City":"Toronto","PostalCode":"M4E 1K5","SchName":"Williamson Road Junior Public School","METPanelID":"E","id":"adnll5cqbfqk","Address":"24 Williamson Road"},"type":"Feature","geometry":{"type":"Point","coordinates":[321115.159808654,4836965.46999876]}},{"properties":{"City":"Agincourt","PostalCode":"M1T 2M5","SchName":"Stephen Leacock Collegiate Institute","METPanelID":"S","id":"adnll5f2b9ag","Address":"2450 Birchmount Road"},"type":"Feature","geometry":{"type":"Point","coordinates":[320790.704503946,4849304.1320885]}},{"properties":{"City":"Agincourt","PostalCode":"M1T 2M5","SchName":"John Buchan Senior Public School","METPanelID":"E","id":"adnll5g08j10","Address":"2450 Birchmount Road"},"type":"Feature","geometry":{"type":"Point","coordinates":[320736.233402054,4849360.61373182]}},{"properties":{"City":"North York","PostalCode":"M2J 1M4","SchName":"Forest Manor Public School","METPanelID":"E","id":"adnll58hepcc","Address":"25 Forest Manor Road"},"type":"Feature","geometry":{"type":"Point","coordinates":[317418.376614828,4847687.93538627]}},{"properties":{"City":"North York","PostalCode":"M2J 3W3","SchName":"Muirhead Public School","METPanelID":"E","id":"adnll5avfuug","Address":"25 Muirhead Road"},"type":"Feature","geometry":{"type":"Point","coordinates":[317868.853994985,4848559.94421544]}},{"properties":{"City":"York","PostalCode":"M6S 2M2","SchName":"King George Junior Public School","METPanelID":"E","id":"adnll549nz0e","Address":"25 Rexford Road"},"type":"Feature","geometry":{"type":"Point","coordinates":[305841.677657769,4835691.21467139]}},{"properties":{"City":"West Hill","PostalCode":"M1E 3V4","SchName":"Joseph Brant Senior Public School","METPanelID":"E","id":"adnll52e7u4q","Address":"270 Manse Road"},"type":"Feature","geometry":{"type":"Point","coordinates":[330891.003777168,4847274.26358716]}},{"properties":{"City":"West Hill","PostalCode":"M1C 2A2","SchName":"Centennial Road Junior Public School","METPanelID":"E","id":"adnll5d1c8gz","Address":"271 Centennial Road"},"type":"Feature","geometry":{"type":"Point","coordinates":[332951.922098574,4849503.81785671]}},{"properties":{"City":"Scarborough","PostalCode":"M1P 1V6","SchName":"Dorset Park Public School","METPanelID":"E","id":"adnll590x4ge","Address":"28 Blaisdale Road"},"type":"Feature","geometry":{"type":"Point","coordinates":[322523.204694627,4845380.39862439]}},{"properties":{"City":"West Hill","PostalCode":"M1E 3V4","SchName":"Heron Park Junior Public School","METPanelID":"E","id":"adnll57s0m1c","Address":"280 Manse Road"},"type":"Feature","geometry":{"type":"Point","coordinates":[330878.397662677,4847394.00074284]}},{"properties":{"City":"North York","PostalCode":"M2J 3B6","SchName":"Woodbine Junior High School","METPanelID":"ES","id":"adnll5f50ikp","Address":"2900 Don Mills Road"},"type":"Feature","geometry":{"type":"Point","coordinates":[316866.557182583,4848940.26229824]}},{"properties":{"City":"Etobicoke","PostalCode":"M9C 1Y5","SchName":"Silverthorn Collegiate Institute","METPanelID":"S","id":"adnll51lbuf2","Address":"291 Mill Road"},"type":"Feature","geometry":{"type":"Point","coordinates":[298298.017867008,4832880.57265122]}},{"properties":{"City":"Scarborough","PostalCode":"M1B 4X3","SchName":"Rouge Valley Public School","METPanelID":"E","id":"adnll535feng","Address":"30 Durnford Road"},"type":"Feature","geometry":{"type":"Point","coordinates":[332868.667602177,4850885.78471939]}},{"properties":{"City":"Scarborough","PostalCode":"M1P 1C8","SchName":"General Crerar Public School","METPanelID":"E","id":"adnll54e3vhi","Address":"30 McGregor Road"},"type":"Feature","geometry":{"type":"Point","coordinates":[322537.030689423,4844882.58852459]}},{"properties":{"City":"York","PostalCode":"M6E 4T5","SchName":"F H Miller Junior Public School","METPanelID":"E","id":"adnll5e41dmb","Address":"300 Caledonia Road"},"type":"Feature","geometry":{"type":"Point","coordinates":[308097.896996379,4838007.43217333]}},{"properties":{"City":"North York","PostalCode":"M2J 3B6","SchName":"Georges Vanier Secondary School","METPanelID":"S","id":"adnll5fyr2nn","Address":"3000 Don Mills Road"},"type":"Feature","geometry":{"type":"Point","coordinates":[316779.207302528,4849056.40157979]}},{"properties":{"City":"North York","PostalCode":"M6L 2V4","SchName":"Maple Leaf Public School","METPanelID":"E","id":"adnll5d8xim5","Address":"301 Culford Road"},"type":"Feature","geometry":{"type":"Point","coordinates":[305567.884940759,4841433.44968078]}},{"properties":{"City":"East York","PostalCode":"M4G 1R4","SchName":"Northlea Elementary and Middle School","METPanelID":"E","id":"adnll5137rdj","Address":"305 Rumsey Road"},"type":"Feature","geometry":{"type":"Point","coordinates":[315297.668633945,4841396.6916249]}},{"properties":{"City":"Scarborough","PostalCode":"M1M 3L7","SchName":"H A Halbert Junior Public School","METPanelID":"E","id":"adnll5515dqx","Address":"31 McCowan Road"},"type":"Feature","geometry":{"type":"Point","coordinates":[326389.774197703,4842872.07135036]}},{"properties":{"City":"East York","PostalCode":"M4G 3M5","SchName":"Rolph Road Elementary School","METPanelID":"E","id":"adnll57qxwgs","Address":"31 Rolph Road"},"type":"Feature","geometry":{"type":"Point","coordinates":[315582.500530972,4839773.42550941]}},{"properties":{"City":"Scarborough","PostalCode":"M1M 1C7","SchName":"Fairmount Junior Public School","METPanelID":"E","id":"adnll50c2luw","Address":"31 Sloley Road"},"type":"Feature","geometry":{"type":"Point","coordinates":[326467.254923195,4842013.5821726]}},{"properties":{"City":"North York","PostalCode":"M2J 3C3","SchName":"Don Valley Junior High School","METPanelID":"ES","id":"adnll5efry1x","Address":"3100 Don Mills Road"},"type":"Feature","geometry":{"type":"Point","coordinates":[316456.834008301,4849740.40362445]}},{"properties":{"City":"Agincourt","PostalCode":"M1S 2E2","SchName":"Sir Alexander Mackenzie Senior Public School","METPanelID":"E","id":"adnll55hwxo9","Address":"33 Heather Road"},"type":"Feature","geometry":{"type":"Point","coordinates":[323044.107500573,4849744.84886053]}},{"properties":{"City":"North York","PostalCode":"M9M 2V9","SchName":"Emery Collegiate Institute","METPanelID":"S","id":"adnll5amheo0","Address":"3395 Weston Road"},"type":"Feature","geometry":{"type":"Point","coordinates":[301664.385261824,4845189.40067169]}},{"properties":{"City":"North York","PostalCode":"M2J 2G6","SchName":"Lescon Public School","METPanelID":"E","id":"adnll5b7y2mk","Address":"34 Lescon Road"},"type":"Feature","geometry":{"type":"Point","coordinates":[316238.511647499,4848769.52294317]}},{"properties":{"City":"North York","PostalCode":"M3J 1T9","SchName":"C W Jefferys Collegiate Institute","METPanelID":"S","id":"adnll5bmvmow","Address":"340 Sentinel Road"},"type":"Feature","geometry":{"type":"Point","coordinates":[304777.063963765,4846191.08872107]}},{"properties":{"City":"Scarborough","PostalCode":"M1G 3H4","SchName":"Henry Hudson Senior Public School","METPanelID":"E","id":"adnll57xfx3v","Address":"350 Orton Park Road"},"type":"Feature","geometry":{"type":"Point","coordinates":[327768.776371503,4848459.18181108]}},{"properties":{"City":"Toronto","PostalCode":"M6S 2Y7","SchName":"Runnymede Junior and Senior Public School","METPanelID":"E","id":"adnll552yj3y","Address":"357 Runnymede Road"},"type":"Feature","geometry":{"type":"Point","coordinates":[306600.467546661,4834887.81168562]}},{"properties":{"City":"North York","PostalCode":"M2L 2V2","SchName":"Windfields Junior High School","METPanelID":"ES","id":"adnll50b3wue","Address":"375 Banbury Road"},"type":"Feature","geometry":{"type":"Point","coordinates":[315213.824718854,4846021.63616569]}},{"properties":{"City":"Scarborough","PostalCode":"M1L 3P1","SchName":"Oakridge Junior Public School","METPanelID":"E","id":"adnll5eflo7w","Address":"110 Byng Avenue"},"type":"Feature","geometry":{"type":"Point","coordinates":[322389.144877574,4839292.72370552]}},{"properties":{"City":"Scarborough","PostalCode":"M1R 3V3","SchName":"Buchanan Public School","METPanelID":"E","id":"adnll57jqti7","Address":"4 Bucannan Road"},"type":"Feature","geometry":{"type":"Point","coordinates":[320907.654532022,4845518.19697082]}},{"properties":{"City":"Toronto","PostalCode":"M4E 3M8","SchName":"Adam Beck Junior Public School","METPanelID":"E","id":"adnll5cm653b","Address":"400 Scarborough Road"},"type":"Feature","geometry":{"type":"Point","coordinates":[321837.119590502,4837933.37082851]}},{"properties":{"City":"Etobicoke","PostalCode":"M9C 1Y9","SchName":"Mill Valley Junior School","METPanelID":"E","id":"adnll57dx804","Address":"411 Mill Road"},"type":"Feature","geometry":{"type":"Point","coordinates":[297767.640624414,4833586.95876754]}},{"properties":{"City":"Scarborough","PostalCode":"M1J 1J1","SchName":"McCowan Road Junior Public School","METPanelID":"E","id":"adnll56zzz3l","Address":"425 McCowan Road"},"type":"Feature","geometry":{"type":"Point","coordinates":[325806.072855558,4844668.15309454]}},{"properties":{"City":"Toronto","PostalCode":"M4S 1J6","SchName":"Davisville Junior Public School","METPanelID":"E","id":"adnll55h66dc","Address":"43 Millwood Road"},"type":"Feature","geometry":{"type":"Point","coordinates":[313259.008473212,4839720.49999452]}},{"properties":{"City":"Toronto","PostalCode":"M4S 1J6","SchName":"Metropolitan Toronto School for the Deaf","METPanelID":"E","id":"adnll59ufd9g","Address":"43 Millwood Road"},"type":"Feature","geometry":{"type":"Point","coordinates":[313228.057605059,4839708.76452572]}},{"properties":{"City":"Scarborough","PostalCode":"M1J 1J1","SchName":"John McCrae Senior Public School","METPanelID":"E","id":"adnll55eoyik","Address":"431 McCowan Road"},"type":"Feature","geometry":{"type":"Point","coordinates":[325732.561385923,4844701.1626696]}},{"properties":{"City":"North York","PostalCode":"M3K 1S6","SchName":"Ancaster Public School","METPanelID":"E","id":"adnll54ik914","Address":"44 Ancaster Road"},"type":"Feature","geometry":{"type":"Point","coordinates":[307443.255791,4843435.31284862]}},{"properties":{"City":"Etobicoke","PostalCode":"M9V 3W9","SchName":"Albion Heights Junior Middle School","METPanelID":"E","id":"adnll5b7g3au","Address":"45 Lynmont Road"},"type":"Feature","geometry":{"type":"Point","coordinates":[297186.284274256,4843275.01552657]}},{"properties":{"City":"Toronto","PostalCode":"M4N 1A9","SchName":"Sunny View Junior and Senior Public School","METPanelID":"E","id":"adnll57mzp9a","Address":"450 Blythwood Road"},"type":"Feature","geometry":{"type":"Point","coordinates":[313861.986172127,4841994.2805212]}},{"properties":{"City":"Toronto","PostalCode":"M4V 2J1","SchName":"Brown Junior Public School","METPanelID":"E","id":"adnll5ewyq1x","Address":"454 Avenue Road"},"type":"Feature","geometry":{"type":"Point","coordinates":[312740.596538537,4838112.11594896]}},{"properties":{"City":"Scarborough","PostalCode":"M1K 1N7","SchName":"J G Workman Public School","METPanelID":"E","id":"adnll59i7hos","Address":"487 Birchmount Road"},"type":"Feature","geometry":{"type":"Point","coordinates":[323551.694131696,4840608.6468395]}},{"properties":{"City":"North York","PostalCode":"M3B 1W6","SchName":"York Mills Collegiate Institute","METPanelID":"S","id":"adnll52xj0uc","Address":"490 York Mills Road"},"type":"Feature","geometry":{"type":"Point","coordinates":[314969.687450928,4845515.88582983]}},{"properties":{"City":"Etobicoke","PostalCode":"M8Y 1T3","SchName":"Etienne Brule Junior School","METPanelID":"E","id":"adnll53u9c5s","Address":"50 Cloverhill Road"},"type":"Feature","geometry":{"type":"Point","coordinates":[305616.38966892,4832631.23510183]}},{"properties":{"City":"North York","PostalCode":"M3B 1C8","SchName":"Norman Ingram Public School","METPanelID":"E","id":"adnll5fl6vul","Address":"50 Duncairn Road"},"type":"Feature","geometry":{"type":"Point","coordinates":[316898.129216667,4844232.97148658]}},{"properties":{"City":"York","PostalCode":"M6C 2R1","SchName":"Vaughan Road Academy","METPanelID":"S","id":"adnll5cq0yu6","Address":"529 Vaughan Road"},"type":"Feature","geometry":{"type":"Point","coordinates":[309886.801906031,4838787.99585667]}},{"properties":{"City":"York","PostalCode":"M6M 1P1","SchName":"Silverthorn Junior Public School","METPanelID":"E","id":"adnll53i4w0e","Address":"55 Ypres Road"},"type":"Feature","geometry":{"type":"Point","coordinates":[307160.097617203,4838443.05416386]}},{"properties":{"City":"Scarborough","PostalCode":"M1H 2A2","SchName":"Cedarbrae Collegiate Institute","METPanelID":"S","id":"adnll53hmulu","Address":"550 Markham Road"},"type":"Feature","geometry":{"type":"Point","coordinates":[326854.293046018,4846079.02541146]}},{"properties":{"City":"Etobicoke","PostalCode":"M9C 3T3","SchName":"Seneca School","METPanelID":"E","id":"adnll5a4wrke","Address":"580 Rathburn Road"},"type":"Feature","geometry":{"type":"Point","coordinates":[298125.467713744,4834335.86590663]}},{"properties":{"City":"West Hill","PostalCode":"M1E 3Y3","SchName":"William G Miller Junior Public School","METPanelID":"E","id":"adnll57dauqq","Address":"60 Bennett Road"},"type":"Feature","geometry":{"type":"Point","coordinates":[331753.010101954,4847458.15168861]}},{"properties":{"City":"Agincourt","PostalCode":"M1S 2J3","SchName":"North Agincourt Junior Public School","METPanelID":"E","id":"adnll50ejr3h","Address":"60 Moran Road"},"type":"Feature","geometry":{"type":"Point","coordinates":[322797.774096589,4850523.23611493]}},{"properties":{"City":"North York","PostalCode":"M2R 3A7","SchName":"Rockford Public School","METPanelID":"E","id":"adnll53x5tz2","Address":"60 Rockford Road"},"type":"Feature","geometry":{"type":"Point","coordinates":[308604.830482357,4849351.82967687]}},{"properties":{"City":"Toronto","PostalCode":"M5R 1H4","SchName":"Jesse Ketchum Junior and Senior Public School","METPanelID":"E","id":"adnll58z220v","Address":"61 Davenport Road"},"type":"Feature","geometry":{"type":"Point","coordinates":[313481.81599174,4836787.60558768]}},{"properties":{"City":"Etobicoke","PostalCode":"M9A 3E1","SchName":"Humber Valley Village Junior Middle School","METPanelID":"E","id":"adnll577ood3","Address":"65 Hartfield Road"},"type":"Feature","geometry":{"type":"Point","coordinates":[302658.77148174,4835958.18423449]}},{"properties":{"City":"Etobicoke","PostalCode":"M8Y 2T1","SchName":"Etobicoke School of the Arts","METPanelID":"S","id":"adnll54jz2op","Address":"675 Royal York Road"},"type":"Feature","geometry":{"type":"Point","coordinates":[304498.464258375,4832106.75469118]}},{"properties":{"City":"North York","PostalCode":"M3K 1W3","SchName":"Downsview Secondary School","METPanelID":"S","id":"adnll5b2wbdu","Address":"7 Hawksdale Road"},"type":"Feature","geometry":{"type":"Point","coordinates":[306488.279323164,4843203.01923364]}},{"properties":{"City":"Scarborough","PostalCode":"M1B 2X3","SchName":"John G Diefenbaker Public School","METPanelID":"E","id":"adnll59pqg8h","Address":"70 Dean Park Road"},"type":"Feature","geometry":{"type":"Point","coordinates":[331186.995149609,4851200.06991727]}},{"properties":{"City":"Toronto","PostalCode":"M4L 2W6","SchName":"Duke of Connaught Junior and Senior Public School","METPanelID":"E","id":"adnll5ggsm3m","Address":"70 Woodfield Road"},"type":"Feature","geometry":{"type":"Point","coordinates":[319102.9932534,4836009.27821969]}},{"properties":{"City":"Scarborough","PostalCode":"M1G 1H7","SchName":"Tecumseh Senior Public School","METPanelID":"E","id":"adnll5dc8r68","Address":"720 Scarborough Golf Club Road"},"type":"Feature","geometry":{"type":"Point","coordinates":[327592.468362139,4846810.96273969]}},{"properties":{"City":"Scarborough","PostalCode":"M1K 1G4","SchName":"Norman Cook Junior Public School","METPanelID":"E","id":"adnll5ayrp4v","Address":"725 Danforth Road"},"type":"Feature","geometry":{"type":"Point","coordinates":[324299.975609978,4841927.03992466]}},{"properties":{"City":"Scarborough","PostalCode":"M1G 1H7","SchName":"Golf Road Junior Public School","METPanelID":"E","id":"adnll518qkzp","Address":"730 Scarborough Golf Club Road"},"type":"Feature","geometry":{"type":"Point","coordinates":[327580.373267181,4846925.81102169]}},{"properties":{"City":"Scarborough","PostalCode":"M1P 2W1","SchName":"Ellesmere-Statton Public School","METPanelID":"E","id":"adnll563niuv","Address":"739 Ellesmere Road"},"type":"Feature","geometry":{"type":"Point","coordinates":[321888.102558923,4846873.60686816]}},{"properties":{"City":"North York","PostalCode":"M3N 1C2","SchName":"Stanley Public School","METPanelID":"E","id":"adnll50fbm9h","Address":"75 Stanley Road"},"type":"Feature","geometry":{"type":"Point","coordinates":[303366.743786301,4844406.21419493]}},{"properties":{"City":"North York","PostalCode":"M3N 1W7","SchName":"Westview Centennial Secondary School","METPanelID":"S","id":"adnll5f3be56","Address":"755 Oakdale Road"},"type":"Feature","geometry":{"type":"Point","coordinates":[302763.76473813,4845604.97651127]}},{"properties":{"City":"West Hill","PostalCode":"M1C 1T1","SchName":"Meadowvale Public School","METPanelID":"E","id":"adnll5cvazux","Address":"761 Meadowvale Road"},"type":"Feature","geometry":{"type":"Point","coordinates":[331817.739162836,4850448.89484563]}},{"properties":{"City":"Toronto","PostalCode":"M5P 2T6","SchName":"Forest Hill Junior and Senior Public School","METPanelID":"E","id":"adnll5e1pjns","Address":"78 Dunloe Road"},"type":"Feature","geometry":{"type":"Point","coordinates":[311717.048903201,4839269.99792752]}},{"properties":{"City":"Scarborough","PostalCode":"M1M 3R2","SchName":"Mason Road Junior Public School","METPanelID":"E","id":"adnll5864zra","Address":"78 Mason Road"},"type":"Feature","geometry":{"type":"Point","coordinates":[326883.632692802,4844168.65379497]}},{"properties":{"City":"Toronto","PostalCode":"M4L 3J2","SchName":"Bowmore Road Junior and Senior Public School","METPanelID":"E","id":"adnll59vkiob","Address":"80 Bowmore Road"},"type":"Feature","geometry":{"type":"Point","coordinates":[319708.034814444,4837220.75223364]}},{"properties":{"City":"North York","PostalCode":"M2L 1V9","SchName":"Harrison Public School","METPanelID":"E","id":"adnll55dopv2","Address":"81 Harrison Road"},"type":"Feature","geometry":{"type":"Point","coordinates":[314650.710510047,4846152.21506101]}},{"properties":{"City":"Toronto","PostalCode":"M4P 2L5","SchName":"Northern Secondary School","METPanelID":"S","id":"adnll546e2pb","Address":"851 Mount Pleasant Road"},"type":"Feature","geometry":{"type":"Point","coordinates":[313635.615656266,4840960.06777735]}},{"properties":{"City":"Etobicoke","PostalCode":"M9A 3N5","SchName":"Etobicoke Collegiate Institute","METPanelID":"S","id":"adnll55cdrgs","Address":"86 Montgomery Road"},"type":"Feature","geometry":{"type":"Point","coordinates":[302985.384387405,4834238.54399909]}},{"properties":{"City":"Scarborough","PostalCode":"M1K 2Z9","SchName":"Ionview Public School","METPanelID":"E","id":"adnll51erqdn","Address":"90 Ionview Road"},"type":"Feature","geometry":{"type":"Point","coordinates":[322961.242953256,4843960.05688211]}},{"properties":{"City":"North York","PostalCode":"M2J 3E8","SchName":"Kingslake Public School","METPanelID":"E","id":"adnll5149ci7","Address":"90 Kingslake Road"},"type":"Feature","geometry":{"type":"Point","coordinates":[317211.764727798,4849214.80252631]}},{"properties":{"City":"Scarborough","PostalCode":"M1K 1J2","SchName":"Robert Service Senior Public School","METPanelID":"E","id":"adnll53blp6i","Address":"945 Danforth Road"},"type":"Feature","geometry":{"type":"Point","coordinates":[324829.816802506,4843038.01116262]}},{"properties":{"City":"Etobicoke","PostalCode":"M9P 1E9","SchName":"Westmount Junior School","METPanelID":"E","id":"adnll59jbmvu","Address":"95 Chapman Road"},"type":"Feature","geometry":{"type":"Point","coordinates":[303199.307849442,4838572.49694088]}},{"properties":{"City":"Toronto","PostalCode":"M6H 2J6","SchName":"Regal Road Junior Public School","METPanelID":"E","id":"adnll55f5jlk","Address":"95 Regal Road"},"type":"Feature","geometry":{"type":"Point","coordinates":[309617.22925292,4836871.77659145]}},{"properties":{"City":"North York","PostalCode":"M4A 2B1","SchName":"Sloane Public School","METPanelID":"E","id":"adnll5eieh56","Address":"110 Sloane Avenue"},"type":"Feature","geometry":{"type":"Point","coordinates":[320063.175545688,4843268.47350612]}},{"properties":{"City":"York","PostalCode":"M6B 1M7","SchName":"Briar Hill Junior Public School","METPanelID":"E","id":"adnll52c7uvi","Address":"1100 Briarhill Avenue"},"type":"Feature","geometry":{"type":"Point","coordinates":[308723.243089817,4840112.0698469]}},{"properties":{"City":"East York","PostalCode":"M4K 2E4","SchName":"Chester Elementary School","METPanelID":"E","id":"adnll54d64xl","Address":"115 Gowan Avenue"},"type":"Feature","geometry":{"type":"Point","coordinates":[316739.091303637,4838416.84330816]}},{"properties":{"City":"East York","PostalCode":"M4B 3J9","SchName":"Selwyn Elementary School","METPanelID":"E","id":"adnll56mtsz9","Address":"1 Selwyn Avenue"},"type":"Feature","geometry":{"type":"Point","coordinates":[320388.575239733,4840780.74893964]}},{"properties":{"City":"Scarborough","PostalCode":"M1R 1Y1","SchName":"George Peck Public School","METPanelID":"E","id":"adnll50dcpns","Address":"1 Wayne Avenue"},"type":"Feature","geometry":{"type":"Point","coordinates":[321406.903715724,4844054.44289892]}},{"properties":{"City":"North York","PostalCode":"M3H 2K2","SchName":"Dublin Heights Elementary and Middle School","METPanelID":"E","id":"adnll5gk9z6r","Address":"100 Bainbridge Avenue"},"type":"Feature","geometry":{"type":"Point","coordinates":[309071.55859404,4845258.6314947]}},{"properties":{"City":"Toronto","PostalCode":"M6K 2V3","SchName":"Queen Victoria Junior Public School","METPanelID":"E","id":"adnll57ex9e3","Address":"100 Close Avenue"},"type":"Feature","geometry":{"type":"Point","coordinates":[310017.893704167,4832739.32748658]}},{"properties":{"City":"York","PostalCode":"M6M 2E6","SchName":"York Humber High School","METPanelID":"S","id":"adnll53vdes9","Address":"100 Emmett Avenue"},"type":"Feature","geometry":{"type":"Point","coordinates":[304294.234909301,4838496.97981331]}},{"properties":{"City":"Toronto","PostalCode":"M6H 3M8","SchName":"Pauline Junior Public School","METPanelID":"E","id":"adnll55b778x","Address":"100 Pauline Avenue"},"type":"Feature","geometry":{"type":"Point","coordinates":[309691.039941149,4835627.5375644]}},{"properties":{"City":"North York","PostalCode":"M2N 3R7","SchName":"Earl Haig Secondary School","METPanelID":"S","id":"adnll50yv6ue","Address":"100 Princess Avenue"},"type":"Feature","geometry":{"type":"Point","coordinates":[312336.831535556,4847499.22076754]}},{"properties":{"City":"Toronto","PostalCode":"M4J 1G8","SchName":"Earl Grey Senior Public School","METPanelID":"E","id":"adnll57chgx3","Address":"100 Strathcona Avenue"},"type":"Feature","geometry":{"type":"Point","coordinates":[317618.190123645,4837225.94808584]}},{"properties":{"City":"East York","PostalCode":"M4J 2P5","SchName":"William Burgess Elementary School","METPanelID":"E","id":"adnll54xmvr6","Address":"100 Torrens Avenue"},"type":"Feature","geometry":{"type":"Point","coordinates":[317018.240590698,4838911.19386384]}},{"properties":{"City":"East York","PostalCode":"M4C 4Y9","SchName":"Secord Elementary School","METPanelID":"E","id":"adnll52rxacn","Address":"101 Barrington Avenue"},"type":"Feature","geometry":{"type":"Point","coordinates":[320774.82609769,4838921.41332263]}},{"properties":{"City":"North York","PostalCode":"M6B 4L5","SchName":"Glen Park Public School","METPanelID":"E","id":"adnll54qp3ut","Address":"101 Englemount Avenue"},"type":"Feature","geometry":{"type":"Point","coordinates":[309960.340454946,4841262.29595131]}},{"properties":{"City":"Toronto","PostalCode":"M4L 3R3","SchName":"Kew Beach Junior Public School","METPanelID":"E","id":"adnll57abhv2","Address":"101 Kippendavie Avenue"},"type":"Feature","geometry":{"type":"Point","coordinates":[320692.918037178,4836298.81757391]}},{"properties":{"City":"Scarborough","PostalCode":"M1R 2H7","SchName":"Wexford Collegiate School for the Arts","METPanelID":"S","id":"adnll5ff1ovf","Address":"1176 Pharmacy Avenue"},"type":"Feature","geometry":{"type":"Point","coordinates":[320344.840592607,4844929.66051826]}},{"properties":{"City":"Scarborough","PostalCode":"M1N 2J1","SchName":"Birch Cliff Heights Public School","METPanelID":"E","id":"adnll5ftpe75","Address":"120 Highview Avenue"},"type":"Feature","geometry":{"type":"Point","coordinates":[324142.669123059,4840004.86486176]}},{"properties":{"City":"North York","PostalCode":"M3M 1H5","SchName":"Pierre Laporte Middle School","METPanelID":"E","id":"adnll5adtiws","Address":"1270 Wilson Avenue"},"type":"Feature","geometry":{"type":"Point","coordinates":[305418.757493615,4842569.23219209]}},{"properties":{"City":"West Hill","PostalCode":"M1C 3L6","SchName":"William G Davis Junior Public School","METPanelID":"E","id":"adnll5gmu0od","Address":"128 East Avenue"},"type":"Feature","geometry":{"type":"Point","coordinates":[334204.337789676,4849296.33304702]}},{"properties":{"City":"Toronto","PostalCode":"M6R 1K3","SchName":"Fern Avenue Junior and Senior Public School","METPanelID":"E","id":"adnll5a18jc5","Address":"128 Fern Avenue"},"type":"Feature","geometry":{"type":"Point","coordinates":[309131.518377606,4833694.7388207]}},{"properties":{"City":"Agincourt","PostalCode":"M1T 2B5","SchName":"Lynngate Junior Public School","METPanelID":"E","id":"adnll53muiwj","Address":"129 Cass Avenue"},"type":"Feature","geometry":{"type":"Point","coordinates":[320837.952370328,4848317.75290291]}},{"properties":{"City":"Toronto","PostalCode":"M4R 1P2","SchName":"John Ross Robertson Junior Public School","METPanelID":"E","id":"adnll587ho3q","Address":"130 Glengrove Avenue West"},"type":"Feature","geometry":{"type":"Point","coordinates":[312127.694095151,4841823.52753143]}},{"properties":{"City":"North York","PostalCode":"M2P 1X7","SchName":"St Andrew's Junior High School","METPanelID":"ES","id":"adnll53ub55m","Address":"131 Fenn Avenue"},"type":"Feature","geometry":{"type":"Point","coordinates":[313616.258513553,4845521.57326634]}},{"properties":{"City":"Scarborough","PostalCode":"M1R 2J1","SchName":"Maryvale Public School","METPanelID":"E","id":"adnll554ai8s","Address":"1325 Pharmacy Avenue"},"type":"Feature","geometry":{"type":"Point","coordinates":[320252.938688367,4845888.33431262]}},{"properties":{"City":"Toronto","PostalCode":"M4E 1L6","SchName":"Balmy Beach Community School","METPanelID":"E","id":"adnll50nuv4a","Address":"14 Pine Avenue"},"type":"Feature","geometry":{"type":"Point","coordinates":[321731.021253718,4837186.99616777]}},{"properties":{"City":"Toronto","PostalCode":"M6P 3P8","SchName":"Perth Avenue Junior Public School","METPanelID":"E","id":"adnll5c3ttt5","Address":"14 Ruskin Avenue"},"type":"Feature","geometry":{"type":"Point","coordinates":[308621.59245931,4835655.35972994]}},{"properties":{"City":"North York","PostalCode":"M3M 2W9","SchName":"Sheppard Public School","METPanelID":"E","id":"adnll58dv60f","Address":"1430 Sheppard Avenue West"},"type":"Feature","geometry":{"type":"Point","coordinates":[305729.803651717,4844830.00548866]}},{"properties":{"City":"North York","PostalCode":"M6A 1W4","SchName":"Baycrest Public School","METPanelID":"E","id":"adnll518sf2u","Address":"145 Baycrest Avenue"},"type":"Feature","geometry":{"type":"Point","coordinates":[309275.696083889,4842740.79912838]}},{"properties":{"City":"East York","PostalCode":"M4B 2A6","SchName":"Victoria Park Elementary School","METPanelID":"E","id":"adnll57zqnj3","Address":"145 Tiago Avenue"},"type":"Feature","geometry":{"type":"Point","coordinates":[321050.105231765,4841212.93675698]}},{"properties":{"City":"North York","PostalCode":"M5M 3A5","SchName":"Armour Heights Public School","METPanelID":"E","id":"adnll514j65g","Address":"148 Wilson Avenue"},"type":"Feature","geometry":{"type":"Point","coordinates":[311266.472561672,4844331.51940624]}},{"properties":{"City":"York","PostalCode":"M6C 2X4","SchName":"Humewood Community School","METPanelID":"E","id":"adnll5g3e7wi","Address":"15 Cherrywood Avenue"},"type":"Feature","geometry":{"type":"Point","coordinates":[310587.117418606,4838301.24768403]}},{"properties":{"City":"Toronto","PostalCode":"M4C 1E2","SchName":"Earl Haig Public School","METPanelID":"E","id":"adnll50h76zq","Address":"15 Earl Haig Avenue"},"type":"Feature","geometry":{"type":"Point","coordinates":[319196.103293528,4837724.9668237]}},{"properties":{"City":"North York","PostalCode":"M6L 2E5","SchName":"Nelson A Boylen Collegiate Institute","METPanelID":"S","id":"adnll552m1lj","Address":"155 Falstaff Avenue"},"type":"Feature","geometry":{"type":"Point","coordinates":[305113.246724851,4841711.16358023]}},{"properties":{"City":"North York","PostalCode":"M2M 1V6","SchName":"Newtonbrook Secondary School","METPanelID":"S","id":"adnll5f1td2e","Address":"155 Hilda Avenue"},"type":"Feature","geometry":{"type":"Point","coordinates":[310720.02029183,4850179.08061308]}},{"properties":{"City":"Scarborough","PostalCode":"M1P 3C1","SchName":"Bendale Business and Technical Institute","METPanelID":"S","id":"adnll5eczkq8","Address":"1555 Midland Avenue"},"type":"Feature","geometry":{"type":"Point","coordinates":[323728.786593621,4845958.23917771]}},{"properties":{"City":"Toronto","PostalCode":"M4J 3T2","SchName":"Eastern Commerce Collegiate Institute","METPanelID":"S","id":"adnll5csmniw","Address":"16 Phin Avenue"},"type":"Feature","geometry":{"type":"Point","coordinates":[317956.118344872,4837478.96663868]}},{"properties":{"City":"Toronto","PostalCode":"M4J 3T2","SchName":"Subway Academy I","METPanelID":"S","id":"adnll5bvhrs6","Address":"16 Phin Avenue"},"type":"Feature","geometry":{"type":"Point","coordinates":[317956.118344872,4837478.96663868]}},{"properties":{"City":"Scarborough","PostalCode":"M1E 1A3","SchName":"Elizabeth Simcoe Junior Public School","METPanelID":"E","id":"adnll5cdgl6q","Address":"166 Sylvan Avenue"},"type":"Feature","geometry":{"type":"Point","coordinates":[328463.066083372,4844063.76478289]}},{"properties":{"City":"York","PostalCode":"M6N 2T7","SchName":"Dennis Avenue Community School","METPanelID":"E","id":"adnll59dnfqx","Address":"17 Dennis Avenue"},"type":"Feature","geometry":{"type":"Point","coordinates":[305809.140211763,4838052.72337094]}},{"properties":{"City":"North York","PostalCode":"M2N 2V4","SchName":"Avondale Alternative Elementary School","METPanelID":"E","id":"adnll5e0xpwl","Address":"171 Avondale Avenue"},"type":"Feature","geometry":{"type":"Point","coordinates":[312816.457744485,4846418.24337546]}},{"properties":{"City":"North York","PostalCode":"M2N 2V4","SchName":"Avondale Alternative Secondary School","METPanelID":"S","id":"adnll54e06xq","Address":"171 Avondale Avenue"},"type":"Feature","geometry":{"type":"Point","coordinates":[312778.875728478,4846388.61418169]}},{"properties":{"City":"Etobicoke","PostalCode":"M9A 3N2","SchName":"Richview Collegiate Institute","METPanelID":"S","id":"adnll563rqn5","Address":"1738 Islington Avenue"},"type":"Feature","geometry":{"type":"Point","coordinates":[301571.802014233,4837408.70955531]}},{"properties":{"City":"York","PostalCode":"M6N 2K1","SchName":"Cordella Junior Public School","METPanelID":"E","id":"adnll57k4dqs","Address":"175 Cordella Avenue"},"type":"Feature","geometry":{"type":"Point","coordinates":[305785.091325737,4837458.42539598]}},{"properties":{"City":"North York","PostalCode":"M6L 1L7","SchName":"Gracefield Public School","METPanelID":"E","id":"adnll508vhd9","Address":"177 Gracefield Avenue"},"type":"Feature","geometry":{"type":"Point","coordinates":[305470.294314583,4840784.69103752]}},{"properties":{"City":"Toronto","PostalCode":"M4M 2R9","SchName":"Morse Street Junior Public School","METPanelID":"E","id":"adnll54l7o0j","Address":"180 Carlaw Avenue"},"type":"Feature","geometry":{"type":"Point","coordinates":[317675.500994221,4835370.58937033]}},{"properties":{"City":"Toronto","PostalCode":"M4M 2G3","SchName":"Queen Alexandra Middle School","METPanelID":"E","id":"adnll56xaaoz","Address":"181 Broadview Avenue"},"type":"Feature","geometry":{"type":"Point","coordinates":[316887.557056354,4835521.34502943]}},{"properties":{"City":"North York","PostalCode":"M2N 1Z5","SchName":"Churchill Public School","METPanelID":"E","id":"adnll53g9ior","Address":"188 Churchill Avenue"},"type":"Feature","geometry":{"type":"Point","coordinates":[310658.377188039,4847646.47892635]}},{"properties":{"City":"Toronto","PostalCode":"M4C 5K6","SchName":"Gledhill Junior Public School","METPanelID":"E","id":"adnll5dp5e58","Address":"2 Gledhill Avenue"},"type":"Feature","geometry":{"type":"Point","coordinates":[320140.70788257,4838429.462435]}},{"properties":{"City":"York","PostalCode":"M6M 4G9","SchName":"Keelesdale Junior Public School","METPanelID":"E","id":"adnll5cf48y7","Address":"200 Bicknell Avenue"},"type":"Feature","geometry":{"type":"Point","coordinates":[306642.729342397,4838334.7845455]}},{"properties":{"City":"North York","PostalCode":"M6L 1L7","SchName":"Amesbury Middle School","METPanelID":"E","id":"adnll5cbd0hr","Address":"201 Gracefield Avenue"},"type":"Feature","geometry":{"type":"Point","coordinates":[305338.652677721,4840705.5739489]}},{"properties":{"City":"Toronto","PostalCode":"M6S 3J9","SchName":"Swansea Junior and Senior Public School","METPanelID":"E","id":"adnll536mmer","Address":"207 Windermere Avenue"},"type":"Feature","geometry":{"type":"Point","coordinates":[306632.848521047,4833502.24452099]}},{"properties":{"City":"Toronto","PostalCode":"M6K 2Y3","SchName":"Parkdale Collegiate Institute","METPanelID":"S","id":"adnll5axey9f","Address":"209 Jameson Avenue"},"type":"Feature","geometry":{"type":"Point","coordinates":[309942.309831923,4833081.72567494]}},{"properties":{"City":"Toronto","PostalCode":"M4J 1A7","SchName":"Blake Street Junior Public School","METPanelID":"E","id":"adnll5255xl3","Address":"21 Boultbee Avenue"},"type":"Feature","geometry":{"type":"Point","coordinates":[317809.321204844,4836663.949224]}},{"properties":{"City":"Toronto","PostalCode":"M4J 1A7","SchName":"East Alternative School of Toronto","METPanelID":"E","id":"adnll5gajop7","Address":"21 Boultbee Avenue"},"type":"Feature","geometry":{"type":"Point","coordinates":[317809.321204844,4836663.949224]}},{"properties":{"City":"Scarborough","PostalCode":"M1J 3G4","SchName":"Cedar Drive Junior Public School","METPanelID":"E","id":"adnll54epg5e","Address":"21 Gatesview Avenue"},"type":"Feature","geometry":{"type":"Point","coordinates":[327749.319189307,4844998.59649301]}},{"properties":{"City":"Scarborough","PostalCode":"M1L 4N7","SchName":"Samuel Hearne Middle School","METPanelID":"E","id":"adnll516053v","Address":"21 Newport Avenue"},"type":"Feature","geometry":{"type":"Point","coordinates":[322227.413929246,4839237.67024317]}},{"properties":{"City":"North York","PostalCode":"M2N 1E8","SchName":"Cameron Public School","METPanelID":"E","id":"adnll5dnn3uk","Address":"211 Cameron Avenue"},"type":"Feature","geometry":{"type":"Point","coordinates":[311125.816848874,4845825.69735028]}},{"properties":{"City":"North York","PostalCode":"M3M 1C4","SchName":"Highview Public School","METPanelID":"E","id":"adnll5dpiyd9","Address":"22 Highview Avenue"},"type":"Feature","geometry":{"type":"Point","coordinates":[305007.408015657,4842222.20699724]}},{"properties":{"City":"Agincourt","PostalCode":"M1W 1H8","SchName":"Fairglen Junior Public School","METPanelID":"E","id":"adnll57u73xg","Address":"2200 Pharmacy Avenue"},"type":"Feature","geometry":{"type":"Point","coordinates":[319091.915496566,4849234.84651852]}},{"properties":{"City":"Toronto","PostalCode":"M4P 1L1","SchName":"Eglinton Junior Public School","METPanelID":"E","id":"adnll5d1f6hu","Address":"223 Eglinton Avenue East"},"type":"Feature","geometry":{"type":"Point","coordinates":[313615.026433334,4840685.00537462]}},{"properties":{"City":"Toronto","PostalCode":"M4P 1L1","SchName":"Spectrum Alternative Senior School","METPanelID":"E","id":"adnll5ekzn3v","Address":"223 Eglinton Avenue East"},"type":"Feature","geometry":{"type":"Point","coordinates":[313571.78417598,4840673.49241392]}},{"properties":{"City":"Scarborough","PostalCode":"M1P 2P7","SchName":"Winston Churchill Collegiate Institute","METPanelID":"S","id":"adnll5cr3ick","Address":"2239 Lawrence Avenue East"},"type":"Feature","geometry":{"type":"Point","coordinates":[322663.610073058,4845148.53026418]}},{"properties":{"City":"Toronto","PostalCode":"M6R 1M9","SchName":"Garden Avenue Junior Public School","METPanelID":"E","id":"adnll5c7df7x","Address":"225 Garden Avenue"},"type":"Feature","geometry":{"type":"Point","coordinates":[308888.743040755,4833474.59375906]}},{"properties":{"City":"North York","PostalCode":"M2M 1E3","SchName":"R J Lang Elementary and Middle School","METPanelID":"E","id":"adnll5g50y30","Address":"227 Drewry Avenue"},"type":"Feature","geometry":{"type":"Point","coordinates":[310699.463265196,4849060.98600706]}},{"properties":{"City":"Toronto","PostalCode":"M6H 3G4","SchName":"Dovercourt Junior Public School","METPanelID":"E","id":"adnll585zwik","Address":"228 Bartlett Avenue"},"type":"Feature","geometry":{"type":"Point","coordinates":[309935.225453914,4836121.40373689]}},{"properties":{"City":"Toronto","PostalCode":"M4T 2B4","SchName":"Deer Park Junior and Senior Public School","METPanelID":"E","id":"adnll5ap3slh","Address":"23 Ferndale Avenue"},"type":"Feature","geometry":{"type":"Point","coordinates":[313526.44024801,4838639.58218257]}},{"properties":{"City":"Agincourt","PostalCode":"M1W 1H8","SchName":"Sir John A Macdonald Collegiate Institute","METPanelID":"S","id":"adnll58je8ub","Address":"2300 Pharmacy Avenue"},"type":"Feature","geometry":{"type":"Point","coordinates":[318976.13214426,4849472.46274321]}},{"properties":{"City":"York","PostalCode":"M6E 3C7","SchName":"Rawlinson Community School","METPanelID":"E","id":"adnll5fk235m","Address":"231 Glenholme Avenue"},"type":"Feature","geometry":{"type":"Point","coordinates":[309632.464333274,4837988.4073535]}},{"properties":{"City":"Toronto","PostalCode":"M4J 1J6","SchName":"Greenwood Secondary School","METPanelID":"S","id":"adnll533u4ic","Address":"24 Mountjoy Avenue"},"type":"Feature","geometry":{"type":"Point","coordinates":[318443.263812817,4837662.95438107]}},{"properties":{"City":"Toronto","PostalCode":"M4J 1J6","SchName":"School of Life Experience","METPanelID":"S","id":"adnll55tm9d6","Address":"24 Mountjoy Avenue"},"type":"Feature","geometry":{"type":"Point","coordinates":[318443.263812817,4837662.95438107]}},{"properties":{"City":"Toronto","PostalCode":"M5M 1T2","SchName":"John Wanless Junior Public School","METPanelID":"E","id":"adnll5c0tdfi","Address":"245 Fairlawn Avenue"},"type":"Feature","geometry":{"type":"Point","coordinates":[311854.598123477,4842987.36907711]}},{"properties":{"City":"North York","PostalCode":"M2H 2C6","SchName":"Hillmount Public School","METPanelID":"E","id":"adnll56m844v","Address":"245 McNicoll Avenue"},"type":"Feature","geometry":{"type":"Point","coordinates":[316796.12461573,4850838.03842906]}},{"properties":{"City":"Toronto","PostalCode":"M4K 1E5","SchName":"Withrow Avenue Junior Public School","METPanelID":"E","id":"adnll5d8p60t","Address":"25 Bain Avenue"},"type":"Feature","geometry":{"type":"Point","coordinates":[316708.626765268,4836512.38041914]}},{"properties":{"City":"Toronto","PostalCode":"M4K 1E5","SchName":"Quest Alternative Senior School","METPanelID":"E","id":"adnll57o06gu","Address":"25 Bain Avenue"},"type":"Feature","geometry":{"type":"Point","coordinates":[316708.626765268,4836512.38041914]}},{"properties":{"City":"North York","PostalCode":"M3M 2C9","SchName":"Blaydon Public School","METPanelID":"E","id":"adnll5d87cbw","Address":"25 Blaydon Avenue"},"type":"Feature","geometry":{"type":"Point","coordinates":[305899.306838619,4843729.3014793]}},{"properties":{"City":"Scarborough","PostalCode":"M1J 1M8","SchName":"Knob Hill Junior Public School","METPanelID":"E","id":"adnll5cf307q","Address":"25 Seminole Avenue"},"type":"Feature","geometry":{"type":"Point","coordinates":[324936.674091366,4844845.51014079]}},{"properties":{"City":"East York","PostalCode":"M4B 1M3","SchName":"Presteign Heights Elementary School","METPanelID":"E","id":"adnll52wj9i1","Address":"2570 St Clair Avenue East"},"type":"Feature","geometry":{"type":"Point","coordinates":[319517.284463776,4840415.58732493]}},{"properties":{"City":"Etobicoke","PostalCode":"M9V 3B2","SchName":"North Albion Collegiate Institute","METPanelID":"S","id":"adnll55tvale","Address":"2580 Kipling Avenue"},"type":"Feature","geometry":{"type":"Point","coordinates":[297927.045852321,4845024.33796449]}},{"properties":{"City":"Agincourt","PostalCode":"M1S 1R6","SchName":"Agincourt Collegiate Institute","METPanelID":"S","id":"adnll5ckqxql","Address":"2621 Midland Avenue"},"type":"Feature","geometry":{"type":"Point","coordinates":[322578.117348507,4849680.63564973]}},{"properties":{"City":"North York","PostalCode":"M3N 2N6","SchName":"Driftwood Public School","METPanelID":"E","id":"adnll54hn754","Address":"265 Driftwood Avenue"},"type":"Feature","geometry":{"type":"Point","coordinates":[303605.509630046,4846752.63731574]}},{"properties":{"City":"York","PostalCode":"M6M 1T9","SchName":"York Memorial Collegiate Institute","METPanelID":"S","id":"adnll56lbbzk","Address":"2690 Eglinton Avenue West"},"type":"Feature","geometry":{"type":"Point","coordinates":[306692.118285351,4838701.61696086]}},{"properties":{"City":"East York","PostalCode":"M4C 4L2","SchName":"D A Morrison Middle School","METPanelID":"E","id":"adnll50izshw","Address":"271 Gledhill Avenue"},"type":"Feature","geometry":{"type":"Point","coordinates":[319963.178024192,4839289.2551702]}},{"properties":{"City":"Scarborough","PostalCode":"M1P 2S7","SchName":"David and Mary Thomson Collegiate Institute","METPanelID":"S","id":"adnll5c4yzn6","Address":"2740 Lawrence Avenue East"},"type":"Feature","geometry":{"type":"Point","coordinates":[324145.171240999,4845766.86036857]}},{"properties":{"City":"North York","PostalCode":"M2N 4S3","SchName":"Finch Public School","METPanelID":"E","id":"adnll56us09e","Address":"277 Finch Avenue East"},"type":"Feature","geometry":{"type":"Point","coordinates":[313237.740072696,4849102.31186722]}},{"properties":{"City":"Toronto","PostalCode":"M6P 2V3","SchName":"Humberside Collegiate Institute","METPanelID":"S","id":"adnll525pr46","Address":"280 Quebec Avenue"},"type":"Feature","geometry":{"type":"Point","coordinates":[307151.944649959,4835333.80275275]}},{"properties":{"City":"East York","PostalCode":"M4B 1N2","SchName":"Gordon A Brown Middle School","METPanelID":"E","id":"adnll528e201","Address":"2800 St Clair Avenue East"},"type":"Feature","geometry":{"type":"Point","coordinates":[320474.407828288,4840645.74793439]}},{"properties":{"City":"Toronto","PostalCode":"M4S 1H2","SchName":"Hodgson Senior Public School","METPanelID":"E","id":"adnll59w4ygo","Address":"282 Davisville Avenue"},"type":"Feature","geometry":{"type":"Point","coordinates":[314058.419141354,4839918.03518512]}},{"properties":{"City":"North York","PostalCode":"M3H 5K8","SchName":"Charles H Best Middle School","METPanelID":"E","id":"adnll5f39hnn","Address":"285 Wilmington Avenue"},"type":"Feature","geometry":{"type":"Point","coordinates":[308115.077735602,4847277.17584997]}},{"properties":{"City":"North York","PostalCode":"M2R 2R1","SchName":"Pleasant Public School","METPanelID":"E","id":"adnll53khegy","Address":"288 Pleasant Avenue"},"type":"Feature","geometry":{"type":"Point","coordinates":[310088.588369873,4849793.95563598]}},{"properties":{"City":"Agincourt","PostalCode":"M1S 1N3","SchName":"Agincourt Junior Public School","METPanelID":"E","id":"adnll53tlhmb","Address":"29 Lockie Avenue"},"type":"Feature","geometry":{"type":"Point","coordinates":[322405.524993191,4849608.96094024]}},{"properties":{"City":"Scarborough","PostalCode":"M1N 2S4","SchName":"Blantyre Public School","METPanelID":"E","id":"adnll531c0ls","Address":"290 Blantyre Avenue"},"type":"Feature","geometry":{"type":"Point","coordinates":[322209.311438578,4838150.77301535]}},{"properties":{"City":"West Hill","PostalCode":"M1E 3G1","SchName":"West Hill Public School","METPanelID":"E","id":"adnll5c9ld7h","Address":"299 Morningside Avenue"},"type":"Feature","geometry":{"type":"Point","coordinates":[329991.175728253,4847905.25222887]}},{"properties":{"City":"Scarborough","PostalCode":"M1K 3G2","SchName":"Corvette Junior Public School","METPanelID":"E","id":"adnll58jhpjy","Address":"30 Corvette Avenue"},"type":"Feature","geometry":{"type":"Point","coordinates":[323945.959042777,4842753.22661304]}},{"properties":{"City":"Toronto","PostalCode":"M6N 1P8","SchName":"General Mercer Junior Public School","METPanelID":"E","id":"adnll5bk4amj","Address":"30 Turnberry Avenue"},"type":"Feature","geometry":{"type":"Point","coordinates":[307698.354446317,4837440.0151214]}},{"properties":{"City":"York","PostalCode":"M6M 3P1","SchName":"Kane Middle School","METPanelID":"E","id":"adnll5c05p8l","Address":"300 Kane Avenue"},"type":"Feature","geometry":{"type":"Point","coordinates":[307249.880323551,4838367.44490855]}},{"properties":{"City":"Toronto","PostalCode":"M6G 3G9","SchName":"Montrose Junior Public School","METPanelID":"E","id":"adnll5enz1se","Address":"301 Montrose Avenue"},"type":"Feature","geometry":{"type":"Point","coordinates":[311330.021682933,4835196.42192891]}},{"properties":{"City":"Toronto","PostalCode":"M6G 3G9","SchName":"Delta Alternative Senior School","METPanelID":"E","id":"adnll52lck03","Address":"301 Montrose Avenue"},"type":"Feature","geometry":{"type":"Point","coordinates":[311330.021682933,4835196.42192891]}},{"properties":{"City":"Toronto","PostalCode":"M5T 1L4","SchName":"Subway Academy II","METPanelID":"S","id":"adnll556xlr3","Address":"64 Baldwin Street"},"type":"Feature","geometry":{"type":"Point","coordinates":[313194.858243762,4834879.06904737]}},{"properties":{"City":"North York","PostalCode":"M3H 5L1","SchName":"Wilmington Elementary School","METPanelID":"E","id":"adnll5734v2h","Address":"330 Wilmington Avenue"},"type":"Feature","geometry":{"type":"Point","coordinates":[307967.575114119,4847385.28348527]}},{"properties":{"City":"North York","PostalCode":"M2N 6X6","SchName":"McKee Public School","METPanelID":"E","id":"adnll5awch7o","Address":"35 Church Avenue"},"type":"Feature","geometry":{"type":"Point","coordinates":[311944.493913543,4848020.35652183]}},{"properties":{"City":"Etobicoke","PostalCode":"M8Y 2M2","SchName":"Sunnylea Junior School","METPanelID":"E","id":"adnll52us2at","Address":"35 Glenroy Avenue"},"type":"Feature","geometry":{"type":"Point","coordinates":[304229.496863843,4833389.47135364]}},{"properties":{"City":"Etobicoke","PostalCode":"M8V 3L1","SchName":"Lakeshore Collegiate Institute","METPanelID":"S","id":"adnll57bywb4","Address":"350 Kipling Avenue"},"type":"Feature","geometry":{"type":"Point","coordinates":[303237.259617515,4828847.96796616]}},{"properties":{"City":"West Hill","PostalCode":"M1E 3G3","SchName":"West Hill Collegiate Institute","METPanelID":"S","id":"adnll56qy1jh","Address":"350 Morningside Avenue"},"type":"Feature","geometry":{"type":"Point","coordinates":[329691.837308788,4848236.19502731]}},{"properties":{"City":"North York","PostalCode":"M2N 3L4","SchName":"Hollywood Public School","METPanelID":"E","id":"adnll5gnucvi","Address":"360 Hollywood Avenue"},"type":"Feature","geometry":{"type":"Point","coordinates":[313492.796152283,4847623.40049545]}},{"properties":{"City":"Scarborough","PostalCode":"M1N 2G2","SchName":"Birchmount Park Collegiate Institute","METPanelID":"S","id":"adnll55ki0qm","Address":"3663 Danforth Avenue"},"type":"Feature","geometry":{"type":"Point","coordinates":[324173.146749356,4839561.86127841]}},{"properties":{"City":"Toronto","PostalCode":"M6J 3A5","SchName":"Ossington/Old Orchard Junior Public School","METPanelID":"E","id":"adnll59ql71b","Address":"380 Ossington Avenue"},"type":"Feature","geometry":{"type":"Point","coordinates":[311027.69382415,4834532.42808548]}},{"properties":{"City":"Scarborough","PostalCode":"M1M 1V3","SchName":"R H King Academy","METPanelID":"S","id":"adnll5c8eqpd","Address":"3800 St Clair Avenue East"},"type":"Feature","geometry":{"type":"Point","coordinates":[325938.005307756,4842330.12716386]}},{"properties":{"City":"Toronto","PostalCode":"M5N 1M2","SchName":"Allenby Junior Public School","METPanelID":"E","id":"adnll5d5k597","Address":"391 St Clements Avenue"},"type":"Feature","geometry":{"type":"Point","coordinates":[311812.589829534,4840835.52866271]}},{"properties":{"City":"Toronto","PostalCode":"M4P 1Y2","SchName":"John Fisher Junior Public School","METPanelID":"E","id":"adnll5b22q27","Address":"40 Erskine Avenue"},"type":"Feature","geometry":{"type":"Point","coordinates":[313046.714728949,4841113.86929098]}},{"properties":{"City":"East York","PostalCode":"M4C 4K7","SchName":"Parkside Elementary School","METPanelID":"E","id":"adnll5bf0549","Address":"401 Cedarvale Avenue"},"type":"Feature","geometry":{"type":"Point","coordinates":[319585.707265799,4839728.78608369]}},{"properties":{"City":"West Hill","PostalCode":"M1C 2X8","SchName":"West Rouge Junior Public School","METPanelID":"E","id":"adnll58zaegq","Address":"401 Friendship Avenue"},"type":"Feature","geometry":{"type":"Point","coordinates":[334260.207977657,4850471.14288549]}},{"properties":{"City":"Toronto","PostalCode":"M4R 2B5","SchName":"Glenview Senior Public School","METPanelID":"E","id":"adnll539dtf9","Address":"401 Rosewell Avenue"},"type":"Feature","geometry":{"type":"Point","coordinates":[312074.281571519,4842006.82307552]}},{"properties":{"City":"Toronto","PostalCode":"M4K 1B9","SchName":"Pape Avenue Junior Public School","METPanelID":"E","id":"adnll50cqomz","Address":"220 Langley Avenue"},"type":"Feature","geometry":{"type":"Point","coordinates":[317526.433960067,4836513.09668129]}},{"properties":{"City":"North York","PostalCode":"M2R 2N1","SchName":"Fisherville Junior High School","METPanelID":"E","id":"adnll56s355x","Address":"425 Patricia Avenue"},"type":"Feature","geometry":{"type":"Point","coordinates":[309532.641055883,4849180.05353916]}},{"properties":{"City":"Etobicoke","PostalCode":"M9A 2H5","SchName":"Islington Junior Middle School","METPanelID":"E","id":"adnll5fltxtd","Address":"44 Cordova Avenue"},"type":"Feature","geometry":{"type":"Point","coordinates":[302529.479866258,4833949.67715144]}},{"properties":{"City":"Toronto","PostalCode":"M5R 3E6","SchName":"Hillcrest Community School","METPanelID":"E","id":"adnll51s41ie","Address":"44 Hilton Avenue"},"type":"Feature","geometry":{"type":"Point","coordinates":[311569.579610551,4837458.60019421]}},{"properties":{"City":"Toronto","PostalCode":"M4C 1T4","SchName":"William J McCordic School","METPanelID":"E","id":"adnll51uz01j","Address":"45 Balfour Avenue"},"type":"Feature","geometry":{"type":"Point","coordinates":[320988.904768203,4838762.28707473]}},{"properties":{"City":"Scarborough","PostalCode":"M1K 4M7","SchName":"Walter Perry Junior Public School","METPanelID":"E","id":"adnll525u21q","Address":"45 Falmouth Avenue"},"type":"Feature","geometry":{"type":"Point","coordinates":[324822.925192958,4843530.24956209]}},{"properties":{"City":"Etobicoke","PostalCode":"M8W 2S1","SchName":"Lanor Junior Middle School","METPanelID":"E","id":"adnll55h5cl8","Address":"450 Lanor Avenue"},"type":"Feature","geometry":{"type":"Point","coordinates":[301149.584543157,4829725.78803094]}},{"properties":{"City":"Scarborough","PostalCode":"M1N 4A7","SchName":"John A Leslie Public School","METPanelID":"E","id":"adnll526cidw","Address":"459 Midland Avenue"},"type":"Feature","geometry":{"type":"Point","coordinates":[325007.916699363,4841388.78649026]}},{"properties":{"City":"Toronto","PostalCode":"M6G 2V7","SchName":"Clinton Street Junior Public School","METPanelID":"E","id":"adnll5e8edpu","Address":"460 Manning Avenue"},"type":"Feature","geometry":{"type":"Point","coordinates":[311716.188473893,4835081.77943972]}},{"properties":{"City":"Etobicoke","PostalCode":"M9B 2E4","SchName":"West Glen Junior School","METPanelID":"E","id":"adnll53cb6n3","Address":"47 Cowley Avenue"},"type":"Feature","geometry":{"type":"Point","coordinates":[299860.490261506,4834275.43856742]}},{"properties":{"City":"Etobicoke","PostalCode":"M9B 1V1","SchName":"Wedgewood Junior School","METPanelID":"E","id":"adnll56i01ht","Address":"5 Swan Avenue"},"type":"Feature","geometry":{"type":"Point","coordinates":[301052.621332744,4833709.6433073]}},{"properties":{"City":"North York","PostalCode":"M6A 2L3","SchName":"Sir Sandford Fleming Academy","METPanelID":"S","id":"adnll5gnqs54","Address":"50 Ameer Avenue"},"type":"Feature","geometry":{"type":"Point","coordinates":[309475.331923635,4842983.83743666]}},{"properties":{"City":"North York","PostalCode":"M2N 0A8","SchName":"Claude Watson School for the Arts","METPanelID":"E","id":"adnll5gphbah","Address":"130 Doris Avenue"},"type":"Feature","geometry":{"type":"Point","coordinates":[312076.970697252,4847100.04675531]}},{"properties":{"City":"Toronto","PostalCode":"M4E 2Z5","SchName":"Kimberley Junior Public School","METPanelID":"E","id":"adnll5gea8cy","Address":"50 Swanwick Avenue"},"type":"Feature","geometry":{"type":"Point","coordinates":[320979.398184602,4837872.18523661]}},{"properties":{"City":"Toronto","PostalCode":"M4E 2Z5","SchName":"Beaches Alternative Junior School","METPanelID":"E","id":"adnll5f5w0yb","Address":"50 Swanwick Avenue"},"type":"Feature","geometry":{"type":"Point","coordinates":[320979.398184602,4837872.18523661]}},{"properties":{"City":"York","PostalCode":"M6N 2H8","SchName":"Frank Oke Secondary School","METPanelID":"S","id":"adnll58kasam","Address":"500 Alliance Avenue"},"type":"Feature","geometry":{"type":"Point","coordinates":[305690.870053037,4837285.36317846]}},{"properties":{"City":"North York","PostalCode":"M2K 2K5","SchName":"Lester B Pearson Elementary School","METPanelID":"E","id":"adnll51uizyj","Address":"7 Snowcrest Avenue"},"type":"Feature","geometry":{"type":"Point","coordinates":[313857.637397777,4850048.28805526]}},{"properties":{"City":"York","PostalCode":"M6C 3A4","SchName":"Arlington Middle School","METPanelID":"E","id":"adnll576w2hk","Address":"501 Arlington Avenue"},"type":"Feature","geometry":{"type":"Point","coordinates":[310189.377051463,4838928.77987463]}},{"properties":{"City":"Toronto","PostalCode":"M4M 2Y6","SchName":"Bruce Junior Public School","METPanelID":"E","id":"adnll5144iaa","Address":"51 Larchmount Avenue"},"type":"Feature","geometry":{"type":"Point","coordinates":[318226.212781882,4835468.19722669]}},{"properties":{"City":"East York","PostalCode":"M4J 2P1","SchName":"Cosburn Middle School","METPanelID":"E","id":"adnll5cem2qm","Address":"520 Cosburn Avenue"},"type":"Feature","geometry":{"type":"Point","coordinates":[318417.813570794,4839152.40228719]}},{"properties":{"City":"Toronto","PostalCode":"M4J 3N7","SchName":"Wilkinson Junior Public School","METPanelID":"E","id":"adnll571q8kg","Address":"53 Donlands Avenue"},"type":"Feature","geometry":{"type":"Point","coordinates":[317887.183148385,4837801.1589202]}},{"properties":{"City":"West Hill","PostalCode":"M1C 2C6","SchName":"Sir Oliver Mowat Collegiate Institute","METPanelID":"S","id":"adnll51zhqhg","Address":"5400 Lawrence Avenue East"},"type":"Feature","geometry":{"type":"Point","coordinates":[333582.205235852,4848655.38286161]}},{"properties":{"City":"Etobicoke","PostalCode":"M8W 2C2","SchName":"Sir Adam Beck Junior School","METPanelID":"E","id":"adnll52emjix","Address":"544 Horner Avenue"},"type":"Feature","geometry":{"type":"Point","coordinates":[300950.090266531,4828862.41880366]}},{"properties":{"City":"Toronto","PostalCode":"M4L 1T9","SchName":"Norway Junior Public School","METPanelID":"E","id":"adnll538gc6h","Address":"390 Kingston Road"},"type":"Feature","geometry":{"type":"Point","coordinates":[320398.65446169,4837191.61113731]}},{"properties":{"City":"Toronto","PostalCode":"M4E 3E4","SchName":"Malvern Collegiate Institute","METPanelID":"S","id":"adnll5du9aj3","Address":"55 Malvern Avenue"},"type":"Feature","geometry":{"type":"Point","coordinates":[321478.525249996,4837906.07674078]}},{"properties":{"City":"Toronto","PostalCode":"M4C 3J6","SchName":"Earl Beatty Junior and Senior Public School","METPanelID":"E","id":"adnll593h7tw","Address":"55 Woodington Avenue"},"type":"Feature","geometry":{"type":"Point","coordinates":[319195.125583866,4838246.56351174]}},{"properties":{"City":"North York","PostalCode":"M2R 1N6","SchName":"Northview Heights Secondary School","METPanelID":"S","id":"adnll57g3brl","Address":"550 Finch Avenue West"},"type":"Feature","geometry":{"type":"Point","coordinates":[309105.289513535,4848053.64736063]}},{"properties":{"City":"York","PostalCode":"M6E 4M2","SchName":"Fairbank Memorial Community School","METPanelID":"E","id":"adnll59097hg","Address":"555 Harvie Avenue"},"type":"Feature","geometry":{"type":"Point","coordinates":[308379.047277154,4838862.75020465]}},{"properties":{"City":"East York","PostalCode":"M4J 2G9","SchName":"R H McGregor Elementary School","METPanelID":"E","id":"adnll55j88ya","Address":"555 Mortimer Avenue"},"type":"Feature","geometry":{"type":"Point","coordinates":[318719.611443777,4838686.48464722]}},{"properties":{"City":"Scarborough","PostalCode":"M1L 3H1","SchName":"Regent Heights Public School","METPanelID":"E","id":"adnll572v7vb","Address":"555 Pharmacy Avenue"},"type":"Feature","geometry":{"type":"Point","coordinates":[321771.708800631,4840591.19837119]}},{"properties":{"City":"York","PostalCode":"M6M 2E1","SchName":"Bala Avenue Community School","METPanelID":"E","id":"adnll528fg5k","Address":"6 Bala Avenue"},"type":"Feature","geometry":{"type":"Point","coordinates":[304833.053690894,4838606.28648996]}},{"properties":{"City":"North York","PostalCode":"M9L 2G9","SchName":"Humber Summit Middle School","METPanelID":"E","id":"adnll5ftcmtm","Address":"60 Pearldale Avenue"},"type":"Feature","geometry":{"type":"Point","coordinates":[299588.118777403,4845403.11418312]}},{"properties":{"City":"Scarborough","PostalCode":"M1P 3K5","SchName":"Donwood Park Junior Public School","METPanelID":"E","id":"adnll5ezluk5","Address":"61 Dorcot Avenue"},"type":"Feature","geometry":{"type":"Point","coordinates":[323932.316455483,4846143.58851276]}},{"properties":{"City":"Scarborough","PostalCode":"M1L 3Z3","SchName":"Warden Avenue Public School","METPanelID":"E","id":"adnll594swmi","Address":"644 Warden Avenue"},"type":"Feature","geometry":{"type":"Point","coordinates":[322735.062557522,4839811.65851075]}},{"properties":{"City":"Toronto","PostalCode":"M6H 2N9","SchName":"Dewson Street Junior Public School","METPanelID":"E","id":"adnll565h8ia","Address":"65 Concord Avenue"},"type":"Feature","geometry":{"type":"Point","coordinates":[310929.702754172,4834852.16543262]}},{"properties":{"City":"North York","PostalCode":"M3N 1L6","SchName":"Topcliff Public School","METPanelID":"E","id":"adnll5eaag59","Address":"65 Topcliff Avenue"},"type":"Feature","geometry":{"type":"Point","coordinates":[303930.42638456,4845935.36573211]}},{"properties":{"City":"East York","PostalCode":"M4C 2V2","SchName":"East York Collegiate Institute","METPanelID":"S","id":"adnll54bpd0q","Address":"650 Cosburn Avenue"},"type":"Feature","geometry":{"type":"Point","coordinates":[318683.027102063,4839246.86011647]}},{"properties":{"City":"East York","PostalCode":"M4C 2V2","SchName":"East York Alternative Secondary School","METPanelID":"S","id":"adnll50ui1ao","Address":"670 Cosburn Avenue"},"type":"Feature","geometry":{"type":"Point","coordinates":[318867.286004673,4839237.16561611]}},{"properties":{"City":"York","PostalCode":"M6N 1T6","SchName":"George Syme Community School","METPanelID":"E","id":"adnll5gfsyqk","Address":"69 Pritchard Avenue"},"type":"Feature","geometry":{"type":"Point","coordinates":[305499.644149113,4836367.58802204]}},{"properties":{"City":"North York","PostalCode":"M2M 1C8","SchName":"Drewry Secondary School","METPanelID":"S","id":"adnll5gl7lug","Address":"70 Drewry Avenue"},"type":"Feature","geometry":{"type":"Point","coordinates":[311125.421191082,4849449.79646479]}},{"properties":{"City":"North York","PostalCode":"M2M 3K1","SchName":"Cummer Valley Middle School","METPanelID":"E","id":"adnll58lx22z","Address":"70 Maxome Avenue"},"type":"Feature","geometry":{"type":"Point","coordinates":[312715.011473618,4849587.66449804]}},{"properties":{"City":"Toronto","PostalCode":"M4P 1T7","SchName":"North Toronto Collegiate Institute","METPanelID":"S","id":"adnll5g5bx1o","Address":"17 Broadway Ave"},"type":"Feature","geometry":{"type":"Point","coordinates":[313066.287,4840865.613]}},{"properties":{"City":"Toronto","PostalCode":"M5N 1B9","SchName":"Forest Hill Collegiate Institute","METPanelID":"S","id":"adnll50c3smz","Address":"730 Eglinton Avenue West"},"type":"Feature","geometry":{"type":"Point","coordinates":[311123.817867677,4840126.31651612]}},{"properties":{"City":"Toronto","PostalCode":"M6G 2R4","SchName":"Palmerston Avenue Junior Public School","METPanelID":"E","id":"adnll5ajf5e7","Address":"734 Palmerston Avenue"},"type":"Feature","geometry":{"type":"Point","coordinates":[311622.367421184,4836248.02699568]}},{"properties":{"City":"Toronto","PostalCode":"M6K 3L2","SchName":"Parkdale Junior and Senior Public School","METPanelID":"E","id":"adnll5eglkii","Address":"78 Seaforth Avenue"},"type":"Feature","geometry":{"type":"Point","coordinates":[309855.046954728,4833497.63778027]}},{"properties":{"City":"Toronto","PostalCode":"M4K 2X5","SchName":"Jackman Avenue Junior Public School","METPanelID":"E","id":"adnll53qr6f8","Address":"79 Jackman Avenue"},"type":"Feature","geometry":{"type":"Point","coordinates":[316561.043205745,4837644.16478073]}},{"properties":{"City":"Toronto","PostalCode":"M6J 2K6","SchName":"Charles G Fraser Junior Public School","METPanelID":"E","id":"adnll5c5f2g1","Address":"79 Manning Avenue"},"type":"Feature","geometry":{"type":"Point","coordinates":[312086.195799029,4834069.32231079]}},{"properties":{"City":"Toronto","PostalCode":"M5P 2L4","SchName":"Oriole Park Junior Public School","METPanelID":"E","id":"adnll53scr7o","Address":"80 Braemar Avenue"},"type":"Feature","geometry":{"type":"Point","coordinates":[312062.784914453,4840073.20857246]}},{"properties":{"City":"Scarborough","PostalCode":"M1B 5J2","SchName":"Heritage Park Public School","METPanelID":"E","id":"adnll592yq00","Address":"80 Old Finch Avenue"},"type":"Feature","geometry":{"type":"Point","coordinates":[328294.929905282,4853306.35885887]}},{"properties":{"City":"Scarborough","PostalCode":"M1G 3B5","SchName":"Heather Heights Junior Public School","METPanelID":"E","id":"adnll5e6k4sj","Address":"80 Slan Avenue"},"type":"Feature","geometry":{"type":"Point","coordinates":[327721.347375801,4848172.23974964]}},{"properties":{"City":"Toronto","PostalCode":"M4J 4B7","SchName":"Danforth Collegiate and Technical Institute","METPanelID":"S","id":"adnll54799xa","Address":"800 Greenwood Avenue"},"type":"Feature","geometry":{"type":"Point","coordinates":[318160.618814728,4837890.24347667]}},{"properties":{"City":"Toronto","PostalCode":"M4N 1X2","SchName":"Bedford Park Junior Public School","METPanelID":"E","id":"adnll53i46uj","Address":"81 Ranleigh Avenue"},"type":"Feature","geometry":{"type":"Point","coordinates":[312838.441499333,4842882.93160305]}},{"properties":{"City":"Toronto","PostalCode":"M4K 3E1","SchName":"Frankland Community School","METPanelID":"E","id":"adnll5bqouyn","Address":"816 Logan Avenue"},"type":"Feature","geometry":{"type":"Point","coordinates":[316843.911461417,4837258.67627663]}},{"properties":{"City":"Toronto","PostalCode":"M4V 1E3","SchName":"Cottingham Junior Public School","METPanelID":"E","id":"adnll5efhpap","Address":"85 Birch Avenue"},"type":"Feature","geometry":{"type":"Point","coordinates":[313201.012853131,4837608.99746469]}},{"properties":{"City":"Etobicoke","PostalCode":"M8V 1R4","SchName":"John English Junior Middle School","METPanelID":"E","id":"adnll51itb2l","Address":"95 Mimico Avenue"},"type":"Feature","geometry":{"type":"Point","coordinates":[305234.619516604,4829991.268122]}},{"properties":{"City":"Toronto","PostalCode":"M5T 1E4","SchName":"Ryerson Community School","METPanelID":"E","id":"adnll5920ne1","Address":"96 Denison Avenue"},"type":"Feature","geometry":{"type":"Point","coordinates":[312638.149874933,4834368.87733512]}},{"properties":{"City":"Toronto","PostalCode":"M6P 2L5","SchName":"Keele Street Junior Public School","METPanelID":"E","id":"adnll54icfic","Address":"99 Mountview Avenue"},"type":"Feature","geometry":{"type":"Point","coordinates":[307881.726485169,4835063.56100298]}},{"properties":{"City":"Toronto","PostalCode":"M6P 2L5","SchName":"Mountview Alternative Junior School","METPanelID":"E","id":"adnll57yt5u0","Address":"99 Mountview Avenue"},"type":"Feature","geometry":{"type":"Point","coordinates":[307881.726485169,4835063.56100298]}},{"properties":{"City":"Toronto","PostalCode":"M6E 1A3","SchName":"Oakwood Collegiate Institute","METPanelID":"S","id":"adnll5999i18","Address":"991 St Clair Avenue West"},"type":"Feature","geometry":{"type":"Point","coordinates":[309913.864747877,4837414.21659784]}},{"properties":{"City":"East York","PostalCode":"M4K 3M6","SchName":"Westwood Middle School","METPanelID":"E","id":"adnll58r31a3","Address":"994 Carlaw Avenue"},"type":"Feature","geometry":{"type":"Point","coordinates":[316790.694229839,4838298.36343361]}},{"properties":{"City":"North York","PostalCode":"M3A 1J7","SchName":"Broadlands Public School","METPanelID":"E","id":"adnll5gf7jzk","Address":"106 Broadlands Boulevard"},"type":"Feature","geometry":{"type":"Point","coordinates":[319553.003924426,4844899.33503243]}},{"properties":{"City":"Agincourt","PostalCode":"M1S 2R7","SchName":"Delphi Secondary Alternative School","METPanelID":"S","id":"adnll51jgqqh","Address":"109 Chartland Boulevard South"},"type":"Feature","geometry":{"type":"Point","coordinates":[322647.529117453,4850924.02894856]}},{"properties":{"City":"Agincourt","PostalCode":"M1S 2R7","SchName":"Chartland Junior Public School","METPanelID":"E","id":"adnll50uf71i","Address":"109 Chartland Boulevard South"},"type":"Feature","geometry":{"type":"Point","coordinates":[322591.518023665,4850891.31143729]}},{"properties":{"City":"North York","PostalCode":"M2H 1A8","SchName":"Pineway Public School","METPanelID":"E","id":"adnll59jlfn0","Address":"110 Pineway Boulevard"},"type":"Feature","geometry":{"type":"Point","coordinates":[314865.486236041,4850507.76398434]}},{"properties":{"City":"North York","PostalCode":"M2P 1G6","SchName":"Owen Public School","METPanelID":"E","id":"adnll588k6lr","Address":"111 Owen Boulevard"},"type":"Feature","geometry":{"type":"Point","coordinates":[313440.548858859,4845239.02419551]}},{"properties":{"City":"Agincourt","PostalCode":"M1W 1B3","SchName":"J B Tyrrell Senior Public School","METPanelID":"E","id":"adnll50fjiyd","Address":"10 Corinthian Boulevard"},"type":"Feature","geometry":{"type":"Point","coordinates":[318935.105418218,4849672.51164936]}},{"properties":{"City":"Agincourt","PostalCode":"M1W 3G1","SchName":"David Lewis Public School","METPanelID":"E","id":"adnll5b71y1d","Address":"130 Fundy Bay Boulevard"},"type":"Feature","geometry":{"type":"Point","coordinates":[319436.34496484,4851930.88537713]}},{"properties":{"City":"Don Mills","PostalCode":"M3C 1B2","SchName":"Valley Park Middle School","METPanelID":"E","id":"adnll54ks95i","Address":"130 Overlea Boulevard"},"type":"Feature","geometry":{"type":"Point","coordinates":[318045.125224064,4840930.9834242]}},{"properties":{"City":"Agincourt","PostalCode":"M1W 2Y2","SchName":"Sir Samuel B Steele Junior Public School","METPanelID":"E","id":"adnll59iju21","Address":"131 Huntsmill Boulevard"},"type":"Feature","geometry":{"type":"Point","coordinates":[318686.407126241,4851701.240685]}},{"properties":{"City":"East York","PostalCode":"M3C 1B3","SchName":"Marc Garneau Collegiate Institute","METPanelID":"S","id":"adnll5d4q17w","Address":"135 Overlea Boulevard"},"type":"Feature","geometry":{"type":"Point","coordinates":[318084.029513101,4840793.88198204]}},{"properties":{"City":"Scarborough","PostalCode":"M1V 2Y4","SchName":"Macklin Public School","METPanelID":"E","id":"adnll5dic2zw","Address":"136 Ingleton Boulevard"},"type":"Feature","geometry":{"type":"Point","coordinates":[323490.651554599,4853329.63148682]}},{"properties":{"City":"North York","PostalCode":"M3H 1M1","SchName":"Summit Heights Public School","METPanelID":"E","id":"adnll5aayvm1","Address":"139 Armour Boulevard"},"type":"Feature","geometry":{"type":"Point","coordinates":[310419.521425259,4844376.51865803]}},{"properties":{"City":"Scarborough","PostalCode":"M1W 2Y2","SchName":"Sir Ernest MacMillan Senior Public School","METPanelID":"E","id":"adnll5gqwe81","Address":"149 Huntsmill Boulevard"},"type":"Feature","geometry":{"type":"Point","coordinates":[318563.658726247,4851636.37453864]}},{"properties":{"City":"North York","PostalCode":"M2J 4A4","SchName":"Ernest Public School","METPanelID":"E","id":"adnll59kkldo","Address":"150 Cherokee Boulevard"},"type":"Feature","geometry":{"type":"Point","coordinates":[317871.596798477,4849952.15722073]}},{"properties":{"City":"Agincourt","PostalCode":"M1V 1E5","SchName":"Brimwood Boulevard Junior Public School","METPanelID":"E","id":"adnll57arod6","Address":"151 Brimwood Boulevard"},"type":"Feature","geometry":{"type":"Point","coordinates":[322982.130752855,4852219.89274003]}},{"properties":{"City":"Agincourt","PostalCode":"M1B 1M5","SchName":"Burrows Hall Junior Public School","METPanelID":"E","id":"adnll53fxu4j","Address":"151 Burrows Hall Boulevard"},"type":"Feature","geometry":{"type":"Point","coordinates":[326608.196077229,4850117.36340519]}},{"properties":{"City":"Agincourt","PostalCode":"M1W 2A3","SchName":"Timberbank Junior Public School","METPanelID":"E","id":"adnll52bbj3u","Address":"170 Timberbank Boulevard"},"type":"Feature","geometry":{"type":"Point","coordinates":[320293.757634072,4849963.53612289]}},{"properties":{"City":"Scarborough","PostalCode":"M1B 2K5","SchName":"Chief Dan George Public School","METPanelID":"E","id":"adnll5axrrh9","Address":"185 Generation Boulevard"},"type":"Feature","geometry":{"type":"Point","coordinates":[331833.323393764,4851250.1246563]}},{"properties":{"City":"Agincourt","PostalCode":"M1W 3M9","SchName":"Terry Fox Public School","METPanelID":"E","id":"adnll558dwzx","Address":"185 Wintermute Boulevard"},"type":"Feature","geometry":{"type":"Point","coordinates":[319370.349265227,4852675.39371855]}},{"properties":{"City":"North York","PostalCode":"M9L 2C1","SchName":"Gracedale Public School","METPanelID":"E","id":"adnll5g6bxjx","Address":"186 Gracedale Boulevard"},"type":"Feature","geometry":{"type":"Point","coordinates":[299804.166237123,4845695.42773583]}},{"properties":{"City":"East York","PostalCode":"M4B 2N9","SchName":"George Webster Elementary School","METPanelID":"E","id":"adnll5aatglr","Address":"2 Cedarcrest Boulevard"},"type":"Feature","geometry":{"type":"Point","coordinates":[320945.006280738,4840020.2597074]}},{"properties":{"City":"Agincourt","PostalCode":"M1S 4C5","SchName":"Anson S Taylor Junior Public School","METPanelID":"E","id":"adnll58fsad2","Address":"20 Placentia Boulevard"},"type":"Feature","geometry":{"type":"Point","coordinates":[323969.483454134,4851397.373017]}},{"properties":{"City":"Scarborough","PostalCode":"M1L 4H4","SchName":"Danforth Gardens Public School","METPanelID":"E","id":"adnll50t3xt9","Address":"20 Santamonica Boulevard"},"type":"Feature","geometry":{"type":"Point","coordinates":[323241.079503708,4840748.24210364]}},{"properties":{"City":"Agincourt","PostalCode":"M1W 3G1","SchName":"Dr Norman Bethune Collegiate Institute","METPanelID":"S","id":"adnll52mnvx8","Address":"200 Fundy Bay Boulevard"},"type":"Feature","geometry":{"type":"Point","coordinates":[319311.544085687,4852260.06999738]}},{"properties":{"City":"Agincourt","PostalCode":"M1W 2K7","SchName":"Chester Le Junior Public School","METPanelID":"E","id":"adnll585rtc3","Address":"201 Chester Le Boulevard"},"type":"Feature","geometry":{"type":"Point","coordinates":[318375.974216175,4850750.0212179]}},{"properties":{"City":"Agincourt","PostalCode":"M1T 2V3","SchName":"Tam O'Shanter Junior Public School","METPanelID":"E","id":"adnll5aktd4b","Address":"21 King Henrys Boulevard"},"type":"Feature","geometry":{"type":"Point","coordinates":[321084.868973183,4849241.51130791]}},{"properties":{"City":"Agincourt","PostalCode":"M1V 1S4","SchName":"Silver Springs Public School","METPanelID":"E","id":"adnll5e2xvyb","Address":"222 Silver Springs Boulevard"},"type":"Feature","geometry":{"type":"Point","coordinates":[320685.39539254,4851404.09014186]}},{"properties":{"City":"Agincourt","PostalCode":"M1W 2L5","SchName":"Brookmill Boulevard Junior Public School","METPanelID":"E","id":"adnll5g6prhn","Address":"25 Brookmill Boulevard"},"type":"Feature","geometry":{"type":"Point","coordinates":[319681.117137492,4851045.25768531]}},{"properties":{"City":"Scarborough","PostalCode":"M1K 5A7","SchName":"Charles Gordon Senior Public School","METPanelID":"E","id":"adnll54squdm","Address":"25 Marcos Boulevard"},"type":"Feature","geometry":{"type":"Point","coordinates":[324084.864046839,4844956.29958702]}},{"properties":{"City":"Agincourt","PostalCode":"M1S 2S6","SchName":"Iroquois Junior Public School","METPanelID":"E","id":"adnll55t0lfd","Address":"265 Chartland Boulevard South"},"type":"Feature","geometry":{"type":"Point","coordinates":[323335.995962129,4851216.53500392]}},{"properties":{"City":"North York","PostalCode":"M3N 2G8","SchName":"Gosford Public School","METPanelID":"E","id":"adnll5f9q5oc","Address":"30 Gosford Boulevard"},"type":"Feature","geometry":{"type":"Point","coordinates":[303048.017756319,4846879.57711105]}},{"properties":{"City":"North York","PostalCode":"M2J 1H5","SchName":"Shaughnessy Public School","METPanelID":"E","id":"adnll57oqcqe","Address":"30 Shaughnessy Boulevard"},"type":"Feature","geometry":{"type":"Point","coordinates":[316735.247646213,4847601.03275686]}},{"properties":{"City":"Etobicoke","PostalCode":"M8V 1L8","SchName":"Twentieth Street Junior School","METPanelID":"E","id":"adnll553v8vu","Address":"3190 Lake Shore Boulevard West"},"type":"Feature","geometry":{"type":"Point","coordinates":[303174.391964008,4828449.55043642]}},{"properties":{"City":"North York","PostalCode":"M3J 1G6","SchName":"Lamberton Public School","METPanelID":"E","id":"adnll57vl343","Address":"33 Lamberton Boulevard"},"type":"Feature","geometry":{"type":"Point","coordinates":[304556.896501571,4845744.25540133]}},{"properties":{"City":"Agincourt","PostalCode":"M1T 2K2","SchName":"Pauline Johnson Junior Public School","METPanelID":"E","id":"adnll59i9vlb","Address":"35 Dunmurray Boulevard"},"type":"Feature","geometry":{"type":"Point","coordinates":[320598.979970887,4849232.9056257]}},{"properties":{"City":"Agincourt","PostalCode":"M1V 1P6","SchName":"Percy Williams Junior Public School","METPanelID":"E","id":"adnll56loj6y","Address":"35 White Heather Boulevard"},"type":"Feature","geometry":{"type":"Point","coordinates":[323637.226731555,4852326.86363489]}},{"properties":{"City":"North York","PostalCode":"M2H 2W7","SchName":"Cherokee Public School","METPanelID":"E","id":"adnll5c3zmnx","Address":"390 Cherokee Boulevard"},"type":"Feature","geometry":{"type":"Point","coordinates":[317770.85961504,4850768.23760414]}},{"properties":{"City":"York","PostalCode":"M6N 4R8","SchName":"Rockcliffe Middle School","METPanelID":"E","id":"adnll58eic9u","Address":"400 Rockcliffe Boulevard"},"type":"Feature","geometry":{"type":"Point","coordinates":[305644.37449421,4836919.0441648]}},{"properties":{"City":"North York","PostalCode":"M3A 1S5","SchName":"Cassandra Public School","METPanelID":"E","id":"adnll54zbxcp","Address":"45 Cassandra Boulevard"},"type":"Feature","geometry":{"type":"Point","coordinates":[318563.900455416,4845177.45755928]}},{"properties":{"City":"Agincourt","PostalCode":"M1W 1L7","SchName":"North Bridlewood Junior Public School","METPanelID":"E","id":"adnll575ai39","Address":"50 Collingsbrook Boulevard"},"type":"Feature","geometry":{"type":"Point","coordinates":[319384.826572303,4849677.6512104]}},{"properties":{"City":"North York","PostalCode":"M3B 1P7","SchName":"Denlow Public School","METPanelID":"E","id":"adnll5eoqxgm","Address":"50 Denlow Boulevard"},"type":"Feature","geometry":{"type":"Point","coordinates":[315719.32840783,4844884.96596151]}},{"properties":{"City":"North York","PostalCode":"M3C 1B4","SchName":"Gateway Public School","METPanelID":"E","id":"adnll57wx4q9","Address":"55 Gateway Boulevard"},"type":"Feature","geometry":{"type":"Point","coordinates":[318402.465167919,4841100.10483549]}},{"properties":{"City":"Agincourt","PostalCode":"M1T 1P7","SchName":"Bridlewood Junior Public School","METPanelID":"E","id":"adnll57hjecz","Address":"60 Bridlewood Boulevard"},"type":"Feature","geometry":{"type":"Point","coordinates":[319667.836003384,4848776.13574533]}},{"properties":{"City":"Scarborough","PostalCode":"M1C 3T7","SchName":"Morrish Public School","METPanelID":"E","id":"adnll56pkgjk","Address":"61 Canmore Boulevard"},"type":"Feature","geometry":{"type":"Point","coordinates":[330598.090023832,4850199.784693]}},{"properties":{"City":"Agincourt","PostalCode":"M1W 1W4","SchName":"Beverly Glen Junior Public School","METPanelID":"E","id":"adnll59cpk5r","Address":"85 Beverly Glen Boulevard"},"type":"Feature","geometry":{"type":"Point","coordinates":[319021.936410747,4850758.61423494]}},{"properties":{"City":"West Hill","PostalCode":"M1C 2C7","SchName":"Charlottetown Junior Public School","METPanelID":"E","id":"adnll5d8vyzk","Address":"85 Charlottetown Boulevard"},"type":"Feature","geometry":{"type":"Point","coordinates":[333583.240603263,4848962.9604344]}},{"properties":{"City":"West Hill","PostalCode":"M1E 4K6","SchName":"Brooks Road Public School","METPanelID":"E","id":"adnll5g25bqc","Address":"85 Keeler Boulevard"},"type":"Feature","geometry":{"type":"Point","coordinates":[328567.184477993,4850124.00989199]}},{"properties":{"City":"Etobicoke","PostalCode":"M9W 7A6","SchName":"Humberwood Downs Junior Middle Academy","METPanelID":"E","id":"adnll5e46wjq","Address":"850 Humberwood Boulevard"},"type":"Feature","geometry":{"type":"Point","coordinates":[295188.895632112,4842998.01535893]}},{"properties":{"City":"Agincourt","PostalCode":"M1V 1H6","SchName":"Alexmuir Junior Public School","METPanelID":"E","id":"adnll58kwc35","Address":"95 Alexmuir Boulevard"},"type":"Feature","geometry":{"type":"Point","coordinates":[322032.87961775,4851927.34270867]}},{"properties":{"City":"North York","PostalCode":"M3H 2X5","SchName":"Faywood Arts-Based Curriculum School","METPanelID":"E","id":"adnll599px4c","Address":"95 Faywood Boulevard"},"type":"Feature","geometry":{"type":"Point","coordinates":[309077.718509951,4844212.59533363]}},{"properties":{"City":"Scarborough","PostalCode":"M1B 2L6","SchName":"Lucy Maud Montgomery Public School","METPanelID":"E","id":"adnll5dtyf64","Address":"95 Murison Boulevard"},"type":"Feature","geometry":{"type":"Point","coordinates":[328171.992114077,4850591.3664238]}},{"properties":{"City":"Scarborough","PostalCode":"M1R 4K1","SchName":"Terraview-Willowfield Public School","METPanelID":"E","id":"adnll5d6zo3b","Address":"95 Pachino Boulevard"},"type":"Feature","geometry":{"type":"Point","coordinates":[320197.181634455,4846887.18520478]}},{"properties":{"City":"Agincourt","PostalCode":"M1V 1W5","SchName":"Agnes Macphail Public School","METPanelID":"E","id":"adnll5cv0lgu","Address":"112 Goldhawk Trail"},"type":"Feature","geometry":{"type":"Point","coordinates":[322608.127336643,4853057.29745567]}},{"properties":{"City":"Agincourt","PostalCode":"M1B 1B3","SchName":"Berner Trail Junior Public School","METPanelID":"E","id":"adnll5bw8chq","Address":"120 Berner Trail"},"type":"Feature","geometry":{"type":"Point","coordinates":[327223.0201481,4851105.10438493]}},{"properties":{"City":"Agincourt","PostalCode":"M1V 2T4","SchName":"Milliken Public School","METPanelID":"E","id":"adnll54ylecb","Address":"130 Port Royal Trail"},"type":"Feature","geometry":{"type":"Point","coordinates":[321798.792868994,4852757.4512772]}},{"properties":{"City":"Scarborough","PostalCode":"M1B 4R6","SchName":"Mary Shadd Public School","METPanelID":"E","id":"adnll53h9kk5","Address":"135 Hupfield Trail"},"type":"Feature","geometry":{"type":"Point","coordinates":[327444.576785016,4852530.71865664]}},{"properties":{"City":"West Hill","PostalCode":"M1C 1A8","SchName":"Highland Creek Public School","METPanelID":"E","id":"adnll5ggmz7k","Address":"1410 Military Trail"},"type":"Feature","geometry":{"type":"Point","coordinates":[330665.863176999,4849110.0731163]}},{"properties":{"City":"Agincourt","PostalCode":"M1B 1M4","SchName":"Grey Owl Junior Public School","METPanelID":"E","id":"adnll5518l55","Address":"150 Wickson Trail"},"type":"Feature","geometry":{"type":"Point","coordinates":[327852.686184603,4851375.9935915]}},{"properties":{"City":"West Hill","PostalCode":"M1C 3E7","SchName":"Joseph Howe Senior Public School","METPanelID":"E","id":"adnll56fgxxz","Address":"20 Winter Gardens Trail"},"type":"Feature","geometry":{"type":"Point","coordinates":[333976.692510079,4849379.94108636]}},{"properties":{"City":"Scarborough","PostalCode":"M1B 1X6","SchName":"Tom Longboat Junior Public School","METPanelID":"E","id":"adnll5gqmkgh","Address":"37 Crow Trail"},"type":"Feature","geometry":{"type":"Point","coordinates":[326375.805570385,4852088.39998733]}},{"properties":{"City":"West Hill","PostalCode":"M1E 4E6","SchName":"Highcastle Public School","METPanelID":"E","id":"adnll56vy8kl","Address":"370 Military Trail"},"type":"Feature","geometry":{"type":"Point","coordinates":[327924.024650807,4849462.30048822]}},{"properties":{"City":"Agincourt","PostalCode":"M1V 4E7","SchName":"Banting and Best Public School","METPanelID":"E","id":"adnll5g4osnp","Address":"380 Goldhawk Trail"},"type":"Feature","geometry":{"type":"Point","coordinates":[322494.398601773,4853862.73866528]}},{"properties":{"City":"Agincourt","PostalCode":"M1V 4R1","SchName":"Port Royal Public School","METPanelID":"E","id":"adnll55bwutv","Address":"408 Port Royal Trail"},"type":"Feature","geometry":{"type":"Point","coordinates":[321678.317302639,4853651.02936323]}},{"properties":{"City":"Scarborough","PostalCode":"M1B 3A9","SchName":"Alexander Stirling Public School","METPanelID":"E","id":"adnll51zqip4","Address":"70 Fawcett Trail"},"type":"Feature","geometry":{"type":"Point","coordinates":[328307.891643906,4852229.36867151]}},{"properties":{"City":"Agincourt","PostalCode":"M1B 1P6","SchName":"Malvern Junior Public School","METPanelID":"E","id":"adnll57d3pxo","Address":"70 Mammoth Hall Trail"},"type":"Feature","geometry":{"type":"Point","coordinates":[326249.538500089,4850687.42322747]}},{"properties":{"City":"West Hill","PostalCode":"M1E 4P6","SchName":"Military Trail Public School","METPanelID":"E","id":"adnll5axquvf","Address":"701 Military Trail"},"type":"Feature","geometry":{"type":"Point","coordinates":[329160.806638479,4849728.20739484]}},{"properties":{"City":"Scarborough","PostalCode":"M1B 2V2","SchName":"Emily Carr Public School","METPanelID":"E","id":"adnll57pu22k","Address":"90 John Tabor Trail"},"type":"Feature","geometry":{"type":"Point","coordinates":[328364.368099837,4851492.5513259]}},{"properties":{"City":"Etobicoke","PostalCode":"M9V 3M5","SchName":"Greenholme Junior Middle School","METPanelID":"E","id":"adnll5393sbp","Address":"10 Jamestown Crescent"},"type":"Feature","geometry":{"type":"Point","coordinates":[298105.650688384,4843683.24491959]}},{"properties":{"City":"York","PostalCode":"M6M 5H6","SchName":"Portage Trail Community Junior School","METPanelID":"E","id":"adnll52n8gkh","Address":"100 Sidney Belsey Crescent"},"type":"Feature","geometry":{"type":"Point","coordinates":[303985.084726784,4838911.27777302]}},{"properties":{"City":"York","PostalCode":"M6M 5H6","SchName":"Portage Trail Community Middle School","METPanelID":"E","id":"adnll579kkbu","Address":"100 Sidney Belsey Crescent"},"type":"Feature","geometry":{"type":"Point","coordinates":[303996.248610961,4838980.46268572]}},{"properties":{"City":"Toronto","PostalCode":"M6P 3E3","SchName":"Western Technical-Commercial School","METPanelID":"S","id":"adnll5fg1pzz","Address":"125 Evelyn Crescent"},"type":"Feature","geometry":{"type":"Point","coordinates":[306834.357732379,4835016.97368726]}},{"properties":{"City":"Toronto","PostalCode":"M6P 3E3","SchName":"THESTUDENTSCHOOL","METPanelID":"S","id":"adnll5688sp5","Address":"125 Evelyn Crescent"},"type":"Feature","geometry":{"type":"Point","coordinates":[306834.357732379,4835016.97368726]}},{"properties":{"City":"Scarborough","PostalCode":"M1L 1Y5","SchName":"General Brock Public School","METPanelID":"E","id":"adnll575w9ba","Address":"140 Chestnut Crescent"},"type":"Feature","geometry":{"type":"Point","coordinates":[322947.591074238,4841869.58177922]}},{"properties":{"City":"Etobicoke","PostalCode":"M9W 2N8","SchName":"Braeburn Junior School","METPanelID":"E","id":"adnll574dy6e","Address":"15 Tandridge Crescent"},"type":"Feature","geometry":{"type":"Point","coordinates":[300847.586275679,4842898.75316867]}},{"properties":{"City":"Toronto","PostalCode":"M4N 2Z5","SchName":"Blythwood Junior Public School","METPanelID":"E","id":"adnll59vtqr2","Address":"2 Strathgowan Crescent"},"type":"Feature","geometry":{"type":"Point","coordinates":[313687.282329318,4842003.79302426]}},{"properties":{"City":"Scarborough","PostalCode":"M1V 2Y6","SchName":"Kennedy Public School","METPanelID":"E","id":"adnll5chsj6z","Address":"20 Elmfield Crescent"},"type":"Feature","geometry":{"type":"Point","coordinates":[320214.758571431,4853003.52538455]}},{"properties":{"City":"Etobicoke","PostalCode":"M9W 2T4","SchName":"Thistletown Collegiate Institute","METPanelID":"S","id":"adnll52164qq","Address":"20 Fordwich Crescent"},"type":"Feature","geometry":{"type":"Point","coordinates":[299752.806540123,4842865.81937509]}},{"properties":{"City":"Scarborough","PostalCode":"M1L 2X1","SchName":"Clairlea Public School","METPanelID":"E","id":"adnll51c3kgc","Address":"25 Rosalind Crescent"},"type":"Feature","geometry":{"type":"Point","coordinates":[321199.931630462,4841633.87937874]}},{"properties":{"City":"North York","PostalCode":"M3N 1K8","SchName":"Firgrove Public School","METPanelID":"E","id":"adnll55sco8i","Address":"270 Firgrove Crescent"},"type":"Feature","geometry":{"type":"Point","coordinates":[303151.088510125,4845556.62225986]}},{"properties":{"City":"Toronto","PostalCode":"M6P 2G8","SchName":"Indian Road Crescent Junior Public School","METPanelID":"E","id":"adnll5gp410a","Address":"285 Indian Road Crescent"},"type":"Feature","geometry":{"type":"Point","coordinates":[308003.932749955,4835621.43725732]}},{"properties":{"City":"Scarborough","PostalCode":"M1H 2P4","SchName":"North Bendale Junior Public School","METPanelID":"E","id":"adnll517skcy","Address":"29 Aveline Crescent"},"type":"Feature","geometry":{"type":"Point","coordinates":[325101.232728289,4847641.36927767]}},{"properties":{"City":"Scarborough","PostalCode":"M1M 1X5","SchName":"Anson Park Public School","METPanelID":"E","id":"adnll5bsntk8","Address":"30 MacDuff Crescent"},"type":"Feature","geometry":{"type":"Point","coordinates":[325647.56543881,4842718.9305301]}},{"properties":{"City":"Scarborough","PostalCode":"M1L 1Z9","SchName":"SATEC @ WA Porter Collegiate Institute","METPanelID":"S","id":"adnll57ijp8x","Address":"40 Fairfax Crescent"},"type":"Feature","geometry":{"type":"Point","coordinates":[321925.813361883,4841648.83778442]}},{"properties":{"City":"North York","PostalCode":"M3N 1V5","SchName":"Blacksmith Public School","METPanelID":"E","id":"adnll57qo0li","Address":"45 Blacksmith Crescent"},"type":"Feature","geometry":{"type":"Point","coordinates":[302636.022614771,4847699.86481027]}},{"properties":{"City":"York","PostalCode":"M6N 1W9","SchName":"Lambton Park Community School","METPanelID":"E","id":"adnll5c7q0s2","Address":"50 Bernice Crescent"},"type":"Feature","geometry":{"type":"Point","coordinates":[304920.560814777,4836181.43689218]}},{"properties":{"City":"Scarborough","PostalCode":"M1P 4N4","SchName":"Glamorgan Junior Public School","METPanelID":"E","id":"adnll54sz2ov","Address":"51 Antrim Crescent"},"type":"Feature","geometry":{"type":"Point","coordinates":[321746.362368913,4847736.46759373]}},{"properties":{"City":"North York","PostalCode":"M3A 2M3","SchName":"Ranchdale Public School","METPanelID":"E","id":"adnll50j84rk","Address":"60 Ranchdale Crescent"},"type":"Feature","geometry":{"type":"Point","coordinates":[319014.764486917,4845626.43399949]}},{"properties":{"City":"Etobicoke","PostalCode":"M9A 2P7","SchName":"St George's Junior School","METPanelID":"E","id":"adnll57nrhd0","Address":"70 Princess Anne Crescent"},"type":"Feature","geometry":{"type":"Point","coordinates":[301420.527578573,4836740.57850972]}},{"properties":{"City":"Scarborough","PostalCode":"M1E 1P5","SchName":"Sir Wilfrid Laurier Collegiate Institute","METPanelID":"S","id":"adnll5fknaws","Address":"145 Guildwood Parkway"},"type":"Feature","geometry":{"type":"Point","coordinates":[329187.932097641,4845053.06716999]}},{"properties":{"City":"North York","PostalCode":"M6B 2S9","SchName":"Joyce Public School","METPanelID":"E","id":"adnll5f8s8gd","Address":"26 Joyce Parkway"},"type":"Feature","geometry":{"type":"Point","coordinates":[307662.174653596,4840987.53823794]}},{"properties":{"City":"West Hill","PostalCode":"M1E 1R3","SchName":"Jack Miner Senior Public School","METPanelID":"E","id":"adnll5bvkepn","Address":"405 Guildwood Parkway"},"type":"Feature","geometry":{"type":"Point","coordinates":[329994.053471832,4845351.01407915]}},{"properties":{"City":"Agincourt","PostalCode":"M1V 1S6","SchName":"Albert Campbell Collegiate Institute","METPanelID":"S","id":"adnll567th1j","Address":"1550 Sandhurst Circle"},"type":"Feature","geometry":{"type":"Point","coordinates":[323105.373177605,4851936.45704081]}},{"properties":{"City":"Agincourt","PostalCode":"M1W 2K1","SchName":"L'Amoreaux Collegiate Institute","METPanelID":"S","id":"adnll59kkstb","Address":"2501 Bridletowne Circle"},"type":"Feature","geometry":{"type":"Point","coordinates":[319422.753966088,4851233.27398627]}},{"properties":{"City":"North York","PostalCode":"M3C 2N2","SchName":"Park Lane Public School","METPanelID":"E","id":"adnll519q5wr","Address":"60 Park Lane Circle"},"type":"Feature","geometry":{"type":"Point","coordinates":[315513.531809289,4843005.4057373]}},{"properties":{"City":"Toronto","PostalCode":"M5V 3G3","SchName":"The Waterfront School","METPanelID":"E","id":"adnll51vno10","Address":"635 Queens Quay West"},"type":"Feature","geometry":{"type":"Point","coordinates":[313084.918162533,4832663.9790437]}},{"properties":{"City":"Toronto","PostalCode":"M5V 3G3","SchName":"City School","METPanelID":"S","id":"adnll50de9ws","Address":"635 Queens Quay West"},"type":"Feature","geometry":{"type":"Point","coordinates":[313084.698754988,4832663.98300854]}},{"properties":{"City":"North York","PostalCode":"M2K 1W4","SchName":"Bayview Middle School","METPanelID":"E","id":"adnll5fdxk0i","Address":"25 Bunty Lane"},"type":"Feature","geometry":{"type":"Point","coordinates":[314026.498838175,4848255.54114652]}},{"properties":{"City":"North York","PostalCode":"M3C 1X6","SchName":"Don Mills Collegiate Institute","METPanelID":"S","id":"adnll571u2l5","Address":"15 The Donway East"},"type":"Feature","geometry":{"type":"Point","coordinates":[317730.954697301,4843790.91090143]}},{"properties":{"City":"North York","PostalCode":"M3C 1X6","SchName":"Don Mills Middle School","METPanelID":"E","id":"adnll5btd0bv","Address":"17 The Donway East"},"type":"Feature","geometry":{"type":"Point","coordinates":[317725.26638151,4843866.11955447]}},{"properties":{"City":"Toronto","PostalCode":"M5A 4J6","SchName":"Market Lane Junior and Senior Public School","METPanelID":"E","id":"adnll5dyvo3i","Address":"246 The Esplanade"},"type":"Feature","geometry":{"type":"Point","coordinates":[315695.302328195,4834220.98486403]}},{"properties":{"City":"North York","PostalCode":"M3N 1K1","SchName":"Yorkwoods Public School","METPanelID":"E","id":"adnll5c5hcar","Address":"25 Yorkwoods Gate"},"type":"Feature","geometry":{"type":"Point","coordinates":[303666.145872194,4845411.7017112]}},{"properties":{"City":"Agincourt","PostalCode":"M1B 2P3","SchName":"Dr Marion Hilliard Senior Public School","METPanelID":"E","id":"adnll5bvt5n5","Address":"280 Washburn Way"},"type":"Feature","geometry":{"type":"Point","coordinates":[326889.664656944,4851205.13076539]}},{"properties":{"City":"Etobicoke","PostalCode":"M9R 1H1","SchName":"Dixon Grove Junior Middle School","METPanelID":"E","id":"adnll5ebpg2m","Address":"315 The Westway"},"type":"Feature","geometry":{"type":"Point","coordinates":[300258.187899874,4838107.95005308]}},{"properties":{"City":"Agincourt","PostalCode":"M1T 2Z3","SchName":"Highland Heights Junior Public School","METPanelID":"E","id":"adnll52z26xp","Address":"35 Glendower Circuit"},"type":"Feature","geometry":{"type":"Point","coordinates":[320858.196677723,4850292.45655005]}},{"properties":{"City":"Etobicoke","PostalCode":"M9R 1H4","SchName":"Kipling Collegiate Institute","METPanelID":"S","id":"adnll520hcaz","Address":"380 The Westway"},"type":"Feature","geometry":{"type":"Point","coordinates":[299757.191785546,4838151.05544479]}},{"properties":{"City":"East York","PostalCode":"M4C 5M9","SchName":"Crescent Town Elementary School","METPanelID":"E","id":"adnll547aaop","Address":"4 Massey Square"},"type":"Feature","geometry":{"type":"Point","coordinates":[321512.557299887,4839452.89850652]}},{"properties":{"City":"North York","PostalCode":"M6A 2R1","SchName":"Lawrence Heights Middle School","METPanelID":"E","id":"adnll543cfb2","Address":"50 Highland Hill"},"type":"Feature","geometry":{"type":"Point","coordinates":[308726.140219267,4842099.03169265]}},{"properties":{"City":"Scarborough","PostalCode":"M1G 1G8","SchName":"Cornell Junior Public School","METPanelID":"E","id":"adnll54qndch","Address":"61 Holmfirth Terrace"},"type":"Feature","geometry":{"type":"Point","coordinates":[327488.217694105,4846420.16576821]}},{"properties":{"City":"West Hill","PostalCode":"M1E 1S4","SchName":"Poplar Road Junior Public School","METPanelID":"E","id":"adnll5c18f34","Address":"66 Dearham Wood"},"type":"Feature","geometry":{"type":"Point","coordinates":[329972.026355249,4845801.10313435]}},{"properties":{"City":"Toronto","PostalCode":"M6J 2X5","SchName":"Givins/Shaw Junior Public School","METPanelID":"E","id":"adnll52nwujc","Address":"49 Givins Street"},"type":"Feature","geometry":{"type":"Point","coordinates":[311420.098927436,4833807.63732997]}},{"properties":{"City":"Toronto","PostalCode":"M5J 2E9","SchName":"Island Public/Natural Science School","METPanelID":"E","id":"adnll58uynvm","Address":"30 Centre Island Park"},"type":"Feature","geometry":{"type":"Point","coordinates":[314617.985821137,4830430.51342533]}},{"properties":{"City":"Toronto","PostalCode":"M4M 1R4","SchName":"SEED Alternative School","METPanelID":"S","id":"adnll548hxxg","Address":"885 Dundas Street East"},"type":"Feature","geometry":{"type":"Point","coordinates":[316861.224076532,4835576.53000119]}},{"properties":{"City":"Toronto","PostalCode":"M4Y 1B7","SchName":"Native Learning Centre","METPanelID":"S","id":"adnll57vi849","Address":"83 Alexander Street"},"type":"Feature","geometry":{"type":"Point","coordinates":[314495.429223572,4835735.51367534]}},{"properties":{"City":"North York","PostalCode":"M2N 2V4","SchName":"Avondale Public School","METPanelID":"E","id":"adnll5cn76lt","Address":"171 Avondale Avenue"},"type":"Feature","geometry":{"type":"Point","coordinates":[312816.457744485,4846418.24337546]}},{"properties":{"City":"Etobicoke","PostalCode":"M9B 2C4","SchName":"Burnhamthorpe Collegiate Institute","METPanelID":"S","id":"adnll50mg35k","Address":"500 The East Mall"},"type":"Feature","geometry":{"type":"Point","coordinates":[299773.930654568,4834100.63377683]}},{"properties":{"City":"Toronto","PostalCode":"M4K 1M8","SchName":"CALC Secondary School","METPanelID":"S","id":"adnll5elh5cg","Address":"1 Danforth Avenue"},"type":"Feature","geometry":{"type":"Point","coordinates":[316072.917781196,4837063.6334973]}},{"properties":{"City":"Scarborough","PostalCode":"M1K 4C9","SchName":"Scarborough Centre for Alternative Studies","METPanelID":"S","id":"adnll56lmb9f","Address":"720 Midland Avenue"},"type":"Feature","geometry":{"type":"Point","coordinates":[324401.662081121,4842881.57574877]}},{"properties":{"City":"North York","PostalCode":"M6A 1B1","SchName":"Year Round Alternative School","METPanelID":"S","id":"adnll5aj9mez","Address":"640 Lawrence Avenue West, 1st Floor"},"type":"Feature","geometry":{"type":"Point","coordinates":[309622.402547908,4841729.33148672]}},{"properties":{"City":"North York","PostalCode":"M6A 1L6","SchName":"Yorkdale Secondary School","METPanelID":"S","id":"adnll5abzn14","Address":"38 Orfus Road"},"type":"Feature","geometry":{"type":"Point","coordinates":[308058.485256885,4842019.95443458]}},{"properties":{"City":"Scarborough","PostalCode":"M1X 1V6","SchName":"Thomas L Wells Public School","METPanelID":"E","id":"adnll515obfo","Address":"69 Nightstar Road"},"type":"Feature","geometry":{"type":"Point","coordinates":[326800.084797021,4853636.03301304]}},{"properties":{"City":"Etobicoke","PostalCode":"M9B 3W7","SchName":"Etobicoke Year-Round Alternative Centre","METPanelID":"S","id":"adnll508rfj8","Address":"160 Silverhill Drive"},"type":"Feature","geometry":{"type":"Point","coordinates":[300648.175076501,4832426.80082637]}},{"properties":{"City":"Scarborough","PostalCode":"M1K 4C9","SchName":"South-East Year-Round Alternative Centre","METPanelID":"S","id":"adnll53nzpa4","Address":"720 Midland Avenue"},"type":"Feature","geometry":{"type":"Point","coordinates":[324376.441614468,4842867.88353632]}},{"properties":{"City":"North York","PostalCode":"M2J 3B6","SchName":"North East Year-Round Alternative Centre","METPanelID":"S","id":"adnll576b7sc","Address":"2900 Don Mills Road"},"type":"Feature","geometry":{"type":"Point","coordinates":[316866.557182583,4848940.26229824]}},{"properties":{"City":"Scarborough","PostalCode":"M1X 0A3","SchName":"Brookside Public School","METPanelID":"E","id":"adnll5cj54cd","Address":"75 Oasis Blvd"},"type":"Feature","geometry":{"type":"Point","coordinates":[326201.442839053,4854283.28909526]}},{"properties":{"City":"Toronto","PostalCode":"M6H 4B4","SchName":"ALPHA II Alternative School","METPanelID":"E","id":"adnll5d4alyu","Address":"980 Dufferin Street"},"type":"Feature","geometry":{"type":"Point","coordinates":[309977.849400109,4835245.75224018]}},{"properties":{"City":"Etobicoke","PostalCode":"M8Y 3C7","SchName":"Karen Kain School of the Arts","METPanelID":"E","id":"adnll50b1msz","Address":"60 Berl Avenue"},"type":"Feature","geometry":{"type":"Point","coordinates":[304769.003816432,4832143.08196934]}},{"properties":{"City":"North York","PostalCode":"M3M 2W9","SchName":"Africentric Alternative School","METPanelID":"E","id":"adnll56iig67","Address":"1430 Sheppard Avenue West"},"type":"Feature","geometry":{"type":"Point","coordinates":[305729.803651717,4844830.00548866]}},{"properties":{"City":"Toronto","PostalCode":"M5S 2K2","SchName":"da Vinci School","METPanelID":"E","id":"adnll589e4tw","Address":"33 Robert Street"},"type":"Feature","geometry":{"type":"Point","coordinates":[312695.736057042,4835227.99398673]}},{"properties":{"City":"Toronto","PostalCode":"M6J 3L2","SchName":"The Grove Community School","METPanelID":"E","id":"adnll59oa64p","Address":"108 Gladstone Avenue"},"type":"Feature","geometry":{"type":"Point","coordinates":[310537.529313813,4833762.79514111]}},{"properties":{"City":"Toronto","PostalCode":"M4L 2Y1","SchName":"Equinox Holistic Alternative School","METPanelID":"E","id":"adnll52tjod6","Address":"151 Hiawatha Road"},"type":"Feature","geometry":{"type":"Point","coordinates":[319050.636599811,4836896.08313583]}},{"properties":{"City":"Scarborough","PostalCode":"M1R 2L2","SchName":"Overflow Centre","METPanelID":"S","id":"adnll5g5nmw5","Address":"1641 Pharmacy Avenue"},"type":"Feature","geometry":{"type":"Point","coordinates":[319830.308965729,4847293.50841399]}}],"is_temporal":false,"author":{"url":"","metadata":"","contact_name":"","contact_address":"","source":"","contact_phone":""},"source":"","pagination":{"sort":null,"start":0,"total":588,"limit":1000000},"state":"complete","tags":"","published":"2014-08-16T20:27:49-04:00","id":346262}