{"type":"FeatureCollection","data_type":"Dataset","url_type":null,"permissions":[{"permissions":{"download":true,"view":true},"group_id":"everyone"}],"classification":null,"title":"sj BOCT Branches in Raffle 4.16.13","count":33,"stream_id":346459,"contributor":{"url":"http://geocommons.com/users/28852","name":"akcenajs"},"data_attributes":null,"calculation_params":null,"icon_link":null,"link":"http://geocommons.com/overlays/346459.json","extent":[-97.9826,30.1073,-97.4984,30.6425],"geometry_types":["point"],"unique_name":null,"name":"sj BOCT Branches in Raffle 4.16.13","feature_count":33,"description":"BOCT branches participating in 2013 incentive.","next_feature":null,"is_raster":false,"short_classification":"Y","stats":{},"features":[{"properties":{"city":"Round Rock","zip":"78664","geo_score":0.434,"id":"adnue6y455f3","address":"2701 S Interstate 35","geo_precision":"street","bank":"First Convenience"},"type":"Feature","geometry":{"type":"Point","coordinates":[-97.684886,30.60787]}},{"properties":{"city":"Palm Valley","zip":"78665","geo_score":0.628,"id":"adnue6o9x92f","address":"4700 E Palm Valley Blvd","geo_precision":"street","bank":"First Convenience"},"type":"Feature","geometry":{"type":"Point","coordinates":[-97.633326,30.524687]}},{"properties":{"city":"Georgetown","zip":"78628","geo_score":0.727,"id":"adnue6va9ex8","address":"620 S Interstate 35","geo_precision":"range","bank":"First Convenience"},"type":"Feature","geometry":{"type":"Point","coordinates":[-97.688148,30.64255]}},{"properties":{"city":"Main Office Branch","zip":"78752","geo_score":0.821,"id":"adnue6rdhj8w","address":"6411 North Lamar Blvd.","geo_precision":"range","bank":"Greater Texas FCU"},"type":"Feature","geometry":{"type":"Point","coordinates":[-97.721658,30.333093]}},{"properties":{"city":"Airport Branch","zip":"78702","geo_score":0.826,"id":"adnue71nozfk","address":"1180 Airport Blvd.","geo_precision":"range","bank":"Greater Texas FCU"},"type":"Feature","geometry":{"type":"Point","coordinates":[-97.70019,30.276548]}},{"properties":{"city":"Winters Branch","zip":"78769","geo_score":0.357,"id":"adnue6pzp6lq","address":"701 W. 51st Street, Section F, 2nd West","geo_precision":"street","bank":"Greater Texas FCU"},"type":"Feature","geometry":{"type":"Point","coordinates":[-97.83115,30.247041]}},{"properties":{"city":"Hunters Crossing Branch","zip":"78602","geo_score":0.506,"id":"adnue72of2d1","address":"115 Hunters Crossing Blvd.","geo_precision":"street","bank":"Greater Texas FCU"},"type":"Feature","geometry":{"type":"Point","coordinates":[-97.749214,30.10731]}},{"properties":{"city":"Highway 183 North Branch","zip":"78613","geo_score":0.555,"id":"adnue6zx25wj","address":"1600 N. Bell Blvd. (183 N)","geo_precision":"range","bank":"Greater Texas FCU"},"type":"Feature","geometry":{"type":"Point","coordinates":[-97.823808,30.510587]}},{"properties":{"city":"Manor Branch","zip":"78653","geo_score":0.675,"id":"adnue6riy1ed","address":"11401 US HWY 290 E","geo_precision":"range","bank":"Greater Texas FCU"},"type":"Feature","geometry":{"type":"Point","coordinates":[-97.498417,30.350837]}},{"properties":{"city":"Retail Office Branch","zip":"78704","geo_score":0.6,"id":"adnue72n35kl","address":"529 W Oltorf St","geo_precision":"street","bank":"Mango Financial"},"type":"Feature","geometry":{"type":"Point","coordinates":[-97.748804,30.236704]}},{"properties":{"city":"Main Branch","zip":"78701","geo_score":0.758,"id":"adnue6tvmhs6","address":"610 East 11th Street","geo_precision":"range","bank":"Velocity Credit Union"},"type":"Feature","geometry":{"type":"Point","coordinates":[-97.734362,30.270941]}},{"properties":{"city":"Brodie Oaks Branch","zip":"78704","geo_score":0.472,"id":"adnue70blusi","address":"4220 South Lamar Suite 100","geo_precision":"street","bank":"Velocity Credit Union"},"type":"Feature","geometry":{"type":"Point","coordinates":[-97.789424,30.238564]}},{"properties":{"city":"Slaughter Branch","zip":"78748","geo_score":0.698,"id":"adnue6yinc8m","address":"9300 S I 35, Bldg I","geo_precision":"street","bank":"Velocity Credit Union"},"type":"Feature","geometry":{"type":"Point","coordinates":[-97.789085,30.162181]}},{"properties":{"city":"Round Rock Branch","zip":"78681","geo_score":0.826,"id":"adnue6tlphq9","address":"900 West Round Rock Avenue","geo_precision":"range","bank":"Velocity Credit Union"},"type":"Feature","geometry":{"type":"Point","coordinates":[-97.691527,30.511574]}},{"properties":{"city":"Braker Lane Branch","zip":"78758","geo_score":0.341,"id":"adnue71ae43j","address":"1202 W. Braker Lane","geo_precision":"street","bank":"Velocity Credit Union"},"type":"Feature","geometry":{"type":"Point","coordinates":[-97.681311,30.379032]}},{"properties":{"city":"Round Rock Branch","zip":"78681","geo_score":0.706,"id":"adnue71dwc68","address":"110 IH 35 N STE 340","geo_precision":"range","bank":"BB&amp;T"},"type":"Feature","geometry":{"type":"Point","coordinates":[-97.686102,30.508006]}},{"properties":{"city":"Austin Downtown","zip":"78701","geo_score":0.771,"id":"adnue6p7lv5c","address":"601 W 5TH ST","geo_precision":"range","bank":"BB&amp;T"},"type":"Feature","geometry":{"type":"Point","coordinates":[-97.74987,30.268998]}},{"properties":{"city":"Westlake","zip":"78746","geo_score":0.476,"id":"adnue6wbg3ol","address":"2702 BEE CAVE RD","geo_precision":"street","bank":"BB&amp;T"},"type":"Feature","geometry":{"type":"Point","coordinates":[-97.835986,30.288703]}},{"properties":{"city":"Southpark","zip":"78744","geo_score":0.379,"id":"adnue6wqejr0","address":"1701 DIRECTORS BLVD., STE 100","geo_precision":"street","bank":"BB&amp;T"},"type":"Feature","geometry":{"type":"Point","coordinates":[-97.750358,30.213265]}},{"properties":{"city":"Crestview","zip":"78752","geo_score":0.837,"id":"adnue72s67x4","address":"6929 AIRPORT BLVD","geo_precision":"range","bank":"BB&amp;T"},"type":"Feature","geometry":{"type":"Point","coordinates":[-97.71761,30.335296]}},{"properties":{"city":"William Cannon Branch","zip":"78749","geo_score":0.727,"id":"adnue6rfatm6","address":"4220 W WILLIAM CANNON DR STE 300","geo_precision":"range","bank":"BB&amp;T"},"type":"Feature","geometry":{"type":"Point","coordinates":[-97.840334,30.223141]}},{"properties":{"city":"Hill County Galleria","zip":"78738","geo_score":0.399,"id":"adnue6xg6hfx","address":"12301 BEE CAVE PKWY","geo_precision":"street","bank":"BB&amp;T"},"type":"Feature","geometry":{"type":"Point","coordinates":[-97.982548,30.309824]}},{"properties":{"city":"Lakeline","zip":"78717","geo_score":0.624,"id":"adnue6t074gr","address":"10900 K LAKELINE MALL DR","geo_precision":"street","bank":"BB&amp;T"},"type":"Feature","geometry":{"type":"Point","coordinates":[-97.798795,30.472983]}},{"properties":{"city":"Austin","zip":"78701","geo_score":0.75,"id":"adnue6xtl6hx","address":"300 W 6th St., Suite 1300","geo_precision":"street","bank":"Comerica"},"type":"Feature","geometry":{"type":"Point","coordinates":[-97.742813,30.268065]}},{"properties":{"city":"Austin","zip":"78703","geo_score":0.476,"id":"adnue701hshw","address":"1701 W. 35th Street","geo_precision":"street","bank":"Comerica"},"type":"Feature","geometry":{"type":"Point","coordinates":[-97.749471,30.306105]}},{"properties":{"city":"Austin","zip":"78703","geo_score":0.403,"id":"adnue73mlb12","address":"2414 Exposition Blvd., Suite D-110","geo_precision":"street","bank":"Comerica"},"type":"Feature","geometry":{"type":"Point","coordinates":[-97.742032,30.248165]}},{"properties":{"city":"Austin","zip":"78752","geo_score":0.462,"id":"adnue6ymkf45","address":"2315 E. Anderson Ln.","geo_precision":"street","bank":"Comerica"},"type":"Feature","geometry":{"type":"Point","coordinates":[-97.702119,30.34131]}},{"properties":{"city":"West Lake Hills","zip":"78746","geo_score":0.521,"id":"adnue6or6bf5","address":"3801 Bee Cave Rd","geo_precision":"street","bank":"Comerica"},"type":"Feature","geometry":{"type":"Point","coordinates":[-97.835986,30.288703]}},{"properties":{"city":"Austin","zip":"78757","geo_score":0.902,"id":"adnue6s5zfgs","address":"7820 Burnet Road","geo_precision":"range","bank":"Comerica"},"type":"Feature","geometry":{"type":"Point","coordinates":[-97.732439,30.353303]}},{"properties":{"city":"Austin","zip":"78753","geo_score":0.673,"id":"adnue6udkfu1","address":"13200 IH 35, Bldg C","geo_precision":"street","bank":"Comerica"},"type":"Feature","geometry":{"type":"Point","coordinates":[-97.689576,30.355089]}},{"properties":{"city":"Pflugerville","zip":"78660","geo_score":0.611,"id":"adnue6zrl60u","address":"100 West Main","geo_precision":"street","bank":"Comerica"},"type":"Feature","geometry":{"type":"Point","coordinates":[-97.622774,30.441841]}},{"properties":{"city":"Round Rock","zip":"78664","geo_score":0.78,"id":"adnue6r2fxlr","address":"115 Louis Henna Blvd","geo_precision":"range","bank":"Comerica"},"type":"Feature","geometry":{"type":"Point","coordinates":[-97.673194,30.480943]}},{"properties":{"city":"Austin","zip":"78717","geo_score":0.445,"id":"adnue72om6oe","address":"14950 Avery Ranch Blvd","geo_precision":"street","bank":"Comerica"},"type":"Feature","geometry":{"type":"Point","coordinates":[-97.827635,30.199073]}}],"is_temporal":false,"author":{"url":"","metadata":"","contact_name":"","contact_address":"","source":"","contact_phone":""},"source":"","pagination":{"sort":null,"start":0,"total":33,"limit":1000000},"state":"complete","tags":"janecka","published":"2013-04-17T16:00:00Z","id":346459}