{"type":"FeatureCollection","data_type":"Dataset","url_type":null,"permissions":[{"permissions":{"download":true,"view":true},"group_id":"everyone"}],"classification":null,"title":"Love’s Travel Stops Country Stores locations","count":300,"stream_id":346721,"contributor":{"url":"http://geocommons.com/users/49315","name":"dgang@tennessean.com"},"data_attributes":null,"calculation_params":null,"icon_link":null,"link":"http://geocommons.com/overlays/346721.json","extent":[-123.368,26.3859,-74.7076,48.2426],"geometry_types":["point"],"unique_name":null,"name":"Love’s Travel Stops Country Stores locations","feature_count":300,"description":"Love's Travel Stops Country Stores has about 300 locations nationwide, including in Tennessee.","next_feature":null,"is_raster":false,"short_classification":"Y","stats":{"latitude":{"max":48.242623,"variance":15.353154516099,"mean":35.961536094,"stdev":3.91831016078347,"min":26.385897,"median":35.420881},"longitude":{"max":-74.707648,"variance":106.54726687595,"mean":-95.7020719473334,"stdev":10.3221735538573,"min":-123.367895,"median":-96.62541}},"features":[{"properties":{"name":"Love's #368","city":"Clanton","latitude":32.844151,"zip":"35045","phone":"(205) 755-8104","longitude":-86.591963,"id":"adobjt4268vm","location":"I-65, Exit 208","state":"Alabama"},"type":"Feature","geometry":{"type":"Point","coordinates":[-86.591963,32.844151]}},{"properties":{"name":"Love's #225","city":"Evergreen","latitude":31.419105,"zip":"36401","phone":"(251) 578-4496","longitude":-87.00765,"id":"adobjta03b8h","location":"I-65, Exit 93","state":"Alabama"},"type":"Feature","geometry":{"type":"Point","coordinates":[-87.00765,31.419105]}},{"properties":{"name":"Love's #381","city":"Falkville","latitude":34.367333,"zip":"35622","phone":"(256) 784-6106","longitude":-86.89353,"id":"adobjt8vpvyg","location":"I-65, Exit 322","state":"Alabama"},"type":"Feature","geometry":{"type":"Point","coordinates":[-86.89353,34.367333]}},{"properties":{"name":"Love's #466","city":"Jasper","latitude":33.790777,"zip":"35501","phone":"(205) 295-1706","longitude":-87.241662,"id":"adobjt7o9yrf","location":"Hwy 78, Exit 65","state":"Alabama"},"type":"Feature","geometry":{"type":"Point","coordinates":[-87.241662,33.790777]}},{"properties":{"name":"Love's #206","city":"Loxley","latitude":30.654386,"zip":"36551","phone":"(251) 964-2090","longitude":-87.759422,"id":"adobjt36okvw","location":"I-10, Exit 44","state":"Alabama"},"type":"Feature","geometry":{"type":"Point","coordinates":[-87.759422,30.654386]}},{"properties":{"name":"Love's #227","city":"McCalla","latitude":33.279526,"zip":"35111","phone":"(205) 477-9423","longitude":-87.09762,"id":"adobjsx540s7","location":"I-20, Exit 100","state":"Alabama"},"type":"Feature","geometry":{"type":"Point","coordinates":[-87.09762,33.279526]}},{"properties":{"name":"Love's #304","city":"Steele","latitude":33.934441,"zip":"35987","phone":"(256) 538-1964","longitude":-86.19552,"id":"adobjsuhnmbi","location":"I-59, Exit 174","state":"Alabama"},"type":"Feature","geometry":{"type":"Point","coordinates":[-86.19552,33.934441]}},{"properties":{"name":"Love's #460","city":"Benson","latitude":31.934044,"zip":"85602","phone":"(520) 586-8702","longitude":-110.341313,"id":"adobjt61g4ti","location":"I-10, Exit 302","state":"Arizona"},"type":"Feature","geometry":{"type":"Point","coordinates":[-110.341313,31.934044]}},{"properties":{"name":"Love's #280","city":"Buckeye","latitude":33.431284,"zip":"85326","phone":"(623) 386-6926","longitude":-112.591725,"id":"adobjtadjaal","location":"I-10, Exit 114","state":"Arizona"},"type":"Feature","geometry":{"type":"Point","coordinates":[-112.591725,33.431284]}},{"properties":{"name":"Love's #265","city":"Casa Grande","latitude":32.80643,"zip":"85222","phone":"(520) 423-2015","longitude":-111.672093,"id":"adobjszq6wvf","location":"I-10, Exit 200","state":"Arizona"},"type":"Feature","geometry":{"type":"Point","coordinates":[-111.672093,32.80643]}},{"properties":{"name":"Love's #328","city":"Chandler","latitude":33.279875,"zip":"85226","phone":"(520) 796-1185","longitude":-111.962298,"id":"adobjsylifox","location":"I-10, Exit 162","state":"Arizona"},"type":"Feature","geometry":{"type":"Point","coordinates":[-111.962298,33.279875]}},{"properties":{"name":"Love's #296","city":"Gila Bend","latitude":32.94432,"zip":"85337","phone":"(928) 683-2210","longitude":-112.733253,"id":"adobjsxishhm","location":"I-8, Exit 115","state":"Arizona"},"type":"Feature","geometry":{"type":"Point","coordinates":[-112.733253,32.94432]}},{"properties":{"name":"Love's #278","city":"Joseph City","latitude":34.954751,"zip":"86032","phone":"(928) 288-3726","longitude":-110.311242,"id":"adobjsxuj9qo","location":"I-40, Exit 277","state":"Arizona"},"type":"Feature","geometry":{"type":"Point","coordinates":[-110.311242,34.954751]}},{"properties":{"name":"Love's #272","city":"Kingman","latitude":35.199162,"zip":"86401","phone":"(928)-681-4405","longitude":-113.9039,"id":"adobjt9aii1d","location":"I-40, Exit 59","state":"Arizona"},"type":"Feature","geometry":{"type":"Point","coordinates":[-113.9039,35.199162]}},{"properties":{"name":"Love's #386","city":"Lake Havasu City","latitude":34.726438,"zip":"86404","phone":"(928) 764-1505","longitude":-114.31635,"id":"adobjt4paxh2","location":"I-40, Exit 9","state":"Arizona"},"type":"Feature","geometry":{"type":"Point","coordinates":[-114.31635,34.726438]}},{"properties":{"name":"Love's #286","city":"Quartzsite","latitude":33.657299,"zip":"85346","phone":"(928) 927-8570","longitude":-114.241226,"id":"adobjsux495s","location":"I-10, Exit 17","state":"Arizona"},"type":"Feature","geometry":{"type":"Point","coordinates":[-114.241226,33.657299]}},{"properties":{"name":"Love's #349","city":"Yuma","latitude":32.685922,"zip":"85365","phone":"(928) 341-9100","longitude":-114.58513,"id":"adobjt2cadyk","location":"I-8, Exit 3","state":"Arizona"},"type":"Feature","geometry":{"type":"Point","coordinates":[-114.58513,32.685922]}},{"properties":{"name":"Love's #457","city":"Little Rock","latitude":34.657214,"zip":"72210","phone":"(501) 407-0227","longitude":-92.413231,"id":"adobjt5gm7nh","location":"I-30, Exit 128","state":"Arkansas"},"type":"Feature","geometry":{"type":"Point","coordinates":[-92.413231,34.657214]}},{"properties":{"name":"Love's #267","city":"Morrilton","latitude":35.172923,"zip":"72110","phone":"(501) 354-6701","longitude":-92.743251,"id":"adobjt5uqdw9","location":"I-40, Exit 107","state":"Arkansas"},"type":"Feature","geometry":{"type":"Point","coordinates":[-92.743251,35.172923]}},{"properties":{"name":"Love's #236","city":"N. Little Rock","latitude":34.786217,"zip":"72117","phone":"(501) 945-5400","longitude":-92.125573,"id":"adobjt3g6lw2","location":"I-40E, Exit 161","state":"Arkansas"},"type":"Feature","geometry":{"type":"Point","coordinates":[-92.125573,34.786217]}},{"properties":{"name":"Love's #271","city":"Ozark","latitude":35.511466,"zip":"72949","phone":"(479) 667-5891","longitude":-93.822309,"id":"adobjswgjuot","location":"I-40, Exit 37","state":"Arkansas"},"type":"Feature","geometry":{"type":"Point","coordinates":[-93.822309,35.511466]}},{"properties":{"name":"Love's #275","city":"Palestine","latitude":34.986489,"zip":"72372","phone":"(870) 581-5004","longitude":-90.905235,"id":"adobjt07zsz6","location":"I-40, Exit 233","state":"Arkansas"},"type":"Feature","geometry":{"type":"Point","coordinates":[-90.905235,34.986489]}},{"properties":{"name":"Love's #277","city":"Prescott","latitude":33.828782,"zip":"71857","phone":"(870) 887-1744","longitude":-93.394759,"id":"adobjsxs7e0t","location":"I-30, Exit 46","state":"Arkansas"},"type":"Feature","geometry":{"type":"Point","coordinates":[-93.394759,33.828782]}},{"properties":{"name":"Love's #450","city":"West Memphis","latitude":35.157747,"zip":"72301","phone":"(870) 732-1272","longitude":-90.137608,"id":"adobjsxmqv9r","location":"I-40, Exit 280","state":"Arkansas"},"type":"Feature","geometry":{"type":"Point","coordinates":[-90.137608,35.157747]}},{"properties":{"name":"Love's #374","city":"Barstow","latitude":34.855917,"zip":"92311","phone":"(760) 253-4080","longitude":-117.090172,"id":"adobjsuifxnj","location":"I-15, Exit 178","state":"California"},"type":"Feature","geometry":{"type":"Point","coordinates":[-117.090172,34.855917]}},{"properties":{"name":"Love's #207","city":"Coachella","latitude":33.717419,"zip":"92236","phone":"(760) 775-3401","longitude":-116.171266,"id":"adobjsxzy5ex","location":"I-10, Exit 146","state":"California"},"type":"Feature","geometry":{"type":"Point","coordinates":[-116.171266,33.717419]}},{"properties":{"name":"Love's #410","city":"Corning","latitude":39.907601,"zip":"96021","phone":"(530) 824-8767","longitude":-122.196352,"id":"adobjt06fl44","location":"I-5, Exit 630","state":"California"},"type":"Feature","geometry":{"type":"Point","coordinates":[-122.196352,39.907601]}},{"properties":{"name":"Love's #230","city":"Lost Hills","latitude":35.616981,"zip":"93249","phone":"(661) 797-1800","longitude":-119.65888,"id":"adobjt6wdoha","location":"I-5, Exit 278","state":"California"},"type":"Feature","geometry":{"type":"Point","coordinates":[-119.65888,35.616981]}},{"properties":{"name":"Love's #223","city":"Ripon","latitude":37.755193,"zip":"95366","phone":"(209) 599-0740","longitude":-121.14151,"id":"adobjt6jxpt7","location":"Hwy 99, Exit 237B","state":"California"},"type":"Feature","geometry":{"type":"Point","coordinates":[-121.14151,37.755193]}},{"properties":{"name":"Love's #441","city":"Santa Nella","latitude":37.111363,"zip":"95322","phone":"(209) 827-1399","longitude":-121.016625,"id":"adobjt6i9gep","location":"I-5, Exit 407","state":"California"},"type":"Feature","geometry":{"type":"Point","coordinates":[-121.016625,37.111363]}},{"properties":{"name":"Love's #392","city":"Tehachapi","latitude":35.127245,"zip":"93561","phone":"(661) 823-1484","longitude":-118.4112,"id":"adobjsxuat0d","location":"Hwy 58, Exit 151","state":"California"},"type":"Feature","geometry":{"type":"Point","coordinates":[-118.4112,35.127245]}},{"properties":{"name":"Love's #382","city":"Tulare","latitude":36.180909,"zip":"93274","phone":"(559) 686-1400","longitude":-119.330122,"id":"adobjsyj3rym","location":"Hwy 99, Exit Paige Ave.","state":"California"},"type":"Feature","geometry":{"type":"Point","coordinates":[-119.330122,36.180909]}},{"properties":{"name":"Love's #300","city":"Bennett","latitude":39.75249,"zip":"80102","phone":"(303) 644-3585","longitude":-104.43415,"id":"adobjt7xm8jr","location":"I-70, Exit 304","state":"Colorado"},"type":"Feature","geometry":{"type":"Point","coordinates":[-104.43415,39.75249]}},{"properties":{"name":"Love's #357","city":"Fountain","latitude":38.741986,"zip":"80817","phone":"(719) 390-5800","longitude":-104.737199,"id":"adobjsyjjs4n","location":null,"state":"Colorado"},"type":"Feature","geometry":{"type":"Point","coordinates":[-104.737199,38.741986]}},{"properties":{"name":"Love's #7","city":"Gunnison","latitude":38.543928,"zip":"81230","phone":"(970) 641-4045","longitude":-106.934411,"id":"adobjswvw7xg","location":null,"state":"Colorado"},"type":"Feature","geometry":{"type":"Point","coordinates":[-106.934411,38.543928]}},{"properties":{"name":"Love's #377","city":"Hudson","latitude":40.077008,"zip":"80642","phone":"(303) 536-9900","longitude":-104.649147,"id":"adobjt7d9apk","location":"I-76, Exit 31","state":"Colorado"},"type":"Feature","geometry":{"type":"Point","coordinates":[-104.649147,40.077008]}},{"properties":{"name":"Love's #12","city":"LaJunta","latitude":37.987695,"zip":"81050","phone":"(719) 384-8932","longitude":-103.538643,"id":"adobjswnx6eb","location":null,"state":"Colorado"},"type":"Feature","geometry":{"type":"Point","coordinates":[-103.538643,37.987695]}},{"properties":{"name":"Love's #23","city":"Lamar","latitude":38.095707,"zip":"81052","phone":"(719) 336-5202","longitude":-102.62027,"id":"adobjsveae0v","location":"Hwy 50, Exit Hwy 287","state":"Colorado"},"type":"Feature","geometry":{"type":"Point","coordinates":[-102.62027,38.095707]}},{"properties":{"name":"Love's #38","city":"Lamar","latitude":38.088626,"zip":"81052","phone":"(719) 336-5382","longitude":-102.616049,"id":"adobjsult1dc","location":null,"state":"Colorado"},"type":"Feature","geometry":{"type":"Point","coordinates":[-102.616049,38.088626]}},{"properties":{"name":"Love's #30","city":"Monte Vista","latitude":37.578299,"zip":"81144","phone":"(719) 852-5032","longitude":-106.13721,"id":"adobjt3xemck","location":null,"state":"Colorado"},"type":"Feature","geometry":{"type":"Point","coordinates":[-106.13721,37.578299]}},{"properties":{"name":"Love's #226","city":"Pueblo","latitude":38.3346342,"zip":"81008","phone":"(719)253-1338","longitude":-104.6210127,"id":"adobjt1nc41f","location":"I-25, Exit 104","state":"Colorado"},"type":"Feature","geometry":{"type":"Point","coordinates":[-104.6210127,38.3346342]}},{"properties":{"name":"Love's #37","city":"Springfield","latitude":37.402798,"zip":"81073","phone":"(719) 523-4100","longitude":-102.615985,"id":"adobjt3whg31","location":null,"state":"Colorado"},"type":"Feature","geometry":{"type":"Point","coordinates":[-102.615985,37.402798]}},{"properties":{"name":"Love's #228","city":"Auburndale","latitude":28.155314,"zip":"33868","phone":"(863) 984-7030","longitude":-81.800734,"id":"adobjt21mihi","location":"I-4, Exit 44","state":"Florida"},"type":"Feature","geometry":{"type":"Point","coordinates":[-81.800734,28.155314]}},{"properties":{"name":"Love's #453","city":"Cottondale","latitude":30.7524723,"zip":"32431","phone":"(850) 352-2041","longitude":-85.38202,"id":"adobjsui74kh","location":"I-10, Exit 130","state":"Florida"},"type":"Feature","geometry":{"type":"Point","coordinates":[-85.38202,30.7524723]}},{"properties":{"name":"Love's #415","city":"Ft. Pierce","latitude":27.4131666,"zip":"34945","phone":"(772) 460-5777","longitude":-80.3977006,"id":"adobjt9feq6p","location":"I-95, Exit 129","state":"Florida"},"type":"Feature","geometry":{"type":"Point","coordinates":[-80.3977006,27.4131666]}},{"properties":{"name":"Love's #470","city":"Jasper","latitude":30.438,"zip":"32052","phone":"(386) 792-3095","longitude":-82.9117,"id":"adobjsxq7g1f","location":"I-75, Exit 451","state":"Florida"},"type":"Feature","geometry":{"type":"Point","coordinates":[-82.9117,30.438]}},{"properties":{"name":"Love's #379","city":"Lee","latitude":30.377124,"zip":"32059","phone":"(850) 971-4115","longitude":-83.297401,"id":"adobjt09ql34","location":"I-10, Exit 262","state":"Florida"},"type":"Feature","geometry":{"type":"Point","coordinates":[-83.297401,30.377124]}},{"properties":{"name":"Love's #363","city":"Ocala","latitude":29.267562,"zip":"34482","phone":"(352) 368-5719","longitude":-82.1984253,"id":"adobjszemndw","location":"I-75, Exit 358","state":"Florida"},"type":"Feature","geometry":{"type":"Point","coordinates":[-82.1984253,29.267562]}},{"properties":{"name":"Love's #316","city":"Ormond Beach","latitude":29.337979,"zip":"32174","phone":"(386) 671-9585","longitude":-81.133304,"id":"adobjsu3q13z","location":"I-95, Exit 273","state":"Florida"},"type":"Feature","geometry":{"type":"Point","coordinates":[-81.133304,29.337979]}},{"properties":{"name":"Love's #405","city":"Brunswick","latitude":31.137752,"zip":"31520","phone":"(912) 264-2777","longitude":-81.571797,"id":"adobjt2sbn6t","location":"I-95, Exit 29","state":"Georgia"},"type":"Feature","geometry":{"type":"Point","coordinates":[-81.571797,31.137752]}},{"properties":{"name":"Love's #320","city":"Dublin","latitude":32.495759,"zip":"31021","phone":"(478) 296-1368","longitude":-82.981753,"id":"adobjt4j1lwx","location":"I-16, Exit 49","state":"Georgia"},"type":"Feature","geometry":{"type":"Point","coordinates":[-82.981753,32.495759]}},{"properties":{"name":"Love's #359","city":"Emerson","latitude":34.10525,"zip":"30121","phone":"(770) 382-4141","longitude":-84.71586,"id":"adobjt7r8qmc","location":"I-75, Exit 283","state":"Georgia"},"type":"Feature","geometry":{"type":"Point","coordinates":[-84.71586,34.10525]}},{"properties":{"name":"Love's #376","city":"Hogansville","latitude":33.159438,"zip":"30230","phone":"(706) 637-4311","longitude":-84.871354,"id":"adobjt3m28c3","location":"I-85, Exit 28","state":"Georgia"},"type":"Feature","geometry":{"type":"Point","coordinates":[-84.871354,33.159438]}},{"properties":{"name":"Love's #307","city":"Jackson","latitude":33.208091,"zip":"30233","phone":"(678) 752-0041","longitude":-84.05852,"id":"adobjt0i445s","location":"I-75, Exit 201","state":"Georgia"},"type":"Feature","geometry":{"type":"Point","coordinates":[-84.05852,33.208091]}},{"properties":{"name":"Love's #338","city":"Richmond Hill","latitude":31.960642,"zip":"31324","phone":"(912) 756-5394","longitude":-81.331522,"id":"adobjt25mnq5","location":"I-95, Exit 90","state":"Georgia"},"type":"Feature","geometry":{"type":"Point","coordinates":[-81.331522,31.960642]}},{"properties":{"name":"Love's #354","city":"Thomson","latitude":33.514228,"zip":"30824","phone":"(706) 843-9833","longitude":-82.503612,"id":"adobjt7pkfx3","location":"I-20, Exit 172","state":"Georgia"},"type":"Feature","geometry":{"type":"Point","coordinates":[-82.503612,33.514228]}},{"properties":{"name":"Love's #325","city":"Tifton","latitude":31.4158348,"zip":"31794","phone":"(229) 382-9118","longitude":-83.5060098,"id":"adobjta7kvqm","location":"I-75, Exit 59","state":"Georgia"},"type":"Feature","geometry":{"type":"Point","coordinates":[-83.5060098,31.4158348]}},{"properties":{"name":"Love's #311","city":"Waco","latitude":33.691297,"zip":"30182","phone":"(770) 824-5040","longitude":-85.189547,"id":"adobjt550f9k","location":"I-20, Exit 9","state":"Georgia"},"type":"Feature","geometry":{"type":"Point","coordinates":[-85.189547,33.691297]}},{"properties":{"name":"Love's #334","city":"Heyburn","latitude":42.567012,"zip":"83336","phone":"(208) 434-8777","longitude":-113.73762,"id":"adobjswo5fuh","location":"I-84, Exit 211","state":"Idaho"},"type":"Feature","geometry":{"type":"Point","coordinates":[-113.73762,42.567012]}},{"properties":{"name":"Love's #478","city":"Idaho Falls","latitude":43.436962,"zip":"83402","phone":"(208) 529-1904","longitude":-112.119846,"id":"adobjt5gic9d","location":"I-15, Exit 113","state":"Idaho"},"type":"Feature","geometry":{"type":"Point","coordinates":[-112.119846,43.436962]}},{"properties":{"name":"Love's #301","city":"Post Falls","latitude":47.711161,"zip":"83854","phone":"(208) 773-4577","longitude":-117.00409,"id":"adobjswq63qy","location":"I-90, Exit 2","state":"Idaho"},"type":"Feature","geometry":{"type":"Point","coordinates":[-117.00409,47.711161]}},{"properties":{"name":"Love's #292","city":"Dwight","latitude":41.1137,"zip":"60420","phone":"(815) 584-9545","longitude":-88.4153,"id":"adobjsxu3nop","location":"I-55, Exit 220","state":"Illinois"},"type":"Feature","geometry":{"type":"Point","coordinates":[-88.4153,41.1137]}},{"properties":{"name":"Love's #384","city":"Greenville","latitude":38.87324,"zip":"62246","phone":"(618) 664-9287","longitude":-89.38713,"id":"adobjt1kdaq0","location":"I-70, Exit 45","state":"Illinois"},"type":"Feature","geometry":{"type":"Point","coordinates":[-89.38713,38.87324]}},{"properties":{"name":"Love's #318","city":"Ina","latitude":38.155469,"zip":"62846","phone":"(618) 437-5275","longitude":-88.910841,"id":"adobjsvzlrds","location":"I-57, Exit 83","state":"Illinois"},"type":"Feature","geometry":{"type":"Point","coordinates":[-88.910841,38.155469]}},{"properties":{"name":"Love's #395","city":"Kankakee","latitude":41.0709397,"zip":"60901","phone":"(815) 929-1549","longitude":-87.8686935,"id":"adobjsydnt87","location":"I-57, Exit 308","state":"Illinois"},"type":"Feature","geometry":{"type":"Point","coordinates":[-87.8686935,41.0709397]}},{"properties":{"name":"Love's #367","city":"Le Roy","latitude":40.340395,"zip":"61752","phone":"(309) 962-3060","longitude":-88.760803,"id":"adobjt8zufjc","location":"I-74, Exit 149","state":"Illinois"},"type":"Feature","geometry":{"type":"Point","coordinates":[-88.760803,40.340395]}},{"properties":{"name":"Love's #322","city":"Roscoe","latitude":42.455985,"zip":"61073","phone":"(815) 389-1923","longitude":-88.998069,"id":"adobjt1i9ypf","location":"I-90, Exit 3","state":"Illinois"},"type":"Feature","geometry":{"type":"Point","coordinates":[-88.998069,42.455985]}},{"properties":{"name":"Love's #351","city":"Utica","latitude":41.370086,"zip":"61373","phone":"(815) 667-4572","longitude":-89.00914,"id":"adobjsvlyhyr","location":"I-80, Exit 81","state":"Illinois"},"type":"Feature","geometry":{"type":"Point","coordinates":[-89.00914,41.370086]}},{"properties":{"name":"Love's #249","city":"Williamsville","latitude":39.960959,"zip":"62693","phone":"(217) 566-3448","longitude":-89.562296,"id":"adobjt8w9isp","location":"I-55, Exit 109","state":"Illinois"},"type":"Feature","geometry":{"type":"Point","coordinates":[-89.562296,39.960959]}},{"properties":{"name":"Love's #254","city":"Belleville","latitude":39.615839,"zip":"46158","phone":"(317) 539-5473","longitude":-86.478508,"id":"adobjt21mzlg","location":"I-70, Exit 59","state":"Indiana"},"type":"Feature","geometry":{"type":"Point","coordinates":[-86.478508,39.615839]}},{"properties":{"name":"Love's #394","city":"Demotte","latitude":41.14253,"zip":"46310","phone":"(219) 987-2202","longitude":-87.260729,"id":"adobjszhh0sd","location":"I-65, Exit 230","state":"Indiana"},"type":"Feature","geometry":{"type":"Point","coordinates":[-87.260729,41.14253]}},{"properties":{"name":"Love's #417","city":"Gary","latitude":41.561796,"zip":"46408","phone":"(219) 981-4646","longitude":-87.3566396,"id":"adobjswtvs0f","location":"I-94, Exit 9","state":"Indiana"},"type":"Feature","geometry":{"type":"Point","coordinates":[-87.3566396,41.561796]}},{"properties":{"name":"Love's #414","city":"Haubstadt","latitude":38.1172528,"zip":"47639","phone":"(812) 768-5838","longitude":-87.551638,"id":"adobjt79kqql","location":"I-64, Exit 25B","state":"Indiana"},"type":"Feature","geometry":{"type":"Point","coordinates":[-87.551638,38.1172528]}},{"properties":{"name":"Love's #323","city":"Marion","latitude":40.554335,"zip":"46952","phone":"(765) 662-6462","longitude":-85.548979,"id":"adobjt7psb25","location":"I-69, Exit 264","state":"Indiana"},"type":"Feature","geometry":{"type":"Point","coordinates":[-85.548979,40.554335]}},{"properties":{"name":"Love's #355","city":"Memphis","latitude":38.490873,"zip":"47143","phone":"(812) 294-1379","longitude":-85.76988,"id":"adobjsxklj6l","location":"I-65, Exit 16","state":"Indiana"},"type":"Feature","geometry":{"type":"Point","coordinates":[-85.76988,38.490873]}},{"properties":{"name":"Love's #319","city":"Pittsboro","latitude":39.877254,"zip":"46167","phone":"(317) 892-2938","longitude":-86.473992,"id":"adobjt4kuf5j","location":"I-74, Exit 61","state":"Indiana"},"type":"Feature","geometry":{"type":"Point","coordinates":[-86.473992,39.877254]}},{"properties":{"name":"Love's #222","city":"Richmond","latitude":39.870945,"zip":"47374","phone":"(765) 939-8136","longitude":-84.933264,"id":"adobjt35hjyy","location":"I-70, Exit 149B","state":"Indiana"},"type":"Feature","geometry":{"type":"Point","coordinates":[-84.933264,39.870945]}},{"properties":{"name":"Love's #391","city":"St. Paul","latitude":39.449756,"zip":"47272","phone":"(765) 525-6808","longitude":-85.626449,"id":"adobjt5rzksx","location":"I-74, Exit 123","state":"Indiana"},"type":"Feature","geometry":{"type":"Point","coordinates":[-85.626449,39.449756]}},{"properties":{"name":"Love's #451","city":"Whiteland","latitude":39.551539,"zip":"46184","phone":"(317) 535-8686","longitude":-86.044627,"id":"adobjt32zad0","location":"I-65, Exit 95","state":"Indiana"},"type":"Feature","geometry":{"type":"Point","coordinates":[-86.044627,39.551539]}},{"properties":{"name":"Love's #459","city":"Whitestown","latitude":39.979492,"zip":"46075","phone":"(317) 769-2330","longitude":-86.395742,"id":"adobjsu2x39i","location":"I-65, Exit 133","state":"Indiana"},"type":"Feature","geometry":{"type":"Point","coordinates":[-86.395742,39.979492]}},{"properties":{"name":"Love's #411","city":"Clive","latitude":41.613365,"zip":"50325","phone":"(515) 276-5200","longitude":-93.780718,"id":"adobjt3k84ih","location":"I-80, Exit 125","state":"Iowa"},"type":"Feature","geometry":{"type":"Point","coordinates":[-93.780718,41.613365]}},{"properties":{"name":"Love's #476","city":"Davenport","latitude":41.604403,"zip":"52806","phone":"(563) 386-3466","longitude":-90.623937,"id":"adobjt51j2i1","location":"I-80, Exit 292","state":"Iowa"},"type":"Feature","geometry":{"type":"Point","coordinates":[-90.623937,41.604403]}},{"properties":{"name":"Love's #361","city":"Newton","latitude":41.680428,"zip":"50208","phone":"(641) 791-2410","longitude":-92.999058,"id":"adobjswqm98u","location":"I-80, Exit 168","state":"Iowa"},"type":"Feature","geometry":{"type":"Point","coordinates":[-92.999058,41.680428]}},{"properties":{"name":"Love's #479","city":"Sioux City","latitude":42.434652,"zip":"51111","phone":"(712) 224-3675","longitude":-96.379902,"id":"adobjszddz8l","location":"I-29, Exit 143","state":"Iowa"},"type":"Feature","geometry":{"type":"Point","coordinates":[-96.379902,42.434652]}},{"properties":{"name":"Love's #97","city":"Arkansas City","latitude":37.082717,"zip":"67005","phone":"(620) 442-9302","longitude":-97.0396,"id":"adobjt20qbto","location":null,"state":"Kansas"},"type":"Feature","geometry":{"type":"Point","coordinates":[-97.0396,37.082717]}},{"properties":{"name":"Love's #61","city":"Colby","latitude":39.397481,"zip":"67701","phone":"(785) 462-7339","longitude":-101.047874,"id":"adobjszzn3bc","location":null,"state":"Kansas"},"type":"Feature","geometry":{"type":"Point","coordinates":[-101.047874,39.397481]}},{"properties":{"name":"Love's #58","city":"Dodge City","latitude":37.753654,"zip":"67801","phone":"(620) 225-0654","longitude":-100.028774,"id":"adobjt4x58nn","location":null,"state":"Kansas"},"type":"Feature","geometry":{"type":"Point","coordinates":[-100.028774,37.753654]}},{"properties":{"name":"Love's #62","city":"Dodge City","latitude":37.753132,"zip":"67801","phone":"(620) 225-0641","longitude":-100.011806,"id":"adobjswaoxeh","location":null,"state":"Kansas"},"type":"Feature","geometry":{"type":"Point","coordinates":[-100.011806,37.753132]}},{"properties":{"name":"Love's #455","city":"Ellis","latitude":38.947691,"zip":"67637","phone":"(785) 726-2528","longitude":-99.5600959,"id":"adobjsxm0r4e","location":"70, Exit 145","state":"Kansas"},"type":"Feature","geometry":{"type":"Point","coordinates":[-99.5600959,38.947691]}},{"properties":{"name":"Love's #11","city":"Great Bend","latitude":38.360978,"zip":"67530","phone":"(620) 792-6731","longitude":-98.754033,"id":"adobjt9wlr1j","location":null,"state":"Kansas"},"type":"Feature","geometry":{"type":"Point","coordinates":[-98.754033,38.360978]}},{"properties":{"name":"Love's #44","city":"Hays","latitude":38.882327,"zip":"67601","phone":"(785) 625-4034","longitude":-99.317259,"id":"adobjszz2hsm","location":null,"state":"Kansas"},"type":"Feature","geometry":{"type":"Point","coordinates":[-99.317259,38.882327]}},{"properties":{"name":"Love's #24","city":"Liberal","latitude":37.032373,"zip":"67901","phone":"(620) 624-2910","longitude":-100.92509,"id":"adobjt4bc8zi","location":null,"state":"Kansas"},"type":"Feature","geometry":{"type":"Point","coordinates":[-100.92509,37.032373]}},{"properties":{"name":"Love's #60","city":"Norton","latitude":39.838867,"zip":"67654","phone":"(785) 877-5494","longitude":-99.89259,"id":"adobjsvw0k9r","location":null,"state":"Kansas"},"type":"Feature","geometry":{"type":"Point","coordinates":[-99.89259,39.838867]}},{"properties":{"name":"Love's #258","city":"Ottawa","latitude":38.572805,"zip":"66067","phone":"(785) 242-2882","longitude":-95.269457,"id":"adobjsw7khte","location":"I-35, Exit 183","state":"Kansas"},"type":"Feature","geometry":{"type":"Point","coordinates":[-95.269457,38.572805]}},{"properties":{"name":"Love's #59","city":"Phillipsburg","latitude":39.755533,"zip":"67661","phone":"(785) 543-5813","longitude":-99.318155,"id":"adobjt86vmmt","location":null,"state":"Kansas"},"type":"Feature","geometry":{"type":"Point","coordinates":[-99.318155,39.755533]}},{"properties":{"name":"Love's #32","city":"Pratt","latitude":37.646163,"zip":"67124","phone":"(620) 672-5784","longitude":-98.722077,"id":"adobjsxxhbhk","location":null,"state":"Kansas"},"type":"Feature","geometry":{"type":"Point","coordinates":[-98.722077,37.646163]}},{"properties":{"name":"Love's #39","city":"Syracuse","latitude":37.980266,"zip":"67878","phone":"(620) 384-7796","longitude":-101.75035,"id":"adobjsv9rlzt","location":null,"state":"Kansas"},"type":"Feature","geometry":{"type":"Point","coordinates":[-101.75035,37.980266]}},{"properties":{"name":"Love's #348","city":"Calvert City","latitude":37.003735,"zip":"42029","phone":"(270) 395-0546","longitude":-88.31864,"id":"adobjt7jvlz2","location":"I-24, Exit 27","state":"Kentucky"},"type":"Feature","geometry":{"type":"Point","coordinates":[-88.31864,37.003735]}},{"properties":{"name":"Love's #321","city":"Corbin","latitude":36.977491,"zip":"40701","phone":"(606) 526-8099","longitude":-84.116242,"id":"adobjt667v26","location":"I-75, Exit 29","state":"Kentucky"},"type":"Feature","geometry":{"type":"Point","coordinates":[-84.116242,36.977491]}},{"properties":{"name":"Love's #418","city":"Grayson","latitude":38.341101,"zip":"41143","phone":"(606) 474-6009","longitude":-82.941906,"id":"adobjt8wv79e","location":"I-64, Exit 172","state":"Kentucky"},"type":"Feature","geometry":{"type":"Point","coordinates":[-82.941906,38.341101]}},{"properties":{"name":"Love's #360","city":"Horse Cave","latitude":37.201373,"zip":"42749","phone":"(270) 786-4000","longitude":-85.935198,"id":"adobjsww01z8","location":"I-65, Exit 58","state":"Kentucky"},"type":"Feature","geometry":{"type":"Point","coordinates":[-85.935198,37.201373]}},{"properties":{"name":"Love's #291","city":"Richmond","latitude":37.84322,"zip":"40475","phone":"(859) 624-0882","longitude":-84.324537,"id":"adobjt3mfh6o","location":"I-75, Exit 95","state":"Kentucky"},"type":"Feature","geometry":{"type":"Point","coordinates":[-84.324537,37.84322]}},{"properties":{"name":"Love's #238","city":"Shepherdsville","latitude":37.979467,"zip":"40165","phone":"(502) 543-7000","longitude":-85.694363,"id":"adobjt9vqdjm","location":"I-65, Exit 116","state":"Kentucky"},"type":"Feature","geometry":{"type":"Point","coordinates":[-85.694363,37.979467]}},{"properties":{"name":"Love's #383","city":"Sparta","latitude":38.69365,"zip":"41083","phone":"(859) 567-1140","longitude":-84.938639,"id":"adobjt0vqsyy","location":"I-71, Exit 55","state":"Kentucky"},"type":"Feature","geometry":{"type":"Point","coordinates":[-84.938639,38.69365]}},{"properties":{"name":"Love's #303","city":"Waddy","latitude":38.152234,"zip":"40076","phone":"(502) 829-0157","longitude":-85.07025,"id":"adobjsvr9pbh","location":"I-64, Exit 43","state":"Kentucky"},"type":"Feature","geometry":{"type":"Point","coordinates":[-85.07025,38.152234]}},{"properties":{"name":"Love's #209","city":"Greenwood","latitude":32.444532,"zip":"71033","phone":"(318) 938-8986","longitude":-93.983016,"id":"adobjt793zt1","location":"I-20, Exit 3","state":"Louisiana"},"type":"Feature","geometry":{"type":"Point","coordinates":[-93.983016,32.444532]}},{"properties":{"name":"Love's #243","city":"Lake Charles","latitude":30.253127,"zip":"70647","phone":"(337) 582-4528","longitude":-93.013108,"id":"adobjswh0qbs","location":"I-10, Exit 43","state":"Louisiana"},"type":"Feature","geometry":{"type":"Point","coordinates":[-93.013108,30.253127]}},{"properties":{"name":"Love's #289","city":"Minden","latitude":32.581978,"zip":"71055","phone":"(318) 371-3790","longitude":-93.248804,"id":"adobjta0j0j6","location":"I-20, Exit 49","state":"Louisiana"},"type":"Feature","geometry":{"type":"Point","coordinates":[-93.248804,32.581978]}},{"properties":{"name":"Love's #240","city":"Port Allen","latitude":30.445527,"zip":"70767","phone":"(225) 389-9111","longitude":-91.242686,"id":"adobjsuosalt","location":"I-10, Exit 151","state":"Louisiana"},"type":"Feature","geometry":{"type":"Point","coordinates":[-91.242686,30.445527]}},{"properties":{"name":"Love's #237","city":"Tallulah","latitude":32.387821,"zip":"71282","phone":"(318)  574-6413","longitude":-91.197692,"id":"adobjt06pvaa","location":"I-20, Exit 171","state":"Louisiana"},"type":"Feature","geometry":{"type":"Point","coordinates":[-91.197692,32.387821]}},{"properties":{"name":"Love's #362","city":"Vinton","latitude":30.17292,"zip":"70668","phone":"(337) 589-9858","longitude":-93.58812,"id":"adobjsv5snh2","location":"I-10, Exit 7","state":"Louisiana"},"type":"Feature","geometry":{"type":"Point","coordinates":[-93.58812,30.17292]}},{"properties":{"name":"Love's #336","city":"Marshall","latitude":42.280206,"zip":"49068","phone":"(269) 781-9203","longitude":-84.93073,"id":"adobjt6j3q88","location":"I-94, Exit 112","state":"Michigan"},"type":"Feature","geometry":{"type":"Point","coordinates":[-84.93073,42.280206]}},{"properties":{"name":"Love's #337","city":"Albert Lea","latitude":43.6598,"zip":"56007","phone":"(507) 373-3200","longitude":-93.31592,"id":"adobjt88b2ti","location":"I-35, Exit 11","state":"Minnesota"},"type":"Feature","geometry":{"type":"Point","coordinates":[-93.31592,43.6598]}},{"properties":{"name":"Love's #388","city":"Batesville","latitude":34.35134,"zip":"38606","phone":"(662) 563-1852","longitude":-89.91601,"id":"adobjsyzaryt","location":"I-55, Exit 246","state":"Mississippi"},"type":"Feature","geometry":{"type":"Point","coordinates":[-89.91601,34.35134]}},{"properties":{"name":"Love's #402","city":"Biloxi","latitude":30.452073,"zip":"39532","phone":"(228) 396-5646","longitude":-88.93331,"id":"adobjt5gaob4","location":"I-10, Exit 44","state":"Mississippi"},"type":"Feature","geometry":{"type":"Point","coordinates":[-88.93331,30.452073]}},{"properties":{"name":"Love's #208","city":"Canton","latitude":32.604052,"zip":"39046","phone":"(601) 859-9370","longitude":-90.072554,"id":"adobjsxwe8wk","location":"I-55, Exit 119","state":"Mississippi"},"type":"Feature","geometry":{"type":"Point","coordinates":[-90.072554,32.604052]}},{"properties":{"name":"Love's #420","city":"Flowood","latitude":32.279214,"zip":"39232","phone":"(601) 420-8324","longitude":-90.155359,"id":"adobjt4nd59p","location":"I-20, Exit 47","state":"Mississippi"},"type":"Feature","geometry":{"type":"Point","coordinates":[-90.155359,32.279214]}},{"properties":{"name":"Love's #393","city":"McComb","latitude":31.190892,"zip":"39648","phone":"(601) 684-3353","longitude":-90.485619,"id":"adobjt6tbrny","location":"I-55, Exit 13","state":"Mississippi"},"type":"Feature","geometry":{"type":"Point","coordinates":[-90.485619,31.190892]}},{"properties":{"name":"Love's #343","city":"Toomsuba","latitude":32.41107,"zip":"39364","phone":"(601) 632-4006","longitude":-88.505495,"id":"adobjta7cq9o","location":"I-20, Exit 165","state":"Mississippi"},"type":"Feature","geometry":{"type":"Point","coordinates":[-88.505495,32.41107]}},{"properties":{"name":"Love's #398","city":"Tupelo","latitude":34.31464,"zip":"38804","phone":"(662) 840-5343","longitude":-88.78994,"id":"adobjt4x44r8","location":"Hwy 78, Exit 81","state":"Mississippi"},"type":"Feature","geometry":{"type":"Point","coordinates":[-88.78994,34.31464]}},{"properties":{"name":"Love's #347","city":"Boonville","latitude":38.933867,"zip":"65233","phone":"(660) 882-7770","longitude":-92.77955,"id":"adobjsvw8lox","location":"I-70, Exit 101","state":"Missouri"},"type":"Feature","geometry":{"type":"Point","coordinates":[-92.77955,38.933867]}},{"properties":{"name":"Love's #282","city":"Joplin","latitude":37.013202,"zip":"64804","phone":"(417)206-0684","longitude":-94.54399,"id":"adobjt8kjcss","location":"I-44, Exit 4","state":"Missouri"},"type":"Feature","geometry":{"type":"Point","coordinates":[-94.54399,37.013202]}},{"properties":{"name":"Love's #313","city":"Matthews","latitude":36.758179,"zip":"63867","phone":"(573) 471-4944","longitude":-89.541289,"id":"adobjt9396rk","location":"I-55, Exit 58","state":"Missouri"},"type":"Feature","geometry":{"type":"Point","coordinates":[-89.541289,36.758179]}},{"properties":{"name":"Love's #341","city":"Rolla","latitude":37.981593,"zip":"65401","phone":"(573) 426-5683","longitude":-91.71933,"id":"adobjt4k9aj5","location":"I-44, Exit 189","state":"Missouri"},"type":"Feature","geometry":{"type":"Point","coordinates":[-91.71933,37.981593]}},{"properties":{"name":"Love's #235","city":"St. Joseph","latitude":39.72238,"zip":"64507","phone":"(816)  279-8870","longitude":-94.786901,"id":"adobjsupbiw5","location":"I-29, Exit 44","state":"Missouri"},"type":"Feature","geometry":{"type":"Point","coordinates":[-94.786901,39.72238]}},{"properties":{"name":"Love's #458","city":"Strafford","latitude":37.2683802,"zip":"65757","phone":"(417) 736-9043","longitude":-93.1171264,"id":"adobjsz45brj","location":"I-44, Exit 88","state":"Missouri"},"type":"Feature","geometry":{"type":"Point","coordinates":[-93.1171264,37.2683802]}},{"properties":{"name":"Love's #309","city":"Aurora","latitude":40.818908,"zip":"68818","phone":"(402) 694-2802","longitude":-97.99827,"id":"adobjsvew0i3","location":"I-80, Exit 332","state":"Nebraska"},"type":"Feature","geometry":{"type":"Point","coordinates":[-97.99827,40.818908]}},{"properties":{"name":"Love's #390","city":"North Platte","latitude":41.101442,"zip":"69101","phone":"(308) 534-4610","longitude":-100.725,"id":"adobjszdbukc","location":"I-80, Exit 179","state":"Nebraska"},"type":"Feature","geometry":{"type":"Point","coordinates":[-100.725,41.101442]}},{"properties":{"name":"Love's #246","city":"Fernley","latitude":39.618046,"zip":"89408","phone":"(775) 575-2200","longitude":-119.266446,"id":"adobjt7tcqpk","location":"I-80, Exit 46","state":"Nevada"},"type":"Feature","geometry":{"type":"Point","coordinates":[-119.266446,39.618046]}},{"properties":{"name":"Love's #340","city":"Las Vegas","latitude":36.38071,"zip":"89105","phone":"(702) 643-7398","longitude":-114.89474,"id":"adobjtabqo9u","location":"I-15, Exit 64","state":"Nevada"},"type":"Feature","geometry":{"type":"Point","coordinates":[-114.89474,36.38071]}},{"properties":{"name":"Love's #365","city":"Wells","latitude":41.098956,"zip":"89835","phone":"(775) 752-9915","longitude":-114.959945,"id":"adobjt1wziqo","location":"I-80, Exit 352","state":"Nevada"},"type":"Feature","geometry":{"type":"Point","coordinates":[-114.959945,41.098956]}},{"properties":{"name":"Love's #404","city":"Bordentown","latitude":40.119963,"zip":"08505","phone":"(609) 324-1005","longitude":-74.707648,"id":"adobjt6vv6as","location":"I-295, Exit 57","state":"New Jersey"},"type":"Feature","geometry":{"type":"Point","coordinates":[-74.707648,40.119963]}},{"properties":{"name":"Love's #210","city":"Albuquerque","latitude":35.107254,"zip":"87102","phone":"(505) 842-6514","longitude":-106.648875,"id":"adobjsvrwehq","location":"I-40, Exit 158","state":"New Mexico"},"type":"Feature","geometry":{"type":"Point","coordinates":[-106.648875,35.107254]}},{"properties":{"name":"Love's #22","city":"Clayton","latitude":36.445421,"zip":"88415","phone":"(575) 374-9548","longitude":-103.179939,"id":"adobjsxzigfj","location":"Hwy 87","state":"New Mexico"},"type":"Feature","geometry":{"type":"Point","coordinates":[-103.179939,36.445421]}},{"properties":{"name":"Love's #329","city":"Clovis","latitude":34.394791,"zip":"88101","phone":"(575) 762-2966","longitude":-103.144305,"id":"adobjszbk13m","location":"Hwy 60, Exit Curry Rd.","state":"New Mexico"},"type":"Feature","geometry":{"type":"Point","coordinates":[-103.144305,34.394791]}},{"properties":{"name":"Love's #215","city":"Gallup","latitude":35.505618,"zip":"87301","phone":"(505) 863-3849","longitude":-108.834627,"id":"adobjt5xy7yf","location":"I-40, Exit 16","state":"New Mexico"},"type":"Feature","geometry":{"type":"Point","coordinates":[-108.834627,35.505618]}},{"properties":{"name":"Love's #259","city":"Las Cruces","latitude":32.269463,"zip":"88005","phone":"(575) 527-5102","longitude":-106.921622,"id":"adobjsynq7rz","location":"I-10, Exit 132","state":"New Mexico"},"type":"Feature","geometry":{"type":"Point","coordinates":[-106.921622,32.269463]}},{"properties":{"name":"Love's #276","city":"Lordsburg","latitude":32.353872,"zip":"88045","phone":"(575) 542-8462","longitude":-108.73557,"id":"adobjt4wmdbe","location":"I-10, Exit 20","state":"New Mexico"},"type":"Feature","geometry":{"type":"Point","coordinates":[-108.73557,32.353872]}},{"properties":{"name":"Love's #257","city":"Milan","latitude":35.18274,"zip":"87021","phone":"(505) 287-2981","longitude":-107.898783,"id":"adobjt2r4c46","location":"I-40, Exit 79","state":"New Mexico"},"type":"Feature","geometry":{"type":"Point","coordinates":[-107.898783,35.18274]}},{"properties":{"name":"Love's #285","city":"Santa Rosa","latitude":34.946713,"zip":"88435","phone":"(575) 472-1160","longitude":-104.637716,"id":"adobjt7ybcic","location":"I-40, Exit 277","state":"New Mexico"},"type":"Feature","geometry":{"type":"Point","coordinates":[-104.637716,34.946713]}},{"properties":{"name":"Love's #262","city":"Tucumcari","latitude":35.158604,"zip":"88401","phone":"(575) 461-1900","longitude":-103.701308,"id":"adobjt3q1xvg","location":"I-40, Exit 333","state":"New Mexico"},"type":"Feature","geometry":{"type":"Point","coordinates":[-103.701308,35.158604]}},{"properties":{"name":"Love's #403","city":"Binghamton","latitude":42.101592,"zip":"13904","phone":"(607) 651-9153","longitude":-75.835785,"id":"adobjsz1byae","location":"I-81, Exit 3","state":"New York"},"type":"Feature","geometry":{"type":"Point","coordinates":[-75.835785,42.101592]}},{"properties":{"name":"Love's #412","city":"Dunn","latitude":35.339906,"zip":"28334","phone":"(910) 892-7230","longitude":-78.55693,"id":"adobjt8smwgu","location":"I-95, Exit 77","state":"North Carolina"},"type":"Feature","geometry":{"type":"Point","coordinates":[-78.55693,35.339906]}},{"properties":{"name":"Love's #308","city":"Marion","latitude":35.657872,"zip":"28752","phone":"(828) 652-3422","longitude":-81.96337,"id":"adobjsu6brsj","location":"I-40, Exit 86","state":"North Carolina"},"type":"Feature","geometry":{"type":"Point","coordinates":[-81.96337,35.657872]}},{"properties":{"name":"Love's #353","city":"Fargo","latitude":46.831448,"zip":"58104","phone":"(701) 281-0761","longitude":-96.844139,"id":"adobjszdp3rb","location":"I-29, Exit 62","state":"North Dakota"},"type":"Feature","geometry":{"type":"Point","coordinates":[-96.844139,46.831448]}},{"properties":{"name":"Love's #474","city":"Williston","latitude":48.242623,"zip":"58801","phone":"(701) 572-3578","longitude":-103.623197,"id":"adobjt90pngp","location":"Hwy 2, Exit 42nd St.","state":"North Dakota"},"type":"Feature","geometry":{"type":"Point","coordinates":[-103.623197,48.242623]}},{"properties":{"name":"Love's #332","city":"Burbank","latitude":40.996205,"zip":"44214","phone":"(330) 624-1000","longitude":-81.995846,"id":"adobjt0wev9r","location":"I-71, Exit 204","state":"Ohio"},"type":"Feature","geometry":{"type":"Point","coordinates":[-81.995846,40.996205]}},{"properties":{"name":"Love's #389","city":"Conneaut","latitude":41.913966,"zip":"44030","phone":"(440) 593-6816","longitude":-80.570646,"id":"adobjsul2j34","location":"I-90, Exit 241","state":"Ohio"},"type":"Feature","geometry":{"type":"Point","coordinates":[-80.570646,41.913966]}},{"properties":{"name":"Love's #370","city":"Hubbard","latitude":41.173058,"zip":"44425","phone":"(330) 534-1800","longitude":-80.56913,"id":"adobjt21o282","location":"I-80, Exit 234","state":"Ohio"},"type":"Feature","geometry":{"type":"Point","coordinates":[-80.56913,41.173058]}},{"properties":{"name":"Love's #352","city":"Jeffersonville","latitude":39.620768,"zip":"43128","phone":"(740) 948-2342","longitude":-83.612786,"id":"adobjsufave3","location":"I-71, Exit 65","state":"Ohio"},"type":"Feature","geometry":{"type":"Point","coordinates":[-83.612786,39.620768]}},{"properties":{"name":"Love's #356","city":"N. Baltimore","latitude":41.17372,"zip":"45872","phone":"(419) 257-2600","longitude":-83.65167,"id":"adobjt5yakqr","location":"I-75, Exit 167","state":"Ohio"},"type":"Feature","geometry":{"type":"Point","coordinates":[-83.65167,41.17372]}},{"properties":{"name":"Love's #456","city":"Perrysburg","latitude":41.556996,"zip":"43551","phone":"(419) 837-0071","longitude":-83.627157,"id":"adobjsyof6o3","location":"I-280, Exit 1B","state":"Ohio"},"type":"Feature","geometry":{"type":"Point","coordinates":[-83.627157,41.556996]}},{"properties":{"name":"Love's #221","city":"Zanesville","latitude":39.968384,"zip":"43701","phone":"(740) 453-8506","longitude":-81.90321,"id":"adobjszqhgpd","location":"I-70, Exit 160","state":"Ohio"},"type":"Feature","geometry":{"type":"Point","coordinates":[-81.90321,39.968384]}},{"properties":{"name":"Love's #52","city":"Ada","latitude":34.776835,"zip":"74820","phone":"(580) 332-4294","longitude":-96.669484,"id":"adobjt7v5yas","location":null,"state":"Oklahoma"},"type":"Feature","geometry":{"type":"Point","coordinates":[-96.669484,34.776835]}},{"properties":{"name":"Love's #80","city":"Ada","latitude":34.774878,"zip":"74820","phone":"(580) 436-1292","longitude":-96.686152,"id":"adobjsx56wcs","location":null,"state":"Oklahoma"},"type":"Feature","geometry":{"type":"Point","coordinates":[-96.686152,34.774878]}},{"properties":{"name":"Love's #8","city":"Altus","latitude":34.644021,"zip":"73521","phone":"(580) 482-6167","longitude":-99.334495,"id":"adobjt8urlqq","location":null,"state":"Oklahoma"},"type":"Feature","geometry":{"type":"Point","coordinates":[-99.334495,34.644021]}},{"properties":{"name":"Love's #18","city":"Alva","latitude":36.797456,"zip":"73717","phone":"(580) 327-4500","longitude":-98.65256,"id":"adobjt13ea9q","location":null,"state":"Oklahoma"},"type":"Feature","geometry":{"type":"Point","coordinates":[-98.65256,36.797456]}},{"properties":{"name":"Love's #266","city":"Ardmore","latitude":34.188225,"zip":"73401","phone":"(580) 226-0973","longitude":-97.170773,"id":"adobjswfasp8","location":"I-35, Exit 32","state":"Oklahoma"},"type":"Feature","geometry":{"type":"Point","coordinates":[-97.170773,34.188225]}},{"properties":{"name":"Love's #54","city":"Ardmore","latitude":34.174068,"zip":"73401","phone":"(580) 223-6362","longitude":-97.14092,"id":"adobjt45i3j1","location":null,"state":"Oklahoma"},"type":"Feature","geometry":{"type":"Point","coordinates":[-97.14092,34.174068]}},{"properties":{"name":"Love's #268","city":"Atoka","latitude":34.366934,"zip":"74525","phone":"(580) 889-9394","longitude":-96.141025,"id":"adobjsx4yo6x","location":"Hwy 69, Exit Hwy 75","state":"Oklahoma"},"type":"Feature","geometry":{"type":"Point","coordinates":[-96.141025,34.366934]}},{"properties":{"name":"Love's #21","city":"Beaver","latitude":36.809774,"zip":"73932","phone":"(580) 625-4220","longitude":-100.51913,"id":"adobjsz5sdwb","location":null,"state":"Oklahoma"},"type":"Feature","geometry":{"type":"Point","coordinates":[-100.51913,36.809774]}},{"properties":{"name":"Love's #302","city":"Boise City","latitude":36.729194,"zip":"73933","phone":"(580) 544-4431","longitude":-102.5003,"id":"adobjt5uky8v","location":"Hwy 278, Exit Hwy 412","state":"Oklahoma"},"type":"Feature","geometry":{"type":"Point","coordinates":[-102.5003,36.729194]}},{"properties":{"name":"Love's #94","city":"Broken Bow","latitude":34.022267,"zip":"74728","phone":"(580) 584-3813","longitude":-94.739957,"id":"adobjt28dwnj","location":null,"state":"Oklahoma"},"type":"Feature","geometry":{"type":"Point","coordinates":[-94.739957,34.022267]}},{"properties":{"name":"Love's #36","city":"Buffalo","latitude":36.841361,"zip":"73834","phone":"(580) 735-2201","longitude":-99.63009,"id":"adobjt778vqc","location":null,"state":"Oklahoma"},"type":"Feature","geometry":{"type":"Point","coordinates":[-99.63009,36.841361]}},{"properties":{"name":"Love's #86","city":"Chickasha","latitude":35.037398,"zip":"73018","phone":"(405) 222-2355","longitude":-97.937327,"id":"adobjsvgbidl","location":null,"state":"Oklahoma"},"type":"Feature","geometry":{"type":"Point","coordinates":[-97.937327,35.037398]}},{"properties":{"name":"Love's #95","city":"Chickasha","latitude":35.051922,"zip":"73018","phone":"(405) 222-4452","longitude":-97.94584,"id":"adobjt5as25e","location":null,"state":"Oklahoma"},"type":"Feature","geometry":{"type":"Point","coordinates":[-97.94584,35.051922]}},{"properties":{"name":"Love's #295","city":"Chouteau","latitude":36.163483,"zip":"74337","phone":"(918) 476-4691","longitude":-95.342987,"id":"adobjszkd41v","location":"Hwy 69, Exit Hwy 412","state":"Oklahoma"},"type":"Feature","geometry":{"type":"Point","coordinates":[-95.342987,36.163483]}},{"properties":{"name":"Love's #248","city":"Clinton","latitude":35.51826,"zip":"73601","phone":"(580) 323-1022","longitude":-98.870888,"id":"adobjt12yd4l","location":"I-40, Exit 71","state":"Oklahoma"},"type":"Feature","geometry":{"type":"Point","coordinates":[-98.870888,35.51826]}},{"properties":{"name":"Love's #373","city":"Colbert","latitude":33.881314,"zip":"74730","phone":"(580) 296-5940","longitude":-96.500253,"id":"adobjt0s9vm9","location":"Hwy 69, Exit Platter Rd.","state":"Oklahoma"},"type":"Feature","geometry":{"type":"Point","coordinates":[-96.500253,33.881314]}},{"properties":{"name":"Love's #55","city":"Comanche","latitude":34.368249,"zip":"73529","phone":"(580) 439-6256","longitude":-97.963736,"id":"adobjt4qh3jc","location":null,"state":"Oklahoma"},"type":"Feature","geometry":{"type":"Point","coordinates":[-97.963736,34.368249]}},{"properties":{"name":"Love's #29","city":"Duncan","latitude":34.500686,"zip":"73533","phone":"(580) 252-8900","longitude":-97.947455,"id":"adobjsuhybb8","location":null,"state":"Oklahoma"},"type":"Feature","geometry":{"type":"Point","coordinates":[-97.947455,34.500686]}},{"properties":{"name":"Love's #68","city":"Durant","latitude":34.002079,"zip":"74702","phone":"(580) 924-9304","longitude":-96.373347,"id":"adobjt7eg7l3","location":null,"state":"Oklahoma"},"type":"Feature","geometry":{"type":"Point","coordinates":[-96.373347,34.002079]}},{"properties":{"name":"Love's #69","city":"Durant","latitude":33.992406,"zip":"74702","phone":"(580) 924-9287","longitude":-96.381474,"id":"adobjsvu6kf5","location":null,"state":"Oklahoma"},"type":"Feature","geometry":{"type":"Point","coordinates":[-96.381474,33.992406]}},{"properties":{"name":"Love's #114","city":"El Reno","latitude":35.508628,"zip":"73036","phone":"(405) 262-8813","longitude":-97.937649,"id":"adobjt7gh8tq","location":null,"state":"Oklahoma"},"type":"Feature","geometry":{"type":"Point","coordinates":[-97.937649,35.508628]}},{"properties":{"name":"Love's #201","city":"Elk City","latitude":35.423039,"zip":"73644","phone":"(580) 225-9162","longitude":-99.372528,"id":"adobjsyb04ze","location":"I-40, Exit 41","state":"Oklahoma"},"type":"Feature","geometry":{"type":"Point","coordinates":[-99.372528,35.423039]}},{"properties":{"name":"Love's #31","city":"Elk City","latitude":35.412046,"zip":"73644","phone":"(580) 225-5931","longitude":-99.416007,"id":"adobjsvehmqj","location":null,"state":"Oklahoma"},"type":"Feature","geometry":{"type":"Point","coordinates":[-99.416007,35.412046]}},{"properties":{"name":"Love's #253","city":"Erick","latitude":35.223877,"zip":"73645","phone":"(580) 526-3345","longitude":-99.869643,"id":"adobjsw3xbe1","location":"I-40, Exit 7","state":"Oklahoma"},"type":"Feature","geometry":{"type":"Point","coordinates":[-99.869643,35.223877]}},{"properties":{"name":"Love's #204","city":"Eufaula","latitude":35.305832,"zip":"74432","phone":"(918) 689-9444","longitude":-95.588248,"id":"adobjsxilaup","location":"Hwy 69, Exit Burks Rd.","state":"Oklahoma"},"type":"Feature","geometry":{"type":"Point","coordinates":[-95.588248,35.305832]}},{"properties":{"name":"Love's #15","city":"Fairview","latitude":36.272312,"zip":"73737","phone":"(580) 227-3363","longitude":-98.48015,"id":"adobjszgspd1","location":null,"state":"Oklahoma"},"type":"Feature","geometry":{"type":"Point","coordinates":[-98.48015,36.272312]}},{"properties":{"name":"Love's #85","city":"Guthrie","latitude":35.865466,"zip":"73044","phone":"(405) 282-1884","longitude":-97.425862,"id":"adobjsznysm2","location":null,"state":"Oklahoma"},"type":"Feature","geometry":{"type":"Point","coordinates":[-97.425862,35.865466]}},{"properties":{"name":"Love's #218","city":"Guthrie","latitude":35.878956,"zip":"73044","phone":"(405) 260-0850","longitude":-97.39613,"id":"adobjsy5998q","location":null,"state":"Oklahoma"},"type":"Feature","geometry":{"type":"Point","coordinates":[-97.39613,35.878956]}},{"properties":{"name":"Love's #19","city":"Guymon","latitude":36.677248,"zip":"73942","phone":"(580) 338-2414","longitude":-101.4813,"id":"adobjt06g560","location":null,"state":"Oklahoma"},"type":"Feature","geometry":{"type":"Point","coordinates":[-101.4813,36.677248]}},{"properties":{"name":"Love's #48","city":"Hennessey","latitude":36.102541,"zip":"73742","phone":"(405) 853-6636","longitude":-97.898929,"id":"adobjt8pvizw","location":null,"state":"Oklahoma"},"type":"Feature","geometry":{"type":"Point","coordinates":[-97.898929,36.102541]}},{"properties":{"name":"Love's #57","city":"Henryetta","latitude":35.439449,"zip":"74437","phone":"(918) 652-8934","longitude":-95.976804,"id":"adobjsz646t9","location":null,"state":"Oklahoma"},"type":"Feature","geometry":{"type":"Point","coordinates":[-95.976804,35.439449]}},{"properties":{"name":"Love's #385","city":"Hinton","latitude":35.526555,"zip":"73047","phone":"(405) 542-3836","longitude":-98.351492,"id":"adobjt7a91k3","location":"I-40, Exit 101","state":"Oklahoma"},"type":"Feature","geometry":{"type":"Point","coordinates":[-98.351492,35.526555]}},{"properties":{"name":"Love's #10","city":"Hollis","latitude":34.682126,"zip":"73550","phone":"(580) 688-2464","longitude":-99.914491,"id":"adobjt1y204f","location":null,"state":"Oklahoma"},"type":"Feature","geometry":{"type":"Point","coordinates":[-99.914491,34.682126]}},{"properties":{"name":"Love's #46","city":"Hooker","latitude":36.859012,"zip":"73945","phone":"(580) 652-2001","longitude":-101.20904,"id":"adobjsxjlfab","location":"Hwy 54","state":"Oklahoma"},"type":"Feature","geometry":{"type":"Point","coordinates":[-101.20904,36.859012]}},{"properties":{"name":"Love's #5","city":"Kingfisher","latitude":35.85947,"zip":"73750","phone":"(405) 375-5019","longitude":-97.932291,"id":"adobjt4aq3v3","location":null,"state":"Oklahoma"},"type":"Feature","geometry":{"type":"Point","coordinates":[-97.932291,35.85947]}},{"properties":{"name":"Love's #263","city":"Lawton","latitude":34.713757,"zip":"73501","phone":"(580) 529-2882","longitude":-98.401628,"id":"adobjsyw0mkj","location":"I-44, Exit 45","state":"Oklahoma"},"type":"Feature","geometry":{"type":"Point","coordinates":[-98.401628,34.713757]}},{"properties":{"name":"Love's #74","city":"Lindsay","latitude":34.83731,"zip":"73052","phone":"(405) 756-4826","longitude":-97.608794,"id":"adobjsxl5rar","location":null,"state":"Oklahoma"},"type":"Feature","geometry":{"type":"Point","coordinates":[-97.608794,34.83731]}},{"properties":{"name":"Love's #84","city":"Madill","latitude":34.086724,"zip":"73446","phone":"(580) 795-2612","longitude":-96.769831,"id":"adobjsy653mb","location":null,"state":"Oklahoma"},"type":"Feature","geometry":{"type":"Point","coordinates":[-96.769831,34.086724]}},{"properties":{"name":"Love's #33","city":"Mangum","latitude":34.876558,"zip":"73554","phone":"(580) 782-2603","longitude":-99.502906,"id":"adobjswbkgob","location":null,"state":"Oklahoma"},"type":"Feature","geometry":{"type":"Point","coordinates":[-99.502906,34.876558]}},{"properties":{"name":"Love's #13","city":"Marlow","latitude":34.656669,"zip":"73055","phone":"(580) 658-5798","longitude":-97.958098,"id":"adobjt8ytfhe","location":null,"state":"Oklahoma"},"type":"Feature","geometry":{"type":"Point","coordinates":[-97.958098,34.656669]}},{"properties":{"name":"Love's #56","city":"Marlow","latitude":34.640062,"zip":"73055","phone":"(580) 658-2362","longitude":-97.958286,"id":"adobjt5qgg1j","location":null,"state":"Oklahoma"},"type":"Feature","geometry":{"type":"Point","coordinates":[-97.958286,34.640062]}},{"properties":{"name":"Love's #252","city":"McLoud","latitude":35.381807,"zip":"74851","phone":"(405) 386-7536","longitude":-97.08836,"id":"adobjswg2uj2","location":null,"state":"Oklahoma"},"type":"Feature","geometry":{"type":"Point","coordinates":[-97.08836,35.381807]}},{"properties":{"name":"Love's #73","city":"Miami","latitude":36.871347,"zip":"74354","phone":"(918) 542-8702","longitude":-94.86786,"id":"adobjt6vmmjk","location":null,"state":"Oklahoma"},"type":"Feature","geometry":{"type":"Point","coordinates":[-94.86786,36.871347]}},{"properties":{"name":"Love's #260","city":"Norman","latitude":35.183634,"zip":"73072","phone":"(405) 364-0059","longitude":-97.49899,"id":"adobjsuantik","location":"I-35, Exit 106","state":"Oklahoma"},"type":"Feature","geometry":{"type":"Point","coordinates":[-97.49899,35.183634]}},{"properties":{"name":"Love's #274","city":"Okemah","latitude":35.420881,"zip":"74859","phone":"(918) 623-2024","longitude":-96.30056,"id":"adobjt4alebx","location":"I-40, Exit 221","state":"Oklahoma"},"type":"Feature","geometry":{"type":"Point","coordinates":[-96.30056,35.420881]}},{"properties":{"name":"Love's #203","city":"Oklahoma City","latitude":35.457659,"zip":"73128","phone":"(405) 789-0087","longitude":-97.688649,"id":"adobjsu37i98","location":"I-40, Exit 140","state":"Oklahoma"},"type":"Feature","geometry":{"type":"Point","coordinates":[-97.688649,35.457659]}},{"properties":{"name":"Love's #205","city":"Oklahoma City","latitude":35.594066,"zip":"73131","phone":"(405) 478-5766","longitude":-97.436685,"id":"adobjsvx7gso","location":"I-35, Exit 137","state":"Oklahoma"},"type":"Feature","geometry":{"type":"Point","coordinates":[-97.436685,35.594066]}},{"properties":{"name":"Love's #211","city":"Oklahoma City","latitude":35.377871,"zip":"73149","phone":"(405) 632-3566","longitude":-97.495873,"id":"adobjt4v0745","location":"I-35, Exit 120","state":"Oklahoma"},"type":"Feature","geometry":{"type":"Point","coordinates":[-97.495873,35.377871]}},{"properties":{"name":"Love's #123","city":"Oklahoma City","latitude":35.579725,"zip":"73120","phone":"(405) 752-4224","longitude":-97.549777,"id":"adobjt1e5own","location":null,"state":"Oklahoma"},"type":"Feature","geometry":{"type":"Point","coordinates":[-97.549777,35.579725]}},{"properties":{"name":"Love's #245","city":"Oklahoma City","latitude":35.3778326,"zip":"73189","phone":"(405) 686-1053","longitude":-97.5736456,"id":"adobjsycwkg8","location":null,"state":"Oklahoma"},"type":"Feature","geometry":{"type":"Point","coordinates":[-97.5736456,35.3778326]}},{"properties":{"name":"Love's #50","city":"Pauls Valley","latitude":34.739876,"zip":"73075","phone":"(405) 238-5861","longitude":-97.22278,"id":"adobjt744d3p","location":null,"state":"Oklahoma"},"type":"Feature","geometry":{"type":"Point","coordinates":[-97.22278,34.739876]}},{"properties":{"name":"Love's #452","city":"Pauls Valley","latitude":34.708611,"zip":"73075","phone":"(405) 207-9692","longitude":-97.242519,"id":"adobjt8myn09","location":"I-35, Exit 70","state":"Oklahoma"},"type":"Feature","geometry":{"type":"Point","coordinates":[-97.242519,34.708611]}},{"properties":{"name":"Love's #28","city":"Purcell","latitude":35.014805,"zip":"73080","phone":"(405) 527-9491","longitude":-97.366676,"id":"adobjt5w1uxo","location":null,"state":"Oklahoma"},"type":"Feature","geometry":{"type":"Point","coordinates":[-97.366676,35.014805]}},{"properties":{"name":"Love's #219","city":"Seminole","latitude":35.381641,"zip":"74868","phone":"(405) 382-7714","longitude":-96.670348,"id":"adobjt2uvuuv","location":"I-40, Exit 200","state":"Oklahoma"},"type":"Feature","geometry":{"type":"Point","coordinates":[-96.670348,35.381641]}},{"properties":{"name":"Love's #49","city":"Shawnee","latitude":35.341862,"zip":"74801","phone":"(405) 275-3263","longitude":-96.929385,"id":"adobjt8gjyni","location":null,"state":"Oklahoma"},"type":"Feature","geometry":{"type":"Point","coordinates":[-96.929385,35.341862]}},{"properties":{"name":"Love's #78","city":"Tahlequah","latitude":35.915552,"zip":"74464","phone":"(918) 456-0385","longitude":-94.968889,"id":"adobjsuyn3pb","location":null,"state":"Oklahoma"},"type":"Feature","geometry":{"type":"Point","coordinates":[-94.968889,35.915552]}},{"properties":{"name":"Love's #51","city":"Tecumseh","latitude":35.260391,"zip":"74873","phone":"(405) 598-6000","longitude":-96.93616,"id":"adobjt560lj6","location":null,"state":"Oklahoma"},"type":"Feature","geometry":{"type":"Point","coordinates":[-96.93616,35.260391]}},{"properties":{"name":"Love's #213","city":"Tonkawa","latitude":36.651021,"zip":"74653","phone":"(580) 628-5335","longitude":-97.342011,"id":"adobjszhuquy","location":"I-35, Exit 211","state":"Oklahoma"},"type":"Feature","geometry":{"type":"Point","coordinates":[-97.342011,36.651021]}},{"properties":{"name":"Love's #1","city":"Watonga","latitude":35.841512,"zip":"73772","phone":"(580) 623-4578","longitude":-98.415881,"id":"adobjt5lugte","location":null,"state":"Oklahoma"},"type":"Feature","geometry":{"type":"Point","coordinates":[-98.415881,35.841512]}},{"properties":{"name":"Love's #255","city":"Webber Falls","latitude":35.48604,"zip":"78059","phone":"(918) 464-2865","longitude":-95.149265,"id":"adobjt8s4lpm","location":"I-40, Exit 287","state":"Oklahoma"},"type":"Feature","geometry":{"type":"Point","coordinates":[-95.149265,35.48604]}},{"properties":{"name":"Love's #16","city":"Woodward","latitude":36.417812,"zip":"73801","phone":"(580) 256-3503","longitude":-99.384695,"id":"adobjsxak7v3","location":null,"state":"Oklahoma"},"type":"Feature","geometry":{"type":"Point","coordinates":[-99.384695,36.417812]}},{"properties":{"name":"Love's #47","city":"Woodward","latitude":36.432993,"zip":"73801","phone":"(580) 254-3644","longitude":-99.415187,"id":"adobjt3xhifu","location":null,"state":"Oklahoma"},"type":"Feature","geometry":{"type":"Point","coordinates":[-99.415187,36.432993]}},{"properties":{"name":"Love's #88","city":"Yukon","latitude":35.507526,"zip":"73099","phone":"(405) 354-9772","longitude":-97.759717,"id":"adobjsva0haq","location":null,"state":"Oklahoma"},"type":"Feature","geometry":{"type":"Point","coordinates":[-97.759717,35.507526]}},{"properties":{"name":"Love's #372","city":"Ontario","latitude":44.045823,"zip":"97914","phone":"(541) 823-8282","longitude":-116.977143,"id":"adobjt7mtjru","location":"I-84, Exit 374","state":"Oregon"},"type":"Feature","geometry":{"type":"Point","coordinates":[-116.977143,44.045823]}},{"properties":{"name":"Love's #312","city":"Roseburg","latitude":43.150503,"zip":"97470","phone":"(541) 679-1916","longitude":-123.367895,"id":"adobjt7ovwkv","location":"I-5, Exit 119","state":"Oregon"},"type":"Feature","geometry":{"type":"Point","coordinates":[-123.367895,43.150503]}},{"properties":{"name":"Love's #449","city":"Troutdale","latitude":45.5436123,"zip":"97060","phone":"(503) 665-7741","longitude":-122.391721,"id":"adobjsvx6mer","location":"I-84, Exit 17","state":"Oregon"},"type":"Feature","geometry":{"type":"Point","coordinates":[-122.391721,45.5436123]}},{"properties":{"name":"Love's #407","city":"Carlisle","latitude":40.230349,"zip":"17013","phone":"(717) 240-0055","longitude":-77.144086,"id":"adobjsyg6uag","location":"I-81, Exit 52B","state":"Pennsylvania"},"type":"Feature","geometry":{"type":"Point","coordinates":[-77.144086,40.230349]}},{"properties":{"name":"Love's #358","city":"Hamburg","latitude":40.517378,"zip":"19526","phone":"(610) 488-8840","longitude":-76.111101,"id":"adobjt1rwrx4","location":"I-78, Exit 23","state":"Pennsylvania"},"type":"Feature","geometry":{"type":"Point","coordinates":[-76.111101,40.517378]}},{"properties":{"name":"Love's #366","city":"Jonestown","latitude":40.450148,"zip":"17038","phone":"(717) 861-7390","longitude":-76.515328,"id":"adobjt4mcjq0","location":"I-81, Exit 90","state":"Pennsylvania"},"type":"Feature","geometry":{"type":"Point","coordinates":[-76.515328,40.450148]}},{"properties":{"name":"Love's #324","city":"Mifflinville","latitude":41.026768,"zip":"18631","phone":"(570) 752-9013","longitude":-76.318757,"id":"adobjsxqno8u","location":"I-80, Exit 242","state":"Pennsylvania"},"type":"Feature","geometry":{"type":"Point","coordinates":[-76.318757,41.026768]}},{"properties":{"name":"Love's #397","city":"Blacksburg","latitude":35.156688,"zip":"29702","phone":"(864) 839-1543","longitude":-81.478429,"id":"adobjt2o3753","location":"I-85, Exit 104","state":"South Carolina"},"type":"Feature","geometry":{"type":"Point","coordinates":[-81.478429,35.156688]}},{"properties":{"name":"Love's #371","city":"Dillon","latitude":34.419584,"zip":"29536","phone":"(843) 774-2255","longitude":-79.41594,"id":"adobjt1zfjwn","location":"I-95, Exit 190","state":"South Carolina"},"type":"Feature","geometry":{"type":"Point","coordinates":[-79.41594,34.419584]}},{"properties":{"name":"Love's #387","city":"Fair Play","latitude":34.50482,"zip":"29643","phone":"(864) 287-5589","longitude":-82.96193,"id":"adobjsu4m4d3","location":"I-85, Exit 4","state":"South Carolina"},"type":"Feature","geometry":{"type":"Point","coordinates":[-82.96193,34.50482]}},{"properties":{"name":"Love's #333","city":"Ft. Mill","latitude":35.000639,"zip":"29708","phone":"(803) 802-7130","longitude":-80.977899,"id":"adobjsxaebwk","location":"I-77, Exit 83","state":"South Carolina"},"type":"Feature","geometry":{"type":"Point","coordinates":[-80.977899,35.000639]}},{"properties":{"name":"Love's #396","city":"Newberry","latitude":34.29477,"zip":"29108","phone":"(803) 321-1125","longitude":-81.54578,"id":"adobjt7rmjlf","location":"I-26, Exit 76","state":"South Carolina"},"type":"Feature","geometry":{"type":"Point","coordinates":[-81.54578,34.29477]}},{"properties":{"name":"Love's #326","city":"Orangeburg","latitude":33.457976,"zip":"29115","phone":"(803) 534-1663","longitude":-80.735242,"id":"adobjt78012w","location":"I-26, Exit 154A","state":"South Carolina"},"type":"Feature","geometry":{"type":"Point","coordinates":[-80.735242,33.457976]}},{"properties":{"name":"Love's #445","city":"Sioux Falls","latitude":43.604138,"zip":"57104","phone":"(605) 332-7611","longitude":-96.712132,"id":"adobjsyugdxk","location":"I-90, Exit 399","state":"South Dakota"},"type":"Feature","geometry":{"type":"Point","coordinates":[-96.712132,43.604138]}},{"properties":{"name":"Love's #330","city":"Baxter","latitude":36.139694,"zip":"38544","phone":"(931) 858- 6150","longitude":-85.63023,"id":"adobjt4kq5uc","location":"I-40, Exit 280","state":"Tennessee"},"type":"Feature","geometry":{"type":"Point","coordinates":[-85.63023,36.139694]}},{"properties":{"name":"Love's #364","city":"Charleston","latitude":35.290197,"zip":"37310","phone":"(423) 780-9171","longitude":-84.817591,"id":"adobjsydszg7","location":"I-75, Exit 33","state":"Tennessee"},"type":"Feature","geometry":{"type":"Point","coordinates":[-84.817591,35.290197]}},{"properties":{"name":"Love's #314","city":"Christiana","latitude":35.724209,"zip":"37037","phone":"(615) 904-7303","longitude":-86.319661,"id":"adobjsxdabnf","location":"I-24, Exit 89","state":"Tennessee"},"type":"Feature","geometry":{"type":"Point","coordinates":[-86.319661,35.724209]}},{"properties":{"name":"Love's #346","city":"Columbia","latitude":35.643953,"zip":"38401","phone":"(931) 388-1217","longitude":-86.891465,"id":"adobjt3t0ofg","location":"I-65, Exit 46","state":"Tennessee"},"type":"Feature","geometry":{"type":"Point","coordinates":[-86.891465,35.643953]}},{"properties":{"name":"Love's #306","city":"Dandridge","latitude":36.011677,"zip":"37725","phone":"(865) 397-5040","longitude":-83.532051,"id":"adobjsx65odu","location":"I-40, Exit 412","state":"Tennessee"},"type":"Feature","geometry":{"type":"Point","coordinates":[-83.532051,36.011677]}},{"properties":{"name":"Love's #369","city":"Dickson","latitude":35.994,"zip":"37055","phone":"(615) 441-2691","longitude":-87.48874,"id":"adobjsuu64ln","location":"I-40, Exit 163","state":"Tennessee"},"type":"Feature","geometry":{"type":"Point","coordinates":[-87.48874,35.994]}},{"properties":{"name":"Love's #244","city":"Jackson","latitude":35.679204,"zip":"38305","phone":"(731) 422-0901","longitude":-88.74243,"id":"adobjszt4k8q","location":"I-40, Exit 87","state":"Tennessee"},"type":"Feature","geometry":{"type":"Point","coordinates":[-88.74243,35.679204]}},{"properties":{"name":"Love's #344","city":"Memphis","latitude":35.075135,"zip":"37118","phone":"(901) 433-7205","longitude":-89.95095,"id":"adobjt2q697o","location":"Hwy 78, Exit 21","state":"Tennessee"},"type":"Feature","geometry":{"type":"Point","coordinates":[-89.95095,35.075135]}},{"properties":{"name":"Love's #429","city":"Nashville","latitude":36.205575,"zip":"37207","phone":"(615) 226-6393","longitude":-86.771637,"id":"adobjt89uo1x","location":"I-65, Exit 87","state":"Tennessee"},"type":"Feature","geometry":{"type":"Point","coordinates":[-86.771637,36.205575]}},{"properties":{"name":"Love's #200","city":"Amarillo","latitude":35.191927,"zip":"79120","phone":"(806) 373-7775","longitude":-101.760945,"id":"adobjt2yd7lm","location":"I-40E, Exit 74","state":"Texas"},"type":"Feature","geometry":{"type":"Point","coordinates":[-101.760945,35.191927]}},{"properties":{"name":"Love's #250","city":"Amarillo","latitude":35.189231,"zip":"79124","phone":"(806) 358-2551","longitude":-102.011074,"id":"adobjt56lo5k","location":"I-40, Exit 60","state":"Texas"},"type":"Feature","geometry":{"type":"Point","coordinates":[-102.011074,35.189231]}},{"properties":{"name":"Love's #261","city":"Amarillo","latitude":35.117693,"zip":"79110","phone":"(806) 352-9501","longitude":-101.907173,"id":"adobjsysozw0","location":"I-27, Exit 116","state":"Texas"},"type":"Feature","geometry":{"type":"Point","coordinates":[-101.907173,35.117693]}},{"properties":{"name":"Love's #299","city":"Anna","latitude":33.345047,"zip":"75409","phone":"(972) 924-3683","longitude":-96.584193,"id":"adobjtaa9mbx","location":"Hwy 75, Exit FM 455","state":"Texas"},"type":"Feature","geometry":{"type":"Point","coordinates":[-96.584193,33.345047]}},{"properties":{"name":"Love's #447","city":"Anthony","latitude":31.997879,"zip":"79821","phone":"(915) 886-3915","longitude":-106.581219,"id":"adobjt3nolub","location":"I-10, Exit 0","state":"Texas"},"type":"Feature","geometry":{"type":"Point","coordinates":[-106.581219,31.997879]}},{"properties":{"name":"Love's #401","city":"Baytown","latitude":29.797963,"zip":"77521","phone":"(281) 426-6569","longitude":-95.032623,"id":"adobjt5ro7bg","location":"I-10, Exit 789","state":"Texas"},"type":"Feature","geometry":{"type":"Point","coordinates":[-95.032623,29.797963]}},{"properties":{"name":"Love's #229","city":"Claude","latitude":35.218765,"zip":"79068","phone":"(806) 537-3393","longitude":-101.381536,"id":"adobjszezzbn","location":"I-40, Exit 96","state":"Texas"},"type":"Feature","geometry":{"type":"Point","coordinates":[-101.381536,35.218765]}},{"properties":{"name":"Love's #293","city":"Cleveland","latitude":30.353046,"zip":"77328","phone":"(281) 593-0239","longitude":-95.09049,"id":"adobjt41qkf0","location":"Hwy 59, Exit FM 2025","state":"Texas"},"type":"Feature","geometry":{"type":"Point","coordinates":[-95.09049,30.353046]}},{"properties":{"name":"Love's #464","city":"Comfort","latitude":29.98203,"zip":"78013","phone":"(830) 995-2770","longitude":-98.903241,"id":"adobjsvymlq1","location":"I-10, Exit 523","state":"Texas"},"type":"Feature","geometry":{"type":"Point","coordinates":[-98.903241,29.98203]}},{"properties":{"name":"Love's #294","city":"Dallas","latitude":32.640809,"zip":"75232","phone":"(972) 224-5970","longitude":-96.839275,"id":"adobjsxcde75","location":"I-20, Exit 466","state":"Texas"},"type":"Feature","geometry":{"type":"Point","coordinates":[-96.839275,32.640809]}},{"properties":{"name":"Love's #217","city":"Denton","latitude":33.297819,"zip":"76207","phone":"(940) 382-3608","longitude":-97.176974,"id":"adobjt2pckpw","location":"I-35, Exit 473","state":"Texas"},"type":"Feature","geometry":{"type":"Point","coordinates":[-97.176974,33.297819]}},{"properties":{"name":"Love's #284","city":"Edinburg","latitude":26.385897,"zip":"78539","phone":"(956) 316-1782","longitude":-98.141242,"id":"adobjt19emgi","location":"Hwy 281, Exit FM 2812","state":"Texas"},"type":"Feature","geometry":{"type":"Point","coordinates":[-98.141242,26.385897]}},{"properties":{"name":"Love's #297","city":"Edna","latitude":28.988878,"zip":"77957","phone":"(361) 782-6700","longitude":-96.62541,"id":"adobjt64e71q","location":"Hwy 59, Exit Milby Rd.","state":"Texas"},"type":"Feature","geometry":{"type":"Point","coordinates":[-96.62541,28.988878]}},{"properties":{"name":"Love's #214","city":"El Paso","latitude":31.65976,"zip":"79928","phone":"(915) 852-4021","longitude":-106.237409,"id":"adobjt4evixg","location":"I-10, Exit 37","state":"Texas"},"type":"Feature","geometry":{"type":"Point","coordinates":[-106.237409,31.65976]}},{"properties":{"name":"Love's #288","city":"Fairfield","latitude":31.728217,"zip":"75840","phone":"(903) 389-3967","longitude":-96.182736,"id":"adobjt08t73w","location":"I-45, Exit 198","state":"Texas"},"type":"Feature","geometry":{"type":"Point","coordinates":[-96.182736,31.728217]}},{"properties":{"name":"Love's #281","city":"Ft. Worth","latitude":32.598737,"zip":"76140","phone":"(817) 293-5118","longitude":-97.317578,"id":"adobjsz7kjfe","location":"I-35W, Exit 40","state":"Texas"},"type":"Feature","geometry":{"type":"Point","coordinates":[-97.317578,32.598737]}},{"properties":{"name":"Love's #375","city":"Hearne","latitude":30.8725047,"zip":"77859","phone":"(979) 279-9700","longitude":-96.5884696,"id":"adobjt18l72b","location":null,"state":"Texas"},"type":"Feature","geometry":{"type":"Point","coordinates":[-96.5884696,30.8725047]}},{"properties":{"name":"Love's #231","city":"Hillsboro","latitude":32.00952,"zip":"76645","phone":"(254) 582-2101","longitude":-97.093528,"id":"adobjt463e5y","location":"I-35, Exit 368A","state":"Texas"},"type":"Feature","geometry":{"type":"Point","coordinates":[-97.093528,32.00952]}},{"properties":{"name":"Love's #315","city":"Houston","latitude":29.798591,"zip":"77013","phone":"(713) 670-0235","longitude":-95.269023,"id":"adobjt0hk5v6","location":"Loop 610, Exit 24A","state":"Texas"},"type":"Feature","geometry":{"type":"Point","coordinates":[-95.269023,29.798591]}},{"properties":{"name":"Love's #419","city":"Houston","latitude":29.797437,"zip":"77009","phone":"(713) 694-9898","longitude":-95.369817,"id":"adobjt1p7dgl","location":"I-45, Exit 50","state":"Texas"},"type":"Feature","geometry":{"type":"Point","coordinates":[-95.369817,29.797437]}},{"properties":{"name":"Love's #331","city":"Hutchins","latitude":32.623952,"zip":"75141","phone":"(972) 225-3560","longitude":-96.69378,"id":"adobjsxgemcd","location":"I-45, Exit 272","state":"Texas"},"type":"Feature","geometry":{"type":"Point","coordinates":[-96.69378,32.623952]}},{"properties":{"name":"Love's #234","city":"Katy","latitude":29.779813,"zip":"77494","phone":"(281) 391-5556","longitude":-95.881907,"id":"adobjt0opjoi","location":"I-10, Exit 737","state":"Texas"},"type":"Feature","geometry":{"type":"Point","coordinates":[-95.881907,29.779813]}},{"properties":{"name":"Love's #327","city":"Kingsville","latitude":27.529889,"zip":"78363","phone":"(361) 592-7210","longitude":-97.842143,"id":"adobjsxdj704","location":"Hwy 77, Exit Corral Rd.","state":"Texas"},"type":"Feature","geometry":{"type":"Point","coordinates":[-97.842143,27.529889]}},{"properties":{"name":"Love's #298","city":"Laredo","latitude":28.045577,"zip":"78019","phone":"(956) 948-7044","longitude":-99.348797,"id":"adobjt93hbha","location":"I-35, Exit 39","state":"Texas"},"type":"Feature","geometry":{"type":"Point","coordinates":[-99.348797,28.045577]}},{"properties":{"name":"Love's #473","city":"Leary","latitude":33.465864,"zip":"75501","phone":"(903) 838-0856","longitude":-94.219183,"id":"adobjt0zrvjc","location":"I-30, Exit 213","state":"Texas"},"type":"Feature","geometry":{"type":"Point","coordinates":[-94.219183,33.465864]}},{"properties":{"name":"Love's #290","city":"Lufkin","latitude":31.328488,"zip":"75901","phone":"(936) 637-4928","longitude":-94.689716,"id":"adobjta4vkwl","location":"Loop 287, Exit 842","state":"Texas"},"type":"Feature","geometry":{"type":"Point","coordinates":[-94.689716,31.328488]}},{"properties":{"name":"Love's #264","city":"Luling","latitude":29.653691,"zip":"78648","phone":"(830) 875-5667","longitude":-97.592282,"id":"adobjsx3m5ht","location":"I-10, Exit 632","state":"Texas"},"type":"Feature","geometry":{"type":"Point","coordinates":[-97.592282,29.653691]}},{"properties":{"name":"Love's #247","city":"Memphis","latitude":34.723061,"zip":"79245","phone":"(806) 259-2300","longitude":-100.533731,"id":"adobjt8cny6p","location":"Hwy 287, Exit Hwy 256","state":"Texas"},"type":"Feature","geometry":{"type":"Point","coordinates":[-100.533731,34.723061]}},{"properties":{"name":"Love's #216","city":"Midlothian","latitude":32.482947,"zip":"76065","phone":"(972)-775-2820","longitude":-97.011128,"id":"adobjt21jdbw","location":"Hwy 67, Exit Hwy 287","state":"Texas"},"type":"Feature","geometry":{"type":"Point","coordinates":[-97.011128,32.482947]}},{"properties":{"name":"Love's #279","city":"Mt. Vernon","latitude":33.163946,"zip":"75457","phone":"(903) 537-7696","longitude":-95.218039,"id":"adobjt6utl7q","location":"I-30, Exit 147","state":"Texas"},"type":"Feature","geometry":{"type":"Point","coordinates":[-95.218039,33.163946]}},{"properties":{"name":"Love's #471","city":"Natalia","latitude":29.184729,"zip":"78059","phone":"(830) 663-5540","longitude":-98.84545,"id":"adobjsvri7y2","location":"I-35, Exit 127","state":"Texas"},"type":"Feature","geometry":{"type":"Point","coordinates":[-98.84545,29.184729]}},{"properties":{"name":"Love's #339","city":"Odessa","latitude":31.817324,"zip":"79766","phone":"(432) 335-7062","longitude":-102.380801,"id":"adobjt4yaaa1","location":"I-20, Exit 115","state":"Texas"},"type":"Feature","geometry":{"type":"Point","coordinates":[-102.380801,31.817324]}},{"properties":{"name":"Love's #270","city":"Ranger","latitude":32.441748,"zip":"76470","phone":"(254) 647-3700","longitude":-98.694499,"id":"adobjt83k0y5","location":"I-20, Exit 349","state":"Texas"},"type":"Feature","geometry":{"type":"Point","coordinates":[-98.694499,32.441748]}},{"properties":{"name":"Love's #380","city":"Rhome","latitude":33.0324,"zip":"76078","phone":"(817) 636-0270","longitude":-97.2901,"id":"adobjt9xvhau","location":null,"state":"Texas"},"type":"Feature","geometry":{"type":"Point","coordinates":[-97.2901,33.0324]}},{"properties":{"name":"Love's #283","city":"Rockwall","latitude":32.918189,"zip":"75075","phone":"(972) 722-3178","longitude":-96.419311,"id":"adobjt7aagi6","location":"I-30, Exit 70","state":"Texas"},"type":"Feature","geometry":{"type":"Point","coordinates":[-96.419311,32.918189]}},{"properties":{"name":"Love's #242","city":"San Antonio","latitude":29.31101,"zip":"78073","phone":"(210) 623-2329","longitude":-98.617826,"id":"adobjt9yqxqn","location":"I-35, Exit 144","state":"Texas"},"type":"Feature","geometry":{"type":"Point","coordinates":[-98.617826,29.31101]}},{"properties":{"name":"Love's #463","city":"Seguin","latitude":29.560811,"zip":"78155","phone":"(830) 372-6190","longitude":-98.034476,"id":"adobjt3j0jns","location":"I-10, Exit 604","state":"Texas"},"type":"Feature","geometry":{"type":"Point","coordinates":[-98.034476,29.560811]}},{"properties":{"name":"Love's #475","city":"Sweetwater","latitude":32.450422,"zip":"79556","phone":"(325) 235-1240","longitude":-100.441752,"id":"adobjt5k9diq","location":"I-20, Exit 242","state":"Texas"},"type":"Feature","geometry":{"type":"Point","coordinates":[-100.441752,32.450422]}},{"properties":{"name":"Love's #342","city":"Three Rivers","latitude":28.520703,"zip":"78071","phone":"(361) 786-2523","longitude":-98.185,"id":"adobjt9vlb7w","location":"I-37, Exit 72","state":"Texas"},"type":"Feature","geometry":{"type":"Point","coordinates":[-98.185,28.520703]}},{"properties":{"name":"Love's #287","city":"Van","latitude":32.50828,"zip":"75790","phone":"(903) 963-7341","longitude":-95.642465,"id":"adobjt8ja75y","location":"I-20, Exit 540","state":"Texas"},"type":"Feature","geometry":{"type":"Point","coordinates":[-95.642465,32.50828]}},{"properties":{"name":"Love's #256","city":"Van Horn","latitude":31.040102,"zip":"79855","phone":"(432) 283-2881","longitude":-104.819253,"id":"adobjt5n626p","location":"I-10, Exit 140B","state":"Texas"},"type":"Feature","geometry":{"type":"Point","coordinates":[-104.819253,31.040102]}},{"properties":{"name":"Love's #233","city":"Waller","latitude":30.064458,"zip":"77484","phone":"(936)372-3449","longitude":-95.905556,"id":"adobjsvxom75","location":"Hwy 290, Exit FM 2920","state":"Texas"},"type":"Feature","geometry":{"type":"Point","coordinates":[-95.905556,30.064458]}},{"properties":{"name":"Love's #273","city":"Weatherford","latitude":32.742896,"zip":"76086","phone":"(817) 594-2755","longitude":-97.742837,"id":"adobjt1j8iu1","location":"I-20, Exit 410","state":"Texas"},"type":"Feature","geometry":{"type":"Point","coordinates":[-97.742837,32.742896]}},{"properties":{"name":"Love's #269","city":"Wichita Falls","latitude":33.886704,"zip":"76301","phone":"(940) 766-6098","longitude":-98.468811,"id":"adobjt7t6gai","location":"Hwy 287, Exit FM 1124","state":"Texas"},"type":"Feature","geometry":{"type":"Point","coordinates":[-98.468811,33.886704]}},{"properties":{"name":"Love's #468","city":"Willis","latitude":30.4366936,"zip":"77318","phone":"(936) 856-5085","longitude":-95.498411,"id":"adobjsuvm6hv","location":"I-45, Exit 95","state":"Texas"},"type":"Feature","geometry":{"type":"Point","coordinates":[-95.498411,30.4366936]}},{"properties":{"name":"Love's #335","city":"Cedar City","latitude":37.725785,"zip":"84720","phone":"(435) 867-9888","longitude":-113.051367,"id":"adobjt9mg333","location":"I-15, Exit 62","state":"Utah"},"type":"Feature","geometry":{"type":"Point","coordinates":[-113.051367,37.725785]}},{"properties":{"name":"Love's #436","city":"Salt Lake City","latitude":40.769949,"zip":"84116","phone":"(801) 239-1100","longitude":-111.939921,"id":"adobjsy104yy","location":"I-80, Exit 118","state":"Utah"},"type":"Feature","geometry":{"type":"Point","coordinates":[-111.939921,40.769949]}},{"properties":{"name":"Love's #399","city":"Lambsburg","latitude":36.578653,"zip":"24351","phone":"(276) 755-3117","longitude":-80.74052,"id":"adobjt4vsq17","location":"I-77, Exit 1","state":"Virginia"},"type":"Feature","geometry":{"type":"Point","coordinates":[-80.74052,36.578653]}},{"properties":{"name":"Love's #239","city":"Max Meadows","latitude":36.951409,"zip":"24360","phone":"(276) 637-3124","longitude":-80.883067,"id":"adobjsub5w3j","location":"I-81, Exit 84","state":"Virginia"},"type":"Feature","geometry":{"type":"Point","coordinates":[-80.883067,36.951409]}},{"properties":{"name":"Love's #435","city":"Ruther Glen","latitude":37.937868,"zip":"22546","phone":"(804) 448-0102","longitude":-77.465815,"id":"adobjt6buem3","location":"I-95, Exit 104","state":"Virginia"},"type":"Feature","geometry":{"type":"Point","coordinates":[-77.465815,37.937868]}},{"properties":{"name":"Love's #317","city":"Skippers","latitude":36.605447,"zip":"23879","phone":"(434) 336-0203","longitude":-77.560647,"id":"adobjt196ypm","location":"I-95, Exit 4","state":"Virginia"},"type":"Feature","geometry":{"type":"Point","coordinates":[-77.560647,36.605447]}},{"properties":{"name":"Love's #469","city":"South Hill","latitude":36.748373,"zip":"23970","phone":"(434) 584-0077","longitude":-78.098214,"id":"adobjsvchqaz","location":"I-85, Exit 15","state":"Virginia"},"type":"Feature","geometry":{"type":"Point","coordinates":[-78.098214,36.748373]}},{"properties":{"name":"Love's #305","city":"Tom's Brook","latitude":38.96563,"zip":"22660","phone":"(540) 436-8048","longitude":-78.439457,"id":"adobjszn45te","location":"I-81, Exit 291","state":"Virginia"},"type":"Feature","geometry":{"type":"Point","coordinates":[-78.439457,38.96563]}},{"properties":{"name":"Love's #413","city":"Ellensburg","latitude":47.007647,"zip":"98926","phone":"(509) 925-5200","longitude":-120.585862,"id":"adobjt6fnhwn","location":"I-90, Exit 106","state":"Washington"},"type":"Feature","geometry":{"type":"Point","coordinates":[-120.585862,47.007647]}},{"properties":{"name":"Love's #454","city":"Napavine","latitude":46.5745496,"zip":"98532","phone":"(360) 748-6597","longitude":-122.9081782,"id":"adobjt1ztdhk","location":"I-5, Exit 72","state":"Washington"},"type":"Feature","geometry":{"type":"Point","coordinates":[-122.9081782,46.5745496]}},{"properties":{"name":"Love's #448","city":"Tacoma","latitude":47.245328,"zip":"98424","phone":"(253) 922-8884","longitude":-122.384434,"id":"adobjt38ydab","location":"I-5, Exit 136","state":"Washington"},"type":"Feature","geometry":{"type":"Point","coordinates":[-122.384434,47.245328]}},{"properties":{"name":"Love's #378","city":"Ripley","latitude":38.760325,"zip":"25271","phone":"(304) 372-5250","longitude":-81.69311,"id":"adobjt4cb4nn","location":"I-77, Exit 132","state":"West Virginia"},"type":"Feature","geometry":{"type":"Point","coordinates":[-81.69311,38.760325]}},{"properties":{"name":"Love's #432","city":"Oak Creek","latitude":42.8711688,"zip":"53154","phone":"(414) 761-0482","longitude":-87.940847,"id":"adobjsxp9iix","location":"I-94, Exit 322","state":"Wisconsin"},"type":"Feature","geometry":{"type":"Point","coordinates":[-87.940847,42.8711688]}},{"properties":{"name":"Love's #345","city":"Oakdale","latitude":43.961187,"zip":"54660","phone":"(608) 372-3820","longitude":-90.378159,"id":"adobjsv63hh6","location":"I-90, Exit 48","state":"Wisconsin"},"type":"Feature","geometry":{"type":"Point","coordinates":[-90.378159,43.961187]}},{"properties":{"name":"Love's #220","city":"Cheyenne","latitude":41.098166,"zip":"82007","phone":"(307) 632-7902","longitude":-104.848606,"id":"adobjt5slq2k","location":"I-25, Exit 7","state":"Wyoming"},"type":"Feature","geometry":{"type":"Point","coordinates":[-104.848606,41.098166]}},{"properties":{"name":"Love's #310","city":"Wamsutter","latitude":41.675893,"zip":"82336","phone":"(307) 324-0087","longitude":-107.982457,"id":"adobjsw5croa","location":"I-80, Exit 173","state":"Wyoming"},"type":"Feature","geometry":{"type":"Point","coordinates":[-107.982457,41.675893]}}],"is_temporal":false,"author":{"url":"http://www.loves.com/","metadata":"","contact_name":"","contact_address":"","source":"Love's Travel Stops Country Stores","contact_phone":""},"source":"http://www.loves.com/","pagination":{"sort":null,"start":0,"total":300,"limit":1000000},"state":"complete","tags":"","published":"2014-08-16T21:01:13-04:00","id":346721}