{"type":"FeatureCollection","data_type":"Dataset","url_type":null,"permissions":[{"permissions":{"download":true,"view":true},"group_id":"everyone"}],"classification":null,"title":"Us_new_Dest_JBA5","count":55,"stream_id":346726,"contributor":{"url":"http://geocommons.com/users/69969","name":"martona"},"data_attributes":null,"calculation_params":null,"icon_link":null,"link":"http://geocommons.com/overlays/346726.json","extent":[-122.083,19.1133,-63.6167,53.4431],"geometry_types":["point"],"unique_name":null,"name":"Us_new_Dest_JBA5","feature_count":55,"description":"","next_feature":null,"is_raster":false,"short_classification":"Y","stats":{"latitude":{"max":53.4431,"variance":31.747781201798,"mean":38.3759072727273,"stdev":5.63451694484966,"min":19.1133,"median":38.5667},"values":{"max":2,"variance":0.0525252525252525,"mean":1.05454545454545,"stdev":0.229183883650776,"min":1,"median":1},"longitude":{"max":-63.6167,"variance":277.042197100256,"mean":-84.4087781818182,"stdev":16.6445846178346,"min":-122.0833,"median":-77.9039}},"features":[{"properties":{"city":"AKRON","latitude":40.8747,"country":"US","city code":"CAK","values":1,"longitude":-81.8869,"id":"adobs7lejd3r"},"type":"Feature","geometry":{"type":"Point","coordinates":[-81.8869,40.8747]}},{"properties":{"city":"ALBANY","latitude":42.7458,"country":"US","city code":"ALB","values":1,"longitude":-73.8053,"id":"adobs7wor3bk"},"type":"Feature","geometry":{"type":"Point","coordinates":[-73.8053,42.7458]}},{"properties":{"city":"ALLENTOWN","latitude":40.6547,"country":"US","city code":"ABE","values":1,"longitude":-75.4383,"id":"adobs7uduwa6"},"type":"Feature","geometry":{"type":"Point","coordinates":[-75.4383,40.6547]}},{"properties":{"city":"ASHEVILLE","latitude":35.435,"country":"US","city code":"AVL","values":1,"longitude":-82.5411,"id":"adobs7muubqi"},"type":"Feature","geometry":{"type":"Point","coordinates":[-82.5411,35.435]}},{"properties":{"city":"AUGUSTA","latitude":33.3692,"country":"US","city code":"AGS","values":1,"longitude":-81.9644,"id":"adobs80og8dv"},"type":"Feature","geometry":{"type":"Point","coordinates":[-81.9644,33.3692]}},{"properties":{"city":"BAKERSFIELD","latitude":35.43,"country":"US","city code":"BFL","values":1,"longitude":-119.0522,"id":"adobs7t0yst9"},"type":"Feature","geometry":{"type":"Point","coordinates":[-119.0522,35.43]}},{"properties":{"city":"BANGOR","latitude":44.8078,"country":"US","city code":"BGR","values":1,"longitude":-68.8278,"id":"adobs7yzb391"},"type":"Feature","geometry":{"type":"Point","coordinates":[-68.8278,44.8078]}},{"properties":{"city":"BINGHAMTON","latitude":42.2014,"country":"US","city code":"BGM","values":1,"longitude":-75.9692,"id":"adobs7lgiey8"},"type":"Feature","geometry":{"type":"Point","coordinates":[-75.9692,42.2014]}},{"properties":{"city":"BOISE","latitude":43.5653,"country":"US","city code":"BOI","values":1,"longitude":-116.225,"id":"adobs7yehmix"},"type":"Feature","geometry":{"type":"Point","coordinates":[-116.225,43.5653]}},{"properties":{"city":"BURBANK CAL","latitude":34.2,"country":"US","city code":"BUR","values":1,"longitude":-118.3578,"id":"adobs7ylrj2q"},"type":"Feature","geometry":{"type":"Point","coordinates":[-118.3578,34.2]}},{"properties":{"city":"BURLINGTON","latitude":44.4728,"country":"US","city code":"BTV","values":1,"longitude":-73.1531,"id":"adobs7orxhkw"},"type":"Feature","geometry":{"type":"Point","coordinates":[-73.1531,44.4728]}},{"properties":{"city":"DAYTONA BEACH","latitude":29.1825,"country":"US","city code":"DAB","values":1,"longitude":-81.0528,"id":"adobs7mycxel"},"type":"Feature","geometry":{"type":"Point","coordinates":[-81.0528,29.1825]}},{"properties":{"city":"EDMONTON","latitude":53.4431,"country":"CA","city code":"YEA","values":1,"longitude":-113.5525,"id":"adobs7p73eye"},"type":"Feature","geometry":{"type":"Point","coordinates":[-113.5525,53.4431]}},{"properties":{"city":"ELMIRA","latitude":42.1608,"country":"US","city code":"ELM","values":1,"longitude":-76.8953,"id":"adobs7ncmrx9"},"type":"Feature","geometry":{"type":"Point","coordinates":[-76.8953,42.1608]}},{"properties":{"city":"ERIE","latitude":42.08,"country":"US","city code":"ERI","values":1,"longitude":-80.1786,"id":"adobs7z85a8v"},"type":"Feature","geometry":{"type":"Point","coordinates":[-80.1786,42.08]}},{"properties":{"city":"FAYETTEVILLE","latitude":35.0,"country":"US","city code":"FAY","values":1,"longitude":-78.3667,"id":"adobs7qukpfk"},"type":"Feature","geometry":{"type":"Point","coordinates":[-78.3667,35.0]}},{"properties":{"city":"FLORENCE","latitude":34.1889,"country":"US","city code":"FLO","values":1,"longitude":-79.7244,"id":"adobs7u5m19q"},"type":"Feature","geometry":{"type":"Point","coordinates":[-79.7244,34.1889]}},{"properties":{"city":"GRAND CANYON","latitude":35.9525,"country":"US","city code":"GCN","values":1,"longitude":-112.1461,"id":"adobs7szllnu"},"type":"Feature","geometry":{"type":"Point","coordinates":[-112.1461,35.9525]}},{"properties":{"city":"GREENVILLE","latitude":36.0667,"country":"US","city code":"PGV","values":1,"longitude":-76.65,"id":"adobs7syxmxi"},"type":"Feature","geometry":{"type":"Point","coordinates":[-76.65,36.0667]}},{"properties":{"city":"HALIFAX","latitude":44.8667,"country":"CA","city code":"YHZ","values":1,"longitude":-63.6167,"id":"adobs805fj5d"},"type":"Feature","geometry":{"type":"Point","coordinates":[-63.6167,44.8667]}},{"properties":{"city":"HAMPTON NEWS","latitude":37.1667,"country":"US","city code":"PHF","values":1,"longitude":-76.6,"id":"adobs8118u49"},"type":"Feature","geometry":{"type":"Point","coordinates":[-76.6,37.1667]}},{"properties":{"city":"HILTON HEAD I","latitude":32.2167,"country":"US","city code":"HHH","values":1,"longitude":-80.6833,"id":"adobs7mun88n"},"type":"Feature","geometry":{"type":"Point","coordinates":[-80.6833,32.2167]}},{"properties":{"city":"HUNTINGTON","latitude":38.3667,"country":"US","city code":"HTS","values":1,"longitude":-82.5581,"id":"adobs7rmzc3j"},"type":"Feature","geometry":{"type":"Point","coordinates":[-82.5581,38.3667]}},{"properties":{"city":"ISLIP","latitude":40.6667,"country":"US","city code":"ISP","values":1,"longitude":-73.4167,"id":"adobs7vbnl72"},"type":"Feature","geometry":{"type":"Point","coordinates":[-73.4167,40.6667]}},{"properties":{"city":"ITHACA","latitude":42.6,"country":"US","city code":"ITH","values":1,"longitude":-76.1833,"id":"adobs811i4h0"},"type":"Feature","geometry":{"type":"Point","coordinates":[-76.1833,42.6]}},{"properties":{"city":"JACKSONVILLE","latitude":34.8303,"country":"US","city code":"OAJ","values":1,"longitude":-77.6117,"id":"adobs7ntr0l8"},"type":"Feature","geometry":{"type":"Point","coordinates":[-77.6117,34.8303]}},{"properties":{"city":"LONG BEACH","latitude":33.9,"country":"US","city code":"LGB","values":1,"longitude":-118.2167,"id":"adobs7x3k8hl"},"type":"Feature","geometry":{"type":"Point","coordinates":[-118.2167,33.9]}},{"properties":{"city":"LYNCHBURG","latitude":37.3269,"country":"US","city code":"LYH","values":1,"longitude":-79.2011,"id":"adobs7wzmi8e"},"type":"Feature","geometry":{"type":"Point","coordinates":[-79.2011,37.3269]}},{"properties":{"city":"MANCHESTER","latitude":42.7789,"country":"US","city code":"MHT","values":1,"longitude":-71.5094,"id":"adobs7svi2nt"},"type":"Feature","geometry":{"type":"Point","coordinates":[-71.5094,42.7789]}},{"properties":{"city":"MANZANILLO","latitude":19.1133,"country":"MX","city code":"ZLO","values":1,"longitude":-104.3506,"id":"adobs7kyi2cw"},"type":"Feature","geometry":{"type":"Point","coordinates":[-104.3506,19.1133]}},{"properties":{"city":"MARTHA'S VINEYARD","latitude":41.3928,"country":"US","city code":"MVY","values":1,"longitude":-70.6167,"id":"adobs7lih1x7"},"type":"Feature","geometry":{"type":"Point","coordinates":[-70.6167,41.3928]}},{"properties":{"city":"MELBOURNE","latitude":28.1025,"country":"US","city code":"MLB","values":1,"longitude":-80.6431,"id":"adobs7v0dblm"},"type":"Feature","geometry":{"type":"Point","coordinates":[-80.6431,28.1025]}},{"properties":{"city":"MYRTLE BEACH","latitude":33.8117,"country":"US","city code":"MYR","values":1,"longitude":-78.7242,"id":"adobs7noambd"},"type":"Feature","geometry":{"type":"Point","coordinates":[-78.7242,33.8117]}},{"properties":{"city":"NANTUCKET","latitude":41.2567,"country":"US","city code":"ACK","values":1,"longitude":-70.0597,"id":"adobs7yvippk"},"type":"Feature","geometry":{"type":"Point","coordinates":[-70.0597,41.2567]}},{"properties":{"city":"NEW BERN","latitude":35.0736,"country":"US","city code":"EWN","values":1,"longitude":-77.0425,"id":"adobs7mz20rv"},"type":"Feature","geometry":{"type":"Point","coordinates":[-77.0425,35.0736]}},{"properties":{"city":"NEW HAVEN","latitude":41.2653,"country":"US","city code":"HVN","values":1,"longitude":-72.8883,"id":"adobs7xbtqsx"},"type":"Feature","geometry":{"type":"Point","coordinates":[-72.8883,41.2653]}},{"properties":{"city":"NEWBURGH","latitude":41.5058,"country":"US","city code":"SWF","values":1,"longitude":-74.0972,"id":"adobs7yx0urb"},"type":"Feature","geometry":{"type":"Point","coordinates":[-74.0972,41.5058]}},{"properties":{"city":"OAKLAND","latitude":37.6667,"country":"US","city code":"OAK","values":1,"longitude":-122.0833,"id":"adobs7tv4j5w"},"type":"Feature","geometry":{"type":"Point","coordinates":[-122.0833,37.6667]}},{"properties":{"city":"PORTLAND","latitude":43.6444,"country":"US","city code":"PWM","values":1,"longitude":-70.3036,"id":"adobs7tcx5st"},"type":"Feature","geometry":{"type":"Point","coordinates":[-70.3036,43.6444]}},{"properties":{"city":"PROVIDENCE","latitude":41.7283,"country":"US","city code":"PVD","values":1,"longitude":-71.4261,"id":"adobs7uriexf"},"type":"Feature","geometry":{"type":"Point","coordinates":[-71.4261,41.7283]}},{"properties":{"city":"QUEBEC","latitude":46.7833,"country":"CA","city code":"YQB","values":1,"longitude":-71.3,"id":"adobs7yvkg0h"},"type":"Feature","geometry":{"type":"Point","coordinates":[-71.3,46.7833]}},{"properties":{"city":"ROANOKE","latitude":37.2072,"country":"US","city code":"ROA","values":1,"longitude":-80.4069,"id":"adobs7tpgyxl"},"type":"Feature","geometry":{"type":"Point","coordinates":[-80.4069,37.2072]}},{"properties":{"city":"SALISBURY","latitude":38.5667,"country":"US","city code":"SBY","values":1,"longitude":-76.0833,"id":"adobs7si9bk0"},"type":"Feature","geometry":{"type":"Point","coordinates":[-76.0833,38.5667]}},{"properties":{"city":"SAN LUIS OBISPO","latitude":35.2366,"country":"US","city code":"CSL","values":1,"longitude":-120.6389,"id":"adobs7uj14sz"},"type":"Feature","geometry":{"type":"Point","coordinates":[-120.6389,35.2366]}},{"properties":{"city":"SARASOTA","latitude":27.5925,"country":"US","city code":"SRQ","values":1,"longitude":-81.5269,"id":"adobs7newvo8"},"type":"Feature","geometry":{"type":"Point","coordinates":[-81.5269,27.5925]}},{"properties":{"city":"SPOKANE","latitude":47.9236,"country":"US","city code":"GEG","values":1,"longitude":-119.0806,"id":"adobs7pirse1"},"type":"Feature","geometry":{"type":"Point","coordinates":[-119.0806,47.9236]}},{"properties":{"city":"STATE COLLEGE","latitude":40.7708,"country":"US","city code":"SCE","values":1,"longitude":-77.8814,"id":"adobs7vncidd"},"type":"Feature","geometry":{"type":"Point","coordinates":[-77.8814,40.7708]}},{"properties":{"city":"TRI-CITY","latitude":36.1914,"country":"US","city code":"TRI","values":1,"longitude":-82.8167,"id":"adobs7r84wqr"},"type":"Feature","geometry":{"type":"Point","coordinates":[-82.8167,36.1914]}},{"properties":{"city":"WILKES-BARRE","latitude":41.3392,"country":"US","city code":"AVP","values":1,"longitude":-75.7258,"id":"adobs7m517io"},"type":"Feature","geometry":{"type":"Point","coordinates":[-75.7258,41.3392]}},{"properties":{"city":"WILLIAMSPORT","latitude":41.2422,"country":"US","city code":"IPT","values":1,"longitude":-76.9206,"id":"adobs7zwszmz"},"type":"Feature","geometry":{"type":"Point","coordinates":[-76.9206,41.2422]}},{"properties":{"city":"WILMINGTON","latitude":34.2669,"country":"US","city code":"ILM","values":1,"longitude":-77.9039,"id":"adobs7m59tzu"},"type":"Feature","geometry":{"type":"Point","coordinates":[-77.9039,34.2669]}},{"properties":{"city":"YUMA","latitude":32.7167,"country":"US","city code":"YUM","values":1,"longitude":-114.6167,"id":"adobs7ys8yay"},"type":"Feature","geometry":{"type":"Point","coordinates":[-114.6167,32.7167]}},{"properties":{"city":"New York","latitude":40.6386,"country":"US","city code":"NYC","values":2,"longitude":-73.7769,"id":"adobs7sd7lhs"},"type":"Feature","geometry":{"type":"Point","coordinates":[-73.7769,40.6386]}},{"properties":{"city":"Charlotte","latitude":35.2192,"country":"US","city code":"CLT","values":2,"longitude":-80.9358,"id":"adobs7r1sjuk"},"type":"Feature","geometry":{"type":"Point","coordinates":[-80.9358,35.2192]}},{"properties":{"city":"PHILADELPHIA","latitude":39.8681,"country":"US","city code":"PHL","values":2,"longitude":-75.2486,"id":"adobs7s8en03"},"type":"Feature","geometry":{"type":"Point","coordinates":[-75.2486,39.8681]}}],"is_temporal":false,"author":{"url":"","metadata":null,"contact_name":null,"contact_address":null,"source":null,"contact_phone":null},"source":"","pagination":{"sort":null,"start":0,"total":55,"limit":1000000},"state":"complete","tags":"","published":"2014-08-16T21:01:33-04:00","id":346726}