{"type":"FeatureCollection","data_type":"Dataset","url_type":null,"permissions":[{"permissions":{"download":true,"view":true},"group_id":"everyone"}],"classification":null,"title":"TravelCenters of America locations","count":170,"stream_id":346720,"contributor":{"url":"http://geocommons.com/users/49315","name":"dgang@tennessean.com"},"data_attributes":null,"calculation_params":null,"icon_link":null,"link":"http://geocommons.com/overlays/346720.json","extent":[-123.057,26.3845,-70.8182,47.4683],"geometry_types":["point"],"unique_name":null,"name":"TravelCenters of America locations","feature_count":170,"description":"TravelCenters of America has 170 locations across the United States.","next_feature":null,"is_raster":false,"short_classification":"Y","stats":{"latitude":{"max":47.4683,"variance":18.9174953868253,"mean":37.6127582352941,"stdev":4.34942471906633,"min":26.3845,"median":38.8171},"longitude":{"max":-70.8182,"variance":182.38482327103,"mean":-91.7935123529412,"stdev":13.5049925313208,"min":-123.057,"median":-87.4045}},"features":[{"properties":{"name":"TA Mobile","city":"Grand Bay","latitude":30.4985,"zip":"36541","phone":"251-865-6175","fax":"251-865-3278","longitude":-88.3336,"id":"adobhkmru4wv","location":"I-10, Exit 4 (Wilmer Road, South)","state":"AL"},"type":"Feature","geometry":{"type":"Point","coordinates":[-88.3336,30.4985]}},{"properties":{"name":"TA Montgomery","city":"Montgomery","latitude":32.3278,"zip":"36105-3021","phone":"334-288-3700","fax":"334-281-6462","longitude":-86.3322,"id":"adobhkntxs3k","location":"I-65, Exit 168","state":"AL"},"type":"Feature","geometry":{"type":"Point","coordinates":[-86.3322,32.3278]}},{"properties":{"name":"TA Tuscaloosa","city":"Tuscaloosa","latitude":33.1759,"zip":"35453-9364","phone":"205-554-0215","fax":"205-553-5337","longitude":-87.4462,"id":"adobhkgazl71","location":"I-20/1-59, Exit 77 (Buttermilk Rd.)","state":"AL"},"type":"Feature","geometry":{"type":"Point","coordinates":[-87.4462,33.1759]}},{"properties":{"name":"TA Prescott","city":"Prescott","latitude":33.8112,"zip":"71857","phone":"870-887-8900","fax":"870-887-8920","longitude":-93.427,"id":"adobhkgyjfhm","location":"I-30, Exit 44","state":"AR"},"type":"Feature","geometry":{"type":"Point","coordinates":[-93.427,33.8112]}},{"properties":{"name":"TA West Memphis","city":"West Memphis","latitude":35.1364,"zip":"72331","phone":"870-657-2105","fax":"870-657-2536","longitude":-90.4881,"id":"adobhko5ejhv","location":"I-40, Exit 260 (St. 149 Earle)","state":"AR"},"type":"Feature","geometry":{"type":"Point","coordinates":[-90.4881,35.1364]}},{"properties":{"name":"TA Eloy","city":"Eloy","latitude":32.7737,"zip":"85231","phone":"520-466-7363","fax":"520-466-7536","longitude":-111.6175,"id":"adobhkmgc843","location":"I-8/I-10, Exit 203 (Toltec Rod)","state":"AZ"},"type":"Feature","geometry":{"type":"Point","coordinates":[-111.6175,32.7737]}},{"properties":{"name":"TA Kingman","city":"Kingman","latitude":35.1901,"zip":"86401","phone":"928-753-7600","fax":"928-753-4577","longitude":-114.0702,"id":"adobhkredf5x","location":"I-40, Exit 48 (US 93)","state":"AZ"},"type":"Feature","geometry":{"type":"Point","coordinates":[-114.0702,35.1901]}},{"properties":{"name":"TA Tonopah","city":"Tonopah","latitude":33.4587,"zip":"85354","phone":"623-386-6443","fax":"623-386-6490","longitude":-112.7823,"id":"adobhkhfezyt","location":"I-10, Exit 103","state":"AZ"},"type":"Feature","geometry":{"type":"Point","coordinates":[-112.7823,33.4587]}},{"properties":{"name":"TA Willcox","city":"Willcox","latitude":32.2688,"zip":"85643","phone":"520-384-5311","fax":"520-384-9418","longitude":-109.8479,"id":"adobhkuiuyqx","location":"I-10, Exit 340","state":"AZ"},"type":"Feature","geometry":{"type":"Point","coordinates":[-109.8479,32.2688]}},{"properties":{"name":"TA Barstow","city":"Barstow","latitude":34.8537,"zip":"92311","phone":"760-253-2922","fax":"760-253-7959","longitude":-117.0888,"id":"adobhkjjampg","location":"I-15, Exit 178 (Lenwood Rd.)","state":"CA"},"type":"Feature","geometry":{"type":"Point","coordinates":[-117.0888,34.8537]}},{"properties":{"name":"TA Buttonwillow","city":"Buttonwillow","latitude":35.401,"zip":"93206-0004","phone":"661-764-5266","fax":"661-764-5410","longitude":-119.3961,"id":"adobhksumpem","location":"I-5, Exit 257 (Hwy 58)","state":"CA"},"type":"Feature","geometry":{"type":"Point","coordinates":[-119.3961,35.401]}},{"properties":{"name":"TA Coachella","city":"Coachella","latitude":33.7139,"zip":"92236","phone":"760-342-6200","fax":"760-342-6208","longitude":-116.1756,"id":"adobhksoefbj","location":"I-10, Exit 146 (Dillon Rd.)","state":"CA"},"type":"Feature","geometry":{"type":"Point","coordinates":[-116.1756,33.7139]}},{"properties":{"name":"TA Corning","city":"Corning","latitude":39.9042,"zip":"96021","phone":"530-824-4646","fax":"530-824-0547","longitude":-122.1985,"id":"adobhktzeh9s","location":"I-5, Exit 630 (South Ave.)","state":"CA"},"type":"Feature","geometry":{"type":"Point","coordinates":[-122.1985,39.9042]}},{"properties":{"name":"TA Livingston","city":"Livingston","latitude":37.3876,"zip":"95334","phone":"209-394-4418","fax":"209-394-1419","longitude":-120.7382,"id":"adobhkq252um","location":"SR 99, Exit 203 (Winton Pkwy.)","state":"CA"},"type":"Feature","geometry":{"type":"Point","coordinates":[-120.7382,37.3876]}},{"properties":{"name":"TA Ontario East","city":"Ontario","latitude":34.0647,"zip":"91761-7807","phone":"909-390-7800","fax":"909-390-7298","longitude":-117.5566,"id":"adobhkriwnoy","location":"I-10, Exit 57 (Millilken Ave.)","state":"CA"},"type":"Feature","geometry":{"type":"Point","coordinates":[-117.5566,34.0647]}},{"properties":{"name":"TA Ontario West","city":"Ontario","latitude":34.0649,"zip":"91761-1571","phone":"909-390-2525","fax":"909-605-6765","longitude":-117.5599,"id":"adobhkfx71wa","location":"I-10, Exit 57 (Milliken Ave.)","state":"CA"},"type":"Feature","geometry":{"type":"Point","coordinates":[-117.5599,34.0649]}},{"properties":{"name":"TA Redding","city":"Redding","latitude":40.5048,"zip":"96002","phone":"530-221-4760","fax":"530-221-8269","longitude":-122.3349,"id":"adobhkt849gr","location":"I-5, Exit 673 ( Knighton Rd.)","state":"CA"},"type":"Feature","geometry":{"type":"Point","coordinates":[-122.3349,40.5048]}},{"properties":{"name":"TA Santa Nella","city":"Santa Nella","latitude":37.1101,"zip":"95322-9735","phone":"209-826-0741","fax":"209-826-6399","longitude":-121.0147,"id":"adobhksferiw","location":"I-5, Exit 407 (St. Hwy 33)","state":"CA"},"type":"Feature","geometry":{"type":"Point","coordinates":[-121.0147,37.1101]}},{"properties":{"name":"TA Wheeler Ridge","city":"Wheeler Ridge","latitude":34.992,"zip":"93203-9745","phone":"661-858-2804","fax":"661-858-2136","longitude":-118.9412,"id":"adobhkkmyt86","location":"I-5, Exit 219A/219B (Laval Rd.)","state":"CA"},"type":"Feature","geometry":{"type":"Point","coordinates":[-118.9412,34.992]}},{"properties":{"name":"TA Commerce City","city":"Commerce City","latitude":39.7901,"zip":"80022","phone":"303-286-0123","fax":"303-286-6781","longitude":-104.9043,"id":"adobhkgtek9n","location":"I-70/I-270, Exit 278 (Quebec St. Exit)","state":"CO"},"type":"Feature","geometry":{"type":"Point","coordinates":[-104.9043,39.7901]}},{"properties":{"name":"TA Limon","city":"Limon","latitude":39.271,"zip":"80828","phone":"719-775-2811","fax":"719-775-2713","longitude":-103.7067,"id":"adobhksulo5w","location":"I-70, Exit 359 (Hwy 24)","state":"CO"},"type":"Feature","geometry":{"type":"Point","coordinates":[-103.7067,39.271]}},{"properties":{"name":"TA Wheat Ridge","city":"Wheat Ridge","latitude":39.7793,"zip":"80033-2448","phone":"303-423-8250","fax":"303-420-4694","longitude":-105.1349,"id":"adobhkj8636x","location":"I-70, Exit 266 (Ward Rd.)","state":"CO"},"type":"Feature","geometry":{"type":"Point","coordinates":[-105.1349,39.7793]}},{"properties":{"name":"TA New Haven","city":"New Haven","latitude":41.2968,"zip":"06405-6508","phone":"203-481-0301","fax":"203-481-3049","longitude":-72.7595,"id":"adobhklysj5s","location":"I-95, Exit 56","state":"CT"},"type":"Feature","geometry":{"type":"Point","coordinates":[-72.7595,41.2968]}},{"properties":{"name":"TA Southington","city":"Southington","latitude":41.5647,"zip":"6467","phone":"860-621-0106","fax":"860-628-6735","longitude":-72.9102,"id":"adobhkfx99z6","location":"I-84, Exit 28 (ST Hwy 322)","state":"CT"},"type":"Feature","geometry":{"type":"Point","coordinates":[-72.9102,41.5647]}},{"properties":{"name":"TA Willington","city":"Willington","latitude":41.9177,"zip":"6279","phone":"860-684-0499","fax":"860-684-1213","longitude":-72.2615,"id":"adobhkps1mo0","location":"I-84, Exit 71 (Ruby Rd.)","state":"CT"},"type":"Feature","geometry":{"type":"Point","coordinates":[-72.2615,41.9177]}},{"properties":{"name":"TA Baldwin","city":"Baldwin","latitude":30.2855,"zip":"32234","phone":"904-266-4281","fax":"904-266-9614","longitude":-81.9841,"id":"adobhknbwdo5","location":"I-10, Exit 343 (US 301 S.)","state":"FL"},"type":"Feature","geometry":{"type":"Point","coordinates":[-81.9841,30.2855]}},{"properties":{"name":"TA Jacksonville South","city":"Jacksonville","latitude":30.0661,"zip":"32259-2011","phone":"904-829-3946","fax":"904-824-4115","longitude":-81.4961,"id":"adobhku7pkde","location":"I-95, Exit 329 (CR 210 W)","state":"FL"},"type":"Feature","geometry":{"type":"Point","coordinates":[-81.4961,30.0661]}},{"properties":{"name":"TA Marianna","city":"Marianna","latitude":30.7187,"zip":"32448","phone":"850-526-3303","fax":"850-482-8953","longitude":-85.1837,"id":"adobhkjamdj0","location":"I-10, Exit 142 (SR 71)","state":"FL"},"type":"Feature","geometry":{"type":"Point","coordinates":[-85.1837,30.7187]}},{"properties":{"name":"TA Tampa","city":"Tampa","latitude":28.0099,"zip":"33584","phone":"813-262-1560","fax":"813-262-1548","longitude":-82.301,"id":"adobhkv2pmid","location":"I-4, Exit 10","state":"FL"},"type":"Feature","geometry":{"type":"Point","coordinates":[-82.301,28.0099]}},{"properties":{"name":"TA Vero Beach","city":"Vero Beach","latitude":27.6381,"zip":"32966","phone":"772-562-1791","fax":"772-569-0433","longitude":-80.511,"id":"adobhkobmzft","location":"I-95, Exit 147 (SR 60)","state":"FL"},"type":"Feature","geometry":{"type":"Point","coordinates":[-80.511,27.6381]}},{"properties":{"name":"TA Wildwood","city":"Wildwood","latitude":28.875,"zip":"34785","phone":"352-748-2501","fax":"352-748-2390","longitude":-82.0939,"id":"adobhkua7nhb","location":"I-75, Exit 329 (ST Rt. 44)","state":"FL"},"type":"Feature","geometry":{"type":"Point","coordinates":[-82.0939,28.875]}},{"properties":{"name":"TA Brunswick - Stand Alone Shop","city":"Brunswick","latitude":31.1373,"zip":"31523-9116","phone":"912-265-0559","fax":"912-265-8842","longitude":-81.5806,"id":"adobhkpornuf","location":"I-95, Exit 29 (US 17)","state":"GA"},"type":"Feature","geometry":{"type":"Point","coordinates":[-81.5806,31.1373]}},{"properties":{"name":"TA Cartersville","city":"Cartersville","latitude":34.2739,"zip":"30121","phone":"770-607-8885","fax":"770-607-7265","longitude":-84.8075,"id":"adobhkjed5c0","location":"I-75, Exit 296","state":"GA"},"type":"Feature","geometry":{"type":"Point","coordinates":[-84.8075,34.2739]}},{"properties":{"name":"TA Commerce","city":"Commerce","latitude":34.2528,"zip":"30529","phone":"706-335-5198","fax":"706-335-6729","longitude":-83.4632,"id":"adobhkj9nn38","location":"I-85, Exit 149 (US 441)","state":"GA"},"type":"Feature","geometry":{"type":"Point","coordinates":[-83.4632,34.2528]}},{"properties":{"name":"TA Atlanta South","city":"Jackson","latitude":33.2065,"zip":"30233-0967","phone":"770-775-2076","fax":"770-775-2807","longitude":-84.0585,"id":"adobhkj8lxks","location":"I-75, Exit 201 (Rt. 36)","state":"GA"},"type":"Feature","geometry":{"type":"Point","coordinates":[-84.0585,33.2065]}},{"properties":{"name":"TA Lake Park","city":"Lake Park","latitude":30.644,"zip":"31636-0430","phone":"229-559-5113","fax":"229-559-4864","longitude":-83.1876,"id":"adobhkiuhglq","location":"I-75, Exit 2 (Bellville Rd.)","state":"GA"},"type":"Feature","geometry":{"type":"Point","coordinates":[-83.1876,30.644]}},{"properties":{"name":"TA Madison","city":"Madison","latitude":33.5524,"zip":"30650","phone":"706-342-4176","fax":"706-342-2390","longitude":-83.4748,"id":"adobhktdeptl","location":"I-20, Exit 114","state":"GA"},"type":"Feature","geometry":{"type":"Point","coordinates":[-83.4748,33.5524]}},{"properties":{"name":"TA Savannah","city":"Savannah","latitude":31.9252,"zip":"31324-0280","phone":"912-756-3381","fax":"912-756-3273","longitude":-81.3327,"id":"adobhkikb87p","location":"I-95, Exit 87 (US 17 S)","state":"GA"},"type":"Feature","geometry":{"type":"Point","coordinates":[-81.3327,31.9252]}},{"properties":{"name":"TA Council Bluffs","city":"Council Bluffs","latitude":41.2287,"zip":"51501","phone":"712-366-2217","fax":"712-366-6939","longitude":-95.8536,"id":"adobhkqlqsjs","location":"I-80, Exit 3 (I-29)","state":"IA"},"type":"Feature","geometry":{"type":"Point","coordinates":[-95.8536,41.2287]}},{"properties":{"name":"TA Walcott","city":"Walcott","latitude":41.6179,"zip":"52773","phone":"563-284-6961","fax":"563-468-5520","longitude":-90.7815,"id":"adobhkky6k9s","location":"I-80, Exit 284","state":"IA"},"type":"Feature","geometry":{"type":"Point","coordinates":[-90.7815,41.6179]}},{"properties":{"name":"TA Boise","city":"Boise","latitude":43.5656,"zip":"83705","phone":"208-344-1091","fax":"208-345-7560","longitude":-116.1994,"id":"adobhkoz28ed","location":"I-84, Exit 54","state":"ID"},"type":"Feature","geometry":{"type":"Point","coordinates":[-116.1994,43.5656]}},{"properties":{"name":"TA Bloomington","city":"Bloomington","latitude":40.488,"zip":"61701","phone":"309-827-4676","fax":"309-828-6651","longitude":-89.0262,"id":"adobhkg4eki8","location":"I-55/I-74/I-39, Exit 160A","state":"IL"},"type":"Feature","geometry":{"type":"Point","coordinates":[-89.0262,40.488]}},{"properties":{"name":"TA Chicago North","city":"Chicago North","latitude":42.4857,"zip":"60075-0099","phone":"847-395-5580","fax":"847-395-6092","longitude":-87.951,"id":"adobhkqi6yuo","location":"I-94, Exit 1/1A (Russell Rd.)","state":"IL"},"type":"Feature","geometry":{"type":"Point","coordinates":[-87.951,42.4857]}},{"properties":{"name":"TA Effingham","city":"Effingham","latitude":39.1364,"zip":"62401-1388","phone":"217-347-7183","fax":"217-342-4029","longitude":-88.5662,"id":"adobhkgjchlc","location":"I-57/ I-70, Exit 160","state":"IL"},"type":"Feature","geometry":{"type":"Point","coordinates":[-88.5662,39.1364]}},{"properties":{"name":"TA Elgin","city":"Elgin","latitude":38.3134,"zip":"60140","phone":"847-683-4558","fax":"847-683-4059","longitude":-88.9594,"id":"adobhkucc7g5","location":"I-90/U.S. Hwy 20, Exit 25 (Maringo-Hampshire)","state":"IL"},"type":"Feature","geometry":{"type":"Point","coordinates":[-88.9594,38.3134]}},{"properties":{"name":"TA Morris","city":"Morris","latitude":41.3917,"zip":null,"phone":"815-942-5690","fax":"815-942-4371","longitude":-88.4203,"id":"adobhkh2hj4l","location":"1-80, Exit 112B (Rt. 47)","state":"IL"},"type":"Feature","geometry":{"type":"Point","coordinates":[-88.4203,41.3917]}},{"properties":{"name":"TA Mt. Vernon","city":"Mt. Vernon","latitude":38.3134,"zip":"62864","phone":"618-244-4242","fax":"618-244-9182","longitude":-88.9594,"id":"adobhkilnkkz","location":"I-57/ I-64, MM 95","state":"IL"},"type":"Feature","geometry":{"type":"Point","coordinates":[-88.9594,38.3134]}},{"properties":{"name":"TA Troy","city":"Troy","latitude":38.7338,"zip":"62294","phone":"618-667-9931","fax":"618-667-8051","longitude":-89.9098,"id":"adobhkuowmo3","location":"I-55/I-70, Exit 18 (Rt. 162)","state":"IL"},"type":"Feature","geometry":{"type":"Point","coordinates":[-89.9098,38.7338]}},{"properties":{"name":"TA Clayton","city":"Clayton","latitude":39.6113,"zip":"46118-9184","phone":"317-539-6515","fax":"317-539-5370","longitude":-86.4807,"id":"adobhkjbihd1","location":"I-70, Exit 59 (SR 39)","state":"IN"},"type":"Feature","geometry":{"type":"Point","coordinates":[-86.4807,39.6113]}},{"properties":{"name":"TA Gary","city":"Gary","latitude":41.573,"zip":"46319-0409","phone":"219-845-3721","fax":"219-844-0937","longitude":-87.4045,"id":"adobhknmj2g1","location":"I-80/ I-94, Exit 6 (Burr St.)","state":"IN"},"type":"Feature","geometry":{"type":"Point","coordinates":[-87.4045,41.573]}},{"properties":{"name":"TA Lake Station","city":"Lake Station","latitude":41.5906,"zip":"46405","phone":"219-962-6552","fax":"219-962-4573","longitude":-87.2393,"id":"adobhkug90yx","location":"I-80/I-94, Exit 15B","state":"IN"},"type":"Feature","geometry":{"type":"Point","coordinates":[-87.2393,41.5906]}},{"properties":{"name":"TA Porter","city":"Porter","latitude":41.6129,"zip":"46304","phone":"219-926-8566","fax":"219-395-8477","longitude":-87.0957,"id":"adobhkmcz75i","location":"I-94, Exit 22B","state":"IN"},"type":"Feature","geometry":{"type":"Point","coordinates":[-87.0957,41.6129]}},{"properties":{"name":"TA Seymour","city":"Seymour","latitude":38.9576,"zip":"47274-3593","phone":"812-522-6622","fax":"812-523-6699","longitude":-85.8366,"id":"adobhkuxpqzu","location":"I-65,  Exit 50 (SR 50)","state":"IN"},"type":"Feature","geometry":{"type":"Point","coordinates":[-85.8366,38.9576]}},{"properties":{"name":"TA Whitestown","city":"Whitestown","latitude":39.9478,"zip":"46075-9801","phone":"317-769-3291","fax":"317-769-6899","longitude":-86.357,"id":"adobhkgbx467","location":"I-65, Exit 130 (SR 334)","state":"IN"},"type":"Feature","geometry":{"type":"Point","coordinates":[-86.357,39.9478]}},{"properties":{"name":"TA Beto Junction","city":"Lebo","latitude":38.4276,"zip":"66856","phone":"620-256-6311","fax":"620-256-6275","longitude":-95.7272,"id":"adobhkrtq88p","location":"I-35, Exit 155 (US 75","state":"KS"},"type":"Feature","geometry":{"type":"Point","coordinates":[-95.7272,38.4276]}},{"properties":{"name":"TA Oakley","city":"Oakley","latitude":39.1188,"zip":"67748","phone":"785-672-3062","fax":"785 672-4532","longitude":-100.811,"id":"adobhkp4mbwa","location":"I-70,  Exit 76 (US 40)","state":"KS"},"type":"Feature","geometry":{"type":"Point","coordinates":[-100.811,39.1188]}},{"properties":{"name":"TA Florence","city":"Florence","latitude":39.0001,"zip":"41042","phone":"859-371-7166","fax":"859-283-5831","longitude":-84.6447,"id":"adobhkndr4yl","location":"I-75, Exit 181 (Rt. 18)","state":"KY"},"type":"Feature","geometry":{"type":"Point","coordinates":[-84.6447,39.0001]}},{"properties":{"name":"TA Walton","city":"Walton","latitude":38.9172,"zip":"41094-9526","phone":"859-485-4111","fax":"859-485-4773","longitude":-84.6266,"id":"adobhkiimy8e","location":"I-75/I-71, Exit 175 (Rt. 338)","state":"KY"},"type":"Feature","geometry":{"type":"Point","coordinates":[-84.6266,38.9172]}},{"properties":{"name":"TA Greenwood","city":"Greenwood","latitude":32.4461,"zip":"71033","phone":"318-938-5411","fax":"318-938-5003","longitude":-93.9493,"id":"adobhkqu48yl","location":"I-20, Exit 5","state":"LA"},"type":"Feature","geometry":{"type":"Point","coordinates":[-93.9493,32.4461]}},{"properties":{"name":"TA Lafayette","city":"Lafayette","latitude":30.2521,"zip":"70507-6399","phone":"337-237-0176","fax":"337-235-1713","longitude":-92.0381,"id":"adobhkvqckxn","location":"I-10, Exit 101","state":"LA"},"type":"Feature","geometry":{"type":"Point","coordinates":[-92.0381,30.2521]}},{"properties":{"name":"TA Slidell","city":"Slidell","latitude":30.2864,"zip":"70458-1361","phone":"985-643-9974","fax":"985-649-1676","longitude":-89.7511,"id":"adobhksxgtn5","location":"I-10, Exit 266 (US 190)","state":"LA"},"type":"Feature","geometry":{"type":"Point","coordinates":[-89.7511,30.2864]}},{"properties":{"name":"TA Tallulah","city":"Tallulah","latitude":32.3886,"zip":"71282","phone":"318-574-5900","fax":"318-574-4671","longitude":-91.2006,"id":"adobhknijy48","location":"I-20, Exit 171","state":"LA"},"type":"Feature","geometry":{"type":"Point","coordinates":[-91.2006,32.3886]}},{"properties":{"name":"TA Baltimore","city":"Baltimore","latitude":39.2775,"zip":"21224","phone":"410-633-4611","fax":"410-633-4613","longitude":-76.5488,"id":"adobhkpl4pgx","location":"I-95, Exit 57","state":"MD"},"type":"Feature","geometry":{"type":"Point","coordinates":[-76.5488,39.2775]}},{"properties":{"name":"TA Baltimore South","city":"Baltimore","latitude":39.1667,"zip":"20794","phone":"410-799-3835","fax":"410-799-7736","longitude":-76.7828,"id":"adobhkoj1pcp","location":"I-95,  Exit 41A (Rt. 175)","state":"MD"},"type":"Feature","geometry":{"type":"Point","coordinates":[-76.7828,39.1667]}},{"properties":{"name":"TA Elkton","city":"Elkton","latitude":39.6436,"zip":"21921","phone":"410-398-7000","fax":"410-398-9124","longitude":-75.7974,"id":"adobhkugj4nh","location":"I-95, Exit 109B","state":"MD"},"type":"Feature","geometry":{"type":"Point","coordinates":[-75.7974,39.6436]}},{"properties":{"name":"TA Ann Arbor","city":"Ann Arbor","latitude":42.2963,"zip":"48130","phone":"734-426-3951","fax":"734-426-8558","longitude":-83.8764,"id":"adobhkmqlwnq","location":"I-94, Exit 167 (Baker Rd.)","state":"MI"},"type":"Feature","geometry":{"type":"Point","coordinates":[-83.8764,42.2963]}},{"properties":{"name":"TA Monroe","city":"Monroe","latitude":41.9267,"zip":"48162","phone":"734-384-7952","fax":"734-240-0453","longitude":-83.3632,"id":"adobhkidkl1f","location":"I-75, Exit 15 (SR 50)","state":"MI"},"type":"Feature","geometry":{"type":"Point","coordinates":[-83.3632,41.9267]}},{"properties":{"name":"TA Saginaw","city":"Saginaw","latitude":43.3517,"zip":"48722-9566","phone":"989-777-7650","fax":"989-777-9770","longitude":-83.869,"id":"adobhkhsbyu2","location":"I-75, Exit 144 (Bridgeport)","state":"MI"},"type":"Feature","geometry":{"type":"Point","coordinates":[-83.869,43.3517]}},{"properties":{"name":"TA Sawyer","city":"Sawyer","latitude":41.8845,"zip":"49125","phone":"269-426-4884","fax":"269-426-3719","longitude":-86.6001,"id":"adobhkvxz7gd","location":"I-94, Exit 12","state":"MI"},"type":"Feature","geometry":{"type":"Point","coordinates":[-86.6001,41.8845]}},{"properties":{"name":"TA Rogers","city":"Rogers","latitude":45.1969,"zip":"55374-0238","phone":"763-428-2277","fax":"763-428-2007","longitude":-93.5492,"id":"adobhkovc7x3","location":"I-94,  Exit 207 (Hwy 101)","state":"MN"},"type":"Feature","geometry":{"type":"Point","coordinates":[-93.5492,45.1969]}},{"properties":{"name":"TA Concordia","city":"Concordia","latitude":38.9941,"zip":"64020-0745","phone":"660-463-2001","fax":"660-463-2046","longitude":-93.5678,"id":"adobhkm36wwg","location":"I-70, Exit 58 (Rt. 23)","state":"MO"},"type":"Feature","geometry":{"type":"Point","coordinates":[-93.5678,38.9941]}},{"properties":{"name":"TA Foristell","city":"Foristell","latitude":38.8171,"zip":"63348-0069","phone":"636-673-2295","fax":"636-673-2821","longitude":-90.9495,"id":"adobhkiy8bkz","location":"I-70, Exit 203 (CR W)","state":"MO"},"type":"Feature","geometry":{"type":"Point","coordinates":[-90.9495,38.8171]}},{"properties":{"name":"TA Matthews","city":"Matthews","latitude":36.7582,"zip":"63867","phone":"573-471-8644","fax":"573-471-6927","longitude":-89.5346,"id":"adobhkps6ia6","location":"I-55, Exit 58 (Hwy 80)","state":"MO"},"type":"Feature","geometry":{"type":"Point","coordinates":[-89.5346,36.7582]}},{"properties":{"name":"TA Mt. Vernon","city":"Mt.Vernon","latitude":37.0948,"zip":"65712","phone":"417-466-9230","fax":"417-466-3587","longitude":-93.8065,"id":"adobhklu8ztb","location":"I-44, Exit 46 (SR 39)","state":"MO"},"type":"Feature","geometry":{"type":"Point","coordinates":[-93.8065,37.0948]}},{"properties":{"name":"TA Oak Grove","city":"Oak Grove","latitude":39.0176,"zip":"64075","phone":"816-690-4115","fax":"816-625-4555","longitude":-94.1302,"id":"adobhkfwfreu","location":"I-70, Exit 28 (Rt. H)","state":"MO"},"type":"Feature","geometry":{"type":"Point","coordinates":[-94.1302,39.0176]}},{"properties":{"name":"TA Strafford","city":"Strafford","latitude":37.2745,"zip":"65757-0069","phone":"417-736-2161","fax":"417-736-3486","longitude":-93.1152,"id":"adobhkh08qsz","location":"I-44, Exit 88 (SR 125)","state":"MO"},"type":"Feature","geometry":{"type":"Point","coordinates":[-93.1152,37.2745]}},{"properties":{"name":"TA Meridian","city":"Meridian","latitude":32.3962,"zip":"39301","phone":"601-483-7611","fax":"601-483-8269","longitude":-88.5826,"id":"adobhkuye31m","location":"I-20, Exit 160 (I-59)","state":"MS"},"type":"Feature","geometry":{"type":"Point","coordinates":[-88.5826,32.3962]}},{"properties":{"name":"TA Candler","city":"Candler","latitude":35.5432,"zip":"28715","phone":"828-665-1156","fax":"828-665-2569","longitude":-82.754,"id":"adobhkue7dyt","location":"I-40, Exit 37","state":"NC"},"type":"Feature","geometry":{"type":"Point","coordinates":[-82.754,35.5432]}},{"properties":{"name":"TA Greensboro","city":"Greensboro","latitude":36.0635,"zip":"27377-0218","phone":"336-449-6060","fax":"336-449-0301","longitude":-79.5636,"id":"adobhkqobvv5","location":"I-85/I-40 &amp; Hwy 61, Exit 138","state":"NC"},"type":"Feature","geometry":{"type":"Point","coordinates":[-79.5636,36.0635]}},{"properties":{"name":"TA Grand Island","city":"Alda","latitude":40.7998,"zip":"68810-0167","phone":"308-382-5902","fax":"308-382-1229","longitude":-98.496,"id":"adobhkr2l9i4","location":"I-80, Exit 305","state":"NE"},"type":"Feature","geometry":{"type":"Point","coordinates":[-98.496,40.7998]}},{"properties":{"name":"TA Ogallala","city":"Ogallala","latitude":41.1138,"zip":"69153-3198","phone":"308-284-3667","fax":"308-284-3823","longitude":-101.7116,"id":"adobhknfweyf","location":"I-80, Exit 126","state":"NE"},"type":"Feature","geometry":{"type":"Point","coordinates":[-101.7116,41.1138]}},{"properties":{"name":"TA Greenland","city":"Greenland","latitude":43.0431,"zip":"3840","phone":"603-436-3636","fax":"603-436-1575","longitude":-70.8182,"id":"adobhkg8qgiw","location":"I-95, Exit 3 Northbound; Exit 3B Southbound","state":"NH"},"type":"Feature","geometry":{"type":"Point","coordinates":[-70.8182,43.0431]}},{"properties":{"name":"TA Bloomsbury","city":"Bloomsbury","latitude":40.6594,"zip":"8804","phone":"908-479-4136","fax":"908-479-4533","longitude":-75.075,"id":"adobhkpxe0eb","location":"I-78, Bloomsbury Exit 7","state":"NJ"},"type":"Feature","geometry":{"type":"Point","coordinates":[-75.075,40.6594]}},{"properties":{"name":"TA Columbia","city":"Columbia","latitude":40.9317,"zip":"07832-0305","phone":"908-496-4124","fax":"908-496-4809","longitude":-75.0969,"id":"adobhkwe3eli","location":"I-80 at Rt. 94, Exit 4","state":"NJ"},"type":"Feature","geometry":{"type":"Point","coordinates":[-75.0969,40.9317]}},{"properties":{"name":"TA Paulsboro","city":"Paulsboro","latitude":39.819,"zip":"8066","phone":"856-423-5500","fax":"856-423-6261","longitude":-75.2385,"id":"adobhkmicdxi","location":"I-295, 18A, Mt. Royal Exit","state":"NJ"},"type":"Feature","geometry":{"type":"Point","coordinates":[-75.2385,39.819]}},{"properties":{"name":"TA Albuquerque","city":"Albuquerque","latitude":35.1111,"zip":"87107","phone":"505-884-1066","fax":"505-881-0245","longitude":-106.6247,"id":"adobhkmkuxv7","location":"I-40,Exit 159BC/I-25,Exit 225(Nthbnd):Exit 227(Sthbnd)","state":"NM"},"type":"Feature","geometry":{"type":"Point","coordinates":[-106.6247,35.1111]}},{"properties":{"name":"TA Gallup","city":"Gallup","latitude":35.5059,"zip":"87301-6841","phone":"505-863-6801","fax":"505-722-5106","longitude":-108.8359,"id":"adobhkjvr30x","location":"I-40 &amp; Hwy 66, Exit 16","state":"NM"},"type":"Feature","geometry":{"type":"Point","coordinates":[-108.8359,35.5059]}},{"properties":{"name":"TA Las Cruces","city":"Las Cruces","latitude":32.2977,"zip":"88005-4113","phone":"575-527-7400","fax":"575-523-6876","longitude":-106.8115,"id":"adobhkhs65st","location":"I-10, Exit 139, Hwy 292","state":"NM"},"type":"Feature","geometry":{"type":"Point","coordinates":[-106.8115,32.2977]}},{"properties":{"name":"TA Moriarty","city":"Moriarty","latitude":35.0095,"zip":"87035","phone":"505-832-4421","fax":"505-832-6643","longitude":-106.065,"id":"adobhksa0qv1","location":"I-40 &amp; Central Rd., Exit 194","state":"NM"},"type":"Feature","geometry":{"type":"Point","coordinates":[-106.065,35.0095]}},{"properties":{"name":"TA Santa Rosa","city":"Santa Rosa","latitude":34.9443,"zip":"88435-0372","phone":"575-472-3432","fax":"575-472-3717","longitude":-104.6407,"id":"adobhki02wvw","location":"I-40 &amp; U.S. 66, 54 &amp; 84, Exit 277","state":"NM"},"type":"Feature","geometry":{"type":"Point","coordinates":[-104.6407,34.9443]}},{"properties":{"name":"TA Las Vegas","city":"Las Vegas","latitude":36.0433,"zip":"89139","phone":"702-361-1176","fax":"702-361-6349","longitude":-115.1873,"id":"adobhkoqs32e","location":"I-15, Blue Diamond Exit 33","state":"NV"},"type":"Feature","geometry":{"type":"Point","coordinates":[-115.1873,36.0433]}},{"properties":{"name":"TA Mill City","city":"Mill City","latitude":40.6932,"zip":"89418","phone":"775-538-7311","fax":"775-538-7319","longitude":-118.056,"id":"adobhkpuoms1","location":"I-80, Exit 151 (West) Exit 149 (East)","state":"NV"},"type":"Feature","geometry":{"type":"Point","coordinates":[-118.056,40.6932]}},{"properties":{"name":"TA Sparks","city":"Sparks","latitude":39.5351,"zip":"89431-5419","phone":"775-359-0550","fax":"775-332-1960","longitude":-119.7361,"id":"adobhknz608w","location":"I-80, Exit 19","state":"NV"},"type":"Feature","geometry":{"type":"Point","coordinates":[-119.7361,39.5351]}},{"properties":{"name":"TA Binghamton","city":"Binghamton","latitude":42.1013,"zip":"13904","phone":"607-775-3500","fax":"607-775-1528","longitude":-75.8418,"id":"adobhkje1scy","location":"I-81 N. Exit 2W, NY Route 17 or I-81 S., Exit 3","state":"NY"},"type":"Feature","geometry":{"type":"Point","coordinates":[-75.8418,42.1013]}},{"properties":{"name":"TA Pembroke","city":"Corfu","latitude":43.0049,"zip":"14036-0276","phone":"585-599-4577","fax":"585-599-3456","longitude":-78.4073,"id":"adobhkqf52r4","location":"I-90 &amp; SR 77, Exit 48A, Pembroke","state":"NY"},"type":"Feature","geometry":{"type":"Point","coordinates":[-78.4073,43.0049]}},{"properties":{"name":"TA Dansville","city":"Dansville","latitude":42.5662,"zip":"14437","phone":"585-335-6023","fax":"585-335-2090","longitude":-77.7195,"id":"adobhktnllow","location":"I-390, Exit 5","state":"NY"},"type":"Feature","geometry":{"type":"Point","coordinates":[-77.7195,42.5662]}},{"properties":{"name":"TA Fultonville","city":"Fultonville","latitude":42.9488,"zip":"12072","phone":"518-853-3411","fax":"518-853-4523","longitude":-74.3629,"id":"adobhkgsja6p","location":"I-90, Exit 28","state":"NY"},"type":"Feature","geometry":{"type":"Point","coordinates":[-74.3629,42.9488]}},{"properties":{"name":"TA Maybrook","city":"Maybrook","latitude":41.5042,"zip":"12549","phone":"845-457-3163","fax":"845-457-3492","longitude":-74.2207,"id":"adobhkgvph2y","location":"I-84, Exit 5","state":"NY"},"type":"Feature","geometry":{"type":"Point","coordinates":[-74.2207,41.5042]}},{"properties":{"name":"TA North Canton","city":"Canton","latitude":40.8788,"zip":"44720","phone":"330-494-7507","fax":"330-494-7911","longitude":-81.4295,"id":"adobhkvu6lmd","location":"I-77, Exit 111","state":"OH"},"type":"Feature","geometry":{"type":"Point","coordinates":[-81.4295,40.8788]}},{"properties":{"name":"TA Dayton","city":"Eaton","latitude":39.84,"zip":"45320-0030","phone":"937-456-5521","fax":"937-456-1273","longitude":-84.6282,"id":"adobhkmq2keh","location":"I-70 &amp; U.S. 127, Exit 10","state":"OH"},"type":"Feature","geometry":{"type":"Point","coordinates":[-84.6282,39.84]}},{"properties":{"name":"TA Hebron","city":"Hebron","latitude":39.9389,"zip":"43025-0520","phone":"740-467-2900","fax":"740-467-3358","longitude":-82.5349,"id":"adobhksdf6v2","location":"I-70 at Ohio 37, Exit 126","state":"OH"},"type":"Feature","geometry":{"type":"Point","coordinates":[-82.5349,39.9389]}},{"properties":{"name":"TA Jeffersonville","city":"Jeffersonville","latitude":39.6166,"zip":"43128-0068","phone":"740-948-2365","fax":"740-948-2564","longitude":-83.6038,"id":"adobhkqdxcl3","location":"I-71 &amp; U.S. 35, Exit 65","state":"OH"},"type":"Feature","geometry":{"type":"Point","coordinates":[-83.6038,39.6166]}},{"properties":{"name":"TA Kingsville","city":"Kingsville","latitude":41.8765,"zip":"44048","phone":"440-224-2035","fax":"440-224-0446","longitude":-80.6671,"id":"adobhkhax5t1","location":"I-90, Exit 235","state":"OH"},"type":"Feature","geometry":{"type":"Point","coordinates":[-80.6671,41.8765]}},{"properties":{"name":"TA Lodi","city":"Lodi","latitude":41.0322,"zip":"44273-0125","phone":"330-769-2053","fax":"330-769-4609","longitude":-81.9078,"id":"adobhkremorw","location":"I-71 &amp; I-76 at Rt. 224, Exit 209","state":"OH"},"type":"Feature","geometry":{"type":"Point","coordinates":[-81.9078,41.0322]}},{"properties":{"name":"TA London","city":"London","latitude":39.9538,"zip":"43140-0560","phone":"740-852-3810","fax":"740-852-4559","longitude":-83.3796,"id":"adobhkkfd338","location":"I-70 &amp; U.S. 42, Exit 79","state":"OH"},"type":"Feature","geometry":{"type":"Point","coordinates":[-83.3796,39.9538]}},{"properties":{"name":"TA Napoleon","city":"Napoleon","latitude":41.4146,"zip":"43545","phone":"419-599-0065","fax":"419-592-0988","longitude":-84.0966,"id":"adobhkr3jk97","location":"State Routes 6 &amp; 24 Exit 41","state":"OH"},"type":"Feature","geometry":{"type":"Point","coordinates":[-84.0966,41.4146]}},{"properties":{"name":"TA Toledo","city":"Toledo","latitude":41.5215,"zip":"43551-9750","phone":"419-837-5017","fax":"419-837-6186","longitude":-83.4624,"id":"adobhko7atdc","location":"I-80 &amp; I-280, Exit 71, Ohio Turnpike","state":"OH"},"type":"Feature","geometry":{"type":"Point","coordinates":[-83.4624,41.5215]}},{"properties":{"name":"TA Wapakonenta","city":"Wapakoneta","latitude":40.5582,"zip":"45895","phone":"419-738-2550","fax":"419-738-8996","longitude":-84.1656,"id":"adobhkvmcpx5","location":"I-75 &amp; U.S. 33, Exit 111","state":"OH"},"type":"Feature","geometry":{"type":"Point","coordinates":[-84.1656,40.5582]}},{"properties":{"name":"TA Youngstown","city":"Youngstown","latitude":41.1225,"zip":"44515","phone":"330-793-4426","fax":"330-793-7889","longitude":-80.7653,"id":"adobhkpu3ptg","location":"I-80, Route 46, Exit 223A","state":"OH"},"type":"Feature","geometry":{"type":"Point","coordinates":[-80.7653,41.1225]}},{"properties":{"name":"TA Oklahoma City East","city":"Oklahoma City","latitude":35.458,"zip":"73128-4218","phone":"405-787-7411","fax":"405-789-2561","longitude":-97.6556,"id":"adobhkguyh5a","location":"I-40, Exit 142","state":"OK"},"type":"Feature","geometry":{"type":"Point","coordinates":[-97.6556,35.458]}},{"properties":{"name":"TA Oklahoma City West","city":"Oklahoma City","latitude":35.4617,"zip":"73128","phone":"405-324-5376","fax":"405-324-8037","longitude":-97.6906,"id":"adobhkrhk878","location":"I-40, Exit 140","state":"OK"},"type":"Feature","geometry":{"type":"Point","coordinates":[-97.6906,35.4617]}},{"properties":{"name":"TA Sayre","city":"Sayre","latitude":35.3355,"zip":"73662","phone":"580-928-5571","fax":"580-928-3087","longitude":-99.5946,"id":"adobhkvvq0of","location":"I-40, Exit 26 (Cemetary Rd.)","state":"OK"},"type":"Feature","geometry":{"type":"Point","coordinates":[-99.5946,35.3355]}},{"properties":{"name":"TA Eugene","city":"Coburg","latitude":44.1363,"zip":"97408","phone":"541-868-2880","fax":"541-484-4953","longitude":-123.057,"id":"adobhkl9omr8","location":"I-5, Exit 199","state":"OR"},"type":"Feature","geometry":{"type":"Point","coordinates":[-123.057,44.1363]}},{"properties":{"name":"TA Portland","city":"Portland","latitude":45.2361,"zip":"97002","phone":"503-678-2111","fax":"503-678-2571","longitude":-122.8072,"id":"adobhkg7gp9i","location":"I-5, Exit 278","state":"OR"},"type":"Feature","geometry":{"type":"Point","coordinates":[-122.8072,45.2361]}},{"properties":{"name":"TA Troutdale","city":"Troutdale","latitude":45.5438,"zip":"97060","phone":"503-666-1588","fax":"503-669-4148","longitude":-122.3958,"id":"adobhklmssxe","location":"I-84, Exit 17","state":"OR"},"type":"Feature","geometry":{"type":"Point","coordinates":[-122.3958,45.5438]}},{"properties":{"name":"TA Barkeyville","city":"Barkeyville","latitude":41.1992,"zip":"16038-9641","phone":"814-786-7988","fax":"814-786-9000","longitude":-79.9758,"id":"adobhksigv1a","location":"I-80 &amp; S.R. 8, Exit 29","state":"PA"},"type":"Feature","geometry":{"type":"Point","coordinates":[-79.9758,41.1992]}},{"properties":{"name":"TA Bloomsburg","city":"Bloomsburg","latitude":41.0143,"zip":"17815","phone":"570-784-9400","fax":"570-784-9441","longitude":-76.4928,"id":"adobhktwll49","location":"I-80, Exit 232","state":"PA"},"type":"Feature","geometry":{"type":"Point","coordinates":[-76.4928,41.0143]}},{"properties":{"name":"TA Breezewood","city":"Breezewood","latitude":40.0004,"zip":"15533-0287","phone":"814-735-2011","fax":"814-735-4494","longitude":-78.234,"id":"adobhktxwe6r","location":"I-76, Exit 161/I-70, Exit US 30","state":"PA"},"type":"Feature","geometry":{"type":"Point","coordinates":[-78.234,40.0004]}},{"properties":{"name":"TA Brookville","city":"Brookville","latitude":41.1729,"zip":"15825-8211","phone":"814-849-3051","fax":"814-849-5259","longitude":-79.0992,"id":"adobhkjtoh75","location":"I-80 &amp; Rt. 36, Exit 78","state":"PA"},"type":"Feature","geometry":{"type":"Point","coordinates":[-79.0992,41.1729]}},{"properties":{"name":"TA Greencastle","city":"Greencastle","latitude":39.7846,"zip":"17225","phone":"717-597-7762","fax":"717-597-3506","longitude":-77.7126,"id":"adobhkjig7z5","location":"I-81, Exit 5","state":"PA"},"type":"Feature","geometry":{"type":"Point","coordinates":[-77.7126,39.7846]}},{"properties":{"name":"TA Harborcreek","city":"Harborcreek","latitude":42.1409,"zip":"16510","phone":"814-899-1919","fax":"814-899-7918","longitude":-79.9246,"id":"adobhkn0wl3j","location":"I-90, Exit 35","state":"PA"},"type":"Feature","geometry":{"type":"Point","coordinates":[-79.9246,42.1409]}},{"properties":{"name":"TA Harrisburg","city":"Harrisburg","latitude":40.355,"zip":"17112-0535","phone":"717-652-4556","fax":"717-657-5012","longitude":-76.7241,"id":"adobhkucbywv","location":"I-81 &amp; S.R. 39, Manada Hill Exit 77","state":"PA"},"type":"Feature","geometry":{"type":"Point","coordinates":[-76.7241,40.355]}},{"properties":{"name":"TA Lamar","city":"Lamar","latitude":41.0275,"zip":"16848-0278","phone":"570-726-4996","fax":"570-726-4172","longitude":-77.521,"id":"adobhkvodt16","location":"I-80 &amp; S.R. 64, Exit 173","state":"PA"},"type":"Feature","geometry":{"type":"Point","coordinates":[-77.521,41.0275]}},{"properties":{"name":"TA Milesburg","city":"Milesburg","latitude":40.9589,"zip":"16853","phone":"814-355-7561","fax":"814-355-3197","longitude":-77.763,"id":"adobhknzisgo","location":"I-80, Exit 158","state":"PA"},"type":"Feature","geometry":{"type":"Point","coordinates":[-77.763,40.9589]}},{"properties":{"name":"TA Florence","city":"Florence","latitude":34.2364,"zip":"29501","phone":"843-292-0386","fax":"843-667-6976","longitude":-79.8065,"id":"adobhkn7cw4z","location":"I-95 and Hwy 52, Exit 164","state":"SC"},"type":"Feature","geometry":{"type":"Point","coordinates":[-79.8065,34.2364]}},{"properties":{"name":"TA Manning","city":"Manning","latitude":33.7046,"zip":"29102","phone":"803-473-2568","fax":"803-473-2822","longitude":-80.242,"id":"adobhkpf3836","location":"I-95 &amp; S.R. 261, Exit 119","state":"SC"},"type":"Feature","geometry":{"type":"Point","coordinates":[-80.242,33.7046]}},{"properties":{"name":"TA Spartanburg","city":"Spartanburg","latitude":34.914,"zip":"29334-9647","phone":"864-433-0711","fax":"864-433-1495","longitude":-82.11,"id":"adobhkkkuxae","location":"I-85 &amp; S.R. 290, Exit 63","state":"SC"},"type":"Feature","geometry":{"type":"Point","coordinates":[-82.11,34.914]}},{"properties":{"name":"TA Antioch","city":"Antioch","latitude":36.015,"zip":"37013","phone":"615-641-6731","fax":"615-641-3353","longitude":-86.6184,"id":"adobhki5j3rh","location":"I-24, Exit 62","state":"TN"},"type":"Feature","geometry":{"type":"Point","coordinates":[-86.6184,36.015]}},{"properties":{"name":"TA Denmark","city":"Denmark","latitude":35.5955,"zip":"38391-9998","phone":"731-424-5591","fax":"731-424-7160","longitude":-89.0557,"id":"adobhkrrlddh","location":"I-40, Exit 68","state":"TN"},"type":"Feature","geometry":{"type":"Point","coordinates":[-89.0557,35.5955]}},{"properties":{"name":"TA Franklin","city":"Franklin","latitude":35.8603,"zip":"37064","phone":"615-794-8406","fax":"615-790-6510","longitude":-86.8299,"id":"adobhkperw54","location":"I-65, Exit 61","state":"TN"},"type":"Feature","geometry":{"type":"Point","coordinates":[-86.8299,35.8603]}},{"properties":{"name":"TA Greeneville","city":"Greeneville","latitude":36.3254,"zip":"37745","phone":"423-234-4451","fax":"423-234-6201","longitude":-82.8354,"id":"adobhkp4x8g2","location":"I-81 &amp; Hwy 172, Exit 36","state":"TN"},"type":"Feature","geometry":{"type":"Point","coordinates":[-82.8354,36.3254]}},{"properties":{"name":"TA Knoxville","city":"Knoxville","latitude":35.9096,"zip":"37932-3297","phone":"865-966-6781","fax":"865-966-4401","longitude":-84.1473,"id":"adobhkul9x29","location":"I-40 &amp; I-75, Exit 374","state":"TN"},"type":"Feature","geometry":{"type":"Point","coordinates":[-84.1473,35.9096]}},{"properties":{"name":"TA Knoxville West","city":"Knoxville","latitude":35.8731,"zip":"37922-1112","phone":"865-531-7676","fax":"865-531-8701","longitude":-84.2379,"id":"adobhkt376c7","location":"I-40 &amp; I-75, Exit 369","state":"TN"},"type":"Feature","geometry":{"type":"Point","coordinates":[-84.2379,35.8731]}},{"properties":{"name":"TA Nashville","city":"Nashville","latitude":36.1716,"zip":"37213","phone":"615-244-3682","fax":"615-244-9419","longitude":-86.7721,"id":"adobhku42kya","location":"I-24, James Robertson Pkwy., Exit 48","state":"TN"},"type":"Feature","geometry":{"type":"Point","coordinates":[-86.7721,36.1716]}},{"properties":{"name":"TA Amarillo","city":"Amarillo","latitude":35.1915,"zip":"79118","phone":"806-342-3080","fax":"806-371-8486","longitude":-101.7589,"id":"adobhkw0khi9","location":"I-40 &amp; Whitaker, Exit 74","state":"TX"},"type":"Feature","geometry":{"type":"Point","coordinates":[-101.7589,35.1915]}},{"properties":{"name":"TA Baytown","city":"Baytown","latitude":29.7967,"zip":"77522","phone":"281-424-7772","fax":"281-424-3372","longitude":-95.0311,"id":"adobhkuve0q9","location":"I-10 &amp; Thompson Rd., Exit 789","state":"TX"},"type":"Feature","geometry":{"type":"Point","coordinates":[-95.0311,29.7967]}},{"properties":{"name":"TA Big Spring","city":"Big Spring","latitude":32.2648,"zip":"79720","phone":"432-264-4444","fax":"432-263-0418","longitude":-101.49,"id":"adobhkqy1h3k","location":"I-20 &amp; Hwy 87, Exit 177","state":"TX"},"type":"Feature","geometry":{"type":"Point","coordinates":[-101.49,32.2648]}},{"properties":{"name":"TA Dallas South","city":"Dallas South","latitude":32.6534,"zip":"75241","phone":"469-941-3150","fax":"469-941-3158","longitude":-96.7517,"id":"adobhkud0crp","location":"I-20 &amp; I-635, Exit 472","state":"TX"},"type":"Feature","geometry":{"type":"Point","coordinates":[-96.7517,32.6534]}},{"properties":{"name":"TA Denton","city":"Denton","latitude":33.2622,"zip":"76207","phone":"940-383-1458","fax":"940-898-1527","longitude":-97.1767,"id":"adobhkjzt7nt","location":"I-35 &amp; U.S. 77, Exit 471, MM 471","state":"TX"},"type":"Feature","geometry":{"type":"Point","coordinates":[-97.1767,33.2622]}},{"properties":{"name":"TA Edinburg","city":"Edinburg","latitude":26.3845,"zip":"78541-7060","phone":"956-383-0788","fax":"956-383-2310","longitude":-98.1435,"id":"adobhkrjlrww","location":"Hwy 281, Exit FM 2812","state":"TX"},"type":"Feature","geometry":{"type":"Point","coordinates":[-98.1435,26.3845]}},{"properties":{"name":"TA Ganado","city":"Ganado","latitude":29.0496,"zip":"77962","phone":"361-771-3504","fax":"361-771-1984","longitude":-96.5034,"id":"adobhkkpvvuv","location":"59, Exit 522E","state":"TX"},"type":"Feature","geometry":{"type":"Point","coordinates":[-96.5034,29.0496]}},{"properties":{"name":"TA Laredo","city":"Laredo","latitude":27.6875,"zip":"78045","phone":"956-724-2016","fax":"956-724-2511","longitude":-99.4634,"id":"adobhkpncz05","location":"I-35 and Beltway Parkway, Exit 13","state":"TX"},"type":"Feature","geometry":{"type":"Point","coordinates":[-99.4634,27.6875]}},{"properties":{"name":"TA New Braunfels","city":"New Braunfels","latitude":29.7489,"zip":"78130","phone":"830-608-9395","fax":"830-608-9064","longitude":-98.0579,"id":"adobhkr3ex4u","location":"I-35, Conrads Rd., Exit 193","state":"TX"},"type":"Feature","geometry":{"type":"Point","coordinates":[-98.0579,29.7489]}},{"properties":{"name":"TA Rockwall","city":"Rockwall","latitude":32.9074,"zip":"75087","phone":"972-722-7450","fax":"972-722-7458","longitude":-96.45,"id":"adobhkr0790q","location":"I-30 at Route 205, Exit 68","state":"TX"},"type":"Feature","geometry":{"type":"Point","coordinates":[-96.45,32.9074]}},{"properties":{"name":"TA San Antonio","city":"San Antonio","latitude":29.4433,"zip":"78219","phone":"210-310-0145","fax":"210-661-3109","longitude":-98.3618,"id":"adobhkuneqm1","location":"I-10, Exit 583, Foster Rd.","state":"TX"},"type":"Feature","geometry":{"type":"Point","coordinates":[-98.3618,29.4433]}},{"properties":{"name":"TA Sweetwater","city":"Sweetwater","latitude":32.4486,"zip":"79556-1578","phone":"325-235-8488","fax":"325-235-3703","longitude":-100.4433,"id":"adobhkgk1fhs","location":"I-20, Exit 242","state":"TX"},"type":"Feature","geometry":{"type":"Point","coordinates":[-100.4433,32.4486]}},{"properties":{"name":"TA Terrell","city":"Terrell","latitude":32.6908,"zip":"75161","phone":"972-563-6939","fax":"972-563-7239","longitude":-96.2441,"id":"adobhktew01l","location":"I-20 &amp; Wilson Rd., Exit 503","state":"TX"},"type":"Feature","geometry":{"type":"Point","coordinates":[-96.2441,32.6908]}},{"properties":{"name":"TA Parowan","city":"Parowan","latitude":37.8607,"zip":"84761","phone":"435-477-3311","fax":"435-477-8713","longitude":-112.8291,"id":"adobhktqyule","location":"I-15, Exit 78","state":"UT"},"type":"Feature","geometry":{"type":"Point","coordinates":[-112.8291,37.8607]}},{"properties":{"name":"TA Salt Lake City","city":"Salt Lake City","latitude":40.6899,"zip":"84074","phone":"801-250-8585","fax":"801-252-2224","longitude":-112.2629,"id":"adobhkttgb2z","location":"I-80, Exit 99","state":"UT"},"type":"Feature","geometry":{"type":"Point","coordinates":[-112.2629,40.6899]}},{"properties":{"name":"TA Ashland","city":"Ashland","latitude":37.7598,"zip":"23005-0712","phone":"804-798-6011","fax":"804-798-7342","longitude":-77.4631,"id":"adobhkqgsn8d","location":"I-95 &amp; Rt. 54, Exit 92","state":"VA"},"type":"Feature","geometry":{"type":"Point","coordinates":[-77.4631,37.7598]}},{"properties":{"name":"TA Richmond","city":"Ashland","latitude":37.7237,"zip":"23005","phone":"804-798-6021","fax":"804-752-6665","longitude":-77.4479,"id":"adobhkoxe25a","location":"I-95, Exit 89","state":"VA"},"type":"Feature","geometry":{"type":"Point","coordinates":[-77.4479,37.7237]}},{"properties":{"name":"TA Roanoke","city":"Roanoke","latitude":37.3887,"zip":"24176-0305","phone":"540-992-3100","fax":"540-992-5069","longitude":-79.9028,"id":"adobhkml1she","location":"I-81 &amp; U.S. 220, Exit 150","state":"VA"},"type":"Feature","geometry":{"type":"Point","coordinates":[-79.9028,37.3887]}},{"properties":{"name":"TA Wytheville","city":"Wytheville","latitude":36.9651,"zip":"24382","phone":"276-228-8676","fax":"276-228-8504","longitude":-81.0676,"id":"adobhlc9roma","location":"I-77, Exit 41, I-81, Exit 72","state":"VA"},"type":"Feature","geometry":{"type":"Point","coordinates":[-81.0676,36.9651]}},{"properties":{"name":"TA Seattle East","city":"Seattle East","latitude":47.4683,"zip":"98045","phone":"425-888-1119","fax":"425-888-9392","longitude":-121.7181,"id":"adobhkxo120x","location":"I-90, Exit 34","state":"WA"},"type":"Feature","geometry":{"type":"Point","coordinates":[-121.7181,47.4683]}},{"properties":{"name":"TA Hudson","city":"Hudson","latitude":44.9655,"zip":"54016-0630","phone":"715-386-5835","fax":"715-386-1149","longitude":-92.6785,"id":"adobhkxw0s0i","location":"I-94, Exit 4","state":"WI"},"type":"Feature","geometry":{"type":"Point","coordinates":[-92.6785,44.9655]}},{"properties":{"name":"TA Janesville","city":"Janesville","latitude":42.7143,"zip":"53547-8218","phone":"608-752-8700","fax":"680-752-4604","longitude":-88.9793,"id":"adobhl7vnmi9","location":"I-90 &amp; Hwy 14, Exit 171-C","state":"WI"},"type":"Feature","geometry":{"type":"Point","coordinates":[-88.9793,42.7143]}},{"properties":{"name":"TA Madison","city":"Madison","latitude":43.1745,"zip":"53532","phone":"608-249-9000","fax":"608-246-0359","longitude":-89.3255,"id":"adobhl85e4jg","location":"I-90 &amp; I-94, Exit 132","state":"WI"},"type":"Feature","geometry":{"type":"Point","coordinates":[-89.3255,43.1745]}},{"properties":{"name":"TA Hurricane","city":"Hurricane","latitude":38.4543,"zip":"25526-9772","phone":"304-757-7600","fax":"304-757-7818","longitude":-81.935,"id":"adobhl3m3mrb","location":"I-64 &amp; S.R. 34, Exit 39","state":"WV"},"type":"Feature","geometry":{"type":"Point","coordinates":[-81.935,38.4543]}},{"properties":{"name":"TA Wheeling","city":"Wheeling","latitude":40.0694,"zip":"26060-0008","phone":"304-547-1521","fax":"304-547-9454","longitude":-80.5677,"id":"adobhkzr9hkg","location":"I-70 at Dallas Pike, Exit 11","state":"WV"},"type":"Feature","geometry":{"type":"Point","coordinates":[-80.5677,40.0694]}},{"properties":{"name":"TA Cheyenne","city":"Cheyenne","latitude":41.1602,"zip":"82003","phone":"307-547-3557","fax":"307-547-3420","longitude":-104.5207,"id":"adobhl4ether","location":"I-80, Exit 377","state":"WY"},"type":"Feature","geometry":{"type":"Point","coordinates":[-104.5207,41.1602]}},{"properties":{"name":"TA Ft. Bridger","city":"Ft. Bridger","latitude":41.3144,"zip":"82933","phone":"307-782-3846","fax":"307-782-6623","longitude":-110.5095,"id":"adobhl0yqh4g","location":"I-80, Exit 30","state":"WY"},"type":"Feature","geometry":{"type":"Point","coordinates":[-110.5095,41.3144]}},{"properties":{"name":"TA Rawlins","city":"Rawlins","latitude":41.7762,"zip":"82301","phone":"307-324-8722","fax":"307-328-1523","longitude":-107.2243,"id":"adobhkwt0a1a","location":"I-80 &amp; Higley Blvd., Exit 214","state":"WY"},"type":"Feature","geometry":{"type":"Point","coordinates":[-107.2243,41.7762]}},{"properties":{"name":"TA Woodstock","city":"Woodstock","latitude":43.1031,"zip":"N4S 7V6","phone":"519-421-3144","fax":"519-421-5223","longitude":-80.7565,"id":"adobhl7daiu8","location":"230 Travel Centre Provincial Highway 401, exit 230","state":"ON"},"type":"Feature","geometry":{"type":"Point","coordinates":[-80.7565,43.1031]}},{"properties":{"name":"TA Pioneer - Stand Alone Shop","city":"Pioneer","latitude":36.3771,"zip":"37847","phone":"423-566-9900","fax":"423-566-3700","longitude":-84.2463,"id":"adobhl4ib81r","location":"I-75, Exit 141","state":"TN"},"type":"Feature","geometry":{"type":"Point","coordinates":[-84.2463,36.3771]}},{"properties":{"name":"TA Porter South","city":"Porter","latitude":41.6129,"zip":"46304","phone":"219-926-4871","fax":"219-921-0726","longitude":-87.0964,"id":"adobhl42sof4","location":"I-94, Exit 22B","state":"IN"},"type":"Feature","geometry":{"type":"Point","coordinates":[-87.0964,41.6129]}},{"properties":{"name":"TA DeMotte","city":"DeMotte","latitude":41.1456,"zip":"46310","phone":"219-987-7520","fax":"219-987-7692","longitude":-87.2597,"id":"adobhkwioj4n","location":"I-65, Exit 230","state":"IN"},"type":"Feature","geometry":{"type":"Point","coordinates":[-87.2597,41.1456]}},{"properties":{"name":"TA Lexington","city":"Lexington","latitude":37.8339,"zip":"24450","phone":"540-463-3478","fax":"540-463-1543","longitude":-79.3779,"id":"adobhkxtp8k0","location":"I-81/I-64, Exit 195","state":"VA"},"type":"Feature","geometry":{"type":"Point","coordinates":[-79.3779,37.8339]}},{"properties":{"name":"TA Tekonsha","city":"Tekonsha","latitude":42.1065,"zip":"49092-0220","phone":"517-767-4135","fax":"571-767-3430","longitude":-84.9897,"id":"adobhl0otnf9","location":"I-69, Exit 25","state":"MI"},"type":"Feature","geometry":{"type":"Point","coordinates":[-84.9897,42.1065]}},{"properties":{"name":"TA Battle Creek","city":"Battle Creek","latitude":42.3029,"zip":"49014","phone":"269-965-7721","fax":"269-968-4233","longitude":-85.0811,"id":"adobhkzkmzxe","location":"I-94, Exit 104","state":"MI"},"type":"Feature","geometry":{"type":"Point","coordinates":[-85.0811,42.3029]}},{"properties":{"name":"TA Holbrook","city":"Holbrook","latitude":34.9054,"zip":"86025","phone":"928-524-3006","fax":null,"longitude":-100.2108,"id":"adobhl767je9","location":"I-40, Exit 283","state":"AZ"},"type":"Feature","geometry":{"type":"Point","coordinates":[-100.2108,34.9054]}}],"is_temporal":false,"author":{"url":"http://www.tatravelcenters.com/","metadata":"","contact_name":"","contact_address":"","source":"TravelCenters of America","contact_phone":""},"source":"http://www.tatravelcenters.com/","pagination":{"sort":null,"start":0,"total":170,"limit":1000000},"state":"complete","tags":"","published":"2014-08-16T21:01:04-04:00","id":346720}