{"type":"FeatureCollection","data_type":"Dataset","url_type":null,"permissions":[{"permissions":{"download":true,"view":true},"group_id":"everyone"}],"classification":null,"title":"map_data_correct","count":13,"stream_id":347247,"contributor":{"url":"http://geocommons.com/users/70057","name":"pashkoff2"},"data_attributes":null,"calculation_params":null,"icon_link":null,"link":"http://geocommons.com/overlays/347247.json","extent":[303.0,5575.0,37616700.0,5995.0],"geometry_types":["point"],"unique_name":null,"name":"map_data_correct","feature_count":13,"description":"","next_feature":null,"is_raster":false,"short_classification":"Y","stats":{"latitude":{"max":5995.0,"variance":88200.0,"mean":5785.0,"stdev":296.98484809835,"min":5575.0,"median":5995.0},"longitude":{"max":37616667.0,"variance":707495420290248.0,"mean":18808485.0,"stdev":26598786.0679815,"min":303.0,"median":37616667.0}},"features":[{"properties":{"name":"Moscow","city":"Moscow","latitude":5575.0,"country":"Russia","type":"Delivery","longitude":37616667.0,"id":"adp9goura5pt","state":null},"type":"Feature","geometry":{"type":"Point","coordinates":[37616667.0,5575.0]}},{"properties":{"name":"Petersburg","city":"Petersburg","latitude":5995.0,"country":"Russia","type":"Delivery","longitude":303.0,"id":"adp9golv84c2","state":null},"type":"Feature","geometry":{"type":"Point","coordinates":[303.0,5995.0]}},{"properties":{"name":"Omsk","city":"Omsk","latitude":null,"country":"Russia","type":"Delivery","longitude":null,"id":"adp9goqyg48m","state":null},"type":"Feature","geometry":null},{"properties":{"name":"Dubna","city":"Dubna","latitude":null,"country":"Russia","type":"Delivery","longitude":null,"id":"adp9gollwrn2","state":null},"type":"Feature","geometry":null},{"properties":{"name":"Kiev","city":"Kiev","latitude":null,"country":"Ukraine","type":"Delivery","longitude":null,"id":"adp9gotsnf1k","state":null},"type":"Feature","geometry":null},{"properties":{"name":"Odessa","city":"Odessa","latitude":null,"country":"Ukraine","type":"Delivery","longitude":null,"id":"adp9gosmw1m6","state":null},"type":"Feature","geometry":null},{"properties":{"name":"Dnepropetrovsk","city":"Dnepropetrovsk","latitude":null,"country":"Ukraine","type":"Delivery","longitude":null,"id":"adp9goolu4uu","state":null},"type":"Feature","geometry":null},{"properties":{"name":"Krakow","city":"Krakow","latitude":null,"country":"Poland","type":"Delivery","longitude":null,"id":"adp9gosaahum","state":null},"type":"Feature","geometry":null},{"properties":{"name":"Bucharest","city":"Bucharest","latitude":null,"country":"Romania","type":"Delivery","longitude":null,"id":"adp9gopdgz6c","state":null},"type":"Feature","geometry":null},{"properties":{"name":"Welwyn Garden City","city":"Welwyn Garden City","latitude":null,"country":"UK","type":"Delivery","longitude":null,"id":"adp9goua67wt","state":null},"type":"Feature","geometry":null},{"properties":{"name":"New York","city":"New York","latitude":null,"country":"US","type":"Delivery","longitude":null,"id":"adp9gomo1plm","state":"NY"},"type":"Feature","geometry":null},{"properties":{"name":"Seatle","city":"Seatle","latitude":null,"country":"US","type":"Delivery","longitude":null,"id":"adp9gof8yx22","state":"WA"},"type":"Feature","geometry":null},{"properties":{"name":"Ho Chi Minh City","city":"Ho Chi Minh City","latitude":null,"country":"Vietnam","type":"Delivery","longitude":null,"id":"adp9gofqqwvw","state":null},"type":"Feature","geometry":null}],"is_temporal":false,"author":{"url":"","metadata":"","contact_name":"","contact_address":"","source":"","contact_phone":""},"source":"","pagination":{"sort":null,"start":0,"total":13,"limit":1000000},"state":"complete","tags":"","published":"2014-08-16T21:34:56-04:00","id":347247}