{"type":"FeatureCollection","data_type":"Dataset","url_type":null,"permissions":[{"permissions":{"download":true,"view":true},"group_id":"everyone"}],"classification":null,"title":"Arrests","count":31,"stream_id":348156,"contributor":{"url":"http://geocommons.com/users/70193","name":"bertra25"},"data_attributes":null,"calculation_params":null,"icon_link":null,"link":"http://geocommons.com/overlays/348156.json","extent":[-84.8315,42.555,-83.9386,42.764],"geometry_types":["point"],"unique_name":null,"name":"Arrests","feature_count":31,"description":"","next_feature":null,"is_raster":false,"short_classification":"Y","stats":{},"features":[{"properties":{"city":"East Lansing","geo_score":0.619,"crime":"Theft","id":"adrs5766t3az","address":"River Avenue","geo_precision":"street","state":"MI"},"type":"Feature","geometry":{"type":"Point","coordinates":[-84.462114,42.722594]}},{"properties":{"city":"East Lansing","geo_score":0.857,"crime":"OUI","id":"adrs570ts5lk","address":"Evergreen Avenue","geo_precision":"street","state":"MI"},"type":"Feature","geometry":{"type":"Point","coordinates":[-84.484552,42.735475]}},{"properties":{"city":"East Lansing","geo_score":0.807,"crime":"Theft","id":"adrs575rbio5","address":"West Grand River Avenue","geo_precision":"street","state":"MI"},"type":"Feature","geometry":{"type":"Point","coordinates":[-84.486285,42.735928]}},{"properties":{"city":"East Lansing","geo_score":0.857,"crime":"Theft","id":"adrs577ynau1","address":"Beal Street","geo_precision":"street","state":"MI"},"type":"Feature","geometry":{"type":"Point","coordinates":[-84.491242,42.73517]}},{"properties":{"city":"East Lansing","geo_score":0.681,"crime":"Vandalism","id":"adrs57azu0lc","address":"Wilson Hall","geo_precision":"street","state":"MI"},"type":"Feature","geometry":{"type":"Point","coordinates":[-84.584279,42.763971]}},{"properties":{"city":"East Lansing","geo_score":0.857,"crime":"Warrant Arrest","id":"adrs575d4phb","address":"Park Lane","geo_precision":"street","state":"MI"},"type":"Feature","geometry":{"type":"Point","coordinates":[-84.482888,42.738248]}},{"properties":{"city":"East Lansing","geo_score":0.857,"crime":"Warrant Arrest","id":"adrs57efdh6w","address":"Abbott Road","geo_precision":"street","state":"MI"},"type":"Feature","geometry":{"type":"Point","coordinates":[-84.483764,42.735243]}},{"properties":{"city":"East Lansing","geo_score":0.75,"crime":"Liquor Violation","id":"adrs578us61v","address":"Stoddard Road","geo_precision":"street","state":"MI"},"type":"Feature","geometry":{"type":"Point","coordinates":[-84.466729,42.732735]}},{"properties":{"city":"East Lansing","geo_score":0.54,"crime":"Hit and Run","id":"adrs57aiv373","address":"East Brody Road","geo_precision":"street","state":"MI"},"type":"Feature","geometry":{"type":"Point","coordinates":[-84.562939,42.673835]}},{"properties":{"city":"East Lansing","geo_score":0.8,"crime":"Possesion of drug","id":"adrs57035x28","address":"Grand River Avenue","geo_precision":"street","state":"MI"},"type":"Feature","geometry":{"type":"Point","coordinates":[-84.480481,42.734185]}},{"properties":{"city":"East Lansing","geo_score":0.339,"crime":"Theft","id":"adrs578y4qwf","address":"Bouge Street","geo_precision":"street","state":"MI"},"type":"Feature","geometry":{"type":"Point","coordinates":[-83.93858,42.595203]}},{"properties":{"city":"East Lansing","geo_score":0.558,"crime":"Theft","id":"adrs5790ojqg","address":"East Circle Drive","geo_precision":"street","state":"MI"},"type":"Feature","geometry":{"type":"Point","coordinates":[-84.487167,42.733047]}},{"properties":{"city":"East Lansing","geo_score":0.736,"crime":"Theft","id":"adrs57a8uali","address":"Kalamazoo Street","geo_precision":"street","state":"MI"},"type":"Feature","geometry":{"type":"Point","coordinates":[-84.550663,42.73001]}},{"properties":{"city":"East Lansing","geo_score":0.686,"crime":"MIP","id":"adrs575dzbhl","address":"Akers Hall","geo_precision":"street","state":"MI"},"type":"Feature","geometry":{"type":"Point","coordinates":[-84.466242,42.724744]}},{"properties":{"city":"East Lansing","geo_score":0.714,"crime":"Liquor Violation","id":"adrs5757r0d4","address":"Physics Road","geo_precision":"city","state":"MI"},"type":"Feature","geometry":{"type":"Point","coordinates":[-84.555535,42.732535]}},{"properties":{"city":"East Lansing","geo_score":0.75,"crime":"OUI","id":"adrs578te5x2","address":"River Street","geo_precision":"street","state":"MI"},"type":"Feature","geometry":{"type":"Point","coordinates":[-84.469326,42.729681]}},{"properties":{"city":"East Lansing","geo_score":0.69,"crime":"Theft","id":"adrs571w0twp","address":"Birch Road","geo_precision":"street","state":"MI"},"type":"Feature","geometry":{"type":"Point","coordinates":[-84.569805,42.719184]}},{"properties":{"city":"East Lansing","geo_score":0.69,"crime":"Theft","id":"adrs57599m2g","address":"Birch Road","geo_precision":"street","state":"MI"},"type":"Feature","geometry":{"type":"Point","coordinates":[-84.569805,42.719184]}},{"properties":{"city":"East Lansing","geo_score":0.666,"crime":"Theft","id":"adrs5795q8wd","address":"Chestnut Road","geo_precision":"street","state":"MI"},"type":"Feature","geometry":{"type":"Point","coordinates":[-84.55845,42.736005]}},{"properties":{"city":"East Lansing","geo_score":0.791,"crime":"Warrant Arrest","id":"adrs5790oo6l","address":"Red Ceader Road","geo_precision":"street","state":"MI"},"type":"Feature","geometry":{"type":"Point","coordinates":[-84.482457,42.723499]}},{"properties":{"city":"East Lansing","geo_score":0.571,"crime":"Theft","id":"adrs5754rk9p","address":"North Shaw Lane","geo_precision":"street","state":"MI"},"type":"Feature","geometry":{"type":"Point","coordinates":[-84.831457,42.554984]}},{"properties":{"city":"East Lansing","geo_score":0.339,"crime":"Theft","id":"adrs57d02lci","address":"Bouge Street","geo_precision":"street","state":"MI"},"type":"Feature","geometry":{"type":"Point","coordinates":[-83.93858,42.595203]}},{"properties":{"city":"East Lansing","geo_score":0.619,"crime":"MIP","id":"adrs570rhhnc","address":"East Shaw Lane","geo_precision":"street","state":"MI"},"type":"Feature","geometry":{"type":"Point","coordinates":[-84.831457,42.554984]}},{"properties":{"city":"East Lansing","geo_score":0.686,"crime":"Theft","id":"adrs577x4vpc","address":"Akers Hall","geo_precision":"street","state":"MI"},"type":"Feature","geometry":{"type":"Point","coordinates":[-84.466242,42.724744]}},{"properties":{"city":"East Lansing","geo_score":0.714,"crime":"Assualt","id":"adrs5741xj46","address":"Hubbard Hall","geo_precision":"street","state":"MI"},"type":"Feature","geometry":{"type":"Point","coordinates":[-84.463233,42.724705]}},{"properties":{"city":"East Lansing","geo_score":0.714,"crime":"Theft","id":"adrs57ehw6wx","address":"Hubbard Hall","geo_precision":"street","state":"MI"},"type":"Feature","geometry":{"type":"Point","coordinates":[-84.463233,42.724705]}},{"properties":{"city":"East Lansing","geo_score":0.791,"crime":"Theft","id":"adrs570qcjl1","address":"Hagadorn Road","geo_precision":"street","state":"MI"},"type":"Feature","geometry":{"type":"Point","coordinates":[-84.462154,42.733881]}},{"properties":{"city":"East Lansing","geo_score":0.714,"crime":"Theft","id":"adrs579b7cra","address":"Service Road","geo_precision":"city","state":"MI"},"type":"Feature","geometry":{"type":"Point","coordinates":[-84.555535,42.732535]}},{"properties":{"city":"East Lansing","geo_score":0.681,"crime":"MIP","id":"adrs574a53w4","address":"Wilson Hall","geo_precision":"street","state":"MI"},"type":"Feature","geometry":{"type":"Point","coordinates":[-84.584279,42.763971]}},{"properties":{"city":"East Lansing","geo_score":0.857,"crime":"Assualt","id":"adrs575qeyk3","address":"Middlevale Road","geo_precision":"street","state":"MI"},"type":"Feature","geometry":{"type":"Point","coordinates":[-84.497767,42.716718]}},{"properties":{"city":"East Lansing","geo_score":0.798,"crime":"Hit and Run","id":"adrs57d4ml6g","address":"Beaumont Road","geo_precision":"street","state":"MI"},"type":"Feature","geometry":{"type":"Point","coordinates":[-84.471853,42.70453]}}],"is_temporal":false,"author":{"url":"","metadata":null,"contact_name":null,"contact_address":null,"source":null,"contact_phone":null},"source":"","pagination":{"sort":null,"start":0,"total":31,"limit":1000000},"state":"complete","tags":"","published":"2014-08-16T22:42:30-04:00","id":348156}