{"type":"FeatureCollection","data_type":"Dataset","url_type":null,"permissions":[{"permissions":{"download":true,"view":true},"group_id":"everyone"}],"classification":null,"title":"Ice Cream Shop Locations, Arlington County, VA, 2010","count":12,"stream_id":34839,"contributor":{"url":"http://geocommons.com/users/139","name":"Burkey"},"data_attributes":null,"calculation_params":null,"icon_link":null,"link":"http://geocommons.com/overlays/34839.json","extent":[-77.1407,38.8393,-77.0494,38.8973],"geometry_types":["point"],"unique_name":null,"name":"Ice Cream Shop Locations, Arlington County, VA, 2010","feature_count":12,"description":"This dataset displays the locations of ice cream shops that are within Arlington County. \n\nThe data comes from a simple google maps search for ice cream throughout Arlington, VA.","next_feature":null,"is_raster":false,"short_classification":"Y","stats":{"geo_score":{"max":1.0,"mean":0.937,"variance":0.0156789090909091,"stdev":0.125215450687641,"min":0.597,"median":1.0}},"features":[{"properties":{"city":"Arlington","name":"Baskin-Robbins","zip":"22204","geo_score":0.977,"street address":"3100 Columbia Pike","phone":"(703) 271-4110","id":"a62f55bdwq66","geo_precision":"range","state":"VA"},"type":"Feature","geometry":{"type":"Point","coordinates":[-77.088563,38.862158]}},{"properties":{"city":"Arlington","name":"Baskin-Robbins","zip":"22207","geo_score":0.958,"street address":"3520 Lee Hwy","phone":"(703) 294-4023","id":"a62f55iu3h1q","geo_precision":"range","state":"VA"},"type":"Feature","geometry":{"type":"Point","coordinates":[-77.103497,38.89609]}},{"properties":{"city":"Arlington","name":"Baskin-Robbins","zip":"22207","geo_score":1.0,"street address":"2511 North Harrison Street","phone":"(703) 532-3131","id":"a62f55o0zzau","geo_precision":"range","state":"VA"},"type":"Feature","geometry":{"type":"Point","coordinates":[-77.139124,38.89734]}},{"properties":{"city":"Arlington","name":"Carvel Ice Cream &amp; Bakery","zip":"22201","geo_score":1.0,"street address":"3322 North Wilson Boulevard","phone":"(703) 248-3226","id":"a62f55k2rpnb","geo_precision":"range","state":"VA"},"type":"Feature","geometry":{"type":"Point","coordinates":[-77.099305,38.883817]}},{"properties":{"city":"Arlington","name":"Cold Stone Creamery","zip":"22203","geo_score":0.973,"street address":"4238 Wilson Blvd","phone":"(703) 778-6631","id":"a62f55pgxq7s","geo_precision":"range","state":"VA"},"type":"Feature","geometry":{"type":"Point","coordinates":[-77.111248,38.879974]}},{"properties":{"city":"Arlington","name":"Cold Stone Creamery","zip":"22202","geo_score":0.971,"street address":"2200 Crystal Drive","phone":"(703) 418-2223","id":"a62f55flkyqf","geo_precision":"range","state":"VA"},"type":"Feature","geometry":{"type":"Point","coordinates":[-77.049416,38.854215]}},{"properties":{"city":"Arlington","name":"Dickey's Frozen Custard","zip":"22202","geo_score":1.0,"street address":"1235 South Clark Street","phone":"(703) 416-2700","id":"a62f55bcfgvr","geo_precision":"range","state":"VA"},"type":"Feature","geometry":{"type":"Point","coordinates":[-77.051233,38.862608]}},{"properties":{"city":"Arlington","name":"Dippin' Dots","zip":"22202","geo_score":1.0,"street address":"1100 South Hayes Street","phone":"(703) 415-1575","id":"a62f55d71m5x","geo_precision":"range","state":"VA"},"type":"Feature","geometry":{"type":"Point","coordinates":[-77.058961,38.864211]}},{"properties":{"city":"Arlington","name":"Haagen-Dazs Shop","zip":"22202","geo_score":1.0,"street address":"1100 South Hayes Street","phone":"(703) 415-5540","id":"a62f55f7d56t","geo_precision":"range","state":"VA"},"type":"Feature","geometry":{"type":"Point","coordinates":[-77.058961,38.864211]}},{"properties":{"city":"Arlington","name":"Maggie Moo's","zip":"22206","geo_score":0.597,"street address":"4014 S 28th St","phone":"(703) 379-4823","id":"a62f55fx5h53","geo_precision":"street","state":"VA"},"type":"Feature","geometry":{"type":"Point","coordinates":[-77.106292,38.839256]}},{"properties":{"city":"Arlington","name":"Maggie Moo's","zip":"22206","geo_score":0.768,"street address":"1101 Joyce Street","phone":"(703) 413-6611","id":"a62f55cauog0","geo_precision":"range","state":"VA"},"type":"Feature","geometry":{"type":"Point","coordinates":[-77.063146,38.864981]}},{"properties":{"city":"Arlington","name":"Toby's Homemade Ice Cream &amp; Coffee","zip":"22205","geo_score":1.0,"street address":"5849 North Washington Boulevard","phone":"(703) 536-7000","id":"a62f55lll1gc","geo_precision":"range","state":"VA"},"type":"Feature","geometry":{"type":"Point","coordinates":[-77.14074,38.885181]}}],"is_temporal":false,"author":{"url":"http://maps.google.com/maps?oe=utf-8&rls=org.mozilla:en-US:official&client=firefox-a&um=1&ie=UTF-8&q=ice+cream+arlington&fb=1&gl=us&hq=ice+cream&hnear=arlington&view=text&ei=cXurS_r0AoP6lweNweirDg&sa=X&oi=local_group&ct=more-results&resnum=1&ved=0CCAQtQMw","metadata":"","contact_name":"","contact_address":"","source":"google maps search","contact_phone":""},"source":"http://maps.google.com/maps?oe=utf-8&rls=org.mozilla:en-US:official&client=firefox-a&um=1&ie=UTF-8&q=ice+cream+arlington&fb=1&gl=us&hq=ice+cream&hnear=arlington&view=text&ei=cXurS_r0AoP6lweNweirDg&sa=X&oi=local_group&ct=more-results&resnum=1&ved=0CCAQtQMw","pagination":{"sort":null,"start":0,"total":12,"limit":1000000},"state":"complete","tags":"arlington,arlingtonrec,community,recreation,virginia","published":"2010-03-25T15:19:45Z","id":34839}