{"type":"FeatureCollection","data_type":"Dataset","url_type":null,"permissions":[{"permissions":{"download":true,"view":true},"group_id":"everyone"}],"classification":null,"title":"Rectangular Playing Field Locations, Arlington County, VA, 2010","count":40,"stream_id":34838,"contributor":{"url":"http://geocommons.com/users/139","name":"Burkey"},"data_attributes":null,"calculation_params":null,"icon_link":null,"link":"http://geocommons.com/overlays/34838.json","extent":[-77.1609,38.8344,-77.0539,38.9228],"geometry_types":["point"],"unique_name":null,"name":"Rectangular Playing Field Locations, Arlington County, VA, 2010","feature_count":40,"description":"This dataset displays the locations of rectangular playing fields that are within Arlington County.\n\nLooking to play soccer, football, lacrosse, rugby, softball or baseball with friends or on a team? Want to play on a synthetic grass field? Arlington has a multitude of fields throughout the County available for community use and organized play. Search below for a location suited to your interest and please be sure to adhere to the associated Field Use Regulations so that we can maintain the quality of our fields.","next_feature":null,"is_raster":false,"short_classification":"Y","stats":{"geo_score":{"max":1.0,"mean":0.941825,"variance":0.00703650705128205,"stdev":0.0838838902965405,"min":0.722,"median":0.973}},"features":[{"properties":{"age designation":"Youth","city":"Arlington","park/field name":"Abingdon ES","zip":"22206","geo_score":0.973,"type":"Rectangular Field","lights":"No","field classification*":"Permit Takes Priority","id":"a63vecpstcbr","geo_precision":"range","address":"3035 S Abingdon St","state":"VA"},"type":"Feature","geometry":{"type":"Point","coordinates":[-77.097408,38.838701]}},{"properties":{"age designation":"Youth","city":"Arlington","park/field name":"Arlington Hall","zip":"22204","geo_score":0.824,"type":"Rectangular Field","lights":"No","field classification*":"Permit Only","id":"a63vecw073xp","geo_precision":"street","address":"290 South Taylor St","state":"VA"},"type":"Feature","geometry":{"type":"Point","coordinates":[-77.107311,38.865564]}},{"properties":{"age designation":"Youth &amp; Adult","city":"Arlington","park/field name":"Barcroft Park #5","zip":"22206","geo_score":0.89,"type":"Synthetic Rectangular Field","lights":"Yes","field classification*":"Community Field","id":"a63vecq6csxw","geo_precision":"range","address":"4200 S Four Mile Run Dr","state":"VA"},"type":"Feature","geometry":{"type":"Point","coordinates":[-77.10137,38.850761]}},{"properties":{"age designation":"Youth","city":"Arlington","park/field name":"Benjamin Bannecker","zip":"22205","geo_score":0.807,"type":"Rectangular Field","lights":"No","field classification*":"Permit Only","id":"a63vecwssp3f","geo_precision":"street","address":"1701 N Van Buren St","state":"VA"},"type":"Feature","geometry":{"type":"Point","coordinates":[-77.159101,38.883311]}},{"properties":{"age designation":"Youth &amp; Adult","city":"Arlington","park/field name":"Bluemont #1","zip":"22203","geo_score":1.0,"type":"Rectangular Field","lights":"No","field classification*":"Permit Only","id":"a63vecyggomu","geo_precision":"range","address":"601 N Manchester St","state":"VA"},"type":"Feature","geometry":{"type":"Point","coordinates":[-77.134058,38.871999]}},{"properties":{"age designation":"Youth &amp; Adult","city":"Arlington","park/field name":"Bluemont #2","zip":"22203","geo_score":1.0,"type":"Rectangular Field","lights":"No","field classification*":"Permit Only","id":"a63veco5qzj1","geo_precision":"range","address":"601 N Manchester St","state":"VA"},"type":"Feature","geometry":{"type":"Point","coordinates":[-77.134058,38.871999]}},{"properties":{"age designation":"Youth","city":"Arlington","park/field name":"Bluemont Junction","zip":"22205","geo_score":0.806,"type":"Rectangular Field","lights":"No","field classification*":"Permit Only","id":"a63vecvks6d2","geo_precision":"street","address":"744 North Emerson St","state":"VA"},"type":"Feature","geometry":{"type":"Point","coordinates":[-77.12511,38.881121]}},{"properties":{"age designation":"Youth","city":"Arlington","park/field name":"Eads Street Park","zip":"22202","geo_score":1.0,"type":"Rectangular Field","lights":"No","field classification*":"Permit Takes Priority","id":"a63ved3ia2ug","geo_precision":"range","address":"2730 S Eads St","state":"VA"},"type":"Feature","geometry":{"type":"Point","coordinates":[-77.053867,38.848644]}},{"properties":{"age designation":"Youth","city":"Arlington","park/field name":"Fairlington CC","zip":"22206","geo_score":0.973,"type":"Rectangular Field","lights":"No","field classification*":"Permit Takes Priority","id":"a63vecxxk5c4","geo_precision":"range","address":"3308 S Stafford St","state":"VA"},"type":"Feature","geometry":{"type":"Point","coordinates":[-77.086721,38.834378]}},{"properties":{"age designation":"Youth","city":"Arlington","park/field name":"Fields Park","zip":"22203","geo_score":1.0,"type":"Rectangular Field","lights":"No","field classification*":"Permit Takes Priority","id":"a63vect3afg4","geo_precision":"range","address":"775 N George Mason Dr","state":"VA"},"type":"Feature","geometry":{"type":"Point","coordinates":[-77.120501,38.87769]}},{"properties":{"age designation":"Youth","city":"Arlington","park/field name":"Glebe School","zip":"22207","geo_score":1.0,"type":"Rectangular Field","lights":"No","field classification*":"Permit Takes Priority","id":"a63vecppcxo5","geo_precision":"range","address":"1770 N Glebe Rd","state":"VA"},"type":"Feature","geometry":{"type":"Point","coordinates":[-77.119382,38.892121]}},{"properties":{"age designation":"Youth &amp; Adult","city":"Arlington","park/field name":"Greenbrier Park Stadium","zip":"22207","geo_score":0.833,"type":"Synthetic Rectangular Field","lights":"Yes","field classification*":"Permit Takes Priority","id":"a63vecpsi4i9","geo_precision":"range","address":"5201 N 28th St","state":"VA"},"type":"Feature","geometry":{"type":"Point","coordinates":[-77.139158,38.902186]}},{"properties":{"age designation":"Youth &amp; Adult","city":"Arlington","park/field name":"Gunston Park #2","zip":"22202","geo_score":0.722,"type":"Synthetic Rectangular Field","lights":"Yes","field classification*":"Permit Takes Priority","id":"a63vect528p3","geo_precision":"street","address":"1401 28th St S","state":"VA"},"type":"Feature","geometry":{"type":"Point","coordinates":[-77.07403,38.850685]}},{"properties":{"age designation":"Youth &amp; Adult","city":"Arlington","park/field name":"Gunston Park #3","zip":"22202","geo_score":0.722,"type":"Rectangular Field","lights":"Yes","field classification*":"Community Field","id":"a63ved2lpjjr","geo_precision":"street","address":"1401 28th St S","state":"VA"},"type":"Feature","geometry":{"type":"Point","coordinates":[-77.07403,38.850685]}},{"properties":{"age designation":"Youth","city":"Arlington","park/field name":"HB Woodlawn Secondary","zip":"22207","geo_score":0.973,"type":"Rectangular Field","lights":"No","field classification*":"Permit Takes Priority","id":"a63ved49ohmu","geo_precision":"range","address":"4100 Vacation Lane","state":"VA"},"type":"Feature","geometry":{"type":"Point","coordinates":[-77.110374,38.900411]}},{"properties":{"age designation":"Youth","city":"Arlington","park/field name":"Jamestown Back","zip":"22207","geo_score":1.0,"type":"Rectangular Field","lights":"No","field classification*":"Permit Takes Priority","id":"a63vecv1qg3g","geo_precision":"range","address":"3700 N Delaware St","state":"VA"},"type":"Feature","geometry":{"type":"Point","coordinates":[-77.139204,38.916187]}},{"properties":{"age designation":"Youth &amp; Adult","city":"Arlington","park/field name":"Kenmore MS #2","zip":"22204","geo_score":0.963,"type":"Rectangular Field","lights":"Yes","field classification*":"Permit Only","id":"a63ved3tjhh1","geo_precision":"range","address":"200 S Carlin Springs Dr","state":"VA"},"type":"Feature","geometry":{"type":"Point","coordinates":[-77.128729,38.864486]}},{"properties":{"age designation":"Youth","city":"Arlington","park/field name":"Key ES","zip":"22201","geo_score":0.963,"type":"Rectangular Field","lights":"No","field classification*":"Permit Takes Priority","id":"a63ved3d8it1","geo_precision":"range","address":"2300 Key Blvd","state":"VA"},"type":"Feature","geometry":{"type":"Point","coordinates":[-77.086984,38.893161]}},{"properties":{"age designation":"Youth","city":"Arlington","park/field name":"Madison Center","zip":"22207","geo_score":1.0,"type":"Rectangular Field","lights":"No","field classification*":"Permit Takes Priority","id":"a63vecrjki52","geo_precision":"range","address":"3829 N Stafford St","state":"VA"},"type":"Feature","geometry":{"type":"Point","coordinates":[-77.123643,38.92279]}},{"properties":{"age designation":"Youth","city":"Arlington","park/field name":"Madison Manor","zip":"22205","geo_score":0.916,"type":"Rectangular Field","lights":"No","field classification*":"Permit Takes Priority","id":"a63vecznh6uj","geo_precision":"range","address":"6225 12th Road N","state":"VA"},"type":"Feature","geometry":{"type":"Point","coordinates":[-77.149963,38.881701]}},{"properties":{"age designation":"Youth","city":"Arlington","park/field name":"Oakgrove Park","zip":"22207","geo_score":1.0,"type":"Rectangular Field","lights":"No","field classification*":"Permit Takes Priority","id":"a63vecu5tebq","geo_precision":"range","address":"1606 N Quincy St","state":"VA"},"type":"Feature","geometry":{"type":"Point","coordinates":[-77.108236,38.890325]}},{"properties":{"age designation":"Youth","city":"Arlington","park/field name":"Patrick Henry ES","zip":"22204","geo_score":1.0,"type":"Rectangular Field","lights":"No","field classification*":"Permit Takes Priority","id":"a63ved0uf17v","geo_precision":"range","address":"701 S Highland St","state":"VA"},"type":"Feature","geometry":{"type":"Point","coordinates":[-77.089948,38.866443]}},{"properties":{"age designation":"Youth","city":"Arlington","park/field name":"Powhatan Springs","zip":"22205","geo_score":0.973,"type":"Rectangular Field","lights":"No","field classification*":"Permit Takes Priority","id":"a63ved1c1wnv","geo_precision":"range","address":"6020 Wilson Blvd","state":"VA"},"type":"Feature","geometry":{"type":"Point","coordinates":[-77.139415,38.873797]}},{"properties":{"age designation":"Youth &amp; Adult","city":"Arlington","park/field name":"Quincy #1","zip":"22201","geo_score":1.0,"type":"Rectangular Field","lights":"Yes","field classification*":"Permit Only","id":"a63vecnzef90","geo_precision":"range","address":"1021 N Quincy St","state":"VA"},"type":"Feature","geometry":{"type":"Point","coordinates":[-77.107865,38.88342]}},{"properties":{"age designation":"Youth &amp; Adult","city":"Arlington","park/field name":"Rocky Run Park","zip":"22201","geo_score":1.0,"type":"Rectangular Field","lights":"No","field classification*":"Community Field","id":"a63vecqcty9x","geo_precision":"range","address":"1109 N Barton St","state":"VA"},"type":"Feature","geometry":{"type":"Point","coordinates":[-77.088135,38.886245]}},{"properties":{"age designation":"Youth","city":"Arlington","park/field name":"Stewart Park","zip":"22213","geo_score":0.807,"type":"Rectangular Field","lights":"No","field classification*":"Permit Takes Priority","id":"a63vecwddbdl","geo_precision":"street","address":"2400 N Underwood St","state":"VA"},"type":"Feature","geometry":{"type":"Point","coordinates":[-77.160939,38.89188]}},{"properties":{"age designation":"Youth","city":"Arlington","park/field name":"Swanson MS","zip":"22205","geo_score":1.0,"type":"Rectangular Field","lights":"No","field classification*":"Permit Takes Priority","id":"a63vecqoojtk","geo_precision":"range","address":"5800 N Washington Blvd","state":"VA"},"type":"Feature","geometry":{"type":"Point","coordinates":[-77.137815,38.88343]}},{"properties":{"age designation":"Youth &amp; Adult","city":"Arlington","park/field name":"Thomas Jefferson Lower","zip":"22204","geo_score":0.902,"type":"Rectangular Field","lights":"Yes","field classification*":"Permit Takes Priority","id":"a63vecvde0rb","geo_precision":"range","address":"3501 2nd St S","state":"VA"},"type":"Feature","geometry":{"type":"Point","coordinates":[-77.096064,38.86888]}},{"properties":{"age designation":"Youth &amp; Adult","city":"Arlington","park/field name":"Thomas Jefferson Upper","zip":"22204","geo_score":0.902,"type":"Rectangular Field","lights":"Yes","field classification*":"Permit Only","id":"a63ved1eqaxz","geo_precision":"range","address":"3501 2nd St S","state":"VA"},"type":"Feature","geometry":{"type":"Point","coordinates":[-77.096064,38.86888]}},{"properties":{"age designation":"Youth","city":"Arlington","park/field name":"Tuckahoe","zip":"22213","geo_score":0.805,"type":"Rectangular Field","lights":"No","field classification*":"Permit Takes Priority","id":"a63vecoafb29","geo_precision":"range","address":"2400 N Sycamore St","state":"VA"},"type":"Feature","geometry":{"type":"Point","coordinates":[-77.156595,38.89127]}},{"properties":{"age designation":"Youth &amp; Adult","city":"Arlington","park/field name":"Virginia Highlands #1","zip":"22202","geo_score":1.0,"type":"Synthetic Rectangular Field","lights":"Yes","field classification*":"Permit Takes Priority","id":"a63veczurfh0","geo_precision":"range","address":"1600 S Hayes St","state":"VA"},"type":"Feature","geometry":{"type":"Point","coordinates":[-77.059351,38.858881]}},{"properties":{"age designation":"Youth &amp; Adult","city":"Arlington","park/field name":"Virginia Highlands #2","zip":"22202","geo_score":1.0,"type":"Rectangular Field","lights":"No","field classification*":"Community Field","id":"a63vecwmpowm","geo_precision":"range","address":"1600 S Hayes St","state":"VA"},"type":"Feature","geometry":{"type":"Point","coordinates":[-77.059351,38.858881]}},{"properties":{"age designation":"Youth","city":"Arlington","park/field name":"Wakefield HS Auxiliary","zip":"22206","geo_score":0.973,"type":"Rectangular Field","lights":"Yes","field classification*":"Permit Only","id":"a63veczoztjs","geo_precision":"range","address":"4901 S Chesterfield Rd","state":"VA"},"type":"Feature","geometry":{"type":"Point","coordinates":[-77.107847,38.847049]}},{"properties":{"age designation":"Youth","city":"Arlington","park/field name":"Wakefield HS Chesterfield","zip":"22206","geo_score":0.973,"type":"Rectangular Field","lights":"No","field classification*":"Permit Only","id":"a63vecnvnw99","geo_precision":"range","address":"4901 S Chesterfield Rd","state":"VA"},"type":"Feature","geometry":{"type":"Point","coordinates":[-77.107847,38.847049]}},{"properties":{"age designation":"Youth &amp; Adult","city":"Arlington","park/field name":"Wakefield HS Stadium","zip":"22206","geo_score":0.973,"type":"Synthetic Rectangular Field","lights":"Yes","field classification*":"Permit Only","id":"a63ved3faqg6","geo_precision":"range","address":"4901 S Chesterfield Rd","state":"VA"},"type":"Feature","geometry":{"type":"Point","coordinates":[-77.107847,38.847049]}},{"properties":{"age designation":"Youth &amp; Adult","city":"Arlington","park/field name":"Washington-Lee HS Stadium","zip":"22201","geo_score":1.0,"type":"Synthetic Rectangular Field","lights":"Yes","field classification*":"Permit Only","id":"a63vecxstlek","geo_precision":"range","address":"1300 N Quincy St","state":"VA"},"type":"Feature","geometry":{"type":"Point","coordinates":[-77.108252,38.887456]}},{"properties":{"age designation":"Youth &amp; Adult","city":"Arlington","park/field name":"Westover Park","zip":"22205","geo_score":1.0,"type":"Rectangular Field","lights":"No","field classification*":"Community Field","id":"a63ved0zbqxd","geo_precision":"range","address":"1001 N Kennebec St","state":"VA"},"type":"Feature","geometry":{"type":"Point","coordinates":[-77.135352,38.879675]}},{"properties":{"age designation":"Youth","city":"Arlington","park/field name":"Williamsburg MS #1","zip":"22207","geo_score":1.0,"type":"Rectangular Field","lights":"No","field classification*":"Permit Only","id":"a63vecwbnyzq","geo_precision":"range","address":"3600 N Harrison St","state":"VA"},"type":"Feature","geometry":{"type":"Point","coordinates":[-77.145992,38.907654]}},{"properties":{"age designation":"Youth","city":"Arlington","park/field name":"Williamsburg MS #2","zip":"22207","geo_score":1.0,"type":"Rectangular Field","lights":"No","field classification*":"Permit Only","id":"a63vecwzdj5v","geo_precision":"range","address":"3600 N Harrison St","state":"VA"},"type":"Feature","geometry":{"type":"Point","coordinates":[-77.145992,38.907654]}},{"properties":{"age designation":"Youth","city":"Arlington","park/field name":"Williamsburg MS #3","zip":"22207","geo_score":1.0,"type":"Rectangular Field","lights":"No","field classification*":"Permit Takes Priority","id":"a63vecxbhsg2","geo_precision":"range","address":"3600 N Harrison St","state":"VA"},"type":"Feature","geometry":{"type":"Point","coordinates":[-77.145992,38.907654]}}],"is_temporal":false,"author":{"url":"http://finder.geocommons.com/overlays/34837","metadata":"","contact_name":"","contact_address":"","source":"Arlington County, VA: Parks, Recreation & Cultural Resources ","contact_phone":""},"source":"http://finder.geocommons.com/overlays/34837","pagination":{"sort":null,"start":0,"total":40,"limit":1000000},"state":"complete","tags":"arlington,arlingtonrec,athletics,community,parks,recreation,sports,virginia","published":"2010-02-09T17:00:00Z","id":34838}