{"type":"FeatureCollection","data_type":"Dataset","url_type":null,"permissions":[{"permissions":{"download":true,"view":true},"group_id":"everyone"}],"classification":null,"title":"Diamond Playing Field Locations, Arlington County, VA, 2010","count":56,"stream_id":34837,"contributor":{"url":"http://geocommons.com/users/139","name":"Burkey"},"data_attributes":null,"calculation_params":null,"icon_link":null,"link":"http://geocommons.com/overlays/34837.json","extent":[-77.1608,38.8375,-77.0586,38.9221],"geometry_types":["point"],"unique_name":null,"name":"Diamond Playing Field Locations, Arlington County, VA, 2010","feature_count":56,"description":"This dataset displays the locations of diamond playing fields that are within Arlington County. \n\nLooking to play soccer, football, lacrosse, rugby, softball or baseball with friends or on a team? Want to play on a synthetic grass field? Arlington has a multitude of fields throughout the County available for community use and organized play. Search below for a location suited to your interest and please be sure to adhere to the associated Field Use Regulations so that we can maintain the quality of our fields.","next_feature":null,"is_raster":false,"short_classification":"Y","stats":{"geo_score":{"max":1.0,"mean":0.934089285714286,"variance":0.00715150097402597,"stdev":0.0845665476061662,"min":0.722,"median":1.0}},"features":[{"properties":{"age designation":"Youth","city":"Arlington","park/field name":"Alcova Heights","zip":"22204","geo_score":1.0,"type":"Diamond","field classification":"Permit Takes Priority","lights":"No","id":"a62u3eyhbf5e","geo_precision":"range","address":"901 S George Mason Dr","state":"VA"},"type":"Feature","geometry":{"type":"Point","coordinates":[-77.102542,38.860694]}},{"properties":{"age designation":"Youth","city":"Arlington","park/field name":"Arlington Science Focus","zip":"22201","geo_score":1.0,"type":"Diamond","field classification":"Permit Takes Priority","lights":"No","id":"a62u3ewaujsu","geo_precision":"range","address":"1501 N Lincoln St","state":"VA"},"type":"Feature","geometry":{"type":"Point","coordinates":[-77.103306,38.889244]}},{"properties":{"age designation":"Youth","city":"Arlington","park/field name":"Arlington Traditional ES #1","zip":"22205","geo_score":1.0,"type":"Diamond","field classification":"Permit Takes Priority","lights":"No","id":"a62u3eqnj9p0","geo_precision":"range","address":"855 N Edison St","state":"VA"},"type":"Feature","geometry":{"type":"Point","coordinates":[-77.122646,38.879229]}},{"properties":{"age designation":"Youth","city":"Arlington","park/field name":"Arlington Traditional ES #2","zip":"22205","geo_score":1.0,"type":"Diamond","field classification":"Permit Takes Priority","lights":"No","id":"a62u3euqopbp","geo_precision":"range","address":"855 N Edison St","state":"VA"},"type":"Feature","geometry":{"type":"Point","coordinates":[-77.122646,38.879229]}},{"properties":{"age designation":"Youth","city":"Arlington","park/field name":"Barcroft ES","zip":"22204","geo_score":1.0,"type":"Diamond","field classification":"Permit Takes Priority","lights":"No","id":"a62u3epojsfh","geo_precision":"range","address":"625 S Wakefield St","state":"VA"},"type":"Feature","geometry":{"type":"Point","coordinates":[-77.108846,38.862191]}},{"properties":{"age designation":"Youth","city":"Arlington","park/field name":"Barcroft Park #1","zip":"22206","geo_score":0.89,"type":"Diamond","field classification":"Permit Only","lights":"Yes","id":"a62u3evniiy2","geo_precision":"range","address":"4200 S Four Mile Run Dr","state":"VA"},"type":"Feature","geometry":{"type":"Point","coordinates":[-77.10137,38.850761]}},{"properties":{"age designation":"Youth","city":"Arlington","park/field name":"Barcroft Park #2","zip":"22206","geo_score":0.89,"type":"Diamond","field classification":"Permit Only","lights":"Yes","id":"a62u3eo67oha","geo_precision":"range","address":"4200 S Four Mile Run Dr","state":"VA"},"type":"Feature","geometry":{"type":"Point","coordinates":[-77.10137,38.850761]}},{"properties":{"age designation":"Youth","city":"Arlington","park/field name":"Barcroft Park #3","zip":"22206","geo_score":0.89,"type":"Diamond","field classification":"Permit Only","lights":"Yes","id":"a62u3ej9mbfa","geo_precision":"range","address":"4200 S Four Mile Run Dr","state":"VA"},"type":"Feature","geometry":{"type":"Point","coordinates":[-77.10137,38.850761]}},{"properties":{"age designation":"Youth &amp; Adult","city":"Arlington","park/field name":"Barcroft Park #4","zip":"22206","geo_score":0.89,"type":"Diamond","field classification":"Permit Only","lights":"Yes","id":"a62u3ejculbm","geo_precision":"range","address":"4200 S Four Mile Run Dr","state":"VA"},"type":"Feature","geometry":{"type":"Point","coordinates":[-77.10137,38.850761]}},{"properties":{"age designation":"Youth &amp; Adult","city":"Arlington","park/field name":"Barcroft Park #6","zip":"22206","geo_score":0.89,"type":"Diamond","field classification":"Permit Only","lights":"Yes","id":"a62u3ekj8yqa","geo_precision":"range","address":"4200 S Four Mile Run Dr","state":"VA"},"type":"Feature","geometry":{"type":"Point","coordinates":[-77.10137,38.850761]}},{"properties":{"age designation":"Youth","city":"Arlington","park/field name":"Barrett ES","zip":"22205","geo_score":0.805,"type":"Diamond","field classification":"Permit Takes Priority","lights":"No","id":"a62u3empdae8","geo_precision":"range","address":"4401 N Henderson Rd","state":"VA"},"type":"Feature","geometry":{"type":"Point","coordinates":[-77.111201,38.873301]}},{"properties":{"age designation":"Youth","city":"Arlington","park/field name":"Bishop O'Connell HS BB","zip":"22203","geo_score":0.784,"type":"Diamond","field classification":"Permit Only","lights":"No","id":"a62u3eovxntx","geo_precision":"range","address":"6600 Little Falls Rd","state":"VA"},"type":"Feature","geometry":{"type":"Point","coordinates":[-77.160772,38.896271]}},{"properties":{"age designation":"Youth","city":"Arlington","park/field name":"Bluemont #1","zip":"22203","geo_score":1.0,"type":"Diamond","field classification":"Permit Takes Priority","lights":"No","id":"a62u3eqxf2ao","geo_precision":"range","address":"601 N Manchester St","state":"VA"},"type":"Feature","geometry":{"type":"Point","coordinates":[-77.134058,38.871999]}},{"properties":{"age designation":"Youth","city":"Arlington","park/field name":"Bluemont #2","zip":"22203","geo_score":1.0,"type":"Diamond","field classification":"Permit Only","lights":"No","id":"a62u3ezicecs","geo_precision":"range","address":"601 N Manchester St","state":"VA"},"type":"Feature","geometry":{"type":"Point","coordinates":[-77.134058,38.871999]}},{"properties":{"age designation":"Youth","city":"Arlington","park/field name":"Bluemont #3","zip":"22203","geo_score":1.0,"type":"Diamond","field classification":"Permit Only","lights":"No","id":"a62u3erxwoew","geo_precision":"range","address":"601 N Manchester St","state":"VA"},"type":"Feature","geometry":{"type":"Point","coordinates":[-77.134058,38.871999]}},{"properties":{"age designation":"Youth &amp; Adult","city":"Arlington","park/field name":"Carver","zip":"22204","geo_score":1.0,"type":"Diamond","field classification":"Permit Takes Priority","lights":"No","id":"a62u3eqydf10","geo_precision":"range","address":"1415 S Queen St","state":"VA"},"type":"Feature","geometry":{"type":"Point","coordinates":[-77.072519,38.860967]}},{"properties":{"age designation":"Youth","city":"Arlington","park/field name":"Drew","zip":"22206","geo_score":0.806,"type":"Diamond","field classification":"Permit Takes Priority","lights":"No","id":"a62u3ezl7na4","geo_precision":"range","address":"3500 S 24th St","state":"VA"},"type":"Feature","geometry":{"type":"Point","coordinates":[-77.086113,38.848278]}},{"properties":{"age designation":"Youth &amp; Adult","city":"Arlington","park/field name":"Fort Barnard","zip":"22204","geo_score":1.0,"type":"Diamond","field classification":"Permit Takes Priority","lights":"No","id":"a62u3ewli7pe","geo_precision":"range","address":"2101 South Pollard St","state":"VA"},"type":"Feature","geometry":{"type":"Point","coordinates":[-77.093064,38.849692]}},{"properties":{"age designation":"Youth &amp; Adult","city":"Arlington","park/field name":"Fort Scott","zip":"22202","geo_score":1.0,"type":"Diamond","field classification":"Permit Takes Priority","lights":"No","id":"a62u3ezc9z5y","geo_precision":"range","address":"2800 S Fort Scott Dr","state":"VA"},"type":"Feature","geometry":{"type":"Point","coordinates":[-77.058612,38.847517]}},{"properties":{"age designation":"Youth","city":"Arlington","park/field name":"Greenbrier #1","zip":"22207","geo_score":0.833,"type":"Diamond","field classification":"Permit Only","lights":"Yes","id":"a62u3eqgkg6t","geo_precision":"range","address":"5201 N 28th St","state":"VA"},"type":"Feature","geometry":{"type":"Point","coordinates":[-77.139158,38.902186]}},{"properties":{"age designation":"Youth","city":"Arlington","park/field name":"Greenbrier #3","zip":"22207","geo_score":0.833,"type":"Diamond","field classification":"Permit Takes Priority","lights":"Yes","id":"a62u3ekuvgf5","geo_precision":"range","address":"5201 N 28th St","state":"VA"},"type":"Feature","geometry":{"type":"Point","coordinates":[-77.139158,38.902186]}},{"properties":{"age designation":"Youth &amp; Adult","city":"Arlington","park/field name":"Greenbrier #4","zip":"22207","geo_score":0.833,"type":"Diamond","field classification":"Permit Only","lights":"Yes","id":"a62u3eu0xiu0","geo_precision":"range","address":"5201 N 28th St","state":"VA"},"type":"Feature","geometry":{"type":"Point","coordinates":[-77.139158,38.902186]}},{"properties":{"age designation":"Adult","city":"Arlington","park/field name":"Gunston Park #1","zip":"22202","geo_score":0.722,"type":"Diamond","field classification":"Permit Only","lights":"Yes","id":"a62u3evgkpjb","geo_precision":"street","address":"1401 28th St S","state":"VA"},"type":"Feature","geometry":{"type":"Point","coordinates":[-77.07403,38.850685]}},{"properties":{"age designation":"Youth &amp; Adult","city":"Arlington","park/field name":"Highview Park","zip":"22207","geo_score":1.0,"type":"Diamond","field classification":"Permit Takes Priority","lights":"Yes","id":"a62u3ew8zhca","geo_precision":"range","address":"1938 N Dinwiddie St","state":"VA"},"type":"Feature","geometry":{"type":"Point","coordinates":[-77.126964,38.892946]}},{"properties":{"age designation":"Youth","city":"Arlington","park/field name":"Jamestown Back","zip":"22207","geo_score":0.755,"type":"Diamond","field classification":"Permit Takes Priority","lights":"No","id":"a62u3ex37bau","geo_precision":"street","address":"N 36th St &amp; N Delaware St","state":"VA"},"type":"Feature","geometry":{"type":"Point","coordinates":[-77.112478,38.922049]}},{"properties":{"age designation":"Youth","city":"Arlington","park/field name":"Jamestown Front","zip":"22207","geo_score":0.755,"type":"Diamond","field classification":"Permit Takes Priority","lights":"No","id":"a62u3es29aqj","geo_precision":"street","address":"N 36th St &amp; N Delaware St","state":"VA"},"type":"Feature","geometry":{"type":"Point","coordinates":[-77.112478,38.922049]}},{"properties":{"age designation":"Adult","city":"Arlington","park/field name":"Jennie Dean #1","zip":"22206","geo_score":0.89,"type":"Diamond","field classification":"Permit Only","lights":"Yes","id":"a62u3evih8ip","geo_precision":"range","address":"3630 27th St S","state":"VA"},"type":"Feature","geometry":{"type":"Point","coordinates":[-77.08759,38.843823]}},{"properties":{"age designation":"Youth","city":"Arlington","park/field name":"Jennie Dean #2","zip":"22206","geo_score":0.89,"type":"Diamond","field classification":"Permit Takes Priority","lights":"Yes","id":"a62u3ejsxol6","geo_precision":"range","address":"3630 27th St S","state":"VA"},"type":"Feature","geometry":{"type":"Point","coordinates":[-77.08759,38.843823]}},{"properties":{"age designation":"Youth &amp; Adult","city":"Arlington","park/field name":"Kenmore MS #1","zip":"22204","geo_score":0.963,"type":"Diamond","field classification":"Permit Takes Priority","lights":"Yes","id":"a62u3emfnyb9","geo_precision":"range","address":"200 S Carlin Springs Dr","state":"VA"},"type":"Feature","geometry":{"type":"Point","coordinates":[-77.128729,38.864486]}},{"properties":{"age designation":"Youth","city":"Arlington","park/field name":"Lee Center","zip":"22207","geo_score":0.958,"type":"Diamond","field classification":"Permit Takes Priority","lights":"No","id":"a62u3eu94f2p","geo_precision":"range","address":"5722 Lee Highway","state":"VA"},"type":"Feature","geometry":{"type":"Point","coordinates":[-77.143083,38.895009]}},{"properties":{"age designation":"Youth","city":"Arlington","park/field name":"Longbranch ES","zip":"22201","geo_score":1.0,"type":"Diamond","field classification":"Permit Takes Priority","lights":"No","id":"a62u3ez2dcji","geo_precision":"range","address":"33 N Fillmore St","state":"VA"},"type":"Feature","geometry":{"type":"Point","coordinates":[-77.089734,38.874257]}},{"properties":{"age designation":"Youth","city":"Arlington","park/field name":"Madison Manor","zip":"22205","geo_score":0.916,"type":"Diamond","field classification":"Permit Takes Priority","lights":"No","id":"a62u3endryjj","geo_precision":"range","address":"6225 12th Road N","state":"VA"},"type":"Feature","geometry":{"type":"Point","coordinates":[-77.149963,38.881701]}},{"properties":{"age designation":"Youth","city":"Arlington","park/field name":"McKinley ES","zip":"22205","geo_score":1.0,"type":"Diamond","field classification":"Permit Takes Priority","lights":"No","id":"a62u3erwl7cn","geo_precision":"range","address":"1030 N McKinley Rd","state":"VA"},"type":"Feature","geometry":{"type":"Point","coordinates":[-77.14566,38.879089]}},{"properties":{"age designation":"Youth","city":"Arlington","park/field name":"Nottingham #1","zip":"22207","geo_score":0.979,"type":"Diamond","field classification":"Permit Takes Priority","lights":"No","id":"a62u3etdgpgf","geo_precision":"range","address":"5900 Little Falls Rd","state":"VA"},"type":"Feature","geometry":{"type":"Point","coordinates":[-77.150628,38.901351]}},{"properties":{"age designation":"Youth","city":"Arlington","park/field name":"Nottingham #2","zip":"22207","geo_score":0.979,"type":"Diamond","field classification":"Permit Takes Priority","lights":"No","id":"a62u3eqjrxnw","geo_precision":"range","address":"5900 Little Falls Rd","state":"VA"},"type":"Feature","geometry":{"type":"Point","coordinates":[-77.150628,38.901351]}},{"properties":{"age designation":"Youth","city":"Arlington","park/field name":"Partrick Henry ES","zip":"22204","geo_score":1.0,"type":"Diamond","field classification":"Permit Takes Priority","lights":"No","id":"a62u3erleg58","geo_precision":"range","address":"701 S Highland St","state":"VA"},"type":"Feature","geometry":{"type":"Point","coordinates":[-77.089948,38.866443]}},{"properties":{"age designation":"Youth &amp; Adult","city":"Arlington","park/field name":"Quincy Park #1","zip":"22201","geo_score":1.0,"type":"Diamond","field classification":"Permit Only","lights":"Yes","id":"a62u3evsaqak","geo_precision":"range","address":"1021 N Quincy St","state":"VA"},"type":"Feature","geometry":{"type":"Point","coordinates":[-77.107865,38.88342]}},{"properties":{"age designation":"Youth","city":"Arlington","park/field name":"Quincy Park #2","zip":"22201","geo_score":1.0,"type":"Diamond","field classification":"Permit Takes Priority","lights":"Yes","id":"a62u3eyek8ot","geo_precision":"range","address":"1021 N Quincy St","state":"VA"},"type":"Feature","geometry":{"type":"Point","coordinates":[-77.107865,38.88342]}},{"properties":{"age designation":"Youth &amp; Adult","city":"Arlington","park/field name":"Quincy Park #3","zip":"22201","geo_score":1.0,"type":"Diamond","field classification":"Permit Takes Priority","lights":"Yes","id":"a62u3eust531","geo_precision":"range","address":"1021 N Quincy St","state":"VA"},"type":"Feature","geometry":{"type":"Point","coordinates":[-77.107865,38.88342]}},{"properties":{"age designation":"Youth","city":"Arlington","park/field name":"Stratford","zip":"22207","geo_score":1.0,"type":"Diamond","field classification":"Permit Takes Priority","lights":"No","id":"a62u3eqwq8l9","geo_precision":"range","address":"2100 North Quincy St","state":"VA"},"type":"Feature","geometry":{"type":"Point","coordinates":[-77.108131,38.896148]}},{"properties":{"age designation":"Youth","city":"Arlington","park/field name":"Taylor ES #1","zip":"22207","geo_score":1.0,"type":"Diamond","field classification":"Permit Takes Priority","lights":"No","id":"a62u3ewh84ds","geo_precision":"range","address":"2600 N Stuart St","state":"VA"},"type":"Feature","geometry":{"type":"Point","coordinates":[-77.113079,38.906181]}},{"properties":{"age designation":"Youth","city":"Arlington","park/field name":"Taylor ES #2","zip":"22207","geo_score":1.0,"type":"Diamond","field classification":"Permit Takes Priority","lights":"No","id":"a62u3exd99v8","geo_precision":"range","address":"2600 N Stuart St","state":"VA"},"type":"Feature","geometry":{"type":"Point","coordinates":[-77.113079,38.906181]}},{"properties":{"age designation":"Youth","city":"Arlington","park/field name":"Thomas Jefferson #1","zip":"22204","geo_score":0.902,"type":"Diamond","field classification":"Permit Takes Priority","lights":"No","id":"a62u3epfqm9w","geo_precision":"range","address":"3501 2nd St S","state":"VA"},"type":"Feature","geometry":{"type":"Point","coordinates":[-77.096064,38.86888]}},{"properties":{"age designation":"Youth","city":"Arlington","park/field name":"Thomas Jefferson #2","zip":"22204","geo_score":0.902,"type":"Diamond","field classification":"Permit Takes Priority","lights":"No","id":"a62u3ekdc3p7","geo_precision":"range","address":"3501 2nd St S","state":"VA"},"type":"Feature","geometry":{"type":"Point","coordinates":[-77.096064,38.86888]}},{"properties":{"age designation":"Youth &amp; Adult","city":"Arlington","park/field name":"Tuckahoe Park #1","zip":"22213","geo_score":0.805,"type":"Diamond","field classification":"Permit Takes Priority","lights":"No","id":"a62u3euautgx","geo_precision":"range","address":"2400 N Sycamore St","state":"VA"},"type":"Feature","geometry":{"type":"Point","coordinates":[-77.156595,38.89127]}},{"properties":{"age designation":"Youth &amp; Adult","city":"Arlington","park/field name":"Tuckahoe Park #2","zip":"22213","geo_score":0.805,"type":"Diamond","field classification":"Permit Takes Priority","lights":"No","id":"a62u3enzzy9l","geo_precision":"range","address":"2400 N Sycamore St","state":"VA"},"type":"Feature","geometry":{"type":"Point","coordinates":[-77.156595,38.89127]}},{"properties":{"age designation":"Adult","city":"Arlington","park/field name":"Utah Park","zip":"22206","geo_score":0.798,"type":"Diamond","field classification":"Permit Only","lights":"Yes","id":"a62u3eyopvmh","geo_precision":"street","address":"3191 South Utah St","state":"VA"},"type":"Feature","geometry":{"type":"Point","coordinates":[-77.087841,38.837472]}},{"properties":{"age designation":"Youth &amp; Adult","city":"Arlington","park/field name":"Virginia Highlands #3","zip":"22202","geo_score":1.0,"type":"Diamond","field classification":"Permit Only","lights":"Yes","id":"a62u3ewtph7q","geo_precision":"range","address":"1600 S Hayes St","state":"VA"},"type":"Feature","geometry":{"type":"Point","coordinates":[-77.059351,38.858881]}},{"properties":{"age designation":"Youth &amp; Adult","city":"Arlington","park/field name":"Virginia Highlands #4","zip":"22202","geo_score":1.0,"type":"Diamond","field classification":"Permit Only","lights":"Yes","id":"a62u3ezae1qn","geo_precision":"range","address":"1600 S Hayes St","state":"VA"},"type":"Feature","geometry":{"type":"Point","coordinates":[-77.059351,38.858881]}},{"properties":{"age designation":"Youth &amp; Adult","city":"Arlington","park/field name":"Wakefield HS #1 (BB)","zip":"22206","geo_score":0.973,"type":"Diamond","field classification":"Permit Only","lights":"Yes","id":"a62u3ena5te0","geo_precision":"range","address":"4901 S Chesterfield Rd","state":"VA"},"type":"Feature","geometry":{"type":"Point","coordinates":[-77.107847,38.847049]}},{"properties":{"age designation":"Youth","city":"Arlington","park/field name":"Wakefield HS #2 (SB)","zip":"22206","geo_score":0.973,"type":"Diamond","field classification":"Permit Only","lights":"Yes","id":"a62u3exroc2g","geo_precision":"range","address":"4901 S Chesterfield Rd","state":"VA"},"type":"Feature","geometry":{"type":"Point","coordinates":[-77.107847,38.847049]}},{"properties":{"age designation":"Youth","city":"Arlington","park/field name":"Walter Reed School #1","zip":"22205","geo_score":1.0,"type":"Diamond","field classification":"Permit Takes Priority","lights":"No","id":"a62u3eoc4nub","geo_precision":"range","address":"1644 N McKinley Rd","state":"VA"},"type":"Feature","geometry":{"type":"Point","coordinates":[-77.14193,38.885855]}},{"properties":{"age designation":"Youth","city":"Arlington","park/field name":"Walter Reed School #2","zip":"22205","geo_score":1.0,"type":"Diamond","field classification":"Permit Takes Priority","lights":"No","id":"a62u3exxdfqy","geo_precision":"range","address":"1644 N McKinley Rd","state":"VA"},"type":"Feature","geometry":{"type":"Point","coordinates":[-77.14193,38.885855]}},{"properties":{"age designation":"Youth","city":"Arlington","park/field name":"Westover #1","zip":"22205","geo_score":1.0,"type":"Diamond","field classification":"Permit Only","lights":"No","id":"a62u3esz6dfy","geo_precision":"range","address":"1001 N Kennebec St","state":"VA"},"type":"Feature","geometry":{"type":"Point","coordinates":[-77.135352,38.879675]}},{"properties":{"age designation":"Youth","city":"Arlington","park/field name":"Westover #2","zip":"22205","geo_score":1.0,"type":"Diamond","field classification":"Permit Takes Priority","lights":"No","id":"a62u3esqlkq5","geo_precision":"range","address":"1001 N Kennebec St","state":"VA"},"type":"Feature","geometry":{"type":"Point","coordinates":[-77.135352,38.879675]}},{"properties":{"age designation":"Youth","city":"Arlington","park/field name":"Williamsburg MS #3","zip":"22207","geo_score":1.0,"type":"Diamond","field classification":"Permit Takes Priority","lights":"No","id":"a62u3es5wsjd","geo_precision":"range","address":"3600 N Harrison St","state":"VA"},"type":"Feature","geometry":{"type":"Point","coordinates":[-77.145992,38.907654]}}],"is_temporal":false,"author":{"url":"http://www.arlingtonva.us/Departments/ParksRecreation/scripts/fields/ParksRecreationScriptsSportsFields.aspx","metadata":"","contact_name":"","contact_address":"","source":"Arlington County, VA: Parks, Recreation & Cultural Resources ","contact_phone":""},"source":"http://www.arlingtonva.us/Departments/ParksRecreation/scripts/fields/ParksRecreationScriptsSportsFields.aspx","pagination":{"sort":null,"start":0,"total":56,"limit":1000000},"state":"complete","tags":"arlington,arlingtonrec,baseball,community,parks,recreation,softball,virginia","published":"2010-02-09T17:00:00Z","id":34837}