{"type":"FeatureCollection","data_type":"Dataset","url_type":null,"permissions":[{"permissions":{"download":true,"view":true},"group_id":"everyone"}],"classification":null,"title":"dpc_organizer_map_march_25th","count":191,"stream_id":34879,"contributor":{"url":"http://geocommons.com/users/11204","name":"joegravellese"},"data_attributes":null,"calculation_params":null,"icon_link":null,"link":"http://geocommons.com/overlays/34879.json","extent":[-73.4134,41.4212,-70.0154,42.8535],"geometry_types":["point"],"unique_name":null,"name":"dpc_organizer_map_march_25th","feature_count":191,"description":"","next_feature":null,"is_raster":false,"short_classification":"Y","stats":{"supporters":{"max":194.0,"mean":13.3052631578947,"variance":422.192035644667,"stdev":20.5473121270075,"min":0.0,"median":8.0},"organizers":{"max":194.0,"mean":4.8586387434555,"variance":231.922017084595,"stdev":15.2289860819621,"min":1.0,"median":2.0},"accounts":{"max":74.0,"mean":4.03684210526316,"variance":41.6335561125034,"stdev":6.45240700146104,"min":0.0,"median":2.0}},"features":[{"properties":{"city":"Abington","supporters":8.0,"geo_score":0.857,"organizers":5.0,"accounts":4.0,"id":"a68056z6ke6q","geo_precision":"city","state":"Massachusetts"},"type":"Feature","geometry":{"type":"Point","coordinates":[-70.959888,42.11749]}},{"properties":{"city":"Acton","supporters":12.0,"geo_score":0.857,"organizers":7.0,"accounts":7.0,"id":"a68056se0w77","geo_precision":"city","state":"Massachusetts"},"type":"Feature","geometry":{"type":"Point","coordinates":[-71.459405,42.446396]}},{"properties":{"city":"Agawam","supporters":13.0,"geo_score":0.857,"organizers":4.0,"accounts":5.0,"id":"a68056s30q9w","geo_precision":"city","state":"Massachusetts"},"type":"Feature","geometry":{"type":"Point","coordinates":[-72.788661,42.140549]}},{"properties":{"city":"Alford","supporters":2.0,"geo_score":0.857,"organizers":2.0,"accounts":2.0,"id":"a68056vwlafg","geo_precision":"city","state":"Massachusetts"},"type":"Feature","geometry":{"type":"Point","coordinates":[-73.413446,42.235644]}},{"properties":{"city":"Amesbury","supporters":9.0,"geo_score":0.857,"organizers":2.0,"accounts":2.0,"id":"a680572p63p3","geo_precision":"city","state":"Massachusetts"},"type":"Feature","geometry":{"type":"Point","coordinates":[-70.948211,42.853539]}},{"properties":{"city":"Amherst","supporters":11.0,"geo_score":0.857,"organizers":2.0,"accounts":5.0,"id":"a68056r0v1ga","geo_precision":"city","state":"Massachusetts"},"type":"Feature","geometry":{"type":"Point","coordinates":[-72.464571,42.367092]}},{"properties":{"city":"Andover","supporters":28.0,"geo_score":0.857,"organizers":7.0,"accounts":6.0,"id":"a680572xcfpq","geo_precision":"city","state":"Massachusetts"},"type":"Feature","geometry":{"type":"Point","coordinates":[-71.165685,42.647991]}},{"properties":{"city":"Arlington","supporters":29.0,"geo_score":0.857,"organizers":7.0,"accounts":15.0,"id":"a68056pmrnpc","geo_precision":"city","state":"Massachusetts"},"type":"Feature","geometry":{"type":"Point","coordinates":[-71.167083,42.417695]}},{"properties":{"city":"Ashland","supporters":9.0,"geo_score":0.857,"organizers":3.0,"accounts":3.0,"id":"a68056sfle5e","geo_precision":"city","state":"Massachusetts"},"type":"Feature","geometry":{"type":"Point","coordinates":[-71.459405,42.446396]}},{"properties":{"city":"Attleboro","supporters":31.0,"geo_score":0.857,"organizers":4.0,"accounts":4.0,"id":"a68056s59mmb","geo_precision":"city","state":"Massachusetts"},"type":"Feature","geometry":{"type":"Point","coordinates":[-71.302297,41.938976]}},{"properties":{"city":"Auburn","supporters":4.0,"geo_score":0.857,"organizers":3.0,"accounts":1.0,"id":"a68056vpuzpb","geo_precision":"city","state":"Massachusetts"},"type":"Feature","geometry":{"type":"Point","coordinates":[-71.947184,42.184835]}},{"properties":{"city":"Barnstable","supporters":6.0,"geo_score":0.816,"organizers":2.0,"accounts":2.0,"id":"a68056vvz6f7","geo_precision":"city","state":"Massachusetts"},"type":"Feature","geometry":{"type":"Point","coordinates":[-70.366135,41.683443]}},{"properties":{"city":"Belchertown","supporters":6.0,"geo_score":0.857,"organizers":1.0,"accounts":2.0,"id":"a680570whzlu","geo_precision":"city","state":"Massachusetts"},"type":"Feature","geometry":{"type":"Point","coordinates":[-72.402056,42.280267]}},{"properties":{"city":"Bellingham","supporters":1.0,"geo_score":0.857,"organizers":1.0,"accounts":1.0,"id":"a68056whnyeu","geo_precision":"city","state":"Massachusetts"},"type":"Feature","geometry":{"type":"Point","coordinates":[-71.470464,42.076501]}},{"properties":{"city":"Belmont","supporters":37.0,"geo_score":0.857,"organizers":2.0,"accounts":2.0,"id":"a68056ru41hd","geo_precision":"city","state":"Massachusetts"},"type":"Feature","geometry":{"type":"Point","coordinates":[-71.459405,42.446396]}},{"properties":{"city":"Beverly","supporters":17.0,"geo_score":0.857,"organizers":3.0,"accounts":4.0,"id":"a68056wu49bh","geo_precision":"city","state":"Massachusetts"},"type":"Feature","geometry":{"type":"Point","coordinates":[-70.853843,42.565145]}},{"properties":{"city":"Billerica","supporters":14.0,"geo_score":0.857,"organizers":4.0,"accounts":5.0,"id":"a68056r6bkp2","geo_precision":"city","state":"Massachusetts"},"type":"Feature","geometry":{"type":"Point","coordinates":[-71.459405,42.446396]}},{"properties":{"city":"Blackstone","supporters":5.0,"geo_score":0.857,"organizers":1.0,"accounts":1.0,"id":"a68056zemw87","geo_precision":"city","state":"Massachusetts"},"type":"Feature","geometry":{"type":"Point","coordinates":[-71.799785,42.114078]}},{"properties":{"city":"Boston","supporters":0.0,"geo_score":0.857,"organizers":194.0,"accounts":0.0,"id":"a68056pw566p","geo_precision":"city","state":"Massachusetts"},"type":"Feature","geometry":{"type":"Point","coordinates":[-71.059773,42.358431]}},{"properties":{"city":"Boxborough","supporters":5.0,"geo_score":0.857,"organizers":2.0,"accounts":2.0,"id":"a68056z30ouz","geo_precision":"city","state":"Massachusetts"},"type":"Feature","geometry":{"type":"Point","coordinates":[-71.459405,42.446396]}},{"properties":{"city":"Boxford","supporters":11.0,"geo_score":0.857,"organizers":2.0,"accounts":2.0,"id":"a68056zlr8yd","geo_precision":"city","state":"Massachusetts"},"type":"Feature","geometry":{"type":"Point","coordinates":[-71.017403,42.683256]}},{"properties":{"city":"Boylston","supporters":2.0,"geo_score":0.857,"organizers":1.0,"accounts":1.0,"id":"a68056o7mxrj","geo_precision":"city","state":"Massachusetts"},"type":"Feature","geometry":{"type":"Point","coordinates":[-71.943458,42.300037]}},{"properties":{"city":"Brewster","supporters":11.0,"geo_score":0.857,"organizers":2.0,"accounts":4.0,"id":"a680571hvex9","geo_precision":"city","state":"Massachusetts"},"type":"Feature","geometry":{"type":"Point","coordinates":[-70.044462,41.852997]}},{"properties":{"city":"Bridgewater","supporters":5.0,"geo_score":0.857,"organizers":4.0,"accounts":4.0,"id":"a68056rgf26s","geo_precision":"city","state":"Massachusetts"},"type":"Feature","geometry":{"type":"Point","coordinates":[-70.976558,41.973741]}},{"properties":{"city":"Brockton","supporters":24.0,"geo_score":0.857,"organizers":6.0,"accounts":4.0,"id":"a680572gfs8q","geo_precision":"city","state":"Massachusetts"},"type":"Feature","geometry":{"type":"Point","coordinates":[-71.018379,42.083434]}},{"properties":{"city":"Brookline","supporters":55.0,"geo_score":0.857,"organizers":14.0,"accounts":22.0,"id":"a68056vr1i4t","geo_precision":"city","state":"Massachusetts"},"type":"Feature","geometry":{"type":"Point","coordinates":[-71.088745,42.308198]}},{"properties":{"city":"Burlington","supporters":6.0,"geo_score":0.857,"organizers":1.0,"accounts":2.0,"id":"a68056v0p2a1","geo_precision":"city","state":"Massachusetts"},"type":"Feature","geometry":{"type":"Point","coordinates":[-71.201539,42.504844]}},{"properties":{"city":"Cambridge","supporters":194.0,"geo_score":0.813,"organizers":69.0,"accounts":74.0,"id":"a68056wl8fw9","geo_precision":"city","state":"Massachusetts"},"type":"Feature","geometry":{"type":"Point","coordinates":[-71.103663,42.358431]}},{"properties":{"city":"Carlisle","supporters":6.0,"geo_score":0.857,"organizers":3.0,"accounts":3.0,"id":"a68056wwyv17","geo_precision":"city","state":"Massachusetts"},"type":"Feature","geometry":{"type":"Point","coordinates":[-71.459405,42.446396]}},{"properties":{"city":"Charlestown","supporters":6.0,"geo_score":0.857,"organizers":3.0,"accounts":4.0,"id":"a68056v01cvu","geo_precision":"city","state":"Massachusetts"},"type":"Feature","geometry":{"type":"Point","coordinates":[-71.065287,42.382588]}},{"properties":{"city":"Chatham","supporters":3.0,"geo_score":0.857,"organizers":1.0,"accounts":1.0,"id":"a68056xgqc4u","geo_precision":"city","state":"Massachusetts"},"type":"Feature","geometry":{"type":"Point","coordinates":[-70.0468,41.859559]}},{"properties":{"city":"Chelmsford","supporters":14.0,"geo_score":0.857,"organizers":5.0,"accounts":6.0,"id":"a68056pr5u6b","geo_precision":"city","state":"Massachusetts"},"type":"Feature","geometry":{"type":"Point","coordinates":[-71.459405,42.446396]}},{"properties":{"city":"Chelsea","supporters":7.0,"geo_score":0.857,"organizers":3.0,"accounts":4.0,"id":"a68056o8oij1","geo_precision":"city","state":"Massachusetts"},"type":"Feature","geometry":{"type":"Point","coordinates":[-71.038894,42.378197]}},{"properties":{"city":"Clinton","supporters":13.0,"geo_score":0.857,"organizers":1.0,"accounts":0.0,"id":"a68056xzmn9d","geo_precision":"city","state":"Massachusetts"},"type":"Feature","geometry":{"type":"Point","coordinates":[-71.687523,42.413972]}},{"properties":{"city":"Cochituate","supporters":3.0,"geo_score":0.857,"organizers":1.0,"accounts":2.0,"id":"a6805729gnz3","geo_precision":"city","state":"Massachusetts"},"type":"Feature","geometry":{"type":"Point","coordinates":[-71.364226,42.320929]}},{"properties":{"city":"Colrain","supporters":2.0,"geo_score":0.857,"organizers":2.0,"accounts":2.0,"id":"a68056qw2mey","geo_precision":"city","state":"Massachusetts"},"type":"Feature","geometry":{"type":"Point","coordinates":[-72.822986,42.681539]}},{"properties":{"city":"Concord","supporters":18.0,"geo_score":0.857,"organizers":3.0,"accounts":5.0,"id":"a68056xq1zmk","geo_precision":"city","state":"Massachusetts"},"type":"Feature","geometry":{"type":"Point","coordinates":[-71.459405,42.446396]}},{"properties":{"city":"Dartmouth","supporters":8.0,"geo_score":0.857,"organizers":3.0,"accounts":3.0,"id":"a68056wtx8vv","geo_precision":"city","state":"Massachusetts"},"type":"Feature","geometry":{"type":"Point","coordinates":[-71.067062,41.756214]}},{"properties":{"city":"Dedham","supporters":4.0,"geo_score":0.857,"organizers":4.0,"accounts":4.0,"id":"a68056nf4ypx","geo_precision":"city","state":"Massachusetts"},"type":"Feature","geometry":{"type":"Point","coordinates":[-71.181141,42.244733]}},{"properties":{"city":"Douglas","supporters":2.0,"geo_score":0.857,"organizers":1.0,"accounts":1.0,"id":"a680570hb2uw","geo_precision":"city","state":"Massachusetts"},"type":"Feature","geometry":{"type":"Point","coordinates":[-71.891139,42.113076]}},{"properties":{"city":"Dracut","supporters":17.0,"geo_score":0.857,"organizers":2.0,"accounts":2.0,"id":"a68056rmjfez","geo_precision":"city","state":"Massachusetts"},"type":"Feature","geometry":{"type":"Point","coordinates":[-71.459405,42.446396]}},{"properties":{"city":"Dudley","supporters":1.0,"geo_score":0.857,"organizers":1.0,"accounts":1.0,"id":"a68056pqwq00","geo_precision":"city","state":"Massachusetts"},"type":"Feature","geometry":{"type":"Point","coordinates":[-71.937037,42.059189]}},{"properties":{"city":"Duxbury","supporters":9.0,"geo_score":0.857,"organizers":4.0,"accounts":5.0,"id":"a68056tytdr2","geo_precision":"city","state":"Massachusetts"},"type":"Feature","geometry":{"type":"Point","coordinates":[-70.701357,41.970474]}},{"properties":{"city":"Easthampton","supporters":23.0,"geo_score":0.857,"organizers":5.0,"accounts":5.0,"id":"a68056xb4icn","geo_precision":"city","state":"Massachusetts"},"type":"Feature","geometry":{"type":"Point","coordinates":[-72.768839,42.368303]}},{"properties":{"city":"Easton","supporters":2.0,"geo_score":0.857,"organizers":2.0,"accounts":2.0,"id":"a680571gppp3","geo_precision":"city","state":"Massachusetts"},"type":"Feature","geometry":{"type":"Point","coordinates":[-71.132397,42.023528]}},{"properties":{"city":"FALLRIVER","supporters":37.0,"geo_score":0.857,"organizers":5.0,"accounts":6.0,"id":"a680573kv70t","geo_precision":"city","state":"Massachusetts"},"type":"Feature","geometry":{"type":"Point","coordinates":[-71.165971,41.819766]}},{"properties":{"city":"Fairhaven","supporters":6.0,"geo_score":0.857,"organizers":3.0,"accounts":2.0,"id":"a68056r7tbmf","geo_precision":"city","state":"Massachusetts"},"type":"Feature","geometry":{"type":"Point","coordinates":[-70.870045,41.631672]}},{"properties":{"city":"Falmouth","supporters":37.0,"geo_score":0.857,"organizers":3.0,"accounts":4.0,"id":"a68056qjgwnj","geo_precision":"city","state":"Massachusetts"},"type":"Feature","geometry":{"type":"Point","coordinates":[-70.493263,41.614199]}},{"properties":{"city":"Foxborough","supporters":9.0,"geo_score":0.857,"organizers":1.0,"accounts":2.0,"id":"a68056tslvij","geo_precision":"city","state":"Massachusetts"},"type":"Feature","geometry":{"type":"Point","coordinates":[-71.247831,42.065377]}},{"properties":{"city":"Framingham","supporters":38.0,"geo_score":0.804,"organizers":11.0,"accounts":11.0,"id":"a68056smzyn3","geo_precision":"city","state":"Massachusetts"},"type":"Feature","geometry":{"type":"Point","coordinates":[-71.437006,42.297318]}},{"properties":{"city":"Gardner","supporters":1.0,"geo_score":0.857,"organizers":1.0,"accounts":1.0,"id":"a680570bp687","geo_precision":"city","state":"Massachusetts"},"type":"Feature","geometry":{"type":"Point","coordinates":[-72.025884,42.582529]}},{"properties":{"city":"Georgetown","supporters":5.0,"geo_score":0.857,"organizers":2.0,"accounts":2.0,"id":"a68056wametz","geo_precision":"city","state":"Massachusetts"},"type":"Feature","geometry":{"type":"Point","coordinates":[-70.981298,42.72377]}},{"properties":{"city":"Gloucester","supporters":10.0,"geo_score":0.857,"organizers":3.0,"accounts":3.0,"id":"a68056xntij7","geo_precision":"city","state":"Massachusetts"},"type":"Feature","geometry":{"type":"Point","coordinates":[-70.694179,42.630011]}},{"properties":{"city":"Grafton","supporters":4.0,"geo_score":0.857,"organizers":3.0,"accounts":3.0,"id":"a680571l6in9","geo_precision":"city","state":"Massachusetts"},"type":"Feature","geometry":{"type":"Point","coordinates":[-71.682862,42.203944]}},{"properties":{"city":"Great Barrington","supporters":9.0,"geo_score":0.857,"organizers":1.0,"accounts":1.0,"id":"a68056uxl835","geo_precision":"city","state":"Massachusetts"},"type":"Feature","geometry":{"type":"Point","coordinates":[-73.26665,42.299392]}},{"properties":{"city":"Greenfield","supporters":9.0,"geo_score":0.752,"organizers":2.0,"accounts":3.0,"id":"a68056vumbv7","geo_precision":"city","state":"Massachusetts"},"type":"Feature","geometry":{"type":"Point","coordinates":[-72.87871,42.067316]}},{"properties":{"city":"Groton","supporters":11.0,"geo_score":0.857,"organizers":5.0,"accounts":5.0,"id":"a680572hevvh","geo_precision":"city","state":"Massachusetts"},"type":"Feature","geometry":{"type":"Point","coordinates":[-71.459405,42.446396]}},{"properties":{"city":"Hamilton","supporters":2.0,"geo_score":0.802,"organizers":1.0,"accounts":2.0,"id":"a68056umyl3y","geo_precision":"city","state":"Massachusetts"},"type":"Feature","geometry":{"type":"Point","coordinates":[-70.711979,41.743437]}},{"properties":{"city":"Hampden","supporters":4.0,"geo_score":0.857,"organizers":2.0,"accounts":2.0,"id":"a680572tmzmc","geo_precision":"city","state":"Massachusetts"},"type":"Feature","geometry":{"type":"Point","coordinates":[-72.417507,42.067614]}},{"properties":{"city":"Hanover","supporters":2.0,"geo_score":0.857,"organizers":1.0,"accounts":1.0,"id":"a6805721skkx","geo_precision":"city","state":"Massachusetts"},"type":"Feature","geometry":{"type":"Point","coordinates":[-70.851048,42.123534]}},{"properties":{"city":"Hanson","supporters":3.0,"geo_score":0.857,"organizers":1.0,"accounts":1.0,"id":"a68056penep9","geo_precision":"city","state":"Massachusetts"},"type":"Feature","geometry":{"type":"Point","coordinates":[-70.875936,42.055701]}},{"properties":{"city":"Harvard","supporters":3.0,"geo_score":0.857,"organizers":1.0,"accounts":1.0,"id":"a68056z47bsa","geo_precision":"city","state":"Massachusetts"},"type":"Feature","geometry":{"type":"Point","coordinates":[-71.575864,42.500187]}},{"properties":{"city":"Haverhill","supporters":22.0,"geo_score":0.857,"organizers":6.0,"accounts":8.0,"id":"a68056spyvx0","geo_precision":"city","state":"Massachusetts"},"type":"Feature","geometry":{"type":"Point","coordinates":[-71.072501,42.792639]}},{"properties":{"city":"Hingham","supporters":14.0,"geo_score":0.857,"organizers":1.0,"accounts":1.0,"id":"a680570j715t","geo_precision":"city","state":"Massachusetts"},"type":"Feature","geometry":{"type":"Point","coordinates":[-70.884989,42.212105]}},{"properties":{"city":"Holbrook","supporters":2.0,"geo_score":0.857,"organizers":1.0,"accounts":2.0,"id":"a680571txn6b","geo_precision":"city","state":"Massachusetts"},"type":"Feature","geometry":{"type":"Point","coordinates":[-71.00289,42.144424]}},{"properties":{"city":"Holden","supporters":21.0,"geo_score":0.857,"organizers":5.0,"accounts":4.0,"id":"a680571j7qhi","geo_precision":"city","state":"Massachusetts"},"type":"Feature","geometry":{"type":"Point","coordinates":[-71.845316,42.336791]}},{"properties":{"city":"Holliston","supporters":12.0,"geo_score":0.857,"organizers":4.0,"accounts":3.0,"id":"a68056y8di1t","geo_precision":"city","state":"Massachusetts"},"type":"Feature","geometry":{"type":"Point","coordinates":[-71.459405,42.446396]}},{"properties":{"city":"Holyoke","supporters":15.0,"geo_score":0.857,"organizers":5.0,"accounts":6.0,"id":"a68056vdn9wg","geo_precision":"city","state":"Massachusetts"},"type":"Feature","geometry":{"type":"Point","coordinates":[-72.64207,42.198291]}},{"properties":{"city":"Hudson","supporters":13.0,"geo_score":0.857,"organizers":1.0,"accounts":4.0,"id":"a68056rkj6c3","geo_precision":"city","state":"Massachusetts"},"type":"Feature","geometry":{"type":"Point","coordinates":[-71.459405,42.446396]}},{"properties":{"city":"Hull","supporters":10.0,"geo_score":0.762,"organizers":4.0,"accounts":2.0,"id":"a6805704vi5x","geo_precision":"city","state":"Massachusetts"},"type":"Feature","geometry":{"type":"Point","coordinates":[-72.877873,42.564529]}},{"properties":{"city":"Ipswich","supporters":9.0,"geo_score":0.857,"organizers":3.0,"accounts":2.0,"id":"a68056rkp3xl","geo_precision":"city","state":"Massachusetts"},"type":"Feature","geometry":{"type":"Point","coordinates":[-70.864132,42.68571]}},{"properties":{"city":"Lakeville","supporters":5.0,"geo_score":0.857,"organizers":2.0,"accounts":2.0,"id":"a68056nbjgnp","geo_precision":"city","state":"Massachusetts"},"type":"Feature","geometry":{"type":"Point","coordinates":[-70.959981,41.843757]}},{"properties":{"city":"Lancaster","supporters":1.0,"geo_score":0.857,"organizers":1.0,"accounts":1.0,"id":"a680572z8ucc","geo_precision":"city","state":"Massachusetts"},"type":"Feature","geometry":{"type":"Point","coordinates":[-71.91177,42.427188]}},{"properties":{"city":"Lanesborough","supporters":3.0,"geo_score":0.857,"organizers":1.0,"accounts":1.0,"id":"a68056wm79kq","geo_precision":"city","state":"Massachusetts"},"type":"Feature","geometry":{"type":"Point","coordinates":[-73.22816,42.517306]}},{"properties":{"city":"Lawrence","supporters":16.0,"geo_score":0.857,"organizers":5.0,"accounts":4.0,"id":"a68056pgpk0p","geo_precision":"city","state":"Massachusetts"},"type":"Feature","geometry":{"type":"Point","coordinates":[-71.161052,42.70734]}},{"properties":{"city":"Leicester","supporters":2.0,"geo_score":0.857,"organizers":1.0,"accounts":1.0,"id":"a68056xtc3p8","geo_precision":"city","state":"Massachusetts"},"type":"Feature","geometry":{"type":"Point","coordinates":[-72.012379,42.238192]}},{"properties":{"city":"Leominster","supporters":4.0,"geo_score":0.857,"organizers":2.0,"accounts":1.0,"id":"a680572r6zr1","geo_precision":"city","state":"Massachusetts"},"type":"Feature","geometry":{"type":"Point","coordinates":[-71.837509,42.471316]}},{"properties":{"city":"Leverett","supporters":1.0,"geo_score":0.857,"organizers":1.0,"accounts":1.0,"id":"a68056nhc7eh","geo_precision":"city","state":"Massachusetts"},"type":"Feature","geometry":{"type":"Point","coordinates":[-72.467543,42.474681]}},{"properties":{"city":"Lexington","supporters":21.0,"geo_score":0.857,"organizers":12.0,"accounts":13.0,"id":"a68056u89z4n","geo_precision":"city","state":"Massachusetts"},"type":"Feature","geometry":{"type":"Point","coordinates":[-71.459405,42.446396]}},{"properties":{"city":"Lincoln","supporters":10.0,"geo_score":0.857,"organizers":2.0,"accounts":6.0,"id":"a68056p1js24","geo_precision":"city","state":"Massachusetts"},"type":"Feature","geometry":{"type":"Point","coordinates":[-71.459405,42.446396]}},{"properties":{"city":"Littleton","supporters":8.0,"geo_score":0.857,"organizers":2.0,"accounts":2.0,"id":"a68056vvqkr1","geo_precision":"city","state":"Massachusetts"},"type":"Feature","geometry":{"type":"Point","coordinates":[-71.459405,42.446396]}},{"properties":{"city":"Longmeadow","supporters":24.0,"geo_score":0.857,"organizers":6.0,"accounts":4.0,"id":"a680571zc3dw","geo_precision":"city","state":"Massachusetts"},"type":"Feature","geometry":{"type":"Point","coordinates":[-72.567882,42.049194]}},{"properties":{"city":"Lowell","supporters":20.0,"geo_score":0.857,"organizers":11.0,"accounts":16.0,"id":"a680572uc9ou","geo_precision":"city","state":"Massachusetts"},"type":"Feature","geometry":{"type":"Point","coordinates":[-71.459405,42.446396]}},{"properties":{"city":"Ludlow","supporters":10.0,"geo_score":0.857,"organizers":2.0,"accounts":3.0,"id":"a68056vlxiqh","geo_precision":"city","state":"Massachusetts"},"type":"Feature","geometry":{"type":"Point","coordinates":[-72.627038,42.173276]}},{"properties":{"city":"Lunenburg","supporters":3.0,"geo_score":0.857,"organizers":1.0,"accounts":1.0,"id":"a680570c0fzp","geo_precision":"city","state":"Massachusetts"},"type":"Feature","geometry":{"type":"Point","coordinates":[-71.752266,42.583322]}},{"properties":{"city":"Lynn","supporters":41.0,"geo_score":0.857,"organizers":7.0,"accounts":8.0,"id":"a68056oz4y3a","geo_precision":"city","state":"Massachusetts"},"type":"Feature","geometry":{"type":"Point","coordinates":[-70.946743,42.461246]}},{"properties":{"city":"Malden","supporters":13.0,"geo_score":0.857,"organizers":7.0,"accounts":12.0,"id":"a68056z7nsme","geo_precision":"city","state":"Massachusetts"},"type":"Feature","geometry":{"type":"Point","coordinates":[-71.085396,42.436545]}},{"properties":{"city":"Manchester","supporters":5.0,"geo_score":0.857,"organizers":2.0,"accounts":2.0,"id":"a680572ybyno","geo_precision":"city","state":"Massachusetts"},"type":"Feature","geometry":{"type":"Point","coordinates":[-70.755062,42.579503]}},{"properties":{"city":"Mansfield","supporters":6.0,"geo_score":0.8,"organizers":3.0,"accounts":2.0,"id":"a68056ptovkw","geo_precision":"city","state":"Massachusetts"},"type":"Feature","geometry":{"type":"Point","coordinates":[-71.218079,42.022619]}},{"properties":{"city":"Marblehead","supporters":6.0,"geo_score":0.816,"organizers":1.0,"accounts":1.0,"id":"a680571l93to","geo_precision":"city","state":"Massachusetts"},"type":"Feature","geometry":{"type":"Point","coordinates":[-70.836991,42.500096]}},{"properties":{"city":"Marion","supporters":5.0,"geo_score":0.857,"organizers":1.0,"accounts":1.0,"id":"a68056sjh5g2","geo_precision":"city","state":"Massachusetts"},"type":"Feature","geometry":{"type":"Point","coordinates":[-70.754015,41.736735]}},{"properties":{"city":"Marlborough","supporters":22.0,"geo_score":0.818,"organizers":3.0,"accounts":2.0,"id":"a68056w5xmgw","geo_precision":"city","state":"Massachusetts"},"type":"Feature","geometry":{"type":"Point","coordinates":[-70.97311,42.716759]}},{"properties":{"city":"Marshfield","supporters":20.0,"geo_score":0.804,"organizers":3.0,"accounts":3.0,"id":"a68056yi9wab","geo_precision":"city","state":"Massachusetts"},"type":"Feature","geometry":{"type":"Point","coordinates":[-70.71615,42.116769]}},{"properties":{"city":"Mashpee","supporters":2.0,"geo_score":0.857,"organizers":2.0,"accounts":2.0,"id":"a68056pvsmf8","geo_precision":"city","state":"Massachusetts"},"type":"Feature","geometry":{"type":"Point","coordinates":[-70.253543,41.788337]}},{"properties":{"city":"Mattapoisett","supporters":7.0,"geo_score":0.857,"organizers":5.0,"accounts":4.0,"id":"a680571kps79","geo_precision":"city","state":"Massachusetts"},"type":"Feature","geometry":{"type":"Point","coordinates":[-70.810856,41.664976]}},{"properties":{"city":"Maynard","supporters":9.0,"geo_score":0.857,"organizers":1.0,"accounts":1.0,"id":"a68056tzfqv5","geo_precision":"city","state":"Massachusetts"},"type":"Feature","geometry":{"type":"Point","coordinates":[-71.459405,42.446396]}},{"properties":{"city":"Medfield","supporters":3.0,"geo_score":0.821,"organizers":1.0,"accounts":2.0,"id":"a680572qhttk","geo_precision":"city","state":"Massachusetts"},"type":"Feature","geometry":{"type":"Point","coordinates":[-70.99671,42.033434]}},{"properties":{"city":"Medford","supporters":37.0,"geo_score":0.781,"organizers":4.0,"accounts":8.0,"id":"a68056s1n244","geo_precision":"city","state":"Massachusetts"},"type":"Feature","geometry":{"type":"Point","coordinates":[-71.125331,42.412596]}},{"properties":{"city":"Medway","supporters":20.0,"geo_score":0.857,"organizers":6.0,"accounts":4.0,"id":"a68056t27z3y","geo_precision":"city","state":"Massachusetts"},"type":"Feature","geometry":{"type":"Point","coordinates":[-71.427663,42.156282]}},{"properties":{"city":"Melrose","supporters":11.0,"geo_score":0.857,"organizers":1.0,"accounts":3.0,"id":"a68056v00jg3","geo_precision":"city","state":"Massachusetts"},"type":"Feature","geometry":{"type":"Point","coordinates":[-71.053095,42.458995]}},{"properties":{"city":"Merrimac","supporters":1.0,"geo_score":0.857,"organizers":1.0,"accounts":1.0,"id":"a68056vivak0","geo_precision":"city","state":"Massachusetts"},"type":"Feature","geometry":{"type":"Point","coordinates":[-71.0896,42.802441]}},{"properties":{"city":"Methuen","supporters":5.0,"geo_score":0.857,"organizers":3.0,"accounts":3.0,"id":"a680570nkdwc","geo_precision":"city","state":"Massachusetts"},"type":"Feature","geometry":{"type":"Point","coordinates":[-71.186915,42.73184]}},{"properties":{"city":"Middleton","supporters":3.0,"geo_score":0.857,"organizers":1.0,"accounts":1.0,"id":"a68056xtv6j9","geo_precision":"city","state":"Massachusetts"},"type":"Feature","geometry":{"type":"Point","coordinates":[-71.087905,42.644942]}},{"properties":{"city":"Milford","supporters":9.0,"geo_score":0.857,"organizers":3.0,"accounts":4.0,"id":"a68056s0zpfe","geo_precision":"city","state":"Massachusetts"},"type":"Feature","geometry":{"type":"Point","coordinates":[-71.528085,42.147087]}},{"properties":{"city":"Millis","supporters":1.0,"geo_score":0.857,"organizers":1.0,"accounts":1.0,"id":"a68056u9x8k7","geo_precision":"city","state":"Massachusetts"},"type":"Feature","geometry":{"type":"Point","coordinates":[-71.36126,42.165249]}},{"properties":{"city":"Milton","supporters":21.0,"geo_score":0.786,"organizers":12.0,"accounts":9.0,"id":"a68056qa3st6","geo_precision":"city","state":"Massachusetts"},"type":"Feature","geometry":{"type":"Point","coordinates":[-71.085396,42.436545]}},{"properties":{"city":"Monson","supporters":2.0,"geo_score":0.857,"organizers":1.0,"accounts":1.0,"id":"a68056rwja5p","geo_precision":"city","state":"Massachusetts"},"type":"Feature","geometry":{"type":"Point","coordinates":[-72.282063,42.095323]}},{"properties":{"city":"Monterey","supporters":4.0,"geo_score":0.857,"organizers":1.0,"accounts":2.0,"id":"a68056y11kii","geo_precision":"city","state":"Massachusetts"},"type":"Feature","geometry":{"type":"Point","coordinates":[-73.206498,42.18669]}},{"properties":{"city":"NEWTONCENTRE","supporters":null,"geo_score":0.833,"organizers":27.0,"accounts":null,"id":"a68056xrox18","geo_precision":"city","state":"Massachusetts"},"type":"Feature","geometry":{"type":"Point","coordinates":[-71.199499,42.330653]}},{"properties":{"city":"Nahant","supporters":3.0,"geo_score":0.857,"organizers":2.0,"accounts":2.0,"id":"a68056upfh43","geo_precision":"city","state":"Massachusetts"},"type":"Feature","geometry":{"type":"Point","coordinates":[-70.922442,42.427296]}},{"properties":{"city":"Natick","supporters":43.0,"geo_score":0.857,"organizers":9.0,"accounts":14.0,"id":"a68056yl1ma7","geo_precision":"city","state":"Massachusetts"},"type":"Feature","geometry":{"type":"Point","coordinates":[-71.459405,42.446396]}},{"properties":{"city":"Needham","supporters":3.0,"geo_score":0.857,"organizers":2.0,"accounts":2.0,"id":"a68056onqo75","geo_precision":"city","state":"Massachusetts"},"type":"Feature","geometry":{"type":"Point","coordinates":[-71.08923,42.180048]}},{"properties":{"city":"New Bedford","supporters":10.0,"geo_score":0.755,"organizers":5.0,"accounts":2.0,"id":"a68057096sv3","geo_precision":"city","state":"Massachusetts"},"type":"Feature","geometry":{"type":"Point","coordinates":[-71.270891,42.516205]}},{"properties":{"city":"Newbury","supporters":8.0,"geo_score":0.857,"organizers":1.0,"accounts":2.0,"id":"a68056n79dzt","geo_precision":"city","state":"Massachusetts"},"type":"Feature","geometry":{"type":"Point","coordinates":[-70.867246,42.777524]}},{"properties":{"city":"Newburyport","supporters":14.0,"geo_score":0.857,"organizers":4.0,"accounts":6.0,"id":"a68056u19up8","geo_precision":"city","state":"Massachusetts"},"type":"Feature","geometry":{"type":"Point","coordinates":[-70.873196,42.80965]}},{"properties":{"city":"North Andover","supporters":5.0,"geo_score":0.786,"organizers":2.0,"accounts":3.0,"id":"a680570ytul4","geo_precision":"city","state":"Massachusetts"},"type":"Feature","geometry":{"type":"Point","coordinates":[-71.357837,42.301485]}},{"properties":{"city":"North Attleboro","supporters":2.0,"geo_score":0.786,"organizers":1.0,"accounts":1.0,"id":"a68056xiygpt","geo_precision":"city","state":"Massachusetts"},"type":"Feature","geometry":{"type":"Point","coordinates":[-72.581478,42.3862]}},{"properties":{"city":"North Reading","supporters":9.0,"geo_score":0.798,"organizers":2.0,"accounts":2.0,"id":"a68056zqzxic","geo_precision":"city","state":"Massachusetts"},"type":"Feature","geometry":{"type":"Point","coordinates":[-71.975909,42.430646]}},{"properties":{"city":"Northampton","supporters":28.0,"geo_score":0.857,"organizers":7.0,"accounts":7.0,"id":"a68056x73vvw","geo_precision":"city","state":"Massachusetts"},"type":"Feature","geometry":{"type":"Point","coordinates":[-72.76927,42.415154]}},{"properties":{"city":"Northborough","supporters":24.0,"geo_score":0.773,"organizers":8.0,"accounts":10.0,"id":"a680570gd5ob","geo_precision":"city","state":"Massachusetts"},"type":"Feature","geometry":{"type":"Point","coordinates":[-71.672568,42.134818]}},{"properties":{"city":"Northbridge","supporters":12.0,"geo_score":0.807,"organizers":1.0,"accounts":2.0,"id":"a68056tnpao3","geo_precision":"city","state":"Massachusetts"},"type":"Feature","geometry":{"type":"Point","coordinates":[-71.672568,42.134818]}},{"properties":{"city":"Northfield","supporters":3.0,"geo_score":0.857,"organizers":1.0,"accounts":1.0,"id":"a6805704mwhj","geo_precision":"city","state":"Massachusetts"},"type":"Feature","geometry":{"type":"Point","coordinates":[-72.624164,42.522178]}},{"properties":{"city":"Norton","supporters":1.0,"geo_score":0.857,"organizers":1.0,"accounts":1.0,"id":"a68056smagf7","geo_precision":"city","state":"Massachusetts"},"type":"Feature","geometry":{"type":"Point","coordinates":[-71.180393,41.959149]}},{"properties":{"city":"Norwell","supporters":16.0,"geo_score":0.857,"organizers":4.0,"accounts":3.0,"id":"a68056zjeu1q","geo_precision":"city","state":"Massachusetts"},"type":"Feature","geometry":{"type":"Point","coordinates":[-70.823035,42.154145]}},{"properties":{"city":"Norwood","supporters":2.0,"geo_score":0.857,"organizers":2.0,"accounts":2.0,"id":"a68056q3miy4","geo_precision":"city","state":"Massachusetts"},"type":"Feature","geometry":{"type":"Point","coordinates":[-71.196277,42.182798]}},{"properties":{"city":"Orange","supporters":1.0,"geo_score":0.857,"organizers":1.0,"accounts":1.0,"id":"a68056yhvtmy","geo_precision":"city","state":"Massachusetts"},"type":"Feature","geometry":{"type":"Point","coordinates":[-72.556589,42.578325]}},{"properties":{"city":"Orleans","supporters":4.0,"geo_score":0.857,"organizers":1.0,"accounts":1.0,"id":"a68056tdawab","geo_precision":"city","state":"Massachusetts"},"type":"Feature","geometry":{"type":"Point","coordinates":[-70.01539,41.852933]}},{"properties":{"city":"Peabody","supporters":2.0,"geo_score":0.857,"organizers":1.0,"accounts":1.0,"id":"a68056prosie","geo_precision":"city","state":"Massachusetts"},"type":"Feature","geometry":{"type":"Point","coordinates":[-70.973646,42.536996]}},{"properties":{"city":"Pepperell","supporters":2.0,"geo_score":0.857,"organizers":1.0,"accounts":1.0,"id":"a68056usczgh","geo_precision":"city","state":"Massachusetts"},"type":"Feature","geometry":{"type":"Point","coordinates":[-71.459405,42.446396]}},{"properties":{"city":"Pittsfield","supporters":25.0,"geo_score":0.857,"organizers":5.0,"accounts":8.0,"id":"a68056tu0twl","geo_precision":"city","state":"Massachusetts"},"type":"Feature","geometry":{"type":"Point","coordinates":[-73.24807,42.479475]}},{"properties":{"city":"Plymouth","supporters":48.0,"geo_score":0.857,"organizers":1.0,"accounts":3.0,"id":"a680573cis94","geo_precision":"city","state":"Massachusetts"},"type":"Feature","geometry":{"type":"Point","coordinates":[-70.638717,41.886207]}},{"properties":{"city":"Princeton","supporters":8.0,"geo_score":0.795,"organizers":1.0,"accounts":1.0,"id":"a68056xe668l","geo_precision":"city","state":"Massachusetts"},"type":"Feature","geometry":{"type":"Point","coordinates":[-71.924519,42.448146]}},{"properties":{"city":"Providence","supporters":1.0,"geo_score":0.0,"organizers":1.0,"accounts":1.0,"id":"a68056yh3mt8","geo_precision":"unmatched","state":"Massachusetts"},"type":"Feature","geometry":null},{"properties":{"city":"Quincy","supporters":17.0,"geo_score":0.857,"organizers":10.0,"accounts":13.0,"id":"a68056ypm24e","geo_precision":"city","state":"Massachusetts"},"type":"Feature","geometry":{"type":"Point","coordinates":[-71.006042,42.241799]}},{"properties":{"city":"Randolph","supporters":17.0,"geo_score":0.857,"organizers":8.0,"accounts":9.0,"id":"a68056waxyz1","geo_precision":"city","state":"Massachusetts"},"type":"Feature","geometry":{"type":"Point","coordinates":[-71.055602,42.171467]}},{"properties":{"city":"Reading","supporters":10.0,"geo_score":0.857,"organizers":4.0,"accounts":4.0,"id":"a68056v3azs5","geo_precision":"city","state":"Massachusetts"},"type":"Feature","geometry":{"type":"Point","coordinates":[-71.107172,42.537065]}},{"properties":{"city":"Revere","supporters":14.0,"geo_score":0.857,"organizers":2.0,"accounts":2.0,"id":"a68056vafneg","geo_precision":"city","state":"Massachusetts"},"type":"Feature","geometry":{"type":"Point","coordinates":[-71.020494,42.366303]}},{"properties":{"city":"Rutland","supporters":2.0,"geo_score":0.857,"organizers":1.0,"accounts":1.0,"id":"a68056q8am75","geo_precision":"city","state":"Massachusetts"},"type":"Feature","geometry":{"type":"Point","coordinates":[-71.95463,42.383516]}},{"properties":{"city":"Salem","supporters":12.0,"geo_score":0.857,"organizers":6.0,"accounts":9.0,"id":"a68056p83wyf","geo_precision":"city","state":"Massachusetts"},"type":"Feature","geometry":{"type":"Point","coordinates":[-70.873647,42.642845]}},{"properties":{"city":"Sandwich","supporters":23.0,"geo_score":0.857,"organizers":2.0,"accounts":2.0,"id":"a68056tpb9t5","geo_precision":"city","state":"Massachusetts"},"type":"Feature","geometry":{"type":"Point","coordinates":[-70.477482,41.711291]}},{"properties":{"city":"Saugus","supporters":13.0,"geo_score":0.857,"organizers":3.0,"accounts":3.0,"id":"a68056qfo9da","geo_precision":"city","state":"Massachusetts"},"type":"Feature","geometry":{"type":"Point","coordinates":[-70.997794,42.472112]}},{"properties":{"city":"Scituate","supporters":7.0,"geo_score":0.857,"organizers":2.0,"accounts":2.0,"id":"a68056we0lf7","geo_precision":"city","state":"Massachusetts"},"type":"Feature","geometry":{"type":"Point","coordinates":[-70.770188,42.207254]}},{"properties":{"city":"Sharon","supporters":16.0,"geo_score":0.857,"organizers":3.0,"accounts":4.0,"id":"a68057139xlj","geo_precision":"city","state":"Massachusetts"},"type":"Feature","geometry":{"type":"Point","coordinates":[-71.184785,42.105288]}},{"properties":{"city":"Shelburne","supporters":2.0,"geo_score":0.857,"organizers":2.0,"accounts":2.0,"id":"a68056rruqqy","geo_precision":"city","state":"Massachusetts"},"type":"Feature","geometry":{"type":"Point","coordinates":[-72.688424,42.589807]}},{"properties":{"city":"Shirley","supporters":7.0,"geo_score":0.857,"organizers":1.0,"accounts":0.0,"id":"a68056pjt6la","geo_precision":"city","state":"Massachusetts"},"type":"Feature","geometry":{"type":"Point","coordinates":[-71.459405,42.446396]}},{"properties":{"city":"Shrewsbury","supporters":28.0,"geo_score":0.857,"organizers":1.0,"accounts":1.0,"id":"a68056w7gh1q","geo_precision":"city","state":"Massachusetts"},"type":"Feature","geometry":{"type":"Point","coordinates":[-71.715313,42.286992]}},{"properties":{"city":"Somerville","supporters":104.0,"geo_score":0.857,"organizers":26.0,"accounts":27.0,"id":"a68056szhjwc","geo_precision":"city","state":"Massachusetts"},"type":"Feature","geometry":{"type":"Point","coordinates":[-71.098896,42.38092]}},{"properties":{"city":"South Hadley","supporters":7.0,"geo_score":0.792,"organizers":2.0,"accounts":2.0,"id":"a68056wymqne","geo_precision":"city","state":"Massachusetts"},"type":"Feature","geometry":{"type":"Point","coordinates":[-72.576613,42.356804]}},{"properties":{"city":"Southborough","supporters":10.0,"geo_score":0.857,"organizers":4.0,"accounts":6.0,"id":"a68056tquzoq","geo_precision":"city","state":"Massachusetts"},"type":"Feature","geometry":{"type":"Point","coordinates":[-71.524509,42.30565]}},{"properties":{"city":"Southwick","supporters":5.0,"geo_score":0.857,"organizers":4.0,"accounts":2.0,"id":"a68056wjtdj7","geo_precision":"city","state":"Massachusetts"},"type":"Feature","geometry":{"type":"Point","coordinates":[-72.541205,42.066644]}},{"properties":{"city":"Springfield","supporters":52.0,"geo_score":0.857,"organizers":14.0,"accounts":17.0,"id":"a68056tkwth7","geo_precision":"city","state":"Massachusetts"},"type":"Feature","geometry":{"type":"Point","coordinates":[-72.589811,42.101483]}},{"properties":{"city":"Stoneham","supporters":4.0,"geo_score":0.857,"organizers":2.0,"accounts":3.0,"id":"a68056qylgwk","geo_precision":"city","state":"Massachusetts"},"type":"Feature","geometry":{"type":"Point","coordinates":[-71.098146,42.474595]}},{"properties":{"city":"Stoughton","supporters":5.0,"geo_score":0.857,"organizers":4.0,"accounts":3.0,"id":"a68056w8dgmy","geo_precision":"city","state":"Massachusetts"},"type":"Feature","geometry":{"type":"Point","coordinates":[-71.105733,42.118416]}},{"properties":{"city":"Stow","supporters":12.0,"geo_score":0.857,"organizers":5.0,"accounts":2.0,"id":"a68056nkaqq0","geo_precision":"city","state":"Massachusetts"},"type":"Feature","geometry":{"type":"Point","coordinates":[-71.459405,42.446396]}},{"properties":{"city":"Sudbury","supporters":18.0,"geo_score":0.857,"organizers":2.0,"accounts":3.0,"id":"a68056symq8h","geo_precision":"city","state":"Massachusetts"},"type":"Feature","geometry":{"type":"Point","coordinates":[-71.459405,42.446396]}},{"properties":{"city":"Sutton","supporters":7.0,"geo_score":0.857,"organizers":2.0,"accounts":2.0,"id":"a68056wdjk9d","geo_precision":"city","state":"Massachusetts"},"type":"Feature","geometry":{"type":"Point","coordinates":[-71.762848,42.150095]}},{"properties":{"city":"Swampscott","supporters":17.0,"geo_score":0.857,"organizers":7.0,"accounts":7.0,"id":"a68056ucwk65","geo_precision":"city","state":"Massachusetts"},"type":"Feature","geometry":{"type":"Point","coordinates":[-70.905893,42.513295]}},{"properties":{"city":"Taunton","supporters":8.0,"geo_score":0.857,"organizers":2.0,"accounts":3.0,"id":"a68056ts4yvh","geo_precision":"city","state":"Massachusetts"},"type":"Feature","geometry":{"type":"Point","coordinates":[-71.092827,41.858851]}},{"properties":{"city":"Templeton","supporters":2.0,"geo_score":0.857,"organizers":1.0,"accounts":2.0,"id":"a68056u8xkmd","geo_precision":"city","state":"Massachusetts"},"type":"Feature","geometry":{"type":"Point","coordinates":[-72.072285,42.555059]}},{"properties":{"city":"Tewksbury","supporters":7.0,"geo_score":0.857,"organizers":3.0,"accounts":4.0,"id":"a68056sf39o3","geo_precision":"city","state":"Massachusetts"},"type":"Feature","geometry":{"type":"Point","coordinates":[-71.459405,42.446396]}},{"properties":{"city":"Topsfield","supporters":3.0,"geo_score":0.857,"organizers":1.0,"accounts":2.0,"id":"a680571xjn63","geo_precision":"city","state":"Massachusetts"},"type":"Feature","geometry":{"type":"Point","coordinates":[-70.954487,42.661793]}},{"properties":{"city":"Uxbridge","supporters":1.0,"geo_score":0.857,"organizers":1.0,"accounts":1.0,"id":"a68056y84gl3","geo_precision":"city","state":"Massachusetts"},"type":"Feature","geometry":{"type":"Point","coordinates":[-71.638438,42.059736]}},{"properties":{"city":"Wakefield","supporters":13.0,"geo_score":0.79,"organizers":1.0,"accounts":1.0,"id":"a68056ywz03i","geo_precision":"city","state":"Massachusetts"},"type":"Feature","geometry":{"type":"Point","coordinates":[-71.07033,42.495929]}},{"properties":{"city":"Walpole","supporters":10.0,"geo_score":0.857,"organizers":4.0,"accounts":2.0,"id":"a68056o68yep","geo_precision":"city","state":"Massachusetts"},"type":"Feature","geometry":{"type":"Point","coordinates":[-71.255533,42.148624]}},{"properties":{"city":"Waltham","supporters":22.0,"geo_score":0.857,"organizers":5.0,"accounts":8.0,"id":"a68056qw71dn","geo_precision":"city","state":"Massachusetts"},"type":"Feature","geometry":{"type":"Point","coordinates":[-71.2398,42.388938]}},{"properties":{"city":"Wareham","supporters":5.0,"geo_score":0.857,"organizers":2.0,"accounts":3.0,"id":"a6805716p0xf","geo_precision":"city","state":"Massachusetts"},"type":"Feature","geometry":{"type":"Point","coordinates":[-70.694662,41.760216]}},{"properties":{"city":"Warren","supporters":1.0,"geo_score":0.857,"organizers":1.0,"accounts":1.0,"id":"a68056xdubae","geo_precision":"city","state":"Massachusetts"},"type":"Feature","geometry":{"type":"Point","coordinates":[-72.199439,42.204027]}},{"properties":{"city":"Washington","supporters":3.0,"geo_score":0.857,"organizers":2.0,"accounts":3.0,"id":"a68056z6cxug","geo_precision":"city","state":"Massachusetts"},"type":"Feature","geometry":{"type":"Point","coordinates":[-73.116214,42.36592]}},{"properties":{"city":"Watertown","supporters":23.0,"geo_score":0.857,"organizers":5.0,"accounts":5.0,"id":"a68056nl98ak","geo_precision":"city","state":"Massachusetts"},"type":"Feature","geometry":{"type":"Point","coordinates":[-71.177998,42.372596]}},{"properties":{"city":"Wayland","supporters":6.0,"geo_score":0.857,"organizers":4.0,"accounts":5.0,"id":"a68056ouxdaw","geo_precision":"city","state":"Massachusetts"},"type":"Feature","geometry":{"type":"Point","coordinates":[-71.459405,42.446396]}},{"properties":{"city":"Webster","supporters":4.0,"geo_score":0.791,"organizers":1.0,"accounts":1.0,"id":"a68056vuo3j9","geo_precision":"city","state":"Massachusetts"},"type":"Feature","geometry":{"type":"Point","coordinates":[-71.831461,42.243149]}},{"properties":{"city":"Wellesley","supporters":26.0,"geo_score":0.857,"organizers":8.0,"accounts":10.0,"id":"a68056u9o1rg","geo_precision":"city","state":"Massachusetts"},"type":"Feature","geometry":{"type":"Point","coordinates":[-71.27875,42.300596]}},{"properties":{"city":"Wenham","supporters":2.0,"geo_score":0.857,"organizers":1.0,"accounts":1.0,"id":"a68056vi5sqw","geo_precision":"city","state":"Massachusetts"},"type":"Feature","geometry":{"type":"Point","coordinates":[-70.8732,42.597691]}},{"properties":{"city":"West Boylston","supporters":4.0,"geo_score":0.81,"organizers":3.0,"accounts":2.0,"id":"a68056z3gn2d","geo_precision":"city","state":"Massachusetts"},"type":"Feature","geometry":{"type":"Point","coordinates":[-71.943458,42.300037]}},{"properties":{"city":"West Bridgewater","supporters":1.0,"geo_score":0.781,"organizers":1.0,"accounts":1.0,"id":"a68056xge12z","geo_precision":"city","state":"Massachusetts"},"type":"Feature","geometry":{"type":"Point","coordinates":[-72.260635,42.175649]}},{"properties":{"city":"West Newbury","supporters":6.0,"geo_score":0.802,"organizers":1.0,"accounts":1.0,"id":"a68056stjxas","geo_precision":"city","state":"Massachusetts"},"type":"Feature","geometry":{"type":"Point","coordinates":[-73.095385,42.102036]}},{"properties":{"city":"West Springfield","supporters":11.0,"geo_score":0.819,"organizers":1.0,"accounts":1.0,"id":"a68056thw1ni","geo_precision":"city","state":"Massachusetts"},"type":"Feature","geometry":{"type":"Point","coordinates":[-72.589811,42.101483]}},{"properties":{"city":"West Tisbury","supporters":4.0,"geo_score":0.857,"organizers":1.0,"accounts":1.0,"id":"a68056ttivcf","geo_precision":"city","state":"Massachusetts"},"type":"Feature","geometry":{"type":"Point","coordinates":[-70.642806,41.42125]}},{"properties":{"city":"Westborough","supporters":33.0,"geo_score":0.769,"organizers":8.0,"accounts":6.0,"id":"a68056oru7os","geo_precision":"city","state":"Massachusetts"},"type":"Feature","geometry":{"type":"Point","coordinates":[-72.260635,42.175649]}},{"properties":{"city":"Westfield","supporters":9.0,"geo_score":0.81,"organizers":1.0,"accounts":2.0,"id":"a68056z66lpt","geo_precision":"city","state":"Massachusetts"},"type":"Feature","geometry":{"type":"Point","coordinates":[-71.135602,41.886212]}},{"properties":{"city":"Weston","supporters":11.0,"geo_score":0.857,"organizers":3.0,"accounts":2.0,"id":"a68056u4e1sy","geo_precision":"city","state":"Massachusetts"},"type":"Feature","geometry":{"type":"Point","coordinates":[-71.459405,42.446396]}},{"properties":{"city":"Westport","supporters":13.0,"geo_score":0.79,"organizers":1.0,"accounts":1.0,"id":"a68056okqzxg","geo_precision":"city","state":"Massachusetts"},"type":"Feature","geometry":{"type":"Point","coordinates":[-71.049486,41.638992]}},{"properties":{"city":"Weymouth","supporters":39.0,"geo_score":0.857,"organizers":5.0,"accounts":4.0,"id":"a680571ky1to","geo_precision":"city","state":"Massachusetts"},"type":"Feature","geometry":{"type":"Point","coordinates":[-70.95514,42.20794]}},{"properties":{"city":"Whately","supporters":1.0,"geo_score":0.857,"organizers":1.0,"accounts":1.0,"id":"a68056rrvz14","geo_precision":"city","state":"Massachusetts"},"type":"Feature","geometry":{"type":"Point","coordinates":[-72.652511,42.442673]}},{"properties":{"city":"Wilbraham","supporters":2.0,"geo_score":0.857,"organizers":1.0,"accounts":1.0,"id":"a68056zgtz4o","geo_precision":"city","state":"Massachusetts"},"type":"Feature","geometry":{"type":"Point","coordinates":[-72.489988,42.125974]}},{"properties":{"city":"Williamsburg","supporters":1.0,"geo_score":0.857,"organizers":1.0,"accounts":1.0,"id":"a68056y9rhdg","geo_precision":"city","state":"Massachusetts"},"type":"Feature","geometry":{"type":"Point","coordinates":[-72.821653,42.413069]}},{"properties":{"city":"Williamstown","supporters":4.0,"geo_score":0.857,"organizers":3.0,"accounts":4.0,"id":"a680572tteac","geo_precision":"city","state":"Massachusetts"},"type":"Feature","geometry":{"type":"Point","coordinates":[-73.257699,42.642075]}},{"properties":{"city":"Winchester","supporters":33.0,"geo_score":0.789,"organizers":6.0,"accounts":6.0,"id":"a68056vg3622","geo_precision":"city","state":"Massachusetts"},"type":"Feature","geometry":{"type":"Point","coordinates":[-71.125887,42.466762]}},{"properties":{"city":"Woburn","supporters":3.0,"geo_score":0.857,"organizers":2.0,"accounts":2.0,"id":"a68056vxj5gp","geo_precision":"city","state":"Massachusetts"},"type":"Feature","geometry":{"type":"Point","coordinates":[-71.157271,42.488595]}},{"properties":{"city":"Worcester","supporters":140.0,"geo_score":0.857,"organizers":42.0,"accounts":21.0,"id":"a68056ngc9x6","geo_precision":"city","state":"Massachusetts"},"type":"Feature","geometry":{"type":"Point","coordinates":[-71.802293,42.262593]}},{"properties":{"city":"Yarmouth","supporters":12.0,"geo_score":0.857,"organizers":3.0,"accounts":4.0,"id":"a68056slj4vf","geo_precision":"city","state":"Massachusetts"},"type":"Feature","geometry":{"type":"Point","coordinates":[-70.228631,41.705666]}}],"is_temporal":false,"author":{"url":"","metadata":"","contact_name":"","contact_address":"","source":"","contact_phone":""},"source":"","pagination":{"sort":null,"start":0,"total":191,"limit":1000000},"state":"complete","tags":"","published":"2014-08-10T15:25:11-04:00","id":34879}