{"type":"FeatureCollection","data_type":"Dataset","url_type":null,"permissions":[{"permissions":{"download":true,"view":true},"group_id":"everyone"}],"classification":null,"title":"dpc_organizer_map_3","count":273,"stream_id":34872,"contributor":{"url":"http://geocommons.com/users/11204","name":"joegravellese"},"data_attributes":null,"calculation_params":null,"icon_link":null,"link":"http://geocommons.com/overlays/34872.json","extent":[-73.4134,41.2876,-70.0154,42.8535],"geometry_types":["point"],"unique_name":null,"name":"dpc_organizer_map_3","feature_count":273,"description":"","next_feature":null,"is_raster":false,"short_classification":"Y","stats":{"supporters":{"max":194.0,"mean":10.1764705882353,"variance":319.348817017582,"stdev":17.8703334333073,"min":0.0,"median":5.0},"organizers":{"max":194.0,"mean":3.3992673992674,"variance":166.983381814264,"stdev":12.9222049904134,"min":0.0,"median":1.0},"accounts":{"max":74.0,"mean":2.93382352941176,"variance":31.958704145865,"stdev":5.65320299881979,"min":0.0,"median":2.0}},"features":[{"properties":{"city":"Abington","supporters":8.0,"geo_score":0.857,"organizers":5.0,"accounts":4.0,"id":"a67lki7wvtr1","geo_precision":"city","state":"Massachusetts"},"type":"Feature","geometry":{"type":"Point","coordinates":[-70.959888,42.11749]}},{"properties":{"city":"Acton","supporters":12.0,"geo_score":0.857,"organizers":7.0,"accounts":7.0,"id":"a67lki8sujis","geo_precision":"city","state":"Massachusetts"},"type":"Feature","geometry":{"type":"Point","coordinates":[-71.459405,42.446396]}},{"properties":{"city":"Acushnet","supporters":2.0,"geo_score":0.857,"organizers":0.0,"accounts":0.0,"id":"a67lkihdwfb0","geo_precision":"city","state":"Massachusetts"},"type":"Feature","geometry":{"type":"Point","coordinates":[-70.908286,41.711894]}},{"properties":{"city":"Adams","supporters":1.0,"geo_score":0.857,"organizers":0.0,"accounts":0.0,"id":"a67lkif9v4zn","geo_precision":"city","state":"Massachusetts"},"type":"Feature","geometry":{"type":"Point","coordinates":[-73.172166,42.385595]}},{"properties":{"city":"Agawam","supporters":13.0,"geo_score":0.857,"organizers":4.0,"accounts":5.0,"id":"a67lkij057jl","geo_precision":"city","state":"Massachusetts"},"type":"Feature","geometry":{"type":"Point","coordinates":[-72.788661,42.140549]}},{"properties":{"city":"Alford","supporters":2.0,"geo_score":0.857,"organizers":2.0,"accounts":2.0,"id":"a67lki9y6g6n","geo_precision":"city","state":"Massachusetts"},"type":"Feature","geometry":{"type":"Point","coordinates":[-73.413446,42.235644]}},{"properties":{"city":"Amesbury","supporters":9.0,"geo_score":0.857,"organizers":2.0,"accounts":2.0,"id":"a67lkihk37c0","geo_precision":"city","state":"Massachusetts"},"type":"Feature","geometry":{"type":"Point","coordinates":[-70.948211,42.853539]}},{"properties":{"city":"Amherst","supporters":11.0,"geo_score":0.857,"organizers":2.0,"accounts":5.0,"id":"a67lkievoxfd","geo_precision":"city","state":"Massachusetts"},"type":"Feature","geometry":{"type":"Point","coordinates":[-72.464571,42.367092]}},{"properties":{"city":"Andover","supporters":28.0,"geo_score":0.857,"organizers":7.0,"accounts":6.0,"id":"a67lki7r1dav","geo_precision":"city","state":"Massachusetts"},"type":"Feature","geometry":{"type":"Point","coordinates":[-71.165685,42.647991]}},{"properties":{"city":"Arlington","supporters":29.0,"geo_score":0.857,"organizers":7.0,"accounts":15.0,"id":"a67lkicn74vy","geo_precision":"city","state":"Massachusetts"},"type":"Feature","geometry":{"type":"Point","coordinates":[-71.167083,42.417695]}},{"properties":{"city":"Ashland","supporters":9.0,"geo_score":0.857,"organizers":3.0,"accounts":3.0,"id":"a67lki8syztd","geo_precision":"city","state":"Massachusetts"},"type":"Feature","geometry":{"type":"Point","coordinates":[-71.459405,42.446396]}},{"properties":{"city":"Athol","supporters":1.0,"geo_score":0.857,"organizers":0.0,"accounts":0.0,"id":"a67lkimvqoai","geo_precision":"city","state":"Massachusetts"},"type":"Feature","geometry":{"type":"Point","coordinates":[-72.183903,42.547302]}},{"properties":{"city":"Attleboro","supporters":31.0,"geo_score":0.857,"organizers":4.0,"accounts":4.0,"id":"a67lki9iyrci","geo_precision":"city","state":"Massachusetts"},"type":"Feature","geometry":{"type":"Point","coordinates":[-71.302297,41.938976]}},{"properties":{"city":"Auburn","supporters":4.0,"geo_score":0.857,"organizers":3.0,"accounts":1.0,"id":"a67lkihjj070","geo_precision":"city","state":"Massachusetts"},"type":"Feature","geometry":{"type":"Point","coordinates":[-71.947184,42.184835]}},{"properties":{"city":"Ayer","supporters":7.0,"geo_score":0.857,"organizers":0.0,"accounts":0.0,"id":"a67lki8u6bg5","geo_precision":"city","state":"Massachusetts"},"type":"Feature","geometry":{"type":"Point","coordinates":[-71.58979,42.561202]}},{"properties":{"city":"Barnstable","supporters":6.0,"geo_score":0.816,"organizers":2.0,"accounts":2.0,"id":"a67lki9yw66g","geo_precision":"city","state":"Massachusetts"},"type":"Feature","geometry":{"type":"Point","coordinates":[-70.366135,41.683443]}},{"properties":{"city":"Bedford","supporters":7.0,"geo_score":0.786,"organizers":0.0,"accounts":0.0,"id":"a67lkib3gii2","geo_precision":"city","state":"Massachusetts"},"type":"Feature","geometry":{"type":"Point","coordinates":[-71.270891,42.516205]}},{"properties":{"city":"Belchertown","supporters":6.0,"geo_score":0.857,"organizers":1.0,"accounts":2.0,"id":"a67lkilhv8fl","geo_precision":"city","state":"Massachusetts"},"type":"Feature","geometry":{"type":"Point","coordinates":[-72.402056,42.280267]}},{"properties":{"city":"Bellingham","supporters":1.0,"geo_score":0.857,"organizers":1.0,"accounts":1.0,"id":"a67lkigkstwd","geo_precision":"city","state":"Massachusetts"},"type":"Feature","geometry":{"type":"Point","coordinates":[-71.470464,42.076501]}},{"properties":{"city":"Belmont","supporters":37.0,"geo_score":0.857,"organizers":2.0,"accounts":2.0,"id":"a67lkibixtpo","geo_precision":"city","state":"Massachusetts"},"type":"Feature","geometry":{"type":"Point","coordinates":[-71.459405,42.446396]}},{"properties":{"city":"Berlin","supporters":4.0,"geo_score":0.857,"organizers":0.0,"accounts":0.0,"id":"a67lki7ygeru","geo_precision":"city","state":"Massachusetts"},"type":"Feature","geometry":{"type":"Point","coordinates":[-71.841656,42.3129]}},{"properties":{"city":"Beverly","supporters":17.0,"geo_score":0.857,"organizers":3.0,"accounts":4.0,"id":"a67lkintkm5j","geo_precision":"city","state":"Massachusetts"},"type":"Feature","geometry":{"type":"Point","coordinates":[-70.853843,42.565145]}},{"properties":{"city":"Billerica","supporters":14.0,"geo_score":0.857,"organizers":4.0,"accounts":5.0,"id":"a67lkil61eif","geo_precision":"city","state":"Massachusetts"},"type":"Feature","geometry":{"type":"Point","coordinates":[-71.459405,42.446396]}},{"properties":{"city":"Blackstone","supporters":5.0,"geo_score":0.857,"organizers":1.0,"accounts":1.0,"id":"a67lkils53j8","geo_precision":"city","state":"Massachusetts"},"type":"Feature","geometry":{"type":"Point","coordinates":[-71.799785,42.114078]}},{"properties":{"city":"Bolton","supporters":1.0,"geo_score":0.857,"organizers":0.0,"accounts":1.0,"id":"a67lkie8c0n4","geo_precision":"city","state":"Massachusetts"},"type":"Feature","geometry":{"type":"Point","coordinates":[-71.605916,42.436043]}},{"properties":{"city":"Boston","supporters":0.0,"geo_score":0.857,"organizers":194.0,"accounts":0.0,"id":"a67lkidizdr8","geo_precision":"city","state":"Massachusetts"},"type":"Feature","geometry":{"type":"Point","coordinates":[-71.059773,42.358431]}},{"properties":{"city":"Boxborough","supporters":5.0,"geo_score":0.857,"organizers":2.0,"accounts":2.0,"id":"a67lkii58k6p","geo_precision":"city","state":"Massachusetts"},"type":"Feature","geometry":{"type":"Point","coordinates":[-71.459405,42.446396]}},{"properties":{"city":"Boxford","supporters":11.0,"geo_score":0.857,"organizers":2.0,"accounts":2.0,"id":"a67lkinx6kli","geo_precision":"city","state":"Massachusetts"},"type":"Feature","geometry":{"type":"Point","coordinates":[-71.017403,42.683256]}},{"properties":{"city":"Boylston","supporters":2.0,"geo_score":0.857,"organizers":1.0,"accounts":1.0,"id":"a67lki83bsia","geo_precision":"city","state":"Massachusetts"},"type":"Feature","geometry":{"type":"Point","coordinates":[-71.943458,42.300037]}},{"properties":{"city":"Brewster","supporters":11.0,"geo_score":0.857,"organizers":2.0,"accounts":4.0,"id":"a67lkijjz6v7","geo_precision":"city","state":"Massachusetts"},"type":"Feature","geometry":{"type":"Point","coordinates":[-70.044462,41.852997]}},{"properties":{"city":"Bridgewater","supporters":5.0,"geo_score":0.857,"organizers":4.0,"accounts":4.0,"id":"a67lkiac4n9t","geo_precision":"city","state":"Massachusetts"},"type":"Feature","geometry":{"type":"Point","coordinates":[-70.976558,41.973741]}},{"properties":{"city":"Brimfield","supporters":2.0,"geo_score":0.857,"organizers":0.0,"accounts":1.0,"id":"a67lki7tmv15","geo_precision":"city","state":"Massachusetts"},"type":"Feature","geometry":{"type":"Point","coordinates":[-72.20448,42.108585]}},{"properties":{"city":"Brockton","supporters":24.0,"geo_score":0.857,"organizers":6.0,"accounts":4.0,"id":"a67lkijbfq9g","geo_precision":"city","state":"Massachusetts"},"type":"Feature","geometry":{"type":"Point","coordinates":[-71.018379,42.083434]}},{"properties":{"city":"Brookline","supporters":55.0,"geo_score":0.857,"organizers":14.0,"accounts":22.0,"id":"a67lkimczr9w","geo_precision":"city","state":"Massachusetts"},"type":"Feature","geometry":{"type":"Point","coordinates":[-71.088745,42.308198]}},{"properties":{"city":"Burlington","supporters":6.0,"geo_score":0.857,"organizers":1.0,"accounts":2.0,"id":"a67lkieh18m7","geo_precision":"city","state":"Massachusetts"},"type":"Feature","geometry":{"type":"Point","coordinates":[-71.201539,42.504844]}},{"properties":{"city":"Cambridge","supporters":194.0,"geo_score":0.813,"organizers":69.0,"accounts":74.0,"id":"a67lkihr676f","geo_precision":"city","state":"Massachusetts"},"type":"Feature","geometry":{"type":"Point","coordinates":[-71.103663,42.358431]}},{"properties":{"city":"Canton","supporters":2.0,"geo_score":0.857,"organizers":0.0,"accounts":0.0,"id":"a67lkim8b7lr","geo_precision":"city","state":"Massachusetts"},"type":"Feature","geometry":{"type":"Point","coordinates":[-71.121185,42.179146]}},{"properties":{"city":"Carlisle","supporters":6.0,"geo_score":0.857,"organizers":3.0,"accounts":3.0,"id":"a67lkibzhhli","geo_precision":"city","state":"Massachusetts"},"type":"Feature","geometry":{"type":"Point","coordinates":[-71.459405,42.446396]}},{"properties":{"city":"Carver","supporters":1.0,"geo_score":0.857,"organizers":0.0,"accounts":0.0,"id":"a67lkimbyqhu","geo_precision":"city","state":"Massachusetts"},"type":"Feature","geometry":{"type":"Point","coordinates":[-70.759689,41.896238]}},{"properties":{"city":"Charlemont","supporters":1.0,"geo_score":0.857,"organizers":0.0,"accounts":0.0,"id":"a67lkikx34mb","geo_precision":"city","state":"Massachusetts"},"type":"Feature","geometry":{"type":"Point","coordinates":[-72.665507,42.594252]}},{"properties":{"city":"Charlestown","supporters":6.0,"geo_score":0.857,"organizers":3.0,"accounts":4.0,"id":"a67lkiae2hdf","geo_precision":"city","state":"Massachusetts"},"type":"Feature","geometry":{"type":"Point","coordinates":[-71.065287,42.382588]}},{"properties":{"city":"Charlton","supporters":5.0,"geo_score":0.857,"organizers":0.0,"accounts":0.0,"id":"a67lkibdbnje","geo_precision":"city","state":"Massachusetts"},"type":"Feature","geometry":{"type":"Point","coordinates":[-71.972627,42.13277]}},{"properties":{"city":"Chatham","supporters":3.0,"geo_score":0.857,"organizers":1.0,"accounts":1.0,"id":"a67lkifcf5pk","geo_precision":"city","state":"Massachusetts"},"type":"Feature","geometry":{"type":"Point","coordinates":[-70.0468,41.859559]}},{"properties":{"city":"Chelmsford","supporters":14.0,"geo_score":0.857,"organizers":5.0,"accounts":6.0,"id":"a67lkid7utd0","geo_precision":"city","state":"Massachusetts"},"type":"Feature","geometry":{"type":"Point","coordinates":[-71.459405,42.446396]}},{"properties":{"city":"Chelsea","supporters":7.0,"geo_score":0.857,"organizers":3.0,"accounts":4.0,"id":"a67lkifodveu","geo_precision":"city","state":"Massachusetts"},"type":"Feature","geometry":{"type":"Point","coordinates":[-71.038894,42.378197]}},{"properties":{"city":"Chicopee","supporters":5.0,"geo_score":0.857,"organizers":0.0,"accounts":1.0,"id":"a67lkif92z88","geo_precision":"city","state":"Massachusetts"},"type":"Feature","geometry":{"type":"Point","coordinates":[-72.607867,42.148704]}},{"properties":{"city":"Chilmark","supporters":2.0,"geo_score":0.857,"organizers":0.0,"accounts":0.0,"id":"a67lkilqi36m","geo_precision":"city","state":"Massachusetts"},"type":"Feature","geometry":{"type":"Point","coordinates":[-70.673082,41.379034]}},{"properties":{"city":"Clinton","supporters":13.0,"geo_score":0.857,"organizers":1.0,"accounts":0.0,"id":"a67lkiew83q0","geo_precision":"city","state":"Massachusetts"},"type":"Feature","geometry":{"type":"Point","coordinates":[-71.687523,42.413972]}},{"properties":{"city":"Cochituate","supporters":3.0,"geo_score":0.857,"organizers":1.0,"accounts":2.0,"id":"a67lkigzwl6n","geo_precision":"city","state":"Massachusetts"},"type":"Feature","geometry":{"type":"Point","coordinates":[-71.364226,42.320929]}},{"properties":{"city":"Cohasset","supporters":10.0,"geo_score":0.857,"organizers":0.0,"accounts":1.0,"id":"a67lkie7dor1","geo_precision":"city","state":"Massachusetts"},"type":"Feature","geometry":{"type":"Point","coordinates":[-70.815826,42.233938]}},{"properties":{"city":"Colrain","supporters":2.0,"geo_score":0.857,"organizers":2.0,"accounts":2.0,"id":"a67lkilk609s","geo_precision":"city","state":"Massachusetts"},"type":"Feature","geometry":{"type":"Point","coordinates":[-72.822986,42.681539]}},{"properties":{"city":"Concord","supporters":18.0,"geo_score":0.857,"organizers":3.0,"accounts":5.0,"id":"a67lkima6pv4","geo_precision":"city","state":"Massachusetts"},"type":"Feature","geometry":{"type":"Point","coordinates":[-71.459405,42.446396]}},{"properties":{"city":"Danvers","supporters":1.0,"geo_score":0.805,"organizers":0.0,"accounts":0.0,"id":"a67lkidpe2sm","geo_precision":"city","state":"Massachusetts"},"type":"Feature","geometry":{"type":"Point","coordinates":[-70.920328,42.548428]}},{"properties":{"city":"Dartmouth","supporters":8.0,"geo_score":0.857,"organizers":3.0,"accounts":3.0,"id":"a67lki89lx4m","geo_precision":"city","state":"Massachusetts"},"type":"Feature","geometry":{"type":"Point","coordinates":[-71.067062,41.756214]}},{"properties":{"city":"Dedham","supporters":4.0,"geo_score":0.857,"organizers":4.0,"accounts":4.0,"id":"a67lkih4laxg","geo_precision":"city","state":"Massachusetts"},"type":"Feature","geometry":{"type":"Point","coordinates":[-71.181141,42.244733]}},{"properties":{"city":"Dennis","supporters":2.0,"geo_score":0.857,"organizers":0.0,"accounts":0.0,"id":"a67lkinehyue","geo_precision":"city","state":"Massachusetts"},"type":"Feature","geometry":{"type":"Point","coordinates":[-70.089142,41.725716]}},{"properties":{"city":"Douglas","supporters":2.0,"geo_score":0.857,"organizers":1.0,"accounts":1.0,"id":"a67lkin8z8xy","geo_precision":"city","state":"Massachusetts"},"type":"Feature","geometry":{"type":"Point","coordinates":[-71.891139,42.113076]}},{"properties":{"city":"Dracut","supporters":17.0,"geo_score":0.857,"organizers":2.0,"accounts":2.0,"id":"a67lki9bugcl","geo_precision":"city","state":"Massachusetts"},"type":"Feature","geometry":{"type":"Point","coordinates":[-71.459405,42.446396]}},{"properties":{"city":"Dudley","supporters":1.0,"geo_score":0.857,"organizers":1.0,"accounts":1.0,"id":"a67lkidcfmas","geo_precision":"city","state":"Massachusetts"},"type":"Feature","geometry":{"type":"Point","coordinates":[-71.937037,42.059189]}},{"properties":{"city":"Dunstable","supporters":1.0,"geo_score":0.857,"organizers":0.0,"accounts":0.0,"id":"a67lkibnseq7","geo_precision":"city","state":"Massachusetts"},"type":"Feature","geometry":{"type":"Point","coordinates":[-71.459405,42.446396]}},{"properties":{"city":"Duxbury","supporters":9.0,"geo_score":0.857,"organizers":4.0,"accounts":5.0,"id":"a67lki9zxn4j","geo_precision":"city","state":"Massachusetts"},"type":"Feature","geometry":{"type":"Point","coordinates":[-70.701357,41.970474]}},{"properties":{"city":"Eastham","supporters":2.0,"geo_score":0.857,"organizers":0.0,"accounts":1.0,"id":"a67lki9pha89","geo_precision":"city","state":"Massachusetts"},"type":"Feature","geometry":{"type":"Point","coordinates":[-70.020648,41.850612]}},{"properties":{"city":"Easthampton","supporters":23.0,"geo_score":0.857,"organizers":5.0,"accounts":5.0,"id":"a67lkijyldjk","geo_precision":"city","state":"Massachusetts"},"type":"Feature","geometry":{"type":"Point","coordinates":[-72.768839,42.368303]}},{"properties":{"city":"Easton","supporters":2.0,"geo_score":0.857,"organizers":2.0,"accounts":2.0,"id":"a67lkiiora2b","geo_precision":"city","state":"Massachusetts"},"type":"Feature","geometry":{"type":"Point","coordinates":[-71.132397,42.023528]}},{"properties":{"city":"Edgartown","supporters":1.0,"geo_score":0.857,"organizers":0.0,"accounts":0.0,"id":"a67lkig73xy6","geo_precision":"city","state":"Massachusetts"},"type":"Feature","geometry":{"type":"Point","coordinates":[-70.552054,41.401176]}},{"properties":{"city":"Egremont","supporters":2.0,"geo_score":0.0,"organizers":0.0,"accounts":2.0,"id":"a67lkif10sff","geo_precision":"unmatched","state":"Massachusetts"},"type":"Feature","geometry":null},{"properties":{"city":"Everett","supporters":4.0,"geo_score":0.857,"organizers":0.0,"accounts":1.0,"id":"a67lkiejc5p1","geo_precision":"city","state":"Massachusetts"},"type":"Feature","geometry":{"type":"Point","coordinates":[-71.051183,42.407396]}},{"properties":{"city":"FALLRIVER","supporters":37.0,"geo_score":0.857,"organizers":5.0,"accounts":6.0,"id":"a67lkiazqvjh","geo_precision":"city","state":"Massachusetts"},"type":"Feature","geometry":{"type":"Point","coordinates":[-71.165971,41.819766]}},{"properties":{"city":"Fairhaven","supporters":6.0,"geo_score":0.857,"organizers":3.0,"accounts":2.0,"id":"a67lkihpmvsu","geo_precision":"city","state":"Massachusetts"},"type":"Feature","geometry":{"type":"Point","coordinates":[-70.870045,41.631672]}},{"properties":{"city":"Falmouth","supporters":37.0,"geo_score":0.857,"organizers":3.0,"accounts":4.0,"id":"a67lkikws5mv","geo_precision":"city","state":"Massachusetts"},"type":"Feature","geometry":{"type":"Point","coordinates":[-70.493263,41.614199]}},{"properties":{"city":"Fitchburg","supporters":3.0,"geo_score":0.743,"organizers":0.0,"accounts":2.0,"id":"a67lki8o4zap","geo_precision":"city","state":"Massachusetts"},"type":"Feature","geometry":{"type":"Point","coordinates":[-71.247831,42.065377]}},{"properties":{"city":"Foxborough","supporters":9.0,"geo_score":0.857,"organizers":1.0,"accounts":2.0,"id":"a67lkim7xc7z","geo_precision":"city","state":"Massachusetts"},"type":"Feature","geometry":{"type":"Point","coordinates":[-71.247831,42.065377]}},{"properties":{"city":"Framingham","supporters":38.0,"geo_score":0.804,"organizers":11.0,"accounts":11.0,"id":"a67lkigtylul","geo_precision":"city","state":"Massachusetts"},"type":"Feature","geometry":{"type":"Point","coordinates":[-71.437006,42.297318]}},{"properties":{"city":"Franklin","supporters":5.0,"geo_score":0.81,"organizers":0.0,"accounts":0.0,"id":"a67lkifc8gb9","geo_precision":"city","state":"Massachusetts"},"type":"Feature","geometry":{"type":"Point","coordinates":[-71.016162,42.441763]}},{"properties":{"city":"Gardner","supporters":1.0,"geo_score":0.857,"organizers":1.0,"accounts":1.0,"id":"a67lkihvv5ov","geo_precision":"city","state":"Massachusetts"},"type":"Feature","geometry":{"type":"Point","coordinates":[-72.025884,42.582529]}},{"properties":{"city":"Georgetown","supporters":5.0,"geo_score":0.857,"organizers":2.0,"accounts":2.0,"id":"a67lkie3culc","geo_precision":"city","state":"Massachusetts"},"type":"Feature","geometry":{"type":"Point","coordinates":[-70.981298,42.72377]}},{"properties":{"city":"Gloucester","supporters":10.0,"geo_score":0.857,"organizers":3.0,"accounts":3.0,"id":"a67lkic5wiv2","geo_precision":"city","state":"Massachusetts"},"type":"Feature","geometry":{"type":"Point","coordinates":[-70.694179,42.630011]}},{"properties":{"city":"Grafton","supporters":4.0,"geo_score":0.857,"organizers":3.0,"accounts":3.0,"id":"a67lkidl2mz9","geo_precision":"city","state":"Massachusetts"},"type":"Feature","geometry":{"type":"Point","coordinates":[-71.682862,42.203944]}},{"properties":{"city":"Granby","supporters":4.0,"geo_score":0.857,"organizers":0.0,"accounts":0.0,"id":"a67lkimtwgt5","geo_precision":"city","state":"Massachusetts"},"type":"Feature","geometry":{"type":"Point","coordinates":[-72.504086,42.262285]}},{"properties":{"city":"Great Barrington","supporters":9.0,"geo_score":0.857,"organizers":1.0,"accounts":1.0,"id":"a67lkilql76o","geo_precision":"city","state":"Massachusetts"},"type":"Feature","geometry":{"type":"Point","coordinates":[-73.26665,42.299392]}},{"properties":{"city":"Greenfield","supporters":9.0,"geo_score":0.752,"organizers":2.0,"accounts":3.0,"id":"a67lkigeuak1","geo_precision":"city","state":"Massachusetts"},"type":"Feature","geometry":{"type":"Point","coordinates":[-72.87871,42.067316]}},{"properties":{"city":"Groton","supporters":11.0,"geo_score":0.857,"organizers":5.0,"accounts":5.0,"id":"a67lkio189hw","geo_precision":"city","state":"Massachusetts"},"type":"Feature","geometry":{"type":"Point","coordinates":[-71.459405,42.446396]}},{"properties":{"city":"Groveland","supporters":2.0,"geo_score":0.857,"organizers":0.0,"accounts":0.0,"id":"a67lkicl8h5i","geo_precision":"city","state":"Massachusetts"},"type":"Feature","geometry":{"type":"Point","coordinates":[-71.021437,42.751074]}},{"properties":{"city":"Halifax","supporters":1.0,"geo_score":0.857,"organizers":0.0,"accounts":0.0,"id":"a67lkiksje8e","geo_precision":"city","state":"Massachusetts"},"type":"Feature","geometry":{"type":"Point","coordinates":[-70.860578,41.988351]}},{"properties":{"city":"Hamilton","supporters":2.0,"geo_score":0.802,"organizers":1.0,"accounts":2.0,"id":"a67lkigpqnkm","geo_precision":"city","state":"Massachusetts"},"type":"Feature","geometry":{"type":"Point","coordinates":[-70.711979,41.743437]}},{"properties":{"city":"Hampden","supporters":4.0,"geo_score":0.857,"organizers":2.0,"accounts":2.0,"id":"a67lkicndvuh","geo_precision":"city","state":"Massachusetts"},"type":"Feature","geometry":{"type":"Point","coordinates":[-72.417507,42.067614]}},{"properties":{"city":"Hanover","supporters":2.0,"geo_score":0.857,"organizers":1.0,"accounts":1.0,"id":"a67lkinxv0u0","geo_precision":"city","state":"Massachusetts"},"type":"Feature","geometry":{"type":"Point","coordinates":[-70.851048,42.123534]}},{"properties":{"city":"Hanson","supporters":3.0,"geo_score":0.857,"organizers":1.0,"accounts":1.0,"id":"a67lkime0o9e","geo_precision":"city","state":"Massachusetts"},"type":"Feature","geometry":{"type":"Point","coordinates":[-70.875936,42.055701]}},{"properties":{"city":"Harvard","supporters":3.0,"geo_score":0.857,"organizers":1.0,"accounts":1.0,"id":"a67lkifh4c7n","geo_precision":"city","state":"Massachusetts"},"type":"Feature","geometry":{"type":"Point","coordinates":[-71.575864,42.500187]}},{"properties":{"city":"Harwich","supporters":19.0,"geo_score":0.857,"organizers":0.0,"accounts":0.0,"id":"a67lkidtbdc5","geo_precision":"city","state":"Massachusetts"},"type":"Feature","geometry":{"type":"Point","coordinates":[-70.043359,41.835582]}},{"properties":{"city":"Haverhill","supporters":22.0,"geo_score":0.857,"organizers":6.0,"accounts":8.0,"id":"a67lkiihrqtf","geo_precision":"city","state":"Massachusetts"},"type":"Feature","geometry":{"type":"Point","coordinates":[-71.072501,42.792639]}},{"properties":{"city":"Heath","supporters":1.0,"geo_score":0.857,"organizers":0.0,"accounts":0.0,"id":"a67lkinxog2u","geo_precision":"city","state":"Massachusetts"},"type":"Feature","geometry":{"type":"Point","coordinates":[-72.788896,42.618011]}},{"properties":{"city":"Hingham","supporters":14.0,"geo_score":0.857,"organizers":1.0,"accounts":1.0,"id":"a67lkihg0j1c","geo_precision":"city","state":"Massachusetts"},"type":"Feature","geometry":{"type":"Point","coordinates":[-70.884989,42.212105]}},{"properties":{"city":"Hinsdale","supporters":2.0,"geo_score":0.857,"organizers":0.0,"accounts":0.0,"id":"a67lkimqv8mt","geo_precision":"city","state":"Massachusetts"},"type":"Feature","geometry":{"type":"Point","coordinates":[-73.22164,42.29237]}},{"properties":{"city":"Holbrook","supporters":2.0,"geo_score":0.857,"organizers":1.0,"accounts":2.0,"id":"a67lkil4bxjz","geo_precision":"city","state":"Massachusetts"},"type":"Feature","geometry":{"type":"Point","coordinates":[-71.00289,42.144424]}},{"properties":{"city":"Holden","supporters":21.0,"geo_score":0.857,"organizers":5.0,"accounts":4.0,"id":"a67lkife29ma","geo_precision":"city","state":"Massachusetts"},"type":"Feature","geometry":{"type":"Point","coordinates":[-71.845316,42.336791]}},{"properties":{"city":"Holliston","supporters":12.0,"geo_score":0.857,"organizers":4.0,"accounts":3.0,"id":"a67lkikn65vc","geo_precision":"city","state":"Massachusetts"},"type":"Feature","geometry":{"type":"Point","coordinates":[-71.459405,42.446396]}},{"properties":{"city":"Holyoke","supporters":15.0,"geo_score":0.857,"organizers":5.0,"accounts":6.0,"id":"a67lki8x9pjt","geo_precision":"city","state":"Massachusetts"},"type":"Feature","geometry":{"type":"Point","coordinates":[-72.64207,42.198291]}},{"properties":{"city":"Hopedale","supporters":3.0,"geo_score":0.857,"organizers":0.0,"accounts":0.0,"id":"a67lkin84j09","geo_precision":"city","state":"Massachusetts"},"type":"Feature","geometry":{"type":"Point","coordinates":[-71.533138,42.127515]}},{"properties":{"city":"Hopkinton","supporters":1.0,"geo_score":0.857,"organizers":0.0,"accounts":1.0,"id":"a67lkie4su0f","geo_precision":"city","state":"Massachusetts"},"type":"Feature","geometry":{"type":"Point","coordinates":[-71.459405,42.446396]}},{"properties":{"city":"Hudson","supporters":13.0,"geo_score":0.857,"organizers":1.0,"accounts":4.0,"id":"a67lkint90hd","geo_precision":"city","state":"Massachusetts"},"type":"Feature","geometry":{"type":"Point","coordinates":[-71.459405,42.446396]}},{"properties":{"city":"Hull","supporters":10.0,"geo_score":0.762,"organizers":4.0,"accounts":2.0,"id":"a67lki9thfaq","geo_precision":"city","state":"Massachusetts"},"type":"Feature","geometry":{"type":"Point","coordinates":[-72.877873,42.564529]}},{"properties":{"city":"Ipswich","supporters":9.0,"geo_score":0.857,"organizers":3.0,"accounts":2.0,"id":"a67lkifaxvcc","geo_precision":"city","state":"Massachusetts"},"type":"Feature","geometry":{"type":"Point","coordinates":[-70.864132,42.68571]}},{"properties":{"city":"Kingston","supporters":9.0,"geo_score":0.796,"organizers":0.0,"accounts":0.0,"id":"a67lkicjhvc4","geo_precision":"city","state":"Massachusetts"},"type":"Feature","geometry":{"type":"Point","coordinates":[-70.703648,41.998159]}},{"properties":{"city":"Lakeville","supporters":5.0,"geo_score":0.857,"organizers":2.0,"accounts":2.0,"id":"a67lki7rus5l","geo_precision":"city","state":"Massachusetts"},"type":"Feature","geometry":{"type":"Point","coordinates":[-70.959981,41.843757]}},{"properties":{"city":"Lancaster","supporters":1.0,"geo_score":0.857,"organizers":1.0,"accounts":1.0,"id":"a67lkiknnlx2","geo_precision":"city","state":"Massachusetts"},"type":"Feature","geometry":{"type":"Point","coordinates":[-71.91177,42.427188]}},{"properties":{"city":"Lanesborough","supporters":3.0,"geo_score":0.857,"organizers":1.0,"accounts":1.0,"id":"a67lkimftfnj","geo_precision":"city","state":"Massachusetts"},"type":"Feature","geometry":{"type":"Point","coordinates":[-73.22816,42.517306]}},{"properties":{"city":"Lawrence","supporters":16.0,"geo_score":0.857,"organizers":5.0,"accounts":4.0,"id":"a67lkih3heiq","geo_precision":"city","state":"Massachusetts"},"type":"Feature","geometry":{"type":"Point","coordinates":[-71.161052,42.70734]}},{"properties":{"city":"Lee","supporters":3.0,"geo_score":0.857,"organizers":0.0,"accounts":1.0,"id":"a67lkifdc58a","geo_precision":"city","state":"Massachusetts"},"type":"Feature","geometry":{"type":"Point","coordinates":[-73.267465,42.369856]}},{"properties":{"city":"Leeds","supporters":1.0,"geo_score":0.857,"organizers":0.0,"accounts":0.0,"id":"a67lki8982bp","geo_precision":"city","state":"Massachusetts"},"type":"Feature","geometry":{"type":"Point","coordinates":[-72.704385,42.353838]}},{"properties":{"city":"Leicester","supporters":2.0,"geo_score":0.857,"organizers":1.0,"accounts":1.0,"id":"a67lkik7jyft","geo_precision":"city","state":"Massachusetts"},"type":"Feature","geometry":{"type":"Point","coordinates":[-72.012379,42.238192]}},{"properties":{"city":"Lenox","supporters":3.0,"geo_score":0.857,"organizers":0.0,"accounts":1.0,"id":"a67lkikgg0s9","geo_precision":"city","state":"Massachusetts"},"type":"Feature","geometry":{"type":"Point","coordinates":[-73.219858,42.459202]}},{"properties":{"city":"Leominster","supporters":4.0,"geo_score":0.857,"organizers":2.0,"accounts":1.0,"id":"a67lki8cqg0i","geo_precision":"city","state":"Massachusetts"},"type":"Feature","geometry":{"type":"Point","coordinates":[-71.837509,42.471316]}},{"properties":{"city":"Leverett","supporters":1.0,"geo_score":0.857,"organizers":1.0,"accounts":1.0,"id":"a67lki7tclq1","geo_precision":"city","state":"Massachusetts"},"type":"Feature","geometry":{"type":"Point","coordinates":[-72.467543,42.474681]}},{"properties":{"city":"Lexington","supporters":21.0,"geo_score":0.857,"organizers":12.0,"accounts":13.0,"id":"a67lkiag63jg","geo_precision":"city","state":"Massachusetts"},"type":"Feature","geometry":{"type":"Point","coordinates":[-71.459405,42.446396]}},{"properties":{"city":"Lincoln","supporters":10.0,"geo_score":0.857,"organizers":2.0,"accounts":6.0,"id":"a67lkigbxb40","geo_precision":"city","state":"Massachusetts"},"type":"Feature","geometry":{"type":"Point","coordinates":[-71.459405,42.446396]}},{"properties":{"city":"Littleton","supporters":8.0,"geo_score":0.857,"organizers":2.0,"accounts":2.0,"id":"a67lkiaxus22","geo_precision":"city","state":"Massachusetts"},"type":"Feature","geometry":{"type":"Point","coordinates":[-71.459405,42.446396]}},{"properties":{"city":"Longmeadow","supporters":24.0,"geo_score":0.857,"organizers":6.0,"accounts":4.0,"id":"a67lki9mjfj3","geo_precision":"city","state":"Massachusetts"},"type":"Feature","geometry":{"type":"Point","coordinates":[-72.567882,42.049194]}},{"properties":{"city":"Lowell","supporters":20.0,"geo_score":0.857,"organizers":11.0,"accounts":16.0,"id":"a67lki84uf1d","geo_precision":"city","state":"Massachusetts"},"type":"Feature","geometry":{"type":"Point","coordinates":[-71.459405,42.446396]}},{"properties":{"city":"Ludlow","supporters":10.0,"geo_score":0.857,"organizers":2.0,"accounts":3.0,"id":"a67lkic5zlbh","geo_precision":"city","state":"Massachusetts"},"type":"Feature","geometry":{"type":"Point","coordinates":[-72.627038,42.173276]}},{"properties":{"city":"Lunenburg","supporters":3.0,"geo_score":0.857,"organizers":1.0,"accounts":1.0,"id":"a67lkidrb891","geo_precision":"city","state":"Massachusetts"},"type":"Feature","geometry":{"type":"Point","coordinates":[-71.752266,42.583322]}},{"properties":{"city":"Lynn","supporters":41.0,"geo_score":0.857,"organizers":7.0,"accounts":8.0,"id":"a67lki7r09q6","geo_precision":"city","state":"Massachusetts"},"type":"Feature","geometry":{"type":"Point","coordinates":[-70.946743,42.461246]}},{"properties":{"city":"Malden","supporters":13.0,"geo_score":0.857,"organizers":7.0,"accounts":12.0,"id":"a67lkignpgwg","geo_precision":"city","state":"Massachusetts"},"type":"Feature","geometry":{"type":"Point","coordinates":[-71.085396,42.436545]}},{"properties":{"city":"Manchester","supporters":5.0,"geo_score":0.857,"organizers":2.0,"accounts":2.0,"id":"a67lkil4rze6","geo_precision":"city","state":"Massachusetts"},"type":"Feature","geometry":{"type":"Point","coordinates":[-70.755062,42.579503]}},{"properties":{"city":"Manchester-By-The-Sea","supporters":2.0,"geo_score":0.794,"organizers":0.0,"accounts":0.0,"id":"a67lki9lwctd","geo_precision":"city","state":"Massachusetts"},"type":"Feature","geometry":{"type":"Point","coordinates":[-70.755062,42.579503]}},{"properties":{"city":"Mansfield","supporters":6.0,"geo_score":0.8,"organizers":3.0,"accounts":2.0,"id":"a67lkih3k4jn","geo_precision":"city","state":"Massachusetts"},"type":"Feature","geometry":{"type":"Point","coordinates":[-71.218079,42.022619]}},{"properties":{"city":"Marblehead","supporters":6.0,"geo_score":0.816,"organizers":1.0,"accounts":1.0,"id":"a67lkikhy6u4","geo_precision":"city","state":"Massachusetts"},"type":"Feature","geometry":{"type":"Point","coordinates":[-70.836991,42.500096]}},{"properties":{"city":"Marion","supporters":5.0,"geo_score":0.857,"organizers":1.0,"accounts":1.0,"id":"a67lkimaggzi","geo_precision":"city","state":"Massachusetts"},"type":"Feature","geometry":{"type":"Point","coordinates":[-70.754015,41.736735]}},{"properties":{"city":"Marlborough","supporters":22.0,"geo_score":0.818,"organizers":3.0,"accounts":2.0,"id":"a67lkinj5k2v","geo_precision":"city","state":"Massachusetts"},"type":"Feature","geometry":{"type":"Point","coordinates":[-70.97311,42.716759]}},{"properties":{"city":"Marshfield","supporters":20.0,"geo_score":0.804,"organizers":3.0,"accounts":3.0,"id":"a67lkif4k5hi","geo_precision":"city","state":"Massachusetts"},"type":"Feature","geometry":{"type":"Point","coordinates":[-70.71615,42.116769]}},{"properties":{"city":"Mashpee","supporters":2.0,"geo_score":0.857,"organizers":2.0,"accounts":2.0,"id":"a67lki7rw18s","geo_precision":"city","state":"Massachusetts"},"type":"Feature","geometry":{"type":"Point","coordinates":[-70.253543,41.788337]}},{"properties":{"city":"Mattapoisett","supporters":7.0,"geo_score":0.857,"organizers":5.0,"accounts":4.0,"id":"a67lkiibprtz","geo_precision":"city","state":"Massachusetts"},"type":"Feature","geometry":{"type":"Point","coordinates":[-70.810856,41.664976]}},{"properties":{"city":"Maynard","supporters":9.0,"geo_score":0.857,"organizers":1.0,"accounts":1.0,"id":"a67lkibu3kok","geo_precision":"city","state":"Massachusetts"},"type":"Feature","geometry":{"type":"Point","coordinates":[-71.459405,42.446396]}},{"properties":{"city":"Medfield","supporters":3.0,"geo_score":0.821,"organizers":1.0,"accounts":2.0,"id":"a67lkibfeycl","geo_precision":"city","state":"Massachusetts"},"type":"Feature","geometry":{"type":"Point","coordinates":[-70.99671,42.033434]}},{"properties":{"city":"Medford","supporters":37.0,"geo_score":0.781,"organizers":4.0,"accounts":8.0,"id":"a67lkio0wavx","geo_precision":"city","state":"Massachusetts"},"type":"Feature","geometry":{"type":"Point","coordinates":[-71.125331,42.412596]}},{"properties":{"city":"Medway","supporters":20.0,"geo_score":0.857,"organizers":6.0,"accounts":4.0,"id":"a67lkilj3ung","geo_precision":"city","state":"Massachusetts"},"type":"Feature","geometry":{"type":"Point","coordinates":[-71.427663,42.156282]}},{"properties":{"city":"Melrose","supporters":11.0,"geo_score":0.857,"organizers":1.0,"accounts":3.0,"id":"a67lkil3mwqd","geo_precision":"city","state":"Massachusetts"},"type":"Feature","geometry":{"type":"Point","coordinates":[-71.053095,42.458995]}},{"properties":{"city":"Merrimac","supporters":1.0,"geo_score":0.857,"organizers":1.0,"accounts":1.0,"id":"a67lkia6tknw","geo_precision":"city","state":"Massachusetts"},"type":"Feature","geometry":{"type":"Point","coordinates":[-71.0896,42.802441]}},{"properties":{"city":"Methuen","supporters":5.0,"geo_score":0.857,"organizers":3.0,"accounts":3.0,"id":"a67lki9q0xf5","geo_precision":"city","state":"Massachusetts"},"type":"Feature","geometry":{"type":"Point","coordinates":[-71.186915,42.73184]}},{"properties":{"city":"Middleborough","supporters":4.0,"geo_score":0.824,"organizers":0.0,"accounts":0.0,"id":"a67lki8pl1oh","geo_precision":"city","state":"Massachusetts"},"type":"Feature","geometry":{"type":"Point","coordinates":[-70.701357,41.970474]}},{"properties":{"city":"Middlefield","supporters":1.0,"geo_score":0.857,"organizers":0.0,"accounts":0.0,"id":"a67lkib2n4s4","geo_precision":"city","state":"Massachusetts"},"type":"Feature","geometry":{"type":"Point","coordinates":[-73.010448,42.356088]}},{"properties":{"city":"Middleton","supporters":3.0,"geo_score":0.857,"organizers":1.0,"accounts":1.0,"id":"a67lkia06hw9","geo_precision":"city","state":"Massachusetts"},"type":"Feature","geometry":{"type":"Point","coordinates":[-71.087905,42.644942]}},{"properties":{"city":"Milford","supporters":9.0,"geo_score":0.857,"organizers":3.0,"accounts":4.0,"id":"a67lkicsio0j","geo_precision":"city","state":"Massachusetts"},"type":"Feature","geometry":{"type":"Point","coordinates":[-71.528085,42.147087]}},{"properties":{"city":"Millbury","supporters":8.0,"geo_score":0.857,"organizers":0.0,"accounts":1.0,"id":"a67lkimtwdry","geo_precision":"city","state":"Massachusetts"},"type":"Feature","geometry":{"type":"Point","coordinates":[-71.819961,42.255642]}},{"properties":{"city":"Millis","supporters":1.0,"geo_score":0.857,"organizers":1.0,"accounts":1.0,"id":"a67lkikxngn1","geo_precision":"city","state":"Massachusetts"},"type":"Feature","geometry":{"type":"Point","coordinates":[-71.36126,42.165249]}},{"properties":{"city":"Milton","supporters":21.0,"geo_score":0.786,"organizers":12.0,"accounts":9.0,"id":"a67lkimxbpz6","geo_precision":"city","state":"Massachusetts"},"type":"Feature","geometry":{"type":"Point","coordinates":[-71.085396,42.436545]}},{"properties":{"city":"Monson","supporters":2.0,"geo_score":0.857,"organizers":1.0,"accounts":1.0,"id":"a67lkimjo4nt","geo_precision":"city","state":"Massachusetts"},"type":"Feature","geometry":{"type":"Point","coordinates":[-72.282063,42.095323]}},{"properties":{"city":"Montague","supporters":2.0,"geo_score":0.857,"organizers":0.0,"accounts":0.0,"id":"a67lkierjh0u","geo_precision":"city","state":"Massachusetts"},"type":"Feature","geometry":{"type":"Point","coordinates":[-72.48693,42.548107]}},{"properties":{"city":"Monterey","supporters":4.0,"geo_score":0.857,"organizers":1.0,"accounts":2.0,"id":"a67lkiikg9sk","geo_precision":"city","state":"Massachusetts"},"type":"Feature","geometry":{"type":"Point","coordinates":[-73.206498,42.18669]}},{"properties":{"city":"NEWTONCENTRE","supporters":null,"geo_score":0.833,"organizers":27.0,"accounts":null,"id":"a67lkietywrb","geo_precision":"city","state":"Massachusetts"},"type":"Feature","geometry":{"type":"Point","coordinates":[-71.199499,42.330653]}},{"properties":{"city":"Nahant","supporters":3.0,"geo_score":0.857,"organizers":2.0,"accounts":2.0,"id":"a67lkinm2886","geo_precision":"city","state":"Massachusetts"},"type":"Feature","geometry":{"type":"Point","coordinates":[-70.922442,42.427296]}},{"properties":{"city":"Nantucket","supporters":3.0,"geo_score":0.857,"organizers":0.0,"accounts":0.0,"id":"a67lkibqe3au","geo_precision":"city","state":"Massachusetts"},"type":"Feature","geometry":{"type":"Point","coordinates":[-70.08665,41.287647]}},{"properties":{"city":"Natick","supporters":43.0,"geo_score":0.857,"organizers":9.0,"accounts":14.0,"id":"a67lkiaulhx3","geo_precision":"city","state":"Massachusetts"},"type":"Feature","geometry":{"type":"Point","coordinates":[-71.459405,42.446396]}},{"properties":{"city":"Needham","supporters":3.0,"geo_score":0.857,"organizers":2.0,"accounts":2.0,"id":"a67lkiereqvv","geo_precision":"city","state":"Massachusetts"},"type":"Feature","geometry":{"type":"Point","coordinates":[-71.08923,42.180048]}},{"properties":{"city":"New Bedford","supporters":10.0,"geo_score":0.755,"organizers":5.0,"accounts":2.0,"id":"a67lkii6z4ct","geo_precision":"city","state":"Massachusetts"},"type":"Feature","geometry":{"type":"Point","coordinates":[-71.270891,42.516205]}},{"properties":{"city":"Newbury","supporters":8.0,"geo_score":0.857,"organizers":1.0,"accounts":2.0,"id":"a67lki9n7c3g","geo_precision":"city","state":"Massachusetts"},"type":"Feature","geometry":{"type":"Point","coordinates":[-70.867246,42.777524]}},{"properties":{"city":"Newburyport","supporters":14.0,"geo_score":0.857,"organizers":4.0,"accounts":6.0,"id":"a67lki9tjv8e","geo_precision":"city","state":"Massachusetts"},"type":"Feature","geometry":{"type":"Point","coordinates":[-70.873196,42.80965]}},{"properties":{"city":"Norfolk","supporters":1.0,"geo_score":0.798,"organizers":0.0,"accounts":0.0,"id":"a67lkils7sqm","geo_precision":"city","state":"Massachusetts"},"type":"Feature","geometry":{"type":"Point","coordinates":[-71.020327,42.272321]}},{"properties":{"city":"North Adams","supporters":2.0,"geo_score":0.786,"organizers":0.0,"accounts":1.0,"id":"a67lkijvep4z","geo_precision":"city","state":"Massachusetts"},"type":"Feature","geometry":{"type":"Point","coordinates":[-73.172166,42.385595]}},{"properties":{"city":"North Andover","supporters":5.0,"geo_score":0.786,"organizers":2.0,"accounts":3.0,"id":"a67lkiniafaa","geo_precision":"city","state":"Massachusetts"},"type":"Feature","geometry":{"type":"Point","coordinates":[-71.357837,42.301485]}},{"properties":{"city":"North Attleboro","supporters":2.0,"geo_score":0.786,"organizers":1.0,"accounts":1.0,"id":"a67lki7x3rmg","geo_precision":"city","state":"Massachusetts"},"type":"Feature","geometry":{"type":"Point","coordinates":[-72.581478,42.3862]}},{"properties":{"city":"North Reading","supporters":9.0,"geo_score":0.798,"organizers":2.0,"accounts":2.0,"id":"a67lkij2etz7","geo_precision":"city","state":"Massachusetts"},"type":"Feature","geometry":{"type":"Point","coordinates":[-71.975909,42.430646]}},{"properties":{"city":"Northampton","supporters":28.0,"geo_score":0.857,"organizers":7.0,"accounts":7.0,"id":"a67lkidbn8gg","geo_precision":"city","state":"Massachusetts"},"type":"Feature","geometry":{"type":"Point","coordinates":[-72.76927,42.415154]}},{"properties":{"city":"Northborough","supporters":24.0,"geo_score":0.773,"organizers":8.0,"accounts":10.0,"id":"a67lkihfxtef","geo_precision":"city","state":"Massachusetts"},"type":"Feature","geometry":{"type":"Point","coordinates":[-71.672568,42.134818]}},{"properties":{"city":"Northbridge","supporters":12.0,"geo_score":0.807,"organizers":1.0,"accounts":2.0,"id":"a67lkiih9g16","geo_precision":"city","state":"Massachusetts"},"type":"Feature","geometry":{"type":"Point","coordinates":[-71.672568,42.134818]}},{"properties":{"city":"Northfield","supporters":3.0,"geo_score":0.857,"organizers":1.0,"accounts":1.0,"id":"a67lki9ree3t","geo_precision":"city","state":"Massachusetts"},"type":"Feature","geometry":{"type":"Point","coordinates":[-72.624164,42.522178]}},{"properties":{"city":"Norton","supporters":1.0,"geo_score":0.857,"organizers":1.0,"accounts":1.0,"id":"a67lkih70dvn","geo_precision":"city","state":"Massachusetts"},"type":"Feature","geometry":{"type":"Point","coordinates":[-71.180393,41.959149]}},{"properties":{"city":"Norwell","supporters":16.0,"geo_score":0.857,"organizers":4.0,"accounts":3.0,"id":"a67lkigeotnc","geo_precision":"city","state":"Massachusetts"},"type":"Feature","geometry":{"type":"Point","coordinates":[-70.823035,42.154145]}},{"properties":{"city":"Norwood","supporters":2.0,"geo_score":0.857,"organizers":2.0,"accounts":2.0,"id":"a67lkie8mjsu","geo_precision":"city","state":"Massachusetts"},"type":"Feature","geometry":{"type":"Point","coordinates":[-71.196277,42.182798]}},{"properties":{"city":"Oak Bluffs","supporters":1.0,"geo_score":0.857,"organizers":0.0,"accounts":0.0,"id":"a67lkij7dgxl","geo_precision":"city","state":"Massachusetts"},"type":"Feature","geometry":{"type":"Point","coordinates":[-70.560032,41.417376]}},{"properties":{"city":"Orange","supporters":1.0,"geo_score":0.857,"organizers":1.0,"accounts":1.0,"id":"a67lkigfiiij","geo_precision":"city","state":"Massachusetts"},"type":"Feature","geometry":{"type":"Point","coordinates":[-72.556589,42.578325]}},{"properties":{"city":"Orleans","supporters":4.0,"geo_score":0.857,"organizers":1.0,"accounts":1.0,"id":"a67lkibiahj7","geo_precision":"city","state":"Massachusetts"},"type":"Feature","geometry":{"type":"Point","coordinates":[-70.01539,41.852933]}},{"properties":{"city":"Oxford","supporters":6.0,"geo_score":0.857,"organizers":0.0,"accounts":1.0,"id":"a67lkij5dzyd","geo_precision":"city","state":"Massachusetts"},"type":"Feature","geometry":{"type":"Point","coordinates":[-71.855444,42.109223]}},{"properties":{"city":"Palmer","supporters":2.0,"geo_score":0.857,"organizers":0.0,"accounts":1.0,"id":"a67lkii93d6g","geo_precision":"city","state":"Massachusetts"},"type":"Feature","geometry":{"type":"Point","coordinates":[-72.31457,42.176131]}},{"properties":{"city":"Paxton","supporters":4.0,"geo_score":0.857,"organizers":0.0,"accounts":0.0,"id":"a67lkigqb9uc","geo_precision":"city","state":"Massachusetts"},"type":"Feature","geometry":{"type":"Point","coordinates":[-71.892875,42.304675]}},{"properties":{"city":"Peabody","supporters":2.0,"geo_score":0.857,"organizers":1.0,"accounts":1.0,"id":"a67lkichf1ud","geo_precision":"city","state":"Massachusetts"},"type":"Feature","geometry":{"type":"Point","coordinates":[-70.973646,42.536996]}},{"properties":{"city":"Pelham","supporters":3.0,"geo_score":0.857,"organizers":0.0,"accounts":1.0,"id":"a67lki8wspqc","geo_precision":"city","state":"Massachusetts"},"type":"Feature","geometry":{"type":"Point","coordinates":[-72.403696,42.393146]}},{"properties":{"city":"Pembroke","supporters":4.0,"geo_score":0.857,"organizers":0.0,"accounts":1.0,"id":"a67lkijkz9mq","geo_precision":"city","state":"Massachusetts"},"type":"Feature","geometry":{"type":"Point","coordinates":[-70.800778,42.065702]}},{"properties":{"city":"Pepperell","supporters":2.0,"geo_score":0.857,"organizers":1.0,"accounts":1.0,"id":"a67lkidammr4","geo_precision":"city","state":"Massachusetts"},"type":"Feature","geometry":{"type":"Point","coordinates":[-71.459405,42.446396]}},{"properties":{"city":"Phillipston","supporters":1.0,"geo_score":0.857,"organizers":0.0,"accounts":0.0,"id":"a67lki9pdh9q","geo_precision":"city","state":"Massachusetts"},"type":"Feature","geometry":{"type":"Point","coordinates":[-72.132858,42.548699]}},{"properties":{"city":"Pittsfield","supporters":25.0,"geo_score":0.857,"organizers":5.0,"accounts":8.0,"id":"a67lkif36q0d","geo_precision":"city","state":"Massachusetts"},"type":"Feature","geometry":{"type":"Point","coordinates":[-73.24807,42.479475]}},{"properties":{"city":"Plainfield","supporters":1.0,"geo_score":0.814,"organizers":0.0,"accounts":0.0,"id":"a67lkimjwrbb","geo_precision":"city","state":"Massachusetts"},"type":"Feature","geometry":{"type":"Point","coordinates":[-70.960595,41.682048]}},{"properties":{"city":"Plainville","supporters":3.0,"geo_score":0.857,"organizers":0.0,"accounts":1.0,"id":"a67lkik3tmun","geo_precision":"city","state":"Massachusetts"},"type":"Feature","geometry":{"type":"Point","coordinates":[-70.960595,41.682048]}},{"properties":{"city":"Plymouth","supporters":48.0,"geo_score":0.857,"organizers":1.0,"accounts":3.0,"id":"a67lkik4p2qu","geo_precision":"city","state":"Massachusetts"},"type":"Feature","geometry":{"type":"Point","coordinates":[-70.638717,41.886207]}},{"properties":{"city":"Princeton","supporters":8.0,"geo_score":0.795,"organizers":1.0,"accounts":1.0,"id":"a67lkiegqug1","geo_precision":"city","state":"Massachusetts"},"type":"Feature","geometry":{"type":"Point","coordinates":[-71.924519,42.448146]}},{"properties":{"city":"Providence","supporters":1.0,"geo_score":0.0,"organizers":1.0,"accounts":1.0,"id":"a67lkihx167l","geo_precision":"unmatched","state":"Massachusetts"},"type":"Feature","geometry":null},{"properties":{"city":"Provincetown","supporters":1.0,"geo_score":0.857,"organizers":0.0,"accounts":0.0,"id":"a67lkie1fvtk","geo_precision":"city","state":"Massachusetts"},"type":"Feature","geometry":{"type":"Point","coordinates":[-70.091057,41.888775]}},{"properties":{"city":"Quincy","supporters":17.0,"geo_score":0.857,"organizers":10.0,"accounts":13.0,"id":"a67lkilvynx5","geo_precision":"city","state":"Massachusetts"},"type":"Feature","geometry":{"type":"Point","coordinates":[-71.006042,42.241799]}},{"properties":{"city":"Randolph","supporters":17.0,"geo_score":0.857,"organizers":8.0,"accounts":9.0,"id":"a67lkiczowrt","geo_precision":"city","state":"Massachusetts"},"type":"Feature","geometry":{"type":"Point","coordinates":[-71.055602,42.171467]}},{"properties":{"city":"Reading","supporters":10.0,"geo_score":0.857,"organizers":4.0,"accounts":4.0,"id":"a67lkio5jwv3","geo_precision":"city","state":"Massachusetts"},"type":"Feature","geometry":{"type":"Point","coordinates":[-71.107172,42.537065]}},{"properties":{"city":"Rehoboth","supporters":1.0,"geo_score":0.857,"organizers":0.0,"accounts":1.0,"id":"a67lkibcgj83","geo_precision":"city","state":"Massachusetts"},"type":"Feature","geometry":{"type":"Point","coordinates":[-71.243061,41.852989]}},{"properties":{"city":"Revere","supporters":14.0,"geo_score":0.857,"organizers":2.0,"accounts":2.0,"id":"a67lkiadff47","geo_precision":"city","state":"Massachusetts"},"type":"Feature","geometry":{"type":"Point","coordinates":[-71.020494,42.366303]}},{"properties":{"city":"Rockport","supporters":3.0,"geo_score":0.857,"organizers":0.0,"accounts":1.0,"id":"a67lki9340lm","geo_precision":"city","state":"Massachusetts"},"type":"Feature","geometry":{"type":"Point","coordinates":[-70.618057,42.657866]}},{"properties":{"city":"Rowley","supporters":3.0,"geo_score":0.857,"organizers":0.0,"accounts":0.0,"id":"a67lkim9f1t5","geo_precision":"city","state":"Massachusetts"},"type":"Feature","geometry":{"type":"Point","coordinates":[-70.892754,42.716155]}},{"properties":{"city":"Rutland","supporters":2.0,"geo_score":0.857,"organizers":1.0,"accounts":1.0,"id":"a67lkil6xgxt","geo_precision":"city","state":"Massachusetts"},"type":"Feature","geometry":{"type":"Point","coordinates":[-71.95463,42.383516]}},{"properties":{"city":"Salem","supporters":12.0,"geo_score":0.857,"organizers":6.0,"accounts":9.0,"id":"a67lkinn9hbo","geo_precision":"city","state":"Massachusetts"},"type":"Feature","geometry":{"type":"Point","coordinates":[-70.873647,42.642845]}},{"properties":{"city":"Salisbury","supporters":6.0,"geo_score":0.806,"organizers":0.0,"accounts":0.0,"id":"a67lkifo8h9q","geo_precision":"city","state":"Massachusetts"},"type":"Feature","geometry":{"type":"Point","coordinates":[-70.911999,42.841757]}},{"properties":{"city":"Sandwich","supporters":23.0,"geo_score":0.857,"organizers":2.0,"accounts":2.0,"id":"a67lkiiz875u","geo_precision":"city","state":"Massachusetts"},"type":"Feature","geometry":{"type":"Point","coordinates":[-70.477482,41.711291]}},{"properties":{"city":"Saugus","supporters":13.0,"geo_score":0.857,"organizers":3.0,"accounts":3.0,"id":"a67lkibmt2c7","geo_precision":"city","state":"Massachusetts"},"type":"Feature","geometry":{"type":"Point","coordinates":[-70.997794,42.472112]}},{"properties":{"city":"Scituate","supporters":7.0,"geo_score":0.857,"organizers":2.0,"accounts":2.0,"id":"a67lkiklcxb2","geo_precision":"city","state":"Massachusetts"},"type":"Feature","geometry":{"type":"Point","coordinates":[-70.770188,42.207254]}},{"properties":{"city":"Seekonk","supporters":1.0,"geo_score":0.857,"organizers":0.0,"accounts":0.0,"id":"a67lkib0zoo4","geo_precision":"city","state":"Massachusetts"},"type":"Feature","geometry":{"type":"Point","coordinates":[-71.318995,41.840103]}},{"properties":{"city":"Sharon","supporters":16.0,"geo_score":0.857,"organizers":3.0,"accounts":4.0,"id":"a67lkilm36v2","geo_precision":"city","state":"Massachusetts"},"type":"Feature","geometry":{"type":"Point","coordinates":[-71.184785,42.105288]}},{"properties":{"city":"Shelburne","supporters":2.0,"geo_score":0.857,"organizers":2.0,"accounts":2.0,"id":"a67lkii429tb","geo_precision":"city","state":"Massachusetts"},"type":"Feature","geometry":{"type":"Point","coordinates":[-72.688424,42.589807]}},{"properties":{"city":"Sherborn","supporters":2.0,"geo_score":0.857,"organizers":0.0,"accounts":1.0,"id":"a67lki9u61a8","geo_precision":"city","state":"Massachusetts"},"type":"Feature","geometry":{"type":"Point","coordinates":[-71.459405,42.446396]}},{"properties":{"city":"Shirley","supporters":7.0,"geo_score":0.857,"organizers":1.0,"accounts":0.0,"id":"a67lkiah2dcf","geo_precision":"city","state":"Massachusetts"},"type":"Feature","geometry":{"type":"Point","coordinates":[-71.459405,42.446396]}},{"properties":{"city":"Shrewsbury","supporters":28.0,"geo_score":0.857,"organizers":1.0,"accounts":1.0,"id":"a67lki7z2ckm","geo_precision":"city","state":"Massachusetts"},"type":"Feature","geometry":{"type":"Point","coordinates":[-71.715313,42.286992]}},{"properties":{"city":"Shutesbury","supporters":2.0,"geo_score":0.857,"organizers":0.0,"accounts":0.0,"id":"a67lkildun6a","geo_precision":"city","state":"Massachusetts"},"type":"Feature","geometry":{"type":"Point","coordinates":[-72.44017,42.471562]}},{"properties":{"city":"Somerset","supporters":6.0,"geo_score":0.857,"organizers":0.0,"accounts":0.0,"id":"a67lkillwwb3","geo_precision":"city","state":"Massachusetts"},"type":"Feature","geometry":{"type":"Point","coordinates":[-71.173989,41.723851]}},{"properties":{"city":"Somerville","supporters":104.0,"geo_score":0.857,"organizers":26.0,"accounts":27.0,"id":"a67lkibip1ok","geo_precision":"city","state":"Massachusetts"},"type":"Feature","geometry":{"type":"Point","coordinates":[-71.098896,42.38092]}},{"properties":{"city":"South Hadley","supporters":7.0,"geo_score":0.792,"organizers":2.0,"accounts":2.0,"id":"a67lkigpi3ue","geo_precision":"city","state":"Massachusetts"},"type":"Feature","geometry":{"type":"Point","coordinates":[-72.576613,42.356804]}},{"properties":{"city":"Southampton","supporters":2.0,"geo_score":0.857,"organizers":0.0,"accounts":1.0,"id":"a67lkihxn0qf","geo_precision":"city","state":"Massachusetts"},"type":"Feature","geometry":{"type":"Point","coordinates":[-72.728463,42.230008]}},{"properties":{"city":"Southborough","supporters":10.0,"geo_score":0.857,"organizers":4.0,"accounts":6.0,"id":"a67lkia8vhej","geo_precision":"city","state":"Massachusetts"},"type":"Feature","geometry":{"type":"Point","coordinates":[-71.524509,42.30565]}},{"properties":{"city":"Southbridge","supporters":1.0,"geo_score":0.857,"organizers":0.0,"accounts":0.0,"id":"a67lki922n96","geo_precision":"city","state":"Massachusetts"},"type":"Feature","geometry":{"type":"Point","coordinates":[-72.031155,42.129251]}},{"properties":{"city":"Southwick","supporters":5.0,"geo_score":0.857,"organizers":4.0,"accounts":2.0,"id":"a67lkifzns4u","geo_precision":"city","state":"Massachusetts"},"type":"Feature","geometry":{"type":"Point","coordinates":[-72.541205,42.066644]}},{"properties":{"city":"Spencer","supporters":1.0,"geo_score":0.857,"organizers":0.0,"accounts":0.0,"id":"a67lkidlda0b","geo_precision":"city","state":"Massachusetts"},"type":"Feature","geometry":{"type":"Point","coordinates":[-72.065612,42.254837]}},{"properties":{"city":"Springfield","supporters":52.0,"geo_score":0.857,"organizers":14.0,"accounts":17.0,"id":"a67lkicz2kjh","geo_precision":"city","state":"Massachusetts"},"type":"Feature","geometry":{"type":"Point","coordinates":[-72.589811,42.101483]}},{"properties":{"city":"Stoneham","supporters":4.0,"geo_score":0.857,"organizers":2.0,"accounts":3.0,"id":"a67lkikai54k","geo_precision":"city","state":"Massachusetts"},"type":"Feature","geometry":{"type":"Point","coordinates":[-71.098146,42.474595]}},{"properties":{"city":"Stoughton","supporters":5.0,"geo_score":0.857,"organizers":4.0,"accounts":3.0,"id":"a67lkibm4saj","geo_precision":"city","state":"Massachusetts"},"type":"Feature","geometry":{"type":"Point","coordinates":[-71.105733,42.118416]}},{"properties":{"city":"Stow","supporters":12.0,"geo_score":0.857,"organizers":5.0,"accounts":2.0,"id":"a67lkic5rkgh","geo_precision":"city","state":"Massachusetts"},"type":"Feature","geometry":{"type":"Point","coordinates":[-71.459405,42.446396]}},{"properties":{"city":"Sturbridge","supporters":5.0,"geo_score":0.857,"organizers":0.0,"accounts":0.0,"id":"a67lkigjej5v","geo_precision":"city","state":"Massachusetts"},"type":"Feature","geometry":{"type":"Point","coordinates":[-72.080996,42.10273]}},{"properties":{"city":"Sudbury","supporters":18.0,"geo_score":0.857,"organizers":2.0,"accounts":3.0,"id":"a67lkicd4o9i","geo_precision":"city","state":"Massachusetts"},"type":"Feature","geometry":{"type":"Point","coordinates":[-71.459405,42.446396]}},{"properties":{"city":"Sunderland","supporters":4.0,"geo_score":0.747,"organizers":0.0,"accounts":0.0,"id":"a67lkia2jvmm","geo_precision":"city","state":"Massachusetts"},"type":"Feature","geometry":{"type":"Point","coordinates":[-71.15061,42.491206]}},{"properties":{"city":"Sutton","supporters":7.0,"geo_score":0.857,"organizers":2.0,"accounts":2.0,"id":"a67lkian9vcx","geo_precision":"city","state":"Massachusetts"},"type":"Feature","geometry":{"type":"Point","coordinates":[-71.762848,42.150095]}},{"properties":{"city":"Swampscott","supporters":17.0,"geo_score":0.857,"organizers":7.0,"accounts":7.0,"id":"a67lkinknab7","geo_precision":"city","state":"Massachusetts"},"type":"Feature","geometry":{"type":"Point","coordinates":[-70.905893,42.513295]}},{"properties":{"city":"Swansea","supporters":4.0,"geo_score":0.857,"organizers":0.0,"accounts":1.0,"id":"a67lkinn4yld","geo_precision":"city","state":"Massachusetts"},"type":"Feature","geometry":{"type":"Point","coordinates":[-71.234443,41.766629]}},{"properties":{"city":"Taunton","supporters":8.0,"geo_score":0.857,"organizers":2.0,"accounts":3.0,"id":"a67lkiju4mac","geo_precision":"city","state":"Massachusetts"},"type":"Feature","geometry":{"type":"Point","coordinates":[-71.092827,41.858851]}},{"properties":{"city":"Templeton","supporters":2.0,"geo_score":0.857,"organizers":1.0,"accounts":2.0,"id":"a67lkikdiac6","geo_precision":"city","state":"Massachusetts"},"type":"Feature","geometry":{"type":"Point","coordinates":[-72.072285,42.555059]}},{"properties":{"city":"Test","supporters":1.0,"geo_score":0.768,"organizers":0.0,"accounts":1.0,"id":"a67lkia2xgux","geo_precision":"city","state":"Massachusetts"},"type":"Feature","geometry":{"type":"Point","coordinates":[-71.227269,41.720935]}},{"properties":{"city":"Tewksbury","supporters":7.0,"geo_score":0.857,"organizers":3.0,"accounts":4.0,"id":"a67lki8q4yra","geo_precision":"city","state":"Massachusetts"},"type":"Feature","geometry":{"type":"Point","coordinates":[-71.459405,42.446396]}},{"properties":{"city":"Tisbury","supporters":1.0,"geo_score":0.0,"organizers":0.0,"accounts":0.0,"id":"a67lkiiipabb","geo_precision":"unmatched","state":"Massachusetts"},"type":"Feature","geometry":null},{"properties":{"city":"Topsfield","supporters":3.0,"geo_score":0.857,"organizers":1.0,"accounts":2.0,"id":"a67lkij3urtr","geo_precision":"city","state":"Massachusetts"},"type":"Feature","geometry":{"type":"Point","coordinates":[-70.954487,42.661793]}},{"properties":{"city":"Townsend","supporters":3.0,"geo_score":0.796,"organizers":0.0,"accounts":0.0,"id":"a67lkijl6jd9","geo_precision":"city","state":"Massachusetts"},"type":"Feature","geometry":{"type":"Point","coordinates":[-71.671737,42.652867]}},{"properties":{"city":"Truro","supporters":3.0,"geo_score":0.8,"organizers":0.0,"accounts":0.0,"id":"a67lkiik5304","geo_precision":"city","state":"Massachusetts"},"type":"Feature","geometry":{"type":"Point","coordinates":[-72.986231,42.642666]}},{"properties":{"city":"Tyngsboro","supporters":1.0,"geo_score":0.857,"organizers":0.0,"accounts":0.0,"id":"a67lkie5do3l","geo_precision":"city","state":"Massachusetts"},"type":"Feature","geometry":{"type":"Point","coordinates":[-71.459405,42.446396]}},{"properties":{"city":"Tyringham","supporters":1.0,"geo_score":0.857,"organizers":0.0,"accounts":0.0,"id":"a67lkigo774q","geo_precision":"city","state":"Massachusetts"},"type":"Feature","geometry":{"type":"Point","coordinates":[-73.197865,42.220001]}},{"properties":{"city":"Uxbridge","supporters":1.0,"geo_score":0.857,"organizers":1.0,"accounts":1.0,"id":"a67lkikjkf6f","geo_precision":"city","state":"Massachusetts"},"type":"Feature","geometry":{"type":"Point","coordinates":[-71.638438,42.059736]}},{"properties":{"city":"Wakefield","supporters":13.0,"geo_score":0.79,"organizers":1.0,"accounts":1.0,"id":"a67lkimvpsjq","geo_precision":"city","state":"Massachusetts"},"type":"Feature","geometry":{"type":"Point","coordinates":[-71.07033,42.495929]}},{"properties":{"city":"Walpole","supporters":10.0,"geo_score":0.857,"organizers":4.0,"accounts":2.0,"id":"a67lkil5olqm","geo_precision":"city","state":"Massachusetts"},"type":"Feature","geometry":{"type":"Point","coordinates":[-71.255533,42.148624]}},{"properties":{"city":"Waltham","supporters":22.0,"geo_score":0.857,"organizers":5.0,"accounts":8.0,"id":"a67lkiiah8vd","geo_precision":"city","state":"Massachusetts"},"type":"Feature","geometry":{"type":"Point","coordinates":[-71.2398,42.388938]}},{"properties":{"city":"Ware","supporters":3.0,"geo_score":0.857,"organizers":0.0,"accounts":1.0,"id":"a67lki92zext","geo_precision":"city","state":"Massachusetts"},"type":"Feature","geometry":{"type":"Point","coordinates":[-72.548549,42.377471]}},{"properties":{"city":"Wareham","supporters":5.0,"geo_score":0.857,"organizers":2.0,"accounts":3.0,"id":"a67lkij97okt","geo_precision":"city","state":"Massachusetts"},"type":"Feature","geometry":{"type":"Point","coordinates":[-70.694662,41.760216]}},{"properties":{"city":"Warren","supporters":1.0,"geo_score":0.857,"organizers":1.0,"accounts":1.0,"id":"a67lkil3zkkh","geo_precision":"city","state":"Massachusetts"},"type":"Feature","geometry":{"type":"Point","coordinates":[-72.199439,42.204027]}},{"properties":{"city":"Washington","supporters":3.0,"geo_score":0.857,"organizers":2.0,"accounts":3.0,"id":"a67lkimq7sfm","geo_precision":"city","state":"Massachusetts"},"type":"Feature","geometry":{"type":"Point","coordinates":[-73.116214,42.36592]}},{"properties":{"city":"Watertown","supporters":23.0,"geo_score":0.857,"organizers":5.0,"accounts":5.0,"id":"a67lkiexzqwn","geo_precision":"city","state":"Massachusetts"},"type":"Feature","geometry":{"type":"Point","coordinates":[-71.177998,42.372596]}},{"properties":{"city":"Wayland","supporters":6.0,"geo_score":0.857,"organizers":4.0,"accounts":5.0,"id":"a67lkiisgngc","geo_precision":"city","state":"Massachusetts"},"type":"Feature","geometry":{"type":"Point","coordinates":[-71.459405,42.446396]}},{"properties":{"city":"Webster","supporters":4.0,"geo_score":0.791,"organizers":1.0,"accounts":1.0,"id":"a67lkicpnscs","geo_precision":"city","state":"Massachusetts"},"type":"Feature","geometry":{"type":"Point","coordinates":[-71.831461,42.243149]}},{"properties":{"city":"Wellesley","supporters":26.0,"geo_score":0.857,"organizers":8.0,"accounts":10.0,"id":"a67lkigs7bks","geo_precision":"city","state":"Massachusetts"},"type":"Feature","geometry":{"type":"Point","coordinates":[-71.27875,42.300596]}},{"properties":{"city":"Wendell","supporters":1.0,"geo_score":0.857,"organizers":0.0,"accounts":0.0,"id":"a67lki7w4d4x","geo_precision":"city","state":"Massachusetts"},"type":"Feature","geometry":{"type":"Point","coordinates":[-72.437179,42.581007]}},{"properties":{"city":"Wenham","supporters":2.0,"geo_score":0.857,"organizers":1.0,"accounts":1.0,"id":"a67lkiezrmbj","geo_precision":"city","state":"Massachusetts"},"type":"Feature","geometry":{"type":"Point","coordinates":[-70.8732,42.597691]}},{"properties":{"city":"West Boylston","supporters":4.0,"geo_score":0.81,"organizers":3.0,"accounts":2.0,"id":"a67lkihaowu4","geo_precision":"city","state":"Massachusetts"},"type":"Feature","geometry":{"type":"Point","coordinates":[-71.943458,42.300037]}},{"properties":{"city":"West Bridgewater","supporters":1.0,"geo_score":0.781,"organizers":1.0,"accounts":1.0,"id":"a67lkih6moq5","geo_precision":"city","state":"Massachusetts"},"type":"Feature","geometry":{"type":"Point","coordinates":[-72.260635,42.175649]}},{"properties":{"city":"West Brookfield","supporters":4.0,"geo_score":0.755,"organizers":0.0,"accounts":1.0,"id":"a67lki9idv25","geo_precision":"city","state":"Massachusetts"},"type":"Feature","geometry":{"type":"Point","coordinates":[-72.712035,42.506475]}},{"properties":{"city":"West Newbury","supporters":6.0,"geo_score":0.802,"organizers":1.0,"accounts":1.0,"id":"a67lkiedlkdy","geo_precision":"city","state":"Massachusetts"},"type":"Feature","geometry":{"type":"Point","coordinates":[-73.095385,42.102036]}},{"properties":{"city":"West Springfield","supporters":11.0,"geo_score":0.819,"organizers":1.0,"accounts":1.0,"id":"a67lkigxvx9z","geo_precision":"city","state":"Massachusetts"},"type":"Feature","geometry":{"type":"Point","coordinates":[-72.589811,42.101483]}},{"properties":{"city":"West Tisbury","supporters":4.0,"geo_score":0.857,"organizers":1.0,"accounts":1.0,"id":"a67lkidpgigm","geo_precision":"city","state":"Massachusetts"},"type":"Feature","geometry":{"type":"Point","coordinates":[-70.642806,41.42125]}},{"properties":{"city":"Westborough","supporters":33.0,"geo_score":0.769,"organizers":8.0,"accounts":6.0,"id":"a67lkigo8urz","geo_precision":"city","state":"Massachusetts"},"type":"Feature","geometry":{"type":"Point","coordinates":[-72.260635,42.175649]}},{"properties":{"city":"Westfield","supporters":9.0,"geo_score":0.81,"organizers":1.0,"accounts":2.0,"id":"a67lki9kp4u4","geo_precision":"city","state":"Massachusetts"},"type":"Feature","geometry":{"type":"Point","coordinates":[-71.135602,41.886212]}},{"properties":{"city":"Westford","supporters":2.0,"geo_score":0.81,"organizers":0.0,"accounts":0.0,"id":"a67lkifuanix","geo_precision":"city","state":"Massachusetts"},"type":"Feature","geometry":{"type":"Point","coordinates":[-72.714814,42.309811]}},{"properties":{"city":"Westhampton","supporters":1.0,"geo_score":0.857,"organizers":0.0,"accounts":0.0,"id":"a67lki8hdwno","geo_precision":"city","state":"Massachusetts"},"type":"Feature","geometry":{"type":"Point","coordinates":[-72.774538,42.302867]}},{"properties":{"city":"Westminster","supporters":3.0,"geo_score":0.816,"organizers":0.0,"accounts":0.0,"id":"a67lki8oizto","geo_precision":"city","state":"Massachusetts"},"type":"Feature","geometry":{"type":"Point","coordinates":[-70.782825,42.566762]}},{"properties":{"city":"Weston","supporters":11.0,"geo_score":0.857,"organizers":3.0,"accounts":2.0,"id":"a67lkiifyrcs","geo_precision":"city","state":"Massachusetts"},"type":"Feature","geometry":{"type":"Point","coordinates":[-71.459405,42.446396]}},{"properties":{"city":"Westport","supporters":13.0,"geo_score":0.79,"organizers":1.0,"accounts":1.0,"id":"a67lki9ng4f4","geo_precision":"city","state":"Massachusetts"},"type":"Feature","geometry":{"type":"Point","coordinates":[-71.049486,41.638992]}},{"properties":{"city":"Westwood","supporters":2.0,"geo_score":0.857,"organizers":0.0,"accounts":2.0,"id":"a67lkig54hpw","geo_precision":"city","state":"Massachusetts"},"type":"Feature","geometry":{"type":"Point","coordinates":[-71.199238,42.220548]}},{"properties":{"city":"Weymouth","supporters":39.0,"geo_score":0.857,"organizers":5.0,"accounts":4.0,"id":"a67lkibfx002","geo_precision":"city","state":"Massachusetts"},"type":"Feature","geometry":{"type":"Point","coordinates":[-70.95514,42.20794]}},{"properties":{"city":"Whately","supporters":1.0,"geo_score":0.857,"organizers":1.0,"accounts":1.0,"id":"a67lkih09jr5","geo_precision":"city","state":"Massachusetts"},"type":"Feature","geometry":{"type":"Point","coordinates":[-72.652511,42.442673]}},{"properties":{"city":"Wilbraham","supporters":2.0,"geo_score":0.857,"organizers":1.0,"accounts":1.0,"id":"a67lkijzqpf5","geo_precision":"city","state":"Massachusetts"},"type":"Feature","geometry":{"type":"Point","coordinates":[-72.489988,42.125974]}},{"properties":{"city":"Williamsburg","supporters":1.0,"geo_score":0.857,"organizers":1.0,"accounts":1.0,"id":"a67lki8czkzh","geo_precision":"city","state":"Massachusetts"},"type":"Feature","geometry":{"type":"Point","coordinates":[-72.821653,42.413069]}},{"properties":{"city":"Williamstown","supporters":4.0,"geo_score":0.857,"organizers":3.0,"accounts":4.0,"id":"a67lki7sqemw","geo_precision":"city","state":"Massachusetts"},"type":"Feature","geometry":{"type":"Point","coordinates":[-73.257699,42.642075]}},{"properties":{"city":"Winchester","supporters":33.0,"geo_score":0.789,"organizers":6.0,"accounts":6.0,"id":"a67lkibjrx0h","geo_precision":"city","state":"Massachusetts"},"type":"Feature","geometry":{"type":"Point","coordinates":[-71.125887,42.466762]}},{"properties":{"city":"Winthrop","supporters":3.0,"geo_score":0.802,"organizers":0.0,"accounts":1.0,"id":"a67lkio1hp4l","geo_precision":"city","state":"Massachusetts"},"type":"Feature","geometry":{"type":"Point","coordinates":[-70.973105,42.377875]}},{"properties":{"city":"Woburn","supporters":3.0,"geo_score":0.857,"organizers":2.0,"accounts":2.0,"id":"a67lkimyqyq5","geo_precision":"city","state":"Massachusetts"},"type":"Feature","geometry":{"type":"Point","coordinates":[-71.157271,42.488595]}},{"properties":{"city":"Worcester","supporters":140.0,"geo_score":0.857,"organizers":42.0,"accounts":21.0,"id":"a67lkiaqjvn4","geo_precision":"city","state":"Massachusetts"},"type":"Feature","geometry":{"type":"Point","coordinates":[-71.802293,42.262593]}},{"properties":{"city":"Yarmouth","supporters":12.0,"geo_score":0.857,"organizers":3.0,"accounts":4.0,"id":"a67lkig4ojv5","geo_precision":"city","state":"Massachusetts"},"type":"Feature","geometry":{"type":"Point","coordinates":[-70.228631,41.705666]}}],"is_temporal":false,"author":{"url":"","metadata":"","contact_name":"","contact_address":"","source":"","contact_phone":""},"source":"","pagination":{"sort":null,"start":0,"total":273,"limit":1000000},"state":"complete","tags":"","published":"2014-08-10T15:24:48-04:00","id":34872}