{"type":"FeatureCollection","data_type":"Dataset","url_type":null,"permissions":[{"permissions":{"download":true,"view":true},"group_id":"everyone"}],"classification":null,"title":"Villages","count":57,"stream_id":34979,"contributor":{"url":"http://geocommons.com/users/12205","name":"ksrag1986"},"data_attributes":null,"calculation_params":null,"icon_link":null,"link":"http://geocommons.com/overlays/34979.json","extent":[77.7882,14.3417,82.7844,19.0306],"geometry_types":["point"],"unique_name":null,"name":"Villages","feature_count":57,"description":"","next_feature":null,"is_raster":false,"short_classification":"Y","stats":{"X":{"max":82.78442383,"mean":79.9013998464913,"variance":4.05363037540224,"stdev":2.01336295173082,"min":77.78816223,"median":79.70020294},"Y":{"max":19.03059387,"mean":16.7501110778947,"variance":2.03495681165386,"stdev":1.42651912418091,"min":14.34170818,"median":16.8760643}},"features":[{"properties":{"NAME":"Rekulampalle","CATEGORY":"Villages &amp; Towns","X":77.86669922,"Y":16.49585533,"COUNTRY":"India","STATE":"Andhra Pradesh","DISTRICT":"Mahbubnagar","id":"a6nipeytmkqu"},"type":"Feature","geometry":{"type":"Point","coordinates":[77.86669921875,16.4958553314209]}},{"properties":{"NAME":"Ramasabbavaram","CATEGORY":"Villages &amp; Towns","X":82.69519043,"Y":17.66405296,"COUNTRY":"India","STATE":"Andhra Pradesh","DISTRICT":"Visakhapatnam","id":"a6nipeuuyk50"},"type":"Feature","geometry":{"type":"Point","coordinates":[82.6951904296875,17.6640529632568]}},{"properties":{"NAME":"Ramaraydupalem","CATEGORY":"Villages &amp; Towns","X":82.75855255,"Y":17.67187119,"COUNTRY":"India","STATE":"Andhra Pradesh","DISTRICT":"Visakhapatnam","id":"a6nipf1v3qfj"},"type":"Feature","geometry":{"type":"Point","coordinates":[82.7585525512695,17.6718711853027]}},{"properties":{"NAME":"Rajarampuram","CATEGORY":"Villages &amp; Towns","X":82.74038696,"Y":17.69578934,"COUNTRY":"India","STATE":"Andhra Pradesh","DISTRICT":"Visakhapatnam","id":"a6nipezzcw0q"},"type":"Feature","geometry":{"type":"Point","coordinates":[82.7403869628906,17.6957893371582]}},{"properties":{"NAME":"Pylavada","CATEGORY":"Villages &amp; Towns","X":82.78351593,"Y":17.66577911,"COUNTRY":"India","STATE":"Andhra Pradesh","DISTRICT":"Visakhapatnam","id":"a6nipeo8ad0q"},"type":"Feature","geometry":{"type":"Point","coordinates":[82.7835159301758,17.6657791137695]}},{"properties":{"NAME":"Pothraj Palli","CATEGORY":"Villages &amp; Towns","X":78.47486877,"Y":17.80747604,"COUNTRY":"India","STATE":"Andhra Pradesh","DISTRICT":"Medak","id":"a6nipeojyl05"},"type":"Feature","geometry":{"type":"Point","coordinates":[78.4748687744141,17.8074760437012]}},{"properties":{"NAME":"Pathajangamaipal","CATEGORY":"Villages &amp; Towns","X":77.90155029,"Y":16.43668938,"COUNTRY":"India","STATE":"Andhra Pradesh","DISTRICT":"Mahbubnagar","id":"a6nipezumuh9"},"type":"Feature","geometry":{"type":"Point","coordinates":[77.9015502929688,16.4366893768311]}},{"properties":{"NAME":"Padalapalem","CATEGORY":"Villages &amp; Towns","X":82.71496582,"Y":17.70093918,"COUNTRY":"India","STATE":"Andhra Pradesh","DISTRICT":"Visakhapatnam","id":"a6nipexa4s4o"},"type":"Feature","geometry":{"type":"Point","coordinates":[82.7149658203125,17.7009391784668]}},{"properties":{"NAME":"Nethivarampalli","CATEGORY":"Villages &amp; Towns","X":77.85033417,"Y":14.50072575,"COUNTRY":"India","STATE":"Andhra Pradesh","DISTRICT":"Anantapur","id":"a6nipev8jhtw"},"type":"Feature","geometry":{"type":"Point","coordinates":[77.8503341674805,14.5007257461548]}},{"properties":{"NAME":"Narasimhakandriva","CATEGORY":"Villages &amp; Towns","X":79.71244049,"Y":14.40224648,"COUNTRY":"India","STATE":"Andhra Pradesh","DISTRICT":"Nellore","id":"a6nipf2ov3a1"},"type":"Feature","geometry":{"type":"Point","coordinates":[79.7124404907227,14.4022464752197]}},{"properties":{"NAME":"Nadigallu","CATEGORY":"Villages &amp; Towns","X":77.79771423,"Y":14.54871845,"COUNTRY":"India","STATE":"Andhra Pradesh","DISTRICT":"Anantapur","id":"a6nipeyo2ojj"},"type":"Feature","geometry":{"type":"Point","coordinates":[77.7977142333984,14.5487184524536]}},{"properties":{"NAME":"Muthyalapeta","CATEGORY":"Villages &amp; Towns","X":79.78167725,"Y":14.34170818,"COUNTRY":"India","STATE":"Andhra Pradesh","DISTRICT":"Nellore","id":"a6nipeoggb2w"},"type":"Feature","geometry":{"type":"Point","coordinates":[79.7816772460938,14.3417081832886]}},{"properties":{"NAME":"Marripalle Gopasamudram","CATEGORY":"Villages &amp; Towns","X":79.73860168,"Y":14.37082767,"COUNTRY":"India","STATE":"Andhra Pradesh","DISTRICT":"Nellore","id":"a6nipeohd771"},"type":"Feature","geometry":{"type":"Point","coordinates":[79.7386016845703,14.3708276748657]}},{"properties":{"NAME":"Magallu","CATEGORY":"Villages &amp; Towns","X":80.32527924,"Y":16.79941368,"COUNTRY":"India","STATE":"Andhra Pradesh","DISTRICT":"Krishna","id":"a6nipeoua83p"},"type":"Feature","geometry":{"type":"Point","coordinates":[80.3252792358398,16.7994136810303]}},{"properties":{"NAME":"Machavani Palem","CATEGORY":"Villages &amp; Towns","X":82.73899078,"Y":17.75590706,"COUNTRY":"India","STATE":"Andhra Pradesh","DISTRICT":"Visakhapatnam","id":"a6nipeovus3u"},"type":"Feature","geometry":{"type":"Point","coordinates":[82.7389907836914,17.7559070587158]}},{"properties":{"NAME":"Laxmisagar","CATEGORY":"Villages &amp; Towns","X":78.75991058,"Y":19.03059387,"COUNTRY":"India","STATE":"Andhra Pradesh","DISTRICT":"Adilabad","id":"a6nipeoah3w4"},"type":"Feature","geometry":{"type":"Point","coordinates":[78.7599105834961,19.0305938720703]}},{"properties":{"NAME":"Kusarlapudi","CATEGORY":"Villages &amp; Towns","X":82.70465851,"Y":17.66570091,"COUNTRY":"India","STATE":"Andhra Pradesh","DISTRICT":"Visakhapatnam","id":"a6nipeqzb5hz"},"type":"Feature","geometry":{"type":"Point","coordinates":[82.7046585083008,17.6657009124756]}},{"properties":{"NAME":"Koukuntla","CATEGORY":"Villages &amp; Towns","X":77.85134888,"Y":16.52007294,"COUNTRY":"India","STATE":"Andhra Pradesh","DISTRICT":"Mahbubnagar","id":"a6nipeo2xo09"},"type":"Feature","geometry":{"type":"Point","coordinates":[77.8513488769531,16.5200729370117]}},{"properties":{"NAME":"Kothatootipala","CATEGORY":"Villages &amp; Towns","X":82.73963928,"Y":17.69140434,"COUNTRY":"India","STATE":"Andhra Pradesh","DISTRICT":"Visakhapatnam","id":"a6nipez49m0o"},"type":"Feature","geometry":{"type":"Point","coordinates":[82.7396392822266,17.6914043426514]}},{"properties":{"NAME":"Konathamatmakuru","CATEGORY":"Villages &amp; Towns","X":80.37182617,"Y":16.83666801,"COUNTRY":"India","STATE":"Andhra Pradesh","DISTRICT":"Krishna","id":"a6nipenlw593"},"type":"Feature","geometry":{"type":"Point","coordinates":[80.371826171875,16.8366680145264]}},{"properties":{"NAME":"Kodekandla","CATEGORY":"Villages &amp; Towns","X":77.82753754,"Y":14.46890163,"COUNTRY":"India","STATE":"Andhra Pradesh","DISTRICT":"Anantapur","id":"a6nipf1w7a5g"},"type":"Feature","geometry":{"type":"Point","coordinates":[77.8275375366211,14.4689016342163]}},{"properties":{"NAME":"Katavaram Tanda","CATEGORY":"Villages &amp; Towns","X":77.93014526,"Y":16.51888466,"COUNTRY":"India","STATE":"Andhra Pradesh","DISTRICT":"Mahbubnagar","id":"a6nipeo7k0n3"},"type":"Feature","geometry":{"type":"Point","coordinates":[77.9301452636719,16.5188846588135]}},{"properties":{"NAME":"Kanimetta","CATEGORY":"Villages &amp; Towns","X":77.92151642,"Y":16.43011093,"COUNTRY":"India","STATE":"Andhra Pradesh","DISTRICT":"Mahbubnagar","id":"a6niperfiv0b"},"type":"Feature","geometry":{"type":"Point","coordinates":[77.921516418457,16.4301109313965]}},{"properties":{"NAME":"Kanchugummala","CATEGORY":"Villages &amp; Towns","X":82.68838501,"Y":17.74072838,"COUNTRY":"India","STATE":"Andhra Pradesh","DISTRICT":"Visakhapatnam","id":"a6nipez6n2d6"},"type":"Feature","geometry":{"type":"Point","coordinates":[82.6883850097656,17.7407283782959]}},{"properties":{"NAME":"Kalyanapukothuru","CATEGORY":"Villages &amp; Towns","X":82.69012451,"Y":17.75408173,"COUNTRY":"India","STATE":"Andhra Pradesh","DISTRICT":"Visakhapatnam","id":"a6nipew1tnel"},"type":"Feature","geometry":{"type":"Point","coordinates":[82.6901245117188,17.7540817260742]}},{"properties":{"NAME":"Kakulaponnavaram","CATEGORY":"Villages &amp; Towns","X":80.28158569,"Y":16.82544899,"COUNTRY":"India","STATE":"Andhra Pradesh","DISTRICT":"Krishna","id":"a6niperohlxb"},"type":"Feature","geometry":{"type":"Point","coordinates":[80.2815856933594,16.8254489898682]}},{"properties":{"NAME":"Jaganathapuram","CATEGORY":"Villages &amp; Towns","X":77.86247253,"Y":14.54333496,"COUNTRY":"India","STATE":"Andhra Pradesh","DISTRICT":"Anantapur","id":"a6nipemz9ik2"},"type":"Feature","geometry":{"type":"Point","coordinates":[77.8624725341797,14.5433349609375]}},{"properties":{"NAME":"Isrampalle","CATEGORY":"Villages &amp; Towns","X":77.86470795,"Y":16.51194191,"COUNTRY":"India","STATE":"Andhra Pradesh","DISTRICT":"Mahbubnagar","id":"a6nipepcjytg"},"type":"Feature","geometry":{"type":"Point","coordinates":[77.8647079467773,16.51194190979]}},{"properties":{"NAME":"Inukurthy","CATEGORY":"Villages &amp; Towns","X":79.72899628,"Y":14.3422575,"COUNTRY":"India","STATE":"Andhra Pradesh","DISTRICT":"Nellore","id":"a6nipf1ver49"},"type":"Feature","geometry":{"type":"Point","coordinates":[79.7289962768555,14.3422574996948]}},{"properties":{"NAME":"Immapur","CATEGORY":"Villages &amp; Towns","X":78.48086548,"Y":17.78023529,"COUNTRY":"India","STATE":"Andhra Pradesh","DISTRICT":"Medak","id":"a6niper3maei"},"type":"Feature","geometry":{"type":"Point","coordinates":[78.4808654785156,17.7802352905273]}},{"properties":{"NAME":"Hyderrguda","CATEGORY":"Villages &amp; Towns","X":78.47644806,"Y":17.84049988,"COUNTRY":"India","STATE":"Andhra Pradesh","DISTRICT":"Medak","id":"a6nipeseuj0o"},"type":"Feature","geometry":{"type":"Point","coordinates":[78.476448059082,17.8404998779297]}},{"properties":{"NAME":"Gurralapalem","CATEGORY":"Villages &amp; Towns","X":82.76274872,"Y":17.71227264,"COUNTRY":"India","STATE":"Andhra Pradesh","DISTRICT":"Visakhapatnam","id":"a6nipezu5d3x"},"type":"Feature","geometry":{"type":"Point","coordinates":[82.7627487182617,17.712272644043]}},{"properties":{"NAME":"Guravayapalem","CATEGORY":"Villages &amp; Towns","X":79.70020294,"Y":14.38813782,"COUNTRY":"India","STATE":"Andhra Pradesh","DISTRICT":"Nellore","id":"a6nipeydu178"},"type":"Feature","geometry":{"type":"Point","coordinates":[79.7002029418945,14.3881378173828]}},{"properties":{"NAME":"Gundubadu Ui","CATEGORY":"Villages &amp; Towns","X":82.73869324,"Y":17.72595787,"COUNTRY":"India","STATE":"Andhra Pradesh","DISTRICT":"Visakhapatnam","id":"a6nipexkes1l"},"type":"Feature","geometry":{"type":"Point","coordinates":[82.7386932373047,17.7259578704834]}},{"properties":{"NAME":"Gundareddipalle","CATEGORY":"Villages &amp; Towns","X":78.50853729,"Y":17.84857368,"COUNTRY":"India","STATE":"Andhra Pradesh","DISTRICT":"Medak","id":"a6nipepzb3g1"},"type":"Feature","geometry":{"type":"Point","coordinates":[78.5085372924805,17.8485736846924]}},{"properties":{"NAME":"Gummalakunta","CATEGORY":"Villages &amp; Towns","X":77.79210663,"Y":14.50465775,"COUNTRY":"India","STATE":"Andhra Pradesh","DISTRICT":"Anantapur","id":"a6nipew3basw"},"type":"Feature","geometry":{"type":"Point","coordinates":[77.792106628418,14.5046577453613]}},{"properties":{"NAME":"Gorrepally","CATEGORY":"Villages &amp; Towns","X":78.75148773,"Y":18.95622826,"COUNTRY":"India","STATE":"Andhra Pradesh","DISTRICT":"Karimnagar","id":"a6nipf1jg8gv"},"type":"Feature","geometry":{"type":"Point","coordinates":[78.7514877319336,18.9562282562256]}},{"properties":{"NAME":"Godalapampu","CATEGORY":"Villages &amp; Towns","X":78.68971252,"Y":19.02488136,"COUNTRY":"India","STATE":"Andhra Pradesh","DISTRICT":"Adilabad","id":"a6nipevb7n0r"},"type":"Feature","geometry":{"type":"Point","coordinates":[78.6897125244141,19.024881362915]}},{"properties":{"NAME":"Dwarakanagar","CATEGORY":"Villages &amp; Towns","X":77.87128448,"Y":16.43600845,"COUNTRY":"India","STATE":"Andhra Pradesh","DISTRICT":"Mahbubnagar","id":"a6nipeq1hhfd"},"type":"Feature","geometry":{"type":"Point","coordinates":[77.8712844848633,16.4360084533691]}},{"properties":{"NAME":"Desinenipalem","CATEGORY":"Villages &amp; Towns","X":80.34376526,"Y":16.86525536,"COUNTRY":"India","STATE":"Andhra Pradesh","DISTRICT":"Krishna","id":"a6nipf18bcmg"},"type":"Feature","geometry":{"type":"Point","coordinates":[80.3437652587891,16.865255355835]}},{"properties":{"NAME":"Damrajpally","CATEGORY":"Villages &amp; Towns","X":78.70549774,"Y":18.99398613,"COUNTRY":"India","STATE":"Andhra Pradesh","DISTRICT":"Karimnagar","id":"a6nipevccxkc"},"type":"Feature","geometry":{"type":"Point","coordinates":[78.7054977416992,18.9939861297607]}},{"properties":{"NAME":"Chittepalle","CATEGORY":"Villages &amp; Towns","X":79.73391724,"Y":14.39597416,"COUNTRY":"India","STATE":"Andhra Pradesh","DISTRICT":"Nellore","id":"a6nipexc7ajn"},"type":"Feature","geometry":{"type":"Point","coordinates":[79.7339172363281,14.3959741592407]}},{"properties":{"NAME":"Chinnamungalache","CATEGORY":"Villages &amp; Towns","X":77.92063141,"Y":16.50589371,"COUNTRY":"India","STATE":"Andhra Pradesh","DISTRICT":"Mahbubnagar","id":"a6nipergi9go"},"type":"Feature","geometry":{"type":"Point","coordinates":[77.9206314086914,16.5058937072754]}},{"properties":{"NAME":"Chilkatonipalle","CATEGORY":"Villages &amp; Towns","X":77.91841125,"Y":16.4483242,"COUNTRY":"India","STATE":"Andhra Pradesh","DISTRICT":"Mahbubnagar","id":"a6nipf3056tk"},"type":"Feature","geometry":{"type":"Point","coordinates":[77.9184112548828,16.4483242034912]}},{"properties":{"NAME":"Chenarayapatnam","CATEGORY":"Villages &amp; Towns","X":77.78816223,"Y":14.46474361,"COUNTRY":"India","STATE":"Andhra Pradesh","DISTRICT":"Anantapur","id":"a6nipf2hdz7c"},"type":"Feature","geometry":{"type":"Point","coordinates":[77.7881622314453,14.4647436141968]}},{"properties":{"NAME":"Butchennapalem","CATEGORY":"Villages &amp; Towns","X":82.74203491,"Y":17.66404343,"COUNTRY":"India","STATE":"Andhra Pradesh","DISTRICT":"Visakhapatnam","id":"a6nipepkohd7"},"type":"Feature","geometry":{"type":"Point","coordinates":[82.7420349121094,17.6640434265137]}},{"properties":{"NAME":"Burugupalem","CATEGORY":"Villages &amp; Towns","X":82.72914124,"Y":17.67631149,"COUNTRY":"India","STATE":"Andhra Pradesh","DISTRICT":"Visakhapatnam","id":"a6nipf0y8zuw"},"type":"Feature","geometry":{"type":"Point","coordinates":[82.7291412353516,17.6763114929199]}},{"properties":{"NAME":"Baleedupalle","CATEGORY":"Villages &amp; Towns","X":77.91157532,"Y":16.4669838,"COUNTRY":"India","STATE":"Andhra Pradesh","DISTRICT":"Mahbubnagar","id":"a6nipeur5jr2"},"type":"Feature","geometry":{"type":"Point","coordinates":[77.9115753173828,16.466983795166]}},{"properties":{"NAME":"Ayyagaripalem","CATEGORY":"Villages &amp; Towns","X":79.76263428,"Y":14.42255116,"COUNTRY":"India","STATE":"Andhra Pradesh","DISTRICT":"Nellore","id":"a6nipez8uyiw"},"type":"Feature","geometry":{"type":"Point","coordinates":[79.7626342773438,14.4225511550903]}},{"properties":{"NAME":"Appandorapalem","CATEGORY":"Villages &amp; Towns","X":82.78442383,"Y":17.68018341,"COUNTRY":"India","STATE":"Andhra Pradesh","DISTRICT":"Visakhapatnam","id":"a6nipez96f6n"},"type":"Feature","geometry":{"type":"Point","coordinates":[82.784423828125,17.6801834106445]}},{"properties":{"NAME":"Anigandlapadu","CATEGORY":"Villages &amp; Towns","X":80.29528809,"Y":16.8760643,"COUNTRY":"India","STATE":"Andhra Pradesh","DISTRICT":"Krishna","id":"a6nipenqk8b1"},"type":"Feature","geometry":{"type":"Point","coordinates":[80.2952880859375,16.8760643005371]}},{"properties":{"NAME":"Ananthagiripalle","CATEGORY":"Villages &amp; Towns","X":78.53288269,"Y":17.79439926,"COUNTRY":"India","STATE":"Andhra Pradesh","DISTRICT":"Medak","id":"a6nipeverh84"},"type":"Feature","geometry":{"type":"Point","coordinates":[78.5328826904297,17.7943992614746]}},{"properties":{"NAME":"Adigarlapalem","CATEGORY":"Villages &amp; Towns","X":82.74243927,"Y":17.6855526,"COUNTRY":"India","STATE":"Andhra Pradesh","DISTRICT":"Visakhapatnam","id":"a6nipevwowwd"},"type":"Feature","geometry":{"type":"Point","coordinates":[82.7424392700195,17.6855525970459]}},{"properties":{"NAME":"Addakal","CATEGORY":"Villages &amp; Towns","X":77.92960358,"Y":16.49685669,"COUNTRY":"India","STATE":"Andhra Pradesh","DISTRICT":"Mahbubnagar","id":"a6nipf0a7b0k"},"type":"Feature","geometry":{"type":"Point","coordinates":[77.9296035766602,16.4968566894531]}},{"properties":{"NAME":"Aboth Palli","CATEGORY":"Villages &amp; Towns","X":78.48547363,"Y":17.83873367,"COUNTRY":"India","STATE":"Andhra Pradesh","DISTRICT":"Medak","id":"a6nipf1ymmpd"},"type":"Feature","geometry":{"type":"Point","coordinates":[78.4854736328125,17.8387336730957]}},{"properties":{"NAME":"Ramayapalli","CATEGORY":"Villages &amp; Towns","X":78.47144318,"Y":17.78222084,"COUNTRY":"India","STATE":"Andhra Pradesh","DISTRICT":"Medak","id":"a6nipf1ofr7f"},"type":"Feature","geometry":{"type":"Point","coordinates":[78.4714431762695,17.7822208404541]}},{"properties":{"NAME":"Kothakota","CATEGORY":"Villages &amp; Towns","X":82.70675659,"Y":17.74267006,"COUNTRY":"India","STATE":"Andhra Pradesh","DISTRICT":"Visakhapatnam","id":"a6nipeyebceb"},"type":"Feature","geometry":{"type":"Point","coordinates":[82.7067565917969,17.7426700592041]}}],"is_temporal":false,"author":{"url":"","metadata":"","contact_name":"","contact_address":"","source":"","contact_phone":""},"source":"","pagination":{"sort":null,"start":0,"total":57,"limit":1000000},"state":"complete","tags":"","published":"2014-08-10T15:30:21-04:00","id":34979}