{"type":"FeatureCollection","data_type":"Dataset","url_type":null,"permissions":[{"permissions":{"download":true,"view":true},"group_id":"everyone"}],"classification":null,"title":"map","count":132,"stream_id":350500,"contributor":{"url":"http://geocommons.com/users/70637","name":"digitalmedia@hodes.com"},"data_attributes":null,"calculation_params":null,"icon_link":null,"link":"http://geocommons.com/overlays/350500.json","extent":[-123.142,-27.8,104.15,59.339],"geometry_types":["point"],"unique_name":null,"name":"map","feature_count":132,"description":"","next_feature":null,"is_raster":false,"short_classification":"Y","stats":{},"features":[{"properties":{"city":"Montgomery","geo_score":0.0,"id":"adugn9g9zu0h","geo_precision":"unmatched","state":"AL"},"type":"Feature","geometry":null},{"properties":{"city":"Little Rock","geo_score":0.857,"id":"adugn9eox32d","geo_precision":"zip","state":"AR"},"type":"Feature","geometry":{"type":"Point","coordinates":[-59.2666667,-24.8333333]}},{"properties":{"city":"Pine Bluff","geo_score":0.857,"id":"adugn9fb912z","geo_precision":"zip","state":"AR"},"type":"Feature","geometry":{"type":"Point","coordinates":[-62.5166667,-27.8]}},{"properties":{"city":"Anaheim","geo_score":0.857,"id":"adugn9kxtkh7","geo_precision":"zip","state":"CA"},"type":"Feature","geometry":{"type":"Point","coordinates":[-104.817765676,52.316739268]}},{"properties":{"city":"Bakersfield","geo_score":0.857,"id":"adugn9b9hq3q","geo_precision":"zip","state":"CA"},"type":"Feature","geometry":{"type":"Point","coordinates":[-65.586324988,43.46685989]}},{"properties":{"city":"Dinuba","geo_score":0.857,"id":"adugn9i3m11k","geo_precision":"zip","state":"CA"},"type":"Feature","geometry":{"type":"Point","coordinates":[-101.612623325,59.33897473]}},{"properties":{"city":"Downey","geo_score":0.857,"id":"adugn9n6iyot","geo_precision":"zip","state":"CA"},"type":"Feature","geometry":{"type":"Point","coordinates":[-117.813381705,51.155486487]}},{"properties":{"city":"Fresno","geo_score":0.857,"id":"adugn9fkjarh","geo_precision":"zip","state":"CA"},"type":"Feature","geometry":{"type":"Point","coordinates":[-58.748210046,51.300121117]}},{"properties":{"city":"Los Angeles","geo_score":0.857,"id":"adugn9ll7br8","geo_precision":"zip","state":"CA"},"type":"Feature","geometry":{"type":"Point","coordinates":[-73.734174418,46.256476309]}},{"properties":{"city":"Oceanside","geo_score":0.857,"id":"adugn9lwbgs5","geo_precision":"zip","state":"CA"},"type":"Feature","geometry":{"type":"Point","coordinates":[-123.1417,49.2886]}},{"properties":{"city":"Ontario","geo_score":0.857,"id":"adugn9d19lqy","geo_precision":"zip","state":"CA"},"type":"Feature","geometry":{"type":"Point","coordinates":[-79.082884803,44.250117447]}},{"properties":{"city":"Orange","geo_score":0.0,"id":"adugn9ak2tdr","geo_precision":"unmatched","state":"CA"},"type":"Feature","geometry":null},{"properties":{"city":"Rancho Cucamonga","geo_score":0.857,"id":"adugn9lnq2xu","geo_precision":"zip","state":"CA"},"type":"Feature","geometry":{"type":"Point","coordinates":[-115.26873071,49.266631761]}},{"properties":{"city":"San Leandro","geo_score":0.857,"id":"adugn99eu6rz","geo_precision":"zip","state":"CA"},"type":"Feature","geometry":{"type":"Point","coordinates":[-76.832710082,48.30017534]}},{"properties":{"city":"Union City","geo_score":0.857,"id":"adugn9divkjk","geo_precision":"zip","state":"CA"},"type":"Feature","geometry":{"type":"Point","coordinates":[-81.199736974,42.700092005]}},{"properties":{"city":"Ventura","geo_score":0.857,"id":"adugn9fnebz8","geo_precision":"zip","state":"CA"},"type":"Feature","geometry":{"type":"Point","coordinates":[-81.749796346,46.583378228]}},{"properties":{"city":"Denver","geo_score":0.0,"id":"adugn9bdfuq1","geo_precision":"unmatched","state":"CO"},"type":"Feature","geometry":null},{"properties":{"city":"Greeley","geo_score":0.857,"id":"adugn9m4vbam","geo_precision":"zip","state":"CO"},"type":"Feature","geometry":{"type":"Point","coordinates":[-76.1333333,1.8666667]}},{"properties":{"city":"Pueblo","geo_score":0.857,"id":"adugn9lg0i75","geo_precision":"zip","state":"CO"},"type":"Feature","geometry":{"type":"Point","coordinates":[-76.7622222,2.8105556]}},{"properties":{"city":"East Hartford","geo_score":0.0,"id":"adugn9le7a0b","geo_precision":"unmatched","state":"CT"},"type":"Feature","geometry":null},{"properties":{"city":"Naugatuck","geo_score":0.0,"id":"adugn9iomg7w","geo_precision":"unmatched","state":"CT"},"type":"Feature","geometry":null},{"properties":{"city":"Dover","geo_score":0.857,"id":"adugn9jss43y","geo_precision":"zip","state":"DE"},"type":"Feature","geometry":{"type":"Point","coordinates":[7.3666667,53.0833333]}},{"properties":{"city":"Hollywood","geo_score":0.0,"id":"adugn9mtdzk1","geo_precision":"unmatched","state":"FL"},"type":"Feature","geometry":null},{"properties":{"city":"Ocala","geo_score":0.0,"id":"adugn9h819v5","geo_precision":"unmatched","state":"FL"},"type":"Feature","geometry":null},{"properties":{"city":"Sarasota","geo_score":0.0,"id":"adugn9fwa1tb","geo_precision":"unmatched","state":"FL"},"type":"Feature","geometry":null},{"properties":{"city":"St. Petersburg","geo_score":0.0,"id":"adugn9h46oxo","geo_precision":"unmatched","state":"FL"},"type":"Feature","geometry":null},{"properties":{"city":"Tampa","geo_score":0.0,"id":"adugn9l2usn8","geo_precision":"unmatched","state":"FL"},"type":"Feature","geometry":null},{"properties":{"city":"Valparaiso","geo_score":0.0,"id":"adugn9lq43i6","geo_precision":"unmatched","state":"FL"},"type":"Feature","geometry":null},{"properties":{"city":"Atlanta","geo_score":0.0,"id":"adugn9c7nud7","geo_precision":"unmatched","state":"GA"},"type":"Feature","geometry":null},{"properties":{"city":"Gainsville","geo_score":0.0,"id":"adugn9ncpf45","geo_precision":"unmatched","state":"GA"},"type":"Feature","geometry":null},{"properties":{"city":"Cedar Rapids","geo_score":0.0,"id":"adugn9gazg9p","geo_precision":"unmatched","state":"IA"},"type":"Feature","geometry":null},{"properties":{"city":"St Charles","geo_score":0.0,"id":"adugn9cucich","geo_precision":"unmatched","state":"IL"},"type":"Feature","geometry":null},{"properties":{"city":"Quad Cities","geo_score":0.857,"id":"adugn9h22bgc","geo_precision":"zip","state":"IL"},"type":"Feature","geometry":{"type":"Point","coordinates":[34.7833333,31.6166667]}},{"properties":{"city":"Springfield","geo_score":0.0,"id":"adugn9hip2xc","geo_precision":"unmatched","state":"IL"},"type":"Feature","geometry":null},{"properties":{"city":"Champaign","geo_score":0.0,"id":"adugn986015z","geo_precision":"unmatched","state":"IL"},"type":"Feature","geometry":null},{"properties":{"city":"Bloomington","geo_score":0.0,"id":"adugn9l67295","geo_precision":"unmatched","state":"IN"},"type":"Feature","geometry":null},{"properties":{"city":"Evansville","geo_score":0.0,"id":"adugn984cqj8","geo_precision":"unmatched","state":"IN"},"type":"Feature","geometry":null},{"properties":{"city":"Indianapolis","geo_score":0.0,"id":"adugn9dgsich","geo_precision":"unmatched","state":"IN"},"type":"Feature","geometry":null},{"properties":{"city":"Kansas City","geo_score":0.0,"id":"adugn9fmfgk9","geo_precision":"unmatched","state":"KS"},"type":"Feature","geometry":null},{"properties":{"city":"Wichita","geo_score":0.0,"id":"adugn9niz1wo","geo_precision":"unmatched","state":"KS"},"type":"Feature","geometry":null},{"properties":{"city":"Louisville","geo_score":0.0,"id":"adugn99198vw","geo_precision":"unmatched","state":"KY"},"type":"Feature","geometry":null},{"properties":{"city":"Harahan","geo_score":0.0,"id":"adugn9hyurje","geo_precision":"unmatched","state":"LA"},"type":"Feature","geometry":null},{"properties":{"city":"New Iberia","geo_score":0.857,"id":"adugn9iel4ch","geo_precision":"zip","state":"LA"},"type":"Feature","geometry":{"type":"Point","coordinates":[104.15,20.6166667]}},{"properties":{"city":"Greenfield","geo_score":0.0,"id":"adugn9hnod99","geo_precision":"unmatched","state":"MA"},"type":"Feature","geometry":null},{"properties":{"city":"Needham","geo_score":0.0,"id":"adugn9e13fd1","geo_precision":"unmatched","state":"MA"},"type":"Feature","geometry":null},{"properties":{"city":"Pittsfield","geo_score":0.0,"id":"adugn9cz2sl6","geo_precision":"unmatched","state":"MA"},"type":"Feature","geometry":null},{"properties":{"city":"Springfield","geo_score":0.0,"id":"adugn9d1hicd","geo_precision":"unmatched","state":"MA"},"type":"Feature","geometry":null},{"properties":{"city":"Baltimore","geo_score":0.0,"id":"adugn97cn97h","geo_precision":"unmatched","state":"MD"},"type":"Feature","geometry":null},{"properties":{"city":"Capitol Heights","geo_score":0.0,"id":"adugn9iay9zf","geo_precision":"unmatched","state":"MD"},"type":"Feature","geometry":null},{"properties":{"city":"Hagerstown","geo_score":0.0,"id":"adugn99poa3b","geo_precision":"unmatched","state":"MD"},"type":"Feature","geometry":null},{"properties":{"city":"LaPlata","geo_score":0.0,"id":"adugn9980r5b","geo_precision":"unmatched","state":"MD"},"type":"Feature","geometry":null},{"properties":{"city":"Detroit","geo_score":0.0,"id":"adugn9eqozay","geo_precision":"unmatched","state":"MI"},"type":"Feature","geometry":null},{"properties":{"city":"Flint","geo_score":0.0,"id":"adugn9ha0zdj","geo_precision":"unmatched","state":"MI"},"type":"Feature","geometry":null},{"properties":{"city":"Grand Rapids","geo_score":0.0,"id":"adugn9b6djxo","geo_precision":"unmatched","state":"MI"},"type":"Feature","geometry":null},{"properties":{"city":"Kalamazoo","geo_score":0.0,"id":"adugn9bwh68d","geo_precision":"unmatched","state":"MI"},"type":"Feature","geometry":null},{"properties":{"city":"Traverse City","geo_score":0.0,"id":"adugn9fhbktq","geo_precision":"unmatched","state":"MI"},"type":"Feature","geometry":null},{"properties":{"city":"Eagan","geo_score":0.0,"id":"adugn9jrhun4","geo_precision":"unmatched","state":"MN"},"type":"Feature","geometry":null},{"properties":{"city":"Joplin","geo_score":0.0,"id":"adugn9ejzgge","geo_precision":"unmatched","state":"MO"},"type":"Feature","geometry":null},{"properties":{"city":"St. Louis","geo_score":0.0,"id":"adugn9i6g6k1","geo_precision":"unmatched","state":"MO"},"type":"Feature","geometry":null},{"properties":{"city":"West Plains","geo_score":0.0,"id":"adugn9le0wnj","geo_precision":"unmatched","state":"MO"},"type":"Feature","geometry":null},{"properties":{"city":"Billings","geo_score":0.0,"id":"adugn9834vmm","geo_precision":"unmatched","state":"MT"},"type":"Feature","geometry":null},{"properties":{"city":"Great Falls","geo_score":0.857,"id":"adugn9jfg12v","geo_precision":"zip","state":"MT"},"type":"Feature","geometry":{"type":"Point","coordinates":[14.3180556,36.0488889]}},{"properties":{"city":"Kalispell","geo_score":0.0,"id":"adugn98b4pji","geo_precision":"unmatched","state":"MT"},"type":"Feature","geometry":null},{"properties":{"city":"Miles City","geo_score":0.0,"id":"adugn9cpwmc6","geo_precision":"unmatched","state":"MT"},"type":"Feature","geometry":null},{"properties":{"city":"Missoula","geo_score":0.0,"id":"adugn97oqc7a","geo_precision":"unmatched","state":"MT"},"type":"Feature","geometry":null},{"properties":{"city":"Elizabeth City","geo_score":0.0,"id":"adugn9d1xpdw","geo_precision":"unmatched","state":"NC"},"type":"Feature","geometry":null},{"properties":{"city":"Bismarck","geo_score":0.0,"id":"adugn9iovb30","geo_precision":"unmatched","state":"ND"},"type":"Feature","geometry":null},{"properties":{"city":"Grand Forks","geo_score":0.0,"id":"adugn9e3gizy","geo_precision":"unmatched","state":"ND"},"type":"Feature","geometry":null},{"properties":{"city":"Lincoln","geo_score":0.857,"id":"adugn9hbfqct","geo_precision":"zip","state":"NE"},"type":"Feature","geometry":{"type":"Point","coordinates":[1.2033,13.6944]}},{"properties":{"city":"Omaha","geo_score":0.0,"id":"adugn9gphty1","geo_precision":"unmatched","state":"NE"},"type":"Feature","geometry":null},{"properties":{"city":"Asbury Park","geo_score":0.0,"id":"adugn9bv0sl2","geo_precision":"unmatched","state":"NJ"},"type":"Feature","geometry":null},{"properties":{"city":"Carlstadt","geo_score":0.0,"id":"adugn9jpggsd","geo_precision":"unmatched","state":"NJ"},"type":"Feature","geometry":null},{"properties":{"city":"Marmora","geo_score":0.0,"id":"adugn9f74jn7","geo_precision":"unmatched","state":"NJ"},"type":"Feature","geometry":null},{"properties":{"city":"Newark","geo_score":0.0,"id":"adugn9langyt","geo_precision":"unmatched","state":"NJ"},"type":"Feature","geometry":null},{"properties":{"city":"Parsippany","geo_score":0.0,"id":"adugn98g9vi6","geo_precision":"unmatched","state":"NJ"},"type":"Feature","geometry":null},{"properties":{"city":"South Brunswick","geo_score":0.0,"id":"adugn9fbvxaj","geo_precision":"unmatched","state":"NJ"},"type":"Feature","geometry":null},{"properties":{"city":"Hobbs","geo_score":0.0,"id":"adugn9f6xx5c","geo_precision":"unmatched","state":"NM"},"type":"Feature","geometry":null},{"properties":{"city":"Roswell","geo_score":0.0,"id":"adugn9789fwv","geo_precision":"unmatched","state":"NM"},"type":"Feature","geometry":null},{"properties":{"city":"Las Vegas","geo_score":0.0,"id":"adugn9kito4z","geo_precision":"unmatched","state":"NV"},"type":"Feature","geometry":null},{"properties":{"city":"Albany","geo_score":0.0,"id":"adugn9fxkhld","geo_precision":"unmatched","state":"NY"},"type":"Feature","geometry":null},{"properties":{"city":"Elmira","geo_score":0.0,"id":"adugn9aoh027","geo_precision":"unmatched","state":"NY"},"type":"Feature","geometry":null},{"properties":{"city":"Elmsford","geo_score":0.0,"id":"adugn9n5edxk","geo_precision":"unmatched","state":"NY"},"type":"Feature","geometry":null},{"properties":{"city":"Hauppauge","geo_score":0.0,"id":"adugn9a3m85k","geo_precision":"unmatched","state":"NY"},"type":"Feature","geometry":null},{"properties":{"city":"New York","geo_score":0.0,"id":"adugn9au05sk","geo_precision":"unmatched","state":"NY"},"type":"Feature","geometry":null},{"properties":{"city":"Syracuse","geo_score":0.0,"id":"adugn9gejy6k","geo_precision":"unmatched","state":"NY"},"type":"Feature","geometry":null},{"properties":{"city":"Akron","geo_score":0.0,"id":"adugn9md4zes","geo_precision":"unmatched","state":"OH"},"type":"Feature","geometry":null},{"properties":{"city":"Cincinnati","geo_score":0.0,"id":"adugn97lu2bl","geo_precision":"unmatched","state":"OH"},"type":"Feature","geometry":null},{"properties":{"city":"Columbus","geo_score":0.0,"id":"adugn9k34oj4","geo_precision":"unmatched","state":"OH"},"type":"Feature","geometry":null},{"properties":{"city":"Huber Heights","geo_score":0.0,"id":"adugn9bqpoz5","geo_precision":"unmatched","state":"OH"},"type":"Feature","geometry":null},{"properties":{"city":"Lawton","geo_score":0.0,"id":"adugn9clkd6o","geo_precision":"unmatched","state":"OK"},"type":"Feature","geometry":null},{"properties":{"city":"Woodward","geo_score":0.0,"id":"adugn9l9ce6s","geo_precision":"unmatched","state":"OK"},"type":"Feature","geometry":null},{"properties":{"city":"Wilsonville","geo_score":0.0,"id":"adugn9esz68i","geo_precision":"unmatched","state":"OR"},"type":"Feature","geometry":null},{"properties":{"city":"Lancaster","geo_score":0.857,"id":"adugn9m12dqc","geo_precision":"zip","state":"PA"},"type":"Feature","geometry":{"type":"Point","coordinates":[-79.7833333,9.1166667]}},{"properties":{"city":"Pittston","geo_score":0.0,"id":"adugn9j0bnfa","geo_precision":"unmatched","state":"PA"},"type":"Feature","geometry":null},{"properties":{"city":"Knoxville","geo_score":0.0,"id":"adugn9c7cy28","geo_precision":"unmatched","state":"TN"},"type":"Feature","geometry":null},{"properties":{"city":"Memphis","geo_score":0.0,"id":"adugn9jch4vp","geo_precision":"unmatched","state":"TN"},"type":"Feature","geometry":null},{"properties":{"city":"Abilene","geo_score":0.0,"id":"adugn9dnl7rn","geo_precision":"unmatched","state":"TX"},"type":"Feature","geometry":null},{"properties":{"city":"Amarillo","geo_score":0.0,"id":"adugn9f6dzol","geo_precision":"unmatched","state":"TX"},"type":"Feature","geometry":null},{"properties":{"city":"Austin","geo_score":0.0,"id":"adugn9gug792","geo_precision":"unmatched","state":"TX"},"type":"Feature","geometry":null},{"properties":{"city":"Beaumont","geo_score":0.0,"id":"adugn9eti6mb","geo_precision":"unmatched","state":"TX"},"type":"Feature","geometry":null},{"properties":{"city":"Brady","geo_score":0.0,"id":"adugn9925kmt","geo_precision":"unmatched","state":"TX"},"type":"Feature","geometry":null},{"properties":{"city":"Conroe","geo_score":0.0,"id":"adugn9ieea0n","geo_precision":"unmatched","state":"TX"},"type":"Feature","geometry":null},{"properties":{"city":"Corpus Christi","geo_score":0.0,"id":"adugn9emrxh0","geo_precision":"unmatched","state":"TX"},"type":"Feature","geometry":null},{"properties":{"city":"Dallas","geo_score":0.0,"id":"adugn9a0utwh","geo_precision":"unmatched","state":"TX"},"type":"Feature","geometry":null},{"properties":{"city":"El Campo","geo_score":0.0,"id":"adugn9jf0ak5","geo_precision":"unmatched","state":"TX"},"type":"Feature","geometry":null},{"properties":{"city":"El Paso","geo_score":0.0,"id":"adugn9hnyf7y","geo_precision":"unmatched","state":"TX"},"type":"Feature","geometry":null},{"properties":{"city":"Fort Worth","geo_score":0.0,"id":"adugn9a3mn55","geo_precision":"unmatched","state":"TX"},"type":"Feature","geometry":null},{"properties":{"city":"Houston","geo_score":0.0,"id":"adugn9hbs851","geo_precision":"unmatched","state":"TX"},"type":"Feature","geometry":null},{"properties":{"city":"Laredo","geo_score":0.0,"id":"adugn99xs7wa","geo_precision":"unmatched","state":"TX"},"type":"Feature","geometry":null},{"properties":{"city":"Lubbock","geo_score":0.0,"id":"adugn9lcaw8x","geo_precision":"unmatched","state":"TX"},"type":"Feature","geometry":null},{"properties":{"city":"McAllen","geo_score":0.0,"id":"adugn9htsnbk","geo_precision":"unmatched","state":"TX"},"type":"Feature","geometry":null},{"properties":{"city":"Odessa","geo_score":0.0,"id":"adugn9nn14oj","geo_precision":"unmatched","state":"TX"},"type":"Feature","geometry":null},{"properties":{"city":"Paris","geo_score":0.0,"id":"adugn9m6166l","geo_precision":"unmatched","state":"TX"},"type":"Feature","geometry":null},{"properties":{"city":"San Angelo","geo_score":0.0,"id":"adugn9aagacj","geo_precision":"unmatched","state":"TX"},"type":"Feature","geometry":null},{"properties":{"city":"San Antonio","geo_score":0.0,"id":"adugn9mpbba3","geo_precision":"unmatched","state":"TX"},"type":"Feature","geometry":null},{"properties":{"city":"Sherman","geo_score":0.0,"id":"adugn9lco4xa","geo_precision":"unmatched","state":"TX"},"type":"Feature","geometry":null},{"properties":{"city":"Snyder","geo_score":0.0,"id":"adugn9kz6c0w","geo_precision":"unmatched","state":"TX"},"type":"Feature","geometry":null},{"properties":{"city":"Tyler","geo_score":0.0,"id":"adugn98h3umb","geo_precision":"unmatched","state":"TX"},"type":"Feature","geometry":null},{"properties":{"city":"Waco","geo_score":0.0,"id":"adugn97s3c6e","geo_precision":"unmatched","state":"TX"},"type":"Feature","geometry":null},{"properties":{"city":"Alexandria","geo_score":0.0,"id":"adugn9cpgbim","geo_precision":"unmatched","state":"VA"},"type":"Feature","geometry":null},{"properties":{"city":"Norfolk","geo_score":0.0,"id":"adugn9mxxi54","geo_precision":"unmatched","state":"VA"},"type":"Feature","geometry":null},{"properties":{"city":"Seaford","geo_score":0.0,"id":"adugn98e40qj","geo_precision":"unmatched","state":"VA"},"type":"Feature","geometry":null},{"properties":{"city":"Virginia Beach","geo_score":0.0,"id":"adugn9dxgw8q","geo_precision":"unmatched","state":"VA"},"type":"Feature","geometry":null},{"properties":{"city":"Bellevue","geo_score":0.0,"id":"adugn9drn6du","geo_precision":"unmatched","state":"WA"},"type":"Feature","geometry":null},{"properties":{"city":"Bremerton","geo_score":0.0,"id":"adugn9kyw7zz","geo_precision":"unmatched","state":"WA"},"type":"Feature","geometry":null},{"properties":{"city":"Moses Lake","geo_score":0.0,"id":"adugn9mkfqts","geo_precision":"unmatched","state":"WA"},"type":"Feature","geometry":null},{"properties":{"city":"Spokane","geo_score":0.0,"id":"adugn9li14il","geo_precision":"unmatched","state":"WA"},"type":"Feature","geometry":null},{"properties":{"city":"Madison","geo_score":0.0,"id":"adugn9m1ehlp","geo_precision":"unmatched","state":"WI"},"type":"Feature","geometry":null},{"properties":{"city":"Milwaukee","geo_score":0.0,"id":"adugn9duogpe","geo_precision":"unmatched","state":"WI"},"type":"Feature","geometry":null},{"properties":{"city":"Wrightstown","geo_score":0.0,"id":"adugn9e5gmki","geo_precision":"unmatched","state":"WI"},"type":"Feature","geometry":null},{"properties":{"city":"Cody","geo_score":0.0,"id":"adugn9klplbs","geo_precision":"unmatched","state":"WY"},"type":"Feature","geometry":null},{"properties":{"city":"Riverton","geo_score":0.0,"id":"adugn9i62qrw","geo_precision":"unmatched","state":"WY"},"type":"Feature","geometry":null}],"is_temporal":false,"author":{"url":"","metadata":null,"contact_name":null,"contact_address":null,"source":null,"contact_phone":null},"source":"","pagination":{"sort":null,"start":0,"total":132,"limit":1000000},"state":"complete","tags":"","published":"2014-08-16T13:40:43-04:00","id":350500}