{"type":"FeatureCollection","data_type":"Dataset","url_type":null,"permissions":[{"permissions":{"download":true,"view":true},"group_id":"everyone"}],"classification":null,"title":"Crime-City","count":91,"stream_id":350967,"contributor":{"url":"http://geocommons.com/users/70765","name":"riannucci"},"data_attributes":null,"calculation_params":null,"icon_link":null,"link":"http://geocommons.com/overlays/350967.json","extent":[-168.022,24.8598,-71.027,47.2537],"geometry_types":["point"],"unique_name":null,"name":"Crime-City","feature_count":91,"description":"","next_feature":null,"is_raster":false,"short_classification":"Y","stats":{"burglury":{"max":128732,"variance":406662166.695727,"mean":21427.4615384615,"stdev":20165.8663760258,"min":3081,"median":15469},"assault":{"max":88770,"variance":156630872.293529,"mean":8653.56043956044,"stdev":12515.2256189622,"min":850,"median":4805},"murder":{"max":1995,"variance":102346.551159951,"mean":193.78021978022,"stdev":319.916475286834,"min":16,"median":89},"total crimes":{"max":681008,"variance":12517289953.6217,"mean":108423.978021978,"stdev":111880.695178488,"min":16242,"median":74052},"robbery":{"max":91239,"variance":159591593.60464,"mean":6331.13186813187,"stdev":12632.9566454033,"min":302,"median":3175},"theft moter vehicles":{"max":133257,"variance":441054563.783639,"mean":14691.8351648352,"stdev":21001.2990975234,"min":1128,"median":7862},"larceny":{"max":255506,"variance":2337129895.93138,"mean":56354.043956044,"stdev":48343.8713378581,"min":10151,"median":43323}},"features":[{"properties":{"city":"Akron","burglury":5870,"geo_score":0.714,"full address":"Akron OH","total crimes":32620,"murder":30,"assault":2123,"rape":"321","robbery":1252,"id":"adv5u5gpnc5q","theft moter vehicles":3040,"geo_precision":"city","state":"OH","larceny":19984},"type":"Feature","geometry":{"type":"Point","coordinates":[-81.507831,41.012239]}},{"properties":{"city":"Albany-Schenectady-Troy","burglury":7849,"geo_score":0.0,"full address":"Albany-Schenectady-Troy NY","total crimes":35269,"murder":31,"assault":2512,"rape":"197","robbery":865,"id":"adv5u5fn4okl","theft moter vehicles":1491,"geo_precision":"unmatched","state":"NY","larceny":22324},"type":"Feature","geometry":null},{"properties":{"city":"Albuquerque","burglury":11050,"geo_score":0.714,"full address":"Albuquerque NM","total crimes":46460,"murder":54,"assault":5410,"rape":"364","robbery":1528,"id":"adv5u5iuio9l","theft moter vehicles":3327,"geo_precision":"city","state":"NM","larceny":24727},"type":"Feature","geometry":{"type":"Point","coordinates":[-106.651137,35.084491]}},{"properties":{"city":"Allentown-Bethlehem","burglury":4275,"geo_score":0.571,"full address":"Allentown-Bethlehem PA-NJ","total crimes":22131,"murder":25,"assault":850,"rape":"117","robbery":362,"id":"adv5u5f3isw7","theft moter vehicles":1702,"geo_precision":"city","state":"PA-NJ","larceny":14800},"type":"Feature","geometry":{"type":"Point","coordinates":[-85.4577,30.031592]}},{"properties":{"city":"Atlanta","burglury":50599,"geo_score":0.714,"full address":"Atlanta GA","total crimes":245970,"murder":394,"assault":15437,"rape":"1848","robbery":11478,"id":"adv5u5o85xzh","theft moter vehicles":27012,"geo_precision":"city","state":"GA","larceny":139202},"type":"Feature","geometry":{"type":"Point","coordinates":[-84.47405,33.844371]}},{"properties":{"city":"Austin","burglury":14767,"geo_score":0.714,"full address":"Austin TX","total crimes":71518,"murder":52,"assault":2419,"rape":"500","robbery":1631,"id":"adv5u5qyl3dh","theft moter vehicles":5569,"geo_precision":"city","state":"TX","larceny":46580},"type":"Feature","geometry":{"type":"Point","coordinates":[-97.771258,30.326374]}},{"properties":{"city":"Bakersfield","burglury":9468,"geo_score":0.714,"full address":"Bakersfield CA","total crimes":37517,"murder":50,"assault":4440,"rape":"215","robbery":1142,"id":"adv5u5km3n3n","theft moter vehicles":3012,"geo_precision":"city","state":"CA","larceny":19190},"type":"Feature","geometry":{"type":"Point","coordinates":[-119.007662,35.483501]}},{"properties":{"city":"Baltimore","burglury":33207,"geo_score":0.714,"full address":"Baltimore MD","total crimes":180519,"murder":408,"assault":15935,"rape":"1319","robbery":15579,"id":"adv5u5i91g55","theft moter vehicles":20556,"geo_precision":"city","state":"MD","larceny":93515},"type":"Feature","geometry":{"type":"Point","coordinates":[-75.844658,39.058168]}},{"properties":{"city":"Bergen-Passaic","burglury":9397,"geo_score":0.714,"full address":"Bergen-Passaic NJ","total crimes":54935,"murder":41,"assault":2694,"rape":"204","robbery":2118,"id":"adv5u5o4k8sm","theft moter vehicles":8864,"geo_precision":"city","state":"NJ","larceny":31617},"type":"Feature","geometry":{"type":"Point","coordinates":[-74.141254,40.647603]}},{"properties":{"city":"Birmingham","burglury":12432,"geo_score":0.714,"full address":"Birmingham AL","total crimes":56113,"murder":173,"assault":5954,"rape":"525","robbery":2459,"id":"adv5u5m22fgj","theft moter vehicles":5596,"geo_precision":"city","state":"AL","larceny":28974},"type":"Feature","geometry":{"type":"Point","coordinates":[-86.801904,33.456412]}},{"properties":{"city":"Boston","burglury":50703,"geo_score":0.714,"full address":"Boston MA","total crimes":243892,"murder":180,"assault":24048,"rape":"1734","robbery":9456,"id":"adv5u5ksnejd","theft moter vehicles":37985,"geo_precision":"city","state":"MA","larceny":119786},"type":"Feature","geometry":{"type":"Point","coordinates":[-71.026964,42.370567]}},{"properties":{"city":"Buffalo","burglury":12433,"geo_score":0.714,"full address":"Buffalo NY","total crimes":55452,"murder":58,"assault":4805,"rape":"382","robbery":3035,"id":"adv5u5jeccu9","theft moter vehicles":6463,"geo_precision":"city","state":"NY","larceny":28276},"type":"Feature","geometry":{"type":"Point","coordinates":[-78.832706,42.929303]}},{"properties":{"city":"Charleston","burglury":7006,"geo_score":0.0,"full address":"Charleston NC","total crimes":32862,"murder":46,"assault":3339,"rape":"317","robbery":1038,"id":"adv5u5r3qh3j","theft moter vehicles":2428,"geo_precision":"unmatched","state":"NC","larceny":18688},"type":"Feature","geometry":null},{"properties":{"city":"Charlotte","burglury":24228,"geo_score":0.714,"full address":"Charlotte NC","total crimes":92800,"murder":161,"assault":9808,"rape":"588","robbery":4047,"id":"adv5u5fi20xk","theft moter vehicles":4177,"geo_precision":"city","state":"NC","larceny":49791},"type":"Feature","geometry":{"type":"Point","coordinates":[-80.804151,35.26002]}},{"properties":{"city":"Chicago","burglury":85148,"geo_score":0.714,"full address":"Chicago IL","total crimes":497940,"murder":1101,"assault":49298,"rape":"NA","robbery":43545,"id":"adv5u5p592c3","theft moter vehicles":63620,"geo_precision":"city","state":"IL","larceny":255228},"type":"Feature","geometry":{"type":"Point","coordinates":[-87.68732,41.811929]}},{"properties":{"city":"Cincinnati","burglury":15667,"geo_score":0.714,"full address":"Cincinnati OH","total crimes":80160,"murder":70,"assault":5882,"rape":"914","robbery":3185,"id":"adv5u5e8cyot","theft moter vehicles":4402,"geo_precision":"city","state":"OH","larceny":50040},"type":"Feature","geometry":{"type":"Point","coordinates":[-84.53822,39.166759]}},{"properties":{"city":"Cleveland","burglury":19232,"geo_score":0.714,"full address":"Cleveland OH","total crimes":97078,"murder":203,"assault":4976,"rape":"1300","robbery":5882,"id":"adv5u5msh4e0","theft moter vehicles":17339,"geo_precision":"city","state":"OH","larceny":48146},"type":"Feature","geometry":{"type":"Point","coordinates":[-81.599648,41.523401]}},{"properties":{"city":"Columbus","burglury":20365,"geo_score":0.714,"full address":"Columbus OH","total crimes":87918,"murder":130,"assault":4119,"rape":"970","robbery":4291,"id":"adv5u5ly9wg5","theft moter vehicles":8723,"geo_precision":"city","state":"OH","larceny":49320},"type":"Feature","geometry":{"type":"Point","coordinates":[-84.15053,40.97793]}},{"properties":{"city":"Dallas","burglury":45273,"geo_score":0.714,"full address":"Dallas TX","total crimes":226951,"murder":470,"assault":16655,"rape":"1721","robbery":11351,"id":"adv5u5ezfrcy","theft moter vehicles":28385,"geo_precision":"city","state":"TX","larceny":123096},"type":"Feature","geometry":{"type":"Point","coordinates":[-96.240533,32.370699]}},{"properties":{"city":"Dayton-Springfield","burglury":9656,"geo_score":0.0,"full address":"Dayton-Springfield OH","total crimes":53091,"murder":83,"assault":3070,"rape":"629","robbery":2474,"id":"adv5u5iu4dh8","theft moter vehicles":5302,"geo_precision":"unmatched","state":"OH","larceny":31877},"type":"Feature","geometry":null},{"properties":{"city":"Denver","burglury":21511,"geo_score":0.714,"full address":"Denver CO","total crimes":112893,"murder":140,"assault":8629,"rape":"883","robbery":3175,"id":"adv5u5rsdcnd","theft moter vehicles":13547,"geo_precision":"city","state":"CO","larceny":65008},"type":"Feature","geometry":{"type":"Point","coordinates":[-104.856808,39.726303]}},{"properties":{"city":"Detroit","burglury":46184,"geo_score":0.714,"full address":"Detroit MI","total crimes":281176,"murder":714,"assault":23042,"rape":"2888","robbery":15869,"id":"adv5u5skyiu4","theft moter vehicles":45238,"geo_precision":"city","state":"MI","larceny":147241},"type":"Feature","geometry":{"type":"Point","coordinates":[-83.150823,42.239933]}},{"properties":{"city":"El Paso","burglury":8537,"geo_score":0.714,"full address":"El Paso TX","total crimes":51835,"murder":47,"assault":4213,"rape":"315","robbery":1653,"id":"adv5u5guwqqn","theft moter vehicles":5615,"geo_precision":"city","state":"TX","larceny":31455},"type":"Feature","geometry":{"type":"Point","coordinates":[-99.561747,32.342351]}},{"properties":{"city":"Fort Lauderdale-Hollywood","burglury":23722,"geo_score":0.714,"full address":"Fort Lauderdale-Hollywood FL","total crimes":111595,"murder":85,"assault":7630,"rape":"512","robbery":4585,"id":"adv5u5ioebq0","theft moter vehicles":11519,"geo_precision":"city","state":"FL","larceny":63542},"type":"Feature","geometry":{"type":"Point","coordinates":[-80.208381,26.166474]}},{"properties":{"city":"Fresno","burglury":15886,"geo_score":0.714,"full address":"Fresno CA","total crimes":68468,"murder":137,"assault":4132,"rape":"419","robbery":3747,"id":"adv5u5ixrucb","theft moter vehicles":16543,"geo_precision":"city","state":"CA","larceny":27604},"type":"Feature","geometry":{"type":"Point","coordinates":[-119.801015,36.8411]}},{"properties":{"city":"Ft. Worth-Arlington","burglury":26523,"geo_score":0.714,"full address":"Ft. Worth-Arlington TX","total crimes":127688,"murder":197,"assault":8917,"rape":"1016","robbery":4903,"id":"adv5u5icdypb","theft moter vehicles":16295,"geo_precision":"city","state":"TX","larceny":69837},"type":"Feature","geometry":{"type":"Point","coordinates":[-96.367821,32.955476]}},{"properties":{"city":"Gary-Hammond","burglury":6515,"geo_score":0.0,"full address":"Gary-Hammond IN","total crimes":36978,"murder":106,"assault":3830,"rape":"313","robbery":1430,"id":"adv5u5ro7pvt","theft moter vehicles":7807,"geo_precision":"unmatched","state":"IN","larceny":16977},"type":"Feature","geometry":null},{"properties":{"city":"Grand Rapids","burglury":10831,"geo_score":0.714,"full address":"Grand Rapids MI","total crimes":50853,"murder":36,"assault":3576,"rape":"913","robbery":1139,"id":"adv5u5pga7y3","theft moter vehicles":2675,"geo_precision":"city","state":"MI","larceny":31683},"type":"Feature","geometry":{"type":"Point","coordinates":[-85.306756,46.158336]}},{"properties":{"city":"Greensboro-WinstonSalem-High Pt.","burglury":18247,"geo_score":0.714,"full address":"Greensboro-WinstonSalem-High Pt. NC","total crimes":66206,"murder":110,"assault":4565,"rape":"447","robbery":2363,"id":"adv5u5s8irr0","theft moter vehicles":3056,"geo_precision":"city","state":"NC","larceny":37418},"type":"Feature","geometry":{"type":"Point","coordinates":[-80.043112,35.267643]}},{"properties":{"city":"Greenville-Spartanburg-Anderson","burglury":11191,"geo_score":0.714,"full address":"Greenville-Spartanburg-Anderson SC","total crimes":48551,"murder":68,"assault":6108,"rape":"432","robbery":1446,"id":"adv5u5e2fvxq","theft moter vehicles":2616,"geo_precision":"city","state":"SC","larceny":26690},"type":"Feature","geometry":{"type":"Point","coordinates":[-82.402871,34.848567]}},{"properties":{"city":"Harrisburg-Lebanon-Carlisle","burglury":3906,"geo_score":0.714,"full address":"Harrisburg-Lebanon-Carlisle PA","total crimes":21716,"murder":24,"assault":1448,"rape":"161","robbery":798,"id":"adv5u5gw6y67","theft moter vehicles":1558,"geo_precision":"city","state":"PA","larceny":13821},"type":"Feature","geometry":{"type":"Point","coordinates":[-76.869644,40.264589]}},{"properties":{"city":"Hartford","burglury":11665,"geo_score":0.714,"full address":"Hartford CT","total crimes":56426,"murder":23,"assault":2820,"rape":"311","robbery":2230,"id":"adv5u5rfwgop","theft moter vehicles":7862,"geo_precision":"city","state":"CT","larceny":31515},"type":"Feature","geometry":{"type":"Point","coordinates":[-72.677099,41.78007]}},{"properties":{"city":"Honolulu","burglury":9106,"geo_score":0.714,"full address":"Honolulu HI","total crimes":53558,"murder":31,"assault":1012,"rape":"326","robbery":1013,"id":"adv5u5rtgrtm","theft moter vehicles":3507,"geo_precision":"city","state":"HI","larceny":38563},"type":"Feature","geometry":{"type":"Point","coordinates":[-168.021815,24.859832]}},{"properties":{"city":"Houston","burglury":51123,"geo_score":0.714,"full address":"Houston TX","total crimes":239951,"murder":607,"assault":18558,"rape":"1991","robbery":13796,"id":"adv5u5lbya9s","theft moter vehicles":45957,"geo_precision":"city","state":"TX","larceny":107919},"type":"Feature","geometry":{"type":"Point","coordinates":[-96.919704,29.845783]}},{"properties":{"city":"Indianapolis","burglury":17724,"geo_score":0.714,"full address":"Indianapolis IN","total crimes":84458,"murder":120,"assault":5826,"rape":"914","robbery":3060,"id":"adv5u5qkw789","theft moter vehicles":8984,"geo_precision":"city","state":"IN","larceny":47830},"type":"Feature","geometry":{"type":"Point","coordinates":[-86.13216,39.775092]}},{"properties":{"city":"Jacksonville","burglury":19529,"geo_score":0.0,"full address":"Jacksonville FL","total crimes":86686,"murder":142,"assault":8667,"rape":"840","robbery":3970,"id":"adv5u5s5s28f","theft moter vehicles":9753,"geo_precision":"unmatched","state":"FL","larceny":43785},"type":"Feature","geometry":null},{"properties":{"city":"Jersey City","burglury":8882,"geo_score":0.714,"full address":"Jersey City NJ","total crimes":40582,"murder":43,"assault":3022,"rape":"132","robbery":3414,"id":"adv5u5k73i52","theft moter vehicles":9739,"geo_precision":"city","state":"NJ","larceny":15350},"type":"Feature","geometry":{"type":"Point","coordinates":[-74.075485,40.73276]}},{"properties":{"city":"Kansas City","burglury":26218,"geo_score":0.571,"full address":"Kansas City MO-KS","total crimes":113209,"murder":229,"assault":11345,"rape":"994","robbery":6026,"id":"adv5u5ieafef","theft moter vehicles":12946,"geo_precision":"city","state":"MO-KS","larceny":55451},"type":"Feature","geometry":{"type":"Point","coordinates":[-84.93687,31.593502]}},{"properties":{"city":"Knoxville","burglury":8651,"geo_score":0.0,"full address":"Knoxville TN","total crimes":30526,"murder":59,"assault":2586,"rape":"217","robbery":830,"id":"adv5u5hxm1az","theft moter vehicles":3185,"geo_precision":"unmatched","state":"TN","larceny":14998},"type":"Feature","geometry":null},{"properties":{"city":"Las Vegas","burglury":13716,"geo_score":0.714,"full address":"Las Vegas NV","total crimes":63182,"murder":129,"assault":2537,"rape":"561","robbery":3831,"id":"adv5u5po1frz","theft moter vehicles":8405,"geo_precision":"city","state":"NV","larceny":34003},"type":"Feature","geometry":{"type":"Point","coordinates":[-115.10647,36.17372]}},{"properties":{"city":"Little Rock-N.Little Rock","burglury":9091,"geo_score":0.714,"full address":"Little Rock-N.Little Rock AR","total crimes":45473,"murder":80,"assault":5027,"rape":"404","robbery":1680,"id":"adv5u5mxf8t6","theft moter vehicles":3937,"geo_precision":"city","state":"AR","larceny":25254},"type":"Feature","geometry":{"type":"Point","coordinates":[-91.793741,33.464557]}},{"properties":{"city":"Los Angeles-Long Beach","burglury":128732,"geo_score":0.714,"full address":"Los Angeles-Long Beach CA","total crimes":681008,"murder":1919,"assault":88770,"rape":"3865","robbery":68959,"id":"adv5u5hny8rx","theft moter vehicles":133257,"geo_precision":"city","state":"CA","larceny":255506},"type":"Feature","geometry":{"type":"Point","coordinates":[-120.618608,38.052816]}},{"properties":{"city":"Louisville","burglury":9660,"geo_score":0.714,"full address":"Louisville KY","total crimes":45715,"murder":65,"assault":4280,"rape":"299","robbery":1798,"id":"adv5u5njf247","theft moter vehicles":4335,"geo_precision":"city","state":"KY","larceny":25278},"type":"Feature","geometry":{"type":"Point","coordinates":[-85.676819,38.188962]}},{"properties":{"city":"Memphis","burglury":19775,"geo_score":0.714,"full address":"Memphis TN","total crimes":74052,"murder":201,"assault":4365,"rape":"858","robbery":5591,"id":"adv5u5hytyef","theft moter vehicles":14154,"geo_precision":"city","state":"TN","larceny":29108},"type":"Feature","geometry":{"type":"Point","coordinates":[-89.990415,35.169255]}},{"properties":{"city":"Miami-Miami Bch","burglury":47429,"geo_score":0.0,"full address":"Miami-Miami Bch FL","total crimes":249125,"murder":344,"assault":21471,"rape":"1095","robbery":18225,"id":"adv5u5qqzhhn","theft moter vehicles":35913,"geo_precision":"unmatched","state":"FL","larceny":124648},"type":"Feature","geometry":null},{"properties":{"city":"Middlesex-Somerset-Hunterdon","burglury":7172,"geo_score":0.0,"full address":"Middlesex-Somerset-Hunterdon NJ","total crimes":40904,"murder":20,"assault":1552,"rape":"168","robbery":932,"id":"adv5u5moh386","theft moter vehicles":4671,"geo_precision":"unmatched","state":"NJ","larceny":26389},"type":"Feature","geometry":null},{"properties":{"city":"Milwaukee-Waukesha","burglury":12687,"geo_score":0.0,"full address":"Milwaukee-Waukesha WI","total crimes":84602,"murder":159,"assault":1982,"rape":"623","robbery":4753,"id":"adv5u5k887ss","theft moter vehicles":16097,"geo_precision":"unmatched","state":"WI","larceny":48301},"type":"Feature","geometry":null},{"properties":{"city":"Minneapolis-St.Paul","burglury":27348,"geo_score":0.714,"full address":"Minneapolis-St.Paul MN","total crimes":145295,"murder":113,"assault":6237,"rape":"1391","robbery":4691,"id":"adv5u5tzpkmx","theft moter vehicles":12505,"geo_precision":"city","state":"MN","larceny":93010},"type":"Feature","geometry":{"type":"Point","coordinates":[-93.273024,44.979265]}},{"properties":{"city":"Monmouth-Ocean","burglury":7853,"geo_score":0.0,"full address":"Monmouth-Ocean NJ","total crimes":39574,"murder":30,"assault":1789,"rape":"213","robbery":735,"id":"adv5u5r6j1co","theft moter vehicles":1926,"geo_precision":"unmatched","state":"NJ","larceny":27028},"type":"Feature","geometry":null},{"properties":{"city":"Nashville","burglury":14792,"geo_score":0.714,"full address":"Nashville TN","total crimes":69771,"murder":114,"assault":6794,"rape":"753","robbery":2903,"id":"adv5u5ilijp2","theft moter vehicles":6110,"geo_precision":"city","state":"TN","larceny":38305},"type":"Feature","geometry":{"type":"Point","coordinates":[-86.778098,36.165688]}},{"properties":{"city":"Nassau-Suffolk","burglury":21580,"geo_score":0.0,"full address":"Nassau-Suffolk NY","total crimes":110009,"murder":89,"assault":3781,"rape":"268","robbery":3594,"id":"adv5u5nt9ypp","theft moter vehicles":17763,"geo_precision":"unmatched","state":"NY","larceny":62934},"type":"Feature","geometry":null},{"properties":{"city":"New Haven-Meriden","burglury":7349,"geo_score":0.0,"full address":"New Haven-Meriden CT","total crimes":35655,"murder":39,"assault":2273,"rape":"202","robbery":1546,"id":"adv5u5r2glf1","theft moter vehicles":4627,"geo_precision":"unmatched","state":"CT","larceny":19619},"type":"Feature","geometry":null},{"properties":{"city":"New Orleans","burglury":21912,"geo_score":0.714,"full address":"New Orleans LA","total crimes":107148,"murder":356,"assault":8560,"rape":"629","robbery":7153,"id":"adv5u5m0nylo","theft moter vehicles":15052,"geo_precision":"city","state":"LA","larceny":53486},"type":"Feature","geometry":{"type":"Point","coordinates":[-89.930956,30.068812]}},{"properties":{"city":"New York","burglury":103476,"geo_score":0.714,"full address":"New York NY","total crimes":626182,"murder":1995,"assault":63529,"rape":"2815","robbery":91239,"id":"adv5u5kgjqsx","theft moter vehicles":126959,"geo_precision":"city","state":"NY","larceny":236169},"type":"Feature","geometry":{"type":"Point","coordinates":[-74.005973,40.714269]}},{"properties":{"city":"Newark","burglury":21235,"geo_score":0.714,"full address":"Newark NJ","total crimes":121304,"murder":168,"assault":7771,"rape":"677","robbery":10221,"id":"adv5u5hgfch6","theft moter vehicles":31113,"geo_precision":"city","state":"NJ","larceny":50119},"type":"Feature","geometry":{"type":"Point","coordinates":[-74.22509,40.736101]}},{"properties":{"city":"Norfolk-Va.Beach-Newport News","burglury":15469,"geo_score":0.714,"full address":"Norfolk-Va.Beach-Newport News VA","total crimes":91776,"murder":212,"assault":4462,"rape":"781","robbery":4033,"id":"adv5u5fzp7ih","theft moter vehicles":7331,"geo_precision":"city","state":"VA","larceny":59488},"type":"Feature","geometry":{"type":"Point","coordinates":[-76.208521,36.895911]}},{"properties":{"city":"Oakland","burglury":30256,"geo_score":0.714,"full address":"Oakland CA","total crimes":159084,"murder":300,"assault":12948,"rape":"980","robbery":9782,"id":"adv5u5ll8c1r","theft moter vehicles":18646,"geo_precision":"city","state":"CA","larceny":86172},"type":"Feature","geometry":{"type":"Point","coordinates":[-122.223779,37.786027]}},{"properties":{"city":"Oklahoma City","burglury":17327,"geo_score":0.714,"full address":"Oklahoma City OK","total crimes":76750,"murder":80,"assault":5225,"rape":"650","robbery":2223,"id":"adv5u5ohonma","theft moter vehicles":7922,"geo_precision":"city","state":"OK","larceny":43323},"type":"Feature","geometry":{"type":"Point","coordinates":[-97.562817,35.491608]}},{"properties":{"city":"Omaha","burglury":4861,"geo_score":0.571,"full address":"Omaha NB-IA","total crimes":28996,"murder":36,"assault":2482,"rape":"231","robbery":663,"id":"adv5u5kkwiiw","theft moter vehicles":1947,"geo_precision":"city","state":"NB-IA","larceny":18776},"type":"Feature","geometry":{"type":"Point","coordinates":[-88.240226,37.845963]}},{"properties":{"city":"Orange County","burglury":30185,"geo_score":0.714,"full address":"Orange County CA","total crimes":140736,"murder":173,"assault":6976,"rape":"631","robbery":5775,"id":"adv5u5oyqei5","theft moter vehicles":21124,"geo_precision":"city","state":"CA","larceny":75872},"type":"Feature","geometry":{"type":"Point","coordinates":[-122.214722,38.850382]}},{"properties":{"city":"Orlando","burglury":24149,"geo_score":0.714,"full address":"Orlando FL","total crimes":98565,"murder":66,"assault":9837,"rape":"678","robbery":3222,"id":"adv5u5t3aw0d","theft moter vehicles":8104,"geo_precision":"city","state":"FL","larceny":52509},"type":"Feature","geometry":{"type":"Point","coordinates":[-81.373291,28.545179]}},{"properties":{"city":"Philadelphia","burglury":38995,"geo_score":0.714,"full address":"Philadelphia PA","total crimes":220860,"murder":546,"assault":14862,"rape":"1671","robbery":16387,"id":"adv5u5o5jlib","theft moter vehicles":37763,"geo_precision":"city","state":"PA","larceny":110636},"type":"Feature","geometry":{"type":"Point","coordinates":[-75.11787,40.001811]}},{"properties":{"city":"Phoenix-Mesa","burglury":37087,"geo_score":0.0,"full address":"Phoenix-Mesa AZ","total crimes":174701,"murder":207,"assault":12036,"rape":"976","robbery":4332,"id":"adv5u5o4yjmd","theft moter vehicles":23453,"geo_precision":"unmatched","state":"AZ","larceny":96610},"type":"Feature","geometry":null},{"properties":{"city":"Pittsburgh","burglury":14871,"geo_score":0.714,"full address":"Pittsburgh PA","total crimes":79657,"murder":104,"assault":4782,"rape":"710","robbery":4348,"id":"adv5u5i34bm2","theft moter vehicles":15449,"geo_precision":"city","state":"PA","larceny":39393},"type":"Feature","geometry":{"type":"Point","coordinates":[-80.024817,40.434436]}},{"properties":{"city":"Portland-Vancouver","burglury":19229,"geo_score":0.571,"full address":"Portland-Vancouver OR-WA","total crimes":101926,"murder":74,"assault":6961,"rape":"982","robbery":3621,"id":"adv5u5nc262h","theft moter vehicles":12393,"geo_precision":"city","state":"OR-WA","larceny":58666},"type":"Feature","geometry":{"type":"Point","coordinates":[-85.036335,34.057321]}},{"properties":{"city":"Providence-Fall River-Warwick","burglury":10131,"geo_score":0.571,"full address":"Providence-Fall River-Warwick RI-MA","total crimes":44222,"murder":36,"assault":2563,"rape":"306","robbery":940,"id":"adv5u5t5wnxk","theft moter vehicles":7584,"geo_precision":"city","state":"RI-MA","larceny":22662},"type":"Feature","geometry":{"type":"Point","coordinates":[-86.812223,34.272597]}},{"properties":{"city":"Raleigh-Durham-Chapel Hill","burglury":16806,"geo_score":0.0,"full address":"Raleigh-Durham-Chapel Hill NC","total crimes":58068,"murder":80,"assault":3485,"rape":"394","robbery":2192,"id":"adv5u5fqwq1h","theft moter vehicles":2974,"geo_precision":"unmatched","state":"NC","larceny":32137},"type":"Feature","geometry":null},{"properties":{"city":"Richmond-Petersburg","burglury":10004,"geo_score":0.714,"full address":"Richmond-Petersburg VA","total crimes":51689,"murder":149,"assault":2339,"rape":"379","robbery":2206,"id":"adv5u5er7hzt","theft moter vehicles":3861,"geo_precision":"city","state":"VA","larceny":32751},"type":"Feature","geometry":{"type":"Point","coordinates":[-76.83774,37.914858]}},{"properties":{"city":"Riverside-San Bernadino","burglury":52286,"geo_score":0.714,"full address":"Riverside-San Bernadino CA","total crimes":199140,"murder":359,"assault":19785,"rape":"1245","robbery":8921,"id":"adv5u5ela2b1","theft moter vehicles":28855,"geo_precision":"city","state":"CA","larceny":87689},"type":"Feature","geometry":{"type":"Point","coordinates":[-122.143298,37.173834]}},{"properties":{"city":"Rochester","burglury":11304,"geo_score":0.714,"full address":"Rochester NY","total crimes":54822,"murder":61,"assault":1519,"rape":"292","robbery":1814,"id":"adv5u5spkcbs","theft moter vehicles":4133,"geo_precision":"city","state":"NY","larceny":35699},"type":"Feature","geometry":{"type":"Point","coordinates":[-77.684264,43.286024]}},{"properties":{"city":"Sacramento","burglury":21380,"geo_score":0.714,"full address":"Sacramento CA","total crimes":96674,"murder":101,"assault":6105,"rape":"629","robbery":4088,"id":"adv5u5ebzusd","theft moter vehicles":16610,"geo_precision":"city","state":"CA","larceny":47761},"type":"Feature","geometry":{"type":"Point","coordinates":[-121.555406,38.380456]}},{"properties":{"city":"Salt Lake City-Ogden","burglury":11834,"geo_score":0.714,"full address":"Salt Lake City-Ogden UT","total crimes":75309,"murder":40,"assault":2691,"rape":"616","robbery":913,"id":"adv5u5oyfn0u","theft moter vehicles":3334,"geo_precision":"city","state":"UT","larceny":55881},"type":"Feature","geometry":{"type":"Point","coordinates":[-111.900719,40.756095]}},{"properties":{"city":"San Antonio","burglury":27033,"geo_score":0.714,"full address":"San Antonio TX","total crimes":130646,"murder":254,"assault":4229,"rape":"732","robbery":3779,"id":"adv5u5qtu22e","theft moter vehicles":16471,"geo_precision":"city","state":"TX","larceny":78148},"type":"Feature","geometry":{"type":"Point","coordinates":[-102.192713,33.770506]}},{"properties":{"city":"San Diego","burglury":34389,"geo_score":0.714,"full address":"San Diego CA","total crimes":171143,"murder":245,"assault":15444,"rape":"957","robbery":8554,"id":"adv5u5t27k8o","theft moter vehicles":34007,"geo_precision":"city","state":"CA","larceny":77547},"type":"Feature","geometry":{"type":"Point","coordinates":[-117.174366,32.7211]}},{"properties":{"city":"San Francisco","burglury":18413,"geo_score":0.714,"full address":"San Francisco CA","total crimes":117195,"murder":183,"assault":7626,"rape":"636","robbery":9616,"id":"adv5u5o1r4kz","theft moter vehicles":17159,"geo_precision":"city","state":"CA","larceny":63562},"type":"Feature","geometry":{"type":"Point","coordinates":[-118.298662,33.786594]}},{"properties":{"city":"San Jose","burglury":12513,"geo_score":0.714,"full address":"San Jose CA","total crimes":73944,"murder":68,"assault":5391,"rape":"659","robbery":1918,"id":"adv5u5rj87j4","theft moter vehicles":6159,"geo_precision":"city","state":"CA","larceny":47236},"type":"Feature","geometry":{"type":"Point","coordinates":[-121.705327,37.189396]}},{"properties":{"city":"Sarasota-Bradenton","burglury":10161,"geo_score":0.0,"full address":"Sarasota-Bradenton FL","total crimes":38168,"murder":29,"assault":3248,"rape":"214","robbery":995,"id":"adv5u5tq7o2x","theft moter vehicles":2286,"geo_precision":"unmatched","state":"FL","larceny":21235},"type":"Feature","geometry":null},{"properties":{"city":"Scranton-WilkesBarre-Hazleton","burglury":3081,"geo_score":0.714,"full address":"Scranton-WilkesBarre-Hazleton PA","total crimes":16242,"murder":16,"assault":1346,"rape":"145","robbery":302,"id":"adv5u5tynsxz","theft moter vehicles":1201,"geo_precision":"city","state":"PA","larceny":10151},"type":"Feature","geometry":{"type":"Point","coordinates":[-75.637626,41.401881]}},{"properties":{"city":"Seattle-Bellevue-Everett","burglury":22547,"geo_score":0.0,"full address":"Seattle-Bellevue-Everett WA","total crimes":139386,"murder":100,"assault":6529,"rape":"1322","robbery":3867,"id":"adv5u5payd8t","theft moter vehicles":13756,"geo_precision":"unmatched","state":"WA","larceny":91265},"type":"Feature","geometry":null},{"properties":{"city":"Springfield","burglury":7539,"geo_score":0.714,"full address":"Springfield MA","total crimes":35015,"murder":24,"assault":5154,"rape":"286","robbery":1187,"id":"adv5u5q625m5","theft moter vehicles":5816,"geo_precision":"city","state":"MA","larceny":15009},"type":"Feature","geometry":{"type":"Point","coordinates":[-72.604842,42.170731]}},{"properties":{"city":"St. Louis","burglury":30362,"geo_score":0.0,"full address":"St. Louis MO","total crimes":150190,"murder":400,"assault":13674,"rape":"4404","robbery":7029,"id":"adv5u5heg0t8","theft moter vehicles":15372,"geo_precision":"unmatched","state":"MO","larceny":78949},"type":"Feature","geometry":null},{"properties":{"city":"Syracuse","burglury":6319,"geo_score":0.714,"full address":"Syracuse NY","total crimes":29037,"murder":21,"assault":1273,"rape":"194","robbery":811,"id":"adv5u5kk6dmc","theft moter vehicles":1128,"geo_precision":"city","state":"NY","larceny":19291},"type":"Feature","geometry":{"type":"Point","coordinates":[-76.197701,43.02143]}},{"properties":{"city":"Tacoma","burglury":7782,"geo_score":0.714,"full address":"Tacoma WA","total crimes":41846,"murder":56,"assault":3456,"rape":"659","robbery":1551,"id":"adv5u5mmxc57","theft moter vehicles":3250,"geo_precision":"city","state":"WA","larceny":25092},"type":"Feature","geometry":{"type":"Point","coordinates":[-122.444335,47.253671]}},{"properties":{"city":"Tampa-St.Petersburg-Clearwater","burglury":37882,"geo_score":0.0,"full address":"Tampa-St.Petersburg-Clearwater FL","total crimes":171193,"murder":157,"assault":19157,"rape":"1207","robbery":6825,"id":"adv5u5jngsny","theft moter vehicles":17060,"geo_precision":"unmatched","state":"FL","larceny":88905},"type":"Feature","geometry":null},{"properties":{"city":"Toledo","burglury":7879,"geo_score":0.714,"full address":"Toledo OH","total crimes":40178,"murder":48,"assault":1560,"rape":"438","robbery":1656,"id":"adv5u5ju2it9","theft moter vehicles":4722,"geo_precision":"city","state":"OH","larceny":23875},"type":"Feature","geometry":{"type":"Point","coordinates":[-84.124257,41.58568]}},{"properties":{"city":"Tucson","burglury":9474,"geo_score":0.714,"full address":"Tucson AZ","total crimes":58780,"murder":60,"assault":3535,"rape":"481","robbery":1171,"id":"adv5u5o7g00g","theft moter vehicles":5730,"geo_precision":"city","state":"AZ","larceny":38329},"type":"Feature","geometry":{"type":"Point","coordinates":[-110.970869,32.217975]}},{"properties":{"city":"Tulsa","burglury":11283,"geo_score":0.714,"full address":"Tulsa OK","total crimes":42494,"murder":43,"assault":3943,"rape":"454","robbery":1474,"id":"adv5u5u28emo","theft moter vehicles":5855,"geo_precision":"city","state":"OK","larceny":19442},"type":"Feature","geometry":{"type":"Point","coordinates":[-95.868667,36.039147]}},{"properties":{"city":"Ventura","burglury":7125,"geo_score":0.714,"full address":"Ventura CA","total crimes":29844,"murder":29,"assault":2469,"rape":"189","robbery":1112,"id":"adv5u5o04s0m","theft moter vehicles":2781,"geo_precision":"city","state":"CA","larceny":16139},"type":"Feature","geometry":{"type":"Point","coordinates":[-119.358352,34.330829]}},{"properties":{"city":"W.Palm Beach","burglury":19000,"geo_score":0.714,"full address":"W.Palm Beach FL","total crimes":81695,"murder":69,"assault":6673,"rape":"406","robbery":3375,"id":"adv5u5eecz6h","theft moter vehicles":7051,"geo_precision":"city","state":"FL","larceny":45121},"type":"Feature","geometry":{"type":"Point","coordinates":[-80.138655,26.823395]}},{"properties":{"city":"Washington","burglury":36059,"geo_score":0.571,"full address":"Washington DC-MD-VA","total crimes":239962,"murder":677,"assault":17243,"rape":"1321","robbery":14133,"id":"adv5u5e3f0rr","theft moter vehicles":28992,"geo_precision":"city","state":"DC-MD-VA","larceny":141537},"type":"Feature","geometry":{"type":"Point","coordinates":[-81.831511,38.035657]}},{"properties":{"city":"Wilmington","burglury":6501,"geo_score":0.571,"full address":"Wilmington DE-NJ-MD","total crimes":33099,"murder":32,"assault":2048,"rape":"402","robbery":1302,"id":"adv5u5m1rqgq","theft moter vehicles":2459,"geo_precision":"city","state":"DE-NJ-MD","larceny":20355},"type":"Feature","geometry":{"type":"Point","coordinates":[-80.973723,32.003548]}}],"is_temporal":false,"author":{"url":"","metadata":"","contact_name":"","contact_address":"","source":"","contact_phone":""},"source":"","pagination":{"sort":null,"start":0,"total":91,"limit":1000000},"state":"complete","tags":"","published":"2014-08-16T14:53:40-04:00","id":350967}