{"type":"FeatureCollection","data_type":"Dataset","url_type":null,"permissions":[{"permissions":{"download":true,"view":true},"group_id":"everyone"}],"classification":null,"title":"Median_Income","count":52,"stream_id":351814,"contributor":{"url":"http://geocommons.com/users/70964","name":"dtimm18"},"data_attributes":null,"calculation_params":null,"icon_link":null,"link":"http://geocommons.com/overlays/351814.json","extent":[0.0,0.0,0.0,0.0],"geometry_types":null,"unique_name":null,"name":"Median_Income","feature_count":52,"description":"","next_feature":null,"is_raster":false,"short_classification":"Y","features":[{"properties":{"id":"adxopk2vsz6y","median income":"50054","state":"United States"},"type":"Feature","geometry":null},{"properties":{"id":"adxopkf1uq85","median income":"42590","state":"Alabama"},"type":"Feature","geometry":null},{"properties":{"id":"adxopke6lsx5","median income":"57431","state":"Alaska"},"type":"Feature","geometry":null},{"properties":{"id":"adxopkek8l3c","median income":"48621","state":"Arizona"},"type":"Feature","geometry":null},{"properties":{"id":"adxopk0oenaj","median income":"41302","state":"Arkansas"},"type":"Feature","geometry":null},{"properties":{"id":"adxopkbi9uzi","median income":"53367","state":"California"},"type":"Feature","geometry":null},{"properties":{"id":"adxopkeqsao3","median income":"58629","state":"Colorado"},"type":"Feature","geometry":null},{"properties":{"id":"adxopk3gv0fs","median income":"65415","state":"Connecticut"},"type":"Feature","geometry":null},{"properties":{"id":"adxopk4hzm5z","median income":"54660","state":"Delaware"},"type":"Feature","geometry":null},{"properties":{"id":"adxopkggq6vy","median income":"55251","state":"District of Columbia"},"type":"Feature","geometry":null},{"properties":{"id":"adxopkcit6o2","median income":"45105","state":"Florida"},"type":"Feature","geometry":null},{"properties":{"id":"adxopka1orv3","median income":"45973","state":"Georgia"},"type":"Feature","geometry":null},{"properties":{"id":"adxopkckdlzx","median income":"59047","state":"Hawaii"},"type":"Feature","geometry":null},{"properties":{"id":"adxopk5v6xna","median income":"47459","state":"Idaho"},"type":"Feature","geometry":null},{"properties":{"id":"adxopkcqtig2","median income":"50637","state":"Illinois"},"type":"Feature","geometry":null},{"properties":{"id":"adxopk7pg5cx","median income":"44445","state":"Indiana"},"type":"Feature","geometry":null},{"properties":{"id":"adxopkcji7gy","median income":"50219","state":"Iowa"},"type":"Feature","geometry":null},{"properties":{"id":"adxopkdjqxcy","median income":"46147","state":"Kansas"},"type":"Feature","geometry":null},{"properties":{"id":"adxopkfrdntm","median income":"39856","state":"Kentucky"},"type":"Feature","geometry":null},{"properties":{"id":"adxopkevqh4q","median income":"40658","state":"Louisiana"},"type":"Feature","geometry":null},{"properties":{"id":"adxopkck7he1","median income":"49693","state":"Maine"},"type":"Feature","geometry":null},{"properties":{"id":"adxopk2u2ejl","median income":"68876","state":"Maryland"},"type":"Feature","geometry":null},{"properties":{"id":"adxopk2chpyx","median income":"63313","state":"Massachusetts"},"type":"Feature","geometry":null},{"properties":{"id":"adxopka628sv","median income":"48879","state":"Michigan"},"type":"Feature","geometry":null},{"properties":{"id":"adxopk7hpu0n","median income":"57820","state":"Minnesota"},"type":"Feature","geometry":null},{"properties":{"id":"adxopk86yyrl","median income":"41090","state":"Mississippi"},"type":"Feature","geometry":null},{"properties":{"id":"adxopk3vnfft","median income":"45774","state":"Missouri"},"type":"Feature","geometry":null},{"properties":{"id":"adxopk5gguba","median income":"40277","state":"Montana"},"type":"Feature","geometry":null},{"properties":{"id":"adxopk7tirzx","median income":"55616","state":"Nebraska"},"type":"Feature","geometry":null},{"properties":{"id":"adxopk0zflsn","median income":"47043","state":"Nevada"},"type":"Feature","geometry":null},{"properties":{"id":"adxopkbezsvl","median income":"65880","state":"New Hampshire"},"type":"Feature","geometry":null},{"properties":{"id":"adxopkb9j48p","median income":"62338","state":"New Jersey"},"type":"Feature","geometry":null},{"properties":{"id":"adxopk1fay6q","median income":"41982","state":"New Mexico"},"type":"Feature","geometry":null},{"properties":{"id":"adxopke4194v","median income":"50636","state":"New York"},"type":"Feature","geometry":null},{"properties":{"id":"adxopkb4vahn","median income":"45206","state":"North Carolina"},"type":"Feature","geometry":null},{"properties":{"id":"adxopk74f8kx","median income":"56361","state":"North Dakota"},"type":"Feature","geometry":null},{"properties":{"id":"adxopkb8axkf","median income":"44648","state":"Ohio"},"type":"Feature","geometry":null},{"properties":{"id":"adxopk6sn369","median income":"48455","state":"Oklahoma"},"type":"Feature","geometry":null},{"properties":{"id":"adxopk56y4ls","median income":"51526","state":"Oregon"},"type":"Feature","geometry":null},{"properties":{"id":"adxopk0x3cgi","median income":"49910","state":"Pennsylvania"},"type":"Feature","geometry":null},{"properties":{"id":"adxopkd5zw2r","median income":"49033","state":"Rhode Island"},"type":"Feature","geometry":null},{"properties":{"id":"adxopk9ph6eo","median income":"40084","state":"South Carolina"},"type":"Feature","geometry":null},{"properties":{"id":"adxopk7i3web","median income":"47223","state":"South Dakota"},"type":"Feature","geometry":null},{"properties":{"id":"adxopk1qcrbt","median income":"42279","state":"Tennessee"},"type":"Feature","geometry":null},{"properties":{"id":"adxopkdy9j2i","median income":"49047","state":"Texas"},"type":"Feature","geometry":null},{"properties":{"id":"adxopkfk3mnz","median income":"55493","state":"Utah"},"type":"Feature","geometry":null},{"properties":{"id":"adxopkdhe1h2","median income":"51862","state":"Vermont"},"type":"Feature","geometry":null},{"properties":{"id":"adxopk1em7bh","median income":"62616","state":"Virginia"},"type":"Feature","geometry":null},{"properties":{"id":"adxopkfp4hy1","median income":"56850","state":"Washington"},"type":"Feature","geometry":null},{"properties":{"id":"adxopk7smqlm","median income":"41821","state":"West Virginia"},"type":"Feature","geometry":null},{"properties":{"id":"adxopk86ez4n","median income":"52058","state":"Wisconsin"},"type":"Feature","geometry":null},{"properties":{"id":"adxopkf4qdbi","median income":"54509","state":"Wyoming"},"type":"Feature","geometry":null}],"is_temporal":false,"author":{"url":"","metadata":null,"contact_name":null,"contact_address":null,"source":null,"contact_phone":null},"source":"","pagination":{"sort":null,"start":0,"total":52,"limit":1000000},"state":"parsed","tags":"","published":"2014-08-16T16:35:44-04:00","id":351814}