{"type":"FeatureCollection","data_type":"Dataset","url_type":null,"permissions":[{"permissions":{"download":true,"view":true},"group_id":"everyone"}],"classification":null,"title":"Therapy_Centers","count":3,"stream_id":352357,"contributor":{"url":"http://geocommons.com/users/70931","name":"spanishkey"},"data_attributes":null,"calculation_params":null,"icon_link":null,"link":"http://geocommons.com/overlays/352357.json","extent":[-117.155,32.8003,-87.6428,41.8879],"geometry_types":["point"],"unique_name":null,"name":"Therapy_Centers","feature_count":3,"description":"","next_feature":null,"is_raster":false,"short_classification":"Y","stats":{},"features":[{"properties":{"city":"San Diego","country":"USA","geo_score":0.857,"therapy center":"The Eczema Center at Rady Children's Hospital","description":"<a href=\"http://eczemacenter.org/contactus.htm\">The Eczema Center</a>","id":"adyoelq3ajg4","address":"8010 Frost Street, Suite 600","geo_precision":"street","state":"CA"},"type":"Feature","geometry":{"type":"Point","coordinates":[-117.155346,32.800257]}},{"properties":{"city":"Denver","country":"USA","geo_score":0.488,"therapy center":"National Jewish Health","description":"<a href=\"http://www.nationaljewish.org/programs/pediatric/atopic-dermatitis/\">Atopic Dermatitis Program</a>","id":"adyoelq69jxl","address":"1400 Jackson St","geo_precision":"city","state":"CO"},"type":"Feature","geometry":{"type":"Point","coordinates":[-104.856808,39.726303]}},{"properties":{"city":"Chicago","country":"USA","geo_score":0.457,"therapy center":"Chicago Integrative Eczema Center","description":"<a href=\"http://chicagoeczema.com/\">Chicago Integrative Eczema Center</a>","id":"adyoelhvof5n","address":"1455 N. Milwaukee Ave, 2nd Floor","geo_precision":"street","state":"IL"},"type":"Feature","geometry":{"type":"Point","coordinates":[-87.642833,41.887913]}}],"is_temporal":false,"author":{"url":"","metadata":null,"contact_name":null,"contact_address":null,"source":null,"contact_phone":null},"source":"","pagination":{"sort":null,"start":0,"total":3,"limit":1000000},"state":"complete","tags":"","published":"2014-08-16T17:08:44-04:00","id":352357}