{"type":"FeatureCollection","data_type":"Dataset","url_type":null,"permissions":[{"permissions":{"download":true,"view":true},"group_id":"everyone"}],"classification":null,"title":"Sequoia_Equities_CA","count":32,"stream_id":352422,"contributor":{"url":"http://geocommons.com/users/56179","name":"brian5635"},"data_attributes":null,"calculation_params":null,"icon_link":null,"link":"http://geocommons.com/overlays/352422.json","extent":[-122.686,33.4913,-117.173,39.722],"geometry_types":["point"],"unique_name":null,"name":"Sequoia_Equities_CA","feature_count":32,"description":"","next_feature":null,"is_raster":false,"short_classification":"Y","stats":{"units":{"max":556,"variance":17799.5333333333,"mean":225.0,"stdev":133.414891722526,"min":70,"median":210}},"features":[{"properties":{"city":"Aliso Viejo","property owner":"Sequoia Equities","zip":"92656","units":428,"geo_score":1.0,"id":"adyrd4ewe1uq","community":"Alicante Apartments","address":"27662 Aliso Creek Road","geo_precision":"range","state":"CA"},"type":"Feature","geometry":{"type":"Point","coordinates":[-117.725705,33.56082]}},{"properties":{"city":"Aliso Viejo","property owner":"Sequoia Equities","zip":"92656","units":484,"geo_score":1.0,"id":"adyrd4abqiww","community":"Alize Apartments","address":"2 Enterprise","geo_precision":"range","state":"CA"},"type":"Feature","geometry":{"type":"Point","coordinates":[-117.73311,33.58501]}},{"properties":{"city":"Tiburon","property owner":"Sequoia Equities","zip":"94920","units":284,"geo_score":0.807,"id":"adyrd452xadg","community":"The Cove Apartments","address":"50 Barbaree Way","geo_precision":"street","state":"CA"},"type":"Feature","geometry":{"type":"Point","coordinates":[-122.498354,37.895512]}},{"properties":{"city":"Chico","property owner":"Sequoia Equities","zip":"95928","units":null,"geo_score":0.927,"id":"adyrd4arkzso","community":"Craig Student Living","address":"1400 West Third Street","geo_precision":"range","state":"CA"},"type":"Feature","geometry":{"type":"Point","coordinates":[-121.851218,39.72195]}},{"properties":{"city":"Antioch","property owner":"Sequoia Equities","zip":"94531","units":244,"geo_score":0.542,"id":"adyrd4ejb6vs","community":"Cross Pointe Apartments","address":"5100 Vista Grande Drive","geo_precision":"street","state":"CA"},"type":"Feature","geometry":{"type":"Point","coordinates":[-122.070094,38.270347]}},{"properties":{"city":"Redlands","property owner":"Sequoia Equities","zip":"92373","units":82,"geo_score":1.0,"id":"adyrd4534ci9","community":"Cypress Villas","address":"301 East Cypress Avenue","geo_precision":"range","state":"CA"},"type":"Feature","geometry":{"type":"Point","coordinates":[-117.172517,34.049565]}},{"properties":{"city":"Walnut Creek","property owner":"Sequoia Equities","zip":"94595","units":98,"geo_score":1.0,"id":"adyrd40zyq5h","community":"Flora Apartments*","address":"140 Flora Avenue","geo_precision":"range","state":"CA"},"type":"Feature","geometry":{"type":"Point","coordinates":[-122.075549,37.891372]}},{"properties":{"city":"Laguna Niguel","property owner":"Sequoia Equities","zip":"92677","units":324,"geo_score":0.912,"id":"adyrd44v2axv","community":"Hidden Hills Apartments*","address":"30041 Tessier Street","geo_precision":"range","state":"CA"},"type":"Feature","geometry":{"type":"Point","coordinates":[-117.687483,33.52655]}},{"properties":{"city":"Grand Terrace","property owner":"Sequoia Equities","zip":"92313","units":556,"geo_score":0.945,"id":"adyrd4d35zjy","community":"Highlands Apartments","address":"11750 Mt Vernon Avenue","geo_precision":"range","state":"CA"},"type":"Feature","geometry":{"type":"Point","coordinates":[-117.313719,34.036399]}},{"properties":{"city":"Campbell","property owner":"Sequoia Equities","zip":"95008","units":234,"geo_score":1.0,"id":"adyrd49cpz7b","community":"La Valencia Apartments","address":"350 Budd Avenue","geo_precision":"range","state":"CA"},"type":"Feature","geometry":{"type":"Point","coordinates":[-121.956012,37.280514]}},{"properties":{"city":"Livermore","property owner":"Sequoia Equities","zip":"94550","units":210,"geo_score":0.854,"id":"adyrd49z1asx","community":"Mill Springs Park","address":"1809 Railroad Avenue","geo_precision":"range","state":"CA"},"type":"Feature","geometry":{"type":"Point","coordinates":[-121.77365,37.68205]}},{"properties":{"city":"Laguna Niguel","property owner":"Sequoia Equities","zip":"92677","units":170,"geo_score":0.61,"id":"adyrd4euff3y","community":"Niguel Summit Apartments*","address":"30252 Pacific Island Dr #100","geo_precision":"street","state":"CA"},"type":"Feature","geometry":{"type":"Point","coordinates":[-117.707936,33.491286]}},{"properties":{"city":"Foothill Ranch","property owner":"Sequoia Equities","zip":"92610","units":200,"geo_score":1.0,"id":"adyrd3zvnqfi","community":"Paloma Summit Apartments","address":"26371 Paloma","geo_precision":"range","state":"CA"},"type":"Feature","geometry":{"type":"Point","coordinates":[-117.6722,33.68616]}},{"properties":{"city":"Petaluma","property owner":"Sequoia Equities","zip":"94954","units":240,"geo_score":0.585,"id":"adyrd41m2h8b","community":"Park Central Apartments","address":"1400 Technology Lane","geo_precision":"zip","state":"CA"},"type":"Feature","geometry":{"type":"Point","coordinates":[-122.574526,38.225816]}},{"properties":{"city":"Rohnert Park","property owner":"Sequoia Equities","zip":"94928","units":348,"geo_score":1.0,"id":"adyrd42526ez","community":"Park Ridge Apartments","address":"4949 Snyder Lane","geo_precision":"range","state":"CA"},"type":"Feature","geometry":{"type":"Point","coordinates":[-122.685814,38.356108]}},{"properties":{"city":"Martinez","property owner":"Sequoia Equities","zip":"94553","units":116,"geo_score":1.0,"id":"adyrd49l2v4c","community":"Plum Tree Apartments","address":"1097 Maywood Lane","geo_precision":"range","state":"CA"},"type":"Feature","geometry":{"type":"Point","coordinates":[-122.097107,37.99594]}},{"properties":{"city":"Martinez","property owner":"Sequoia Equities","zip":"94553","units":95,"geo_score":1.0,"id":"adyrd3yrjwtl","community":"Regency Plaza Apartments","address":"600 J Street","geo_precision":"range","state":"CA"},"type":"Feature","geometry":{"type":"Point","coordinates":[-122.13193,37.997536]}},{"properties":{"city":"Vacaville","property owner":"Sequoia Equities","zip":"95687","units":312,"geo_score":0.878,"id":"adyrd423hr7p","community":"River Oaks Apartments","address":"1000 Allison Drive","geo_precision":"street","state":"CA"},"type":"Feature","geometry":{"type":"Point","coordinates":[-121.964404,38.35518]}},{"properties":{"city":"Vacaville","property owner":"Sequoia Equities","zip":"95687","units":210,"geo_score":1.0,"id":"adyrd46mxxui","community":"Sandpiper Village Apartments","address":"999 Marshall Road","geo_precision":"range","state":"CA"},"type":"Feature","geometry":{"type":"Point","coordinates":[-121.975225,38.345861]}},{"properties":{"city":"Pacific Grove","property owner":"Sequoia Equities","zip":"93950","units":84,"geo_score":1.0,"id":"adyrd45gu9se","community":"17 Mile Drive Village","address":"1012 Pacific Grove Lane","geo_precision":"range","state":"CA"},"type":"Feature","geometry":{"type":"Point","coordinates":[-121.930875,36.618809]}},{"properties":{"city":"Cupertino","property owner":"Sequoia Equities","zip":"95014","units":200,"geo_score":1.0,"id":"adyrd3yu8xv2","community":"Shadow Oaks Apartments","address":"202 Calvert Drive","geo_precision":"range","state":"CA"},"type":"Feature","geometry":{"type":"Point","coordinates":[-121.999766,37.32105]}},{"properties":{"city":"Simi Valley","property owner":"Sequoia Equities","zip":"93065","units":332,"geo_score":1.0,"id":"adyrd4cykly3","community":"Shadow Ridge Apartments","address":"1987 Ridgegate Lane","geo_precision":"range","state":"CA"},"type":"Feature","geometry":{"type":"Point","coordinates":[-118.800139,34.272301]}},{"properties":{"city":"Davis","property owner":"Sequoia Equities","zip":"95616","units":132,"geo_score":0.601,"id":"adyrd45lfwhw","community":"Sharps &amp; Flats Apartments","address":"1660 Drew Circle","geo_precision":"street","state":"CA"},"type":"Feature","geometry":{"type":"Point","coordinates":[-121.72729,38.54218]}},{"properties":{"city":"Santa Rosa","property owner":"Sequoia Equities","zip":"95405","units":104,"geo_score":1.0,"id":"adyrd4dztzqp","community":"Spring Lake Apartments","address":"3732 Ahl Park Court","geo_precision":"range","state":"CA"},"type":"Feature","geometry":{"type":"Point","coordinates":[-122.670861,38.451533]}},{"properties":{"city":"Benicia","property owner":"Sequoia Equities","zip":"94510","units":120,"geo_score":1.0,"id":"adyrd40dolgk","community":"Sterling Heights Apartments","address":"150 Rankin Way","geo_precision":"range","state":"CA"},"type":"Feature","geometry":{"type":"Point","coordinates":[-122.149723,38.060792]}},{"properties":{"city":"Davis","property owner":"Sequoia Equities","zip":"95616","units":216,"geo_score":0.902,"id":"adyrd43cskv0","community":"Tanglewood Apartments*","address":"1880 Cowell Blvd","geo_precision":"range","state":"CA"},"type":"Feature","geometry":{"type":"Point","coordinates":[-121.72973,38.539931]}},{"properties":{"city":"Walnut Creek","property owner":"Sequoia Equities","zip":"94596","units":78,"geo_score":1.0,"id":"adyrd4dgn1hr","community":"Trinity House Apartments","address":"1812 Trinity Avenue","geo_precision":"range","state":"CA"},"type":"Feature","geometry":{"type":"Point","coordinates":[-122.067687,37.90143]}},{"properties":{"city":"San Francisco","property owner":"Sequoia Equities","zip":"94109","units":248,"geo_score":1.0,"id":"adyrd4dlobw8","community":"Tower 737 Apartments*","address":"737 Post Street","geo_precision":"range","state":"CA"},"type":"Feature","geometry":{"type":"Point","coordinates":[-122.414507,37.787457]}},{"properties":{"city":"Davis","property owner":"Sequoia Equities","zip":"95616","units":132,"geo_score":0.53,"id":"adyrd43cvc17","community":"University Village Davis","address":"625 Cantrill Drive","geo_precision":"street","state":"CA"},"type":"Feature","geometry":{"type":"Point","coordinates":[-120.780713,38.674407]}},{"properties":{"city":"Martinez","property owner":"Sequoia Equities","zip":"94553","units":120,"geo_score":1.0,"id":"adyrd4d7cj2f","community":"Valley Ridge Apartments","address":"900 Roanoke Drive","geo_precision":"range","state":"CA"},"type":"Feature","geometry":{"type":"Point","coordinates":[-122.095775,37.961021]}},{"properties":{"city":"Simi Valley","property owner":"Sequoia Equities","zip":"93065","units":504,"geo_score":1.0,"id":"adyrd4dwj78g","community":"The Villas/Overlook at Wood Ranch","address":"241 Country Club Drive","geo_precision":"range","state":"CA"},"type":"Feature","geometry":{"type":"Point","coordinates":[-118.803303,34.254842]}},{"properties":{"city":"Livermore","property owner":"Sequoia Equities","zip":"94550","units":70,"geo_score":1.0,"id":"adyrd4d8xbit","community":"Villa Palms Apartments","address":"51 Murdell Lane","geo_precision":"range","state":"CA"},"type":"Feature","geometry":{"type":"Point","coordinates":[-121.801162,37.675498]}}],"is_temporal":false,"author":{"url":"","metadata":null,"contact_name":null,"contact_address":null,"source":null,"contact_phone":null},"source":"","pagination":{"sort":null,"start":0,"total":32,"limit":1000000},"state":"complete","tags":"","published":"2014-08-16T17:12:54-04:00","id":352422}