{"type":"FeatureCollection","data_type":"Dataset","url_type":null,"permissions":[{"permissions":{"download":true,"view":true},"group_id":"everyone"}],"classification":null,"title":"Xl0000022","count":52,"stream_id":352846,"contributor":{"url":"http://geocommons.com/users/71189","name":"Spdcrime@gmail.com"},"data_attributes":null,"calculation_params":null,"icon_link":null,"link":"http://geocommons.com/overlays/352846.json","extent":[-91.8855,29.9387,-76.4907,38.9754],"geometry_types":["point"],"unique_name":null,"name":"Xl0000022","feature_count":52,"description":"","next_feature":null,"is_raster":false,"short_classification":"Y","stats":{},"features":[{"properties":{"name":"ARSON","city":"SOUTHAVEN","column_7":"38671","column_8":null,"geo_score":0.902,"column_9":null,"column_1":"201300019947","id":"adzo9spag1me","address":"945 CHURCH LN","geo_precision":"range","column_3":"15:30","state":"MS"},"type":"Feature","geometry":{"type":"Point","coordinates":[-90.00612,34.934538]}},{"properties":{"name":"ASEX","city":"SOUTHAVEN","column_7":"38671","column_8":"w1","geo_score":0.457,"column_9":"fdfsdjfkjsdkfjksdfjsdklfjklsdfjklsjfklsdjflsdjfkasdjflsjflsda","column_1":"201300018261","id":"adzo9t4pcsx9","address":"919 MECKLENBURG CV","geo_precision":"street","column_3":"15:30","state":"MS"},"type":"Feature","geometry":{"type":"Point","coordinates":[-89.967353,34.912828]}},{"properties":{"name":"ASEX","city":"SOUTHAVEN","column_7":"38671","column_8":"w1","geo_score":0.805,"column_9":"flsfjasfjdslasdkfjassdlfjsdfjsdkfjskldfjksdjfklasjfkasdjfkl","column_1":"201300018319","id":"adzo9szax5jq","address":"575 TUSCANY WAY","geo_precision":"range","column_3":"15:30","state":null},"type":"Feature","geometry":{"type":"Point","coordinates":[-89.99998,34.944874]}},{"properties":{"name":"ASEX","city":"Southaven","column_7":"38671","column_8":"w2","geo_score":0.805,"column_9":"flsfjasfjdslasdkfjassdlfjsdfjsdkfjskldfjksdjfklasjfkasdjfkl","column_1":"201300019025","id":"adzo9t41qkin","address":"8300 WHITEHEAD DR W","geo_precision":"range","column_3":"15:30","state":null},"type":"Feature","geometry":{"type":"Point","coordinates":[-90.024347,34.982958]}},{"properties":{"name":"ASEX","city":"SOUTHAVEN","column_7":"38671","column_8":null,"geo_score":0.902,"column_9":null,"column_1":"201300019887","id":"adzo9t0a7upq","address":"8252 SPENCER DR","geo_precision":"range","column_3":"15:30","state":"MS"},"type":"Feature","geometry":{"type":"Point","coordinates":[-89.984942,34.980232]}},{"properties":{"name":"ASEX","city":"SOUTHAVEN","column_7":"38671","column_8":null,"geo_score":0.902,"column_9":null,"column_1":"201300021110","id":"adzo9soz6456","address":"134 HILLBROOK DR","geo_precision":"range","column_3":null,"state":"MS"},"type":"Feature","geometry":{"type":"Point","coordinates":[-89.992103,34.981435]}},{"properties":{"name":"BAATT","city":"SOUTHAVEN","column_7":"38671","column_8":"w3","geo_score":0.883,"column_9":null,"column_1":"201300019468","id":"adzo9srwt716","address":"7601 SOUTHCREST PKY","geo_precision":"range","column_3":"15:30","state":"MS"},"type":"Feature","geometry":{"type":"Point","coordinates":[-89.996546,34.971813]}},{"properties":{"name":"BURGA","city":"SOUTHAVEN","column_7":"38671","column_8":"w1","geo_score":0.709,"column_9":"fdfsdjfkjsdkfjksdfjsdklfjklsdfjklsjfklsdjflsdjfkasdjflsjflsda","column_1":"201300018443","id":"adzo9sx69g1u","address":"1175 DORSHIRE RD","geo_precision":"street","column_3":"15:30","state":"MS"},"type":"Feature","geometry":{"type":"Point","coordinates":[-90.012386,34.970585]}},{"properties":{"name":"BURGA","city":"SOUTHAVEN","column_7":"38671","column_8":"w2","geo_score":0.902,"column_9":"fdfsdjfkjsdkfjksdfjsdklfjklsdfjklsjfklsdjflsdjfkasdjflsjflsda","column_1":"201300018860","id":"adzo9sx0jjkh","address":"7550 AIRWAYS BLVD","geo_precision":"range","column_3":"15:30","state":"MS"},"type":"Feature","geometry":{"type":"Point","coordinates":[-89.989717,34.971236]}},{"properties":{"name":"BURGA","city":"Southaven","column_7":"38671","column_8":null,"geo_score":0.805,"column_9":null,"column_1":"201300020008","id":"adzo9t1layxj","address":"7090 MALCO BLVD","geo_precision":"range","column_3":"15:30","state":null},"type":"Feature","geometry":{"type":"Point","coordinates":[-89.987098,34.964929]}},{"properties":{"name":"BURGA","city":"SOUTHAVEN","column_7":"38671","column_8":null,"geo_score":0.902,"column_9":null,"column_1":"201300020479","id":"adzo9svqv6pe","address":"550 STATELINE RD W","geo_precision":"range","column_3":null,"state":"MS"},"type":"Feature","geometry":{"type":"Point","coordinates":[-89.99965,34.991867]}},{"properties":{"name":"BURGA","city":"SOUTHAVEN","column_7":"38671","column_8":null,"geo_score":0.902,"column_9":null,"column_1":"201300021599","id":"adzo9srm7kzz","address":"628 CAPEWOOD PL","geo_precision":"range","column_3":null,"state":"MS"},"type":"Feature","geometry":{"type":"Point","coordinates":[-89.978378,34.984977]}},{"properties":{"name":"BURGA","city":"SOUTHAVEN","column_7":"38671","column_8":null,"geo_score":0.902,"column_9":null,"column_1":"201300021608","id":"adzo9t15msbr","address":"7204 AIRWAYS BLVD","geo_precision":"range","column_3":null,"state":"MS"},"type":"Feature","geometry":{"type":"Point","coordinates":[-89.989831,34.965499]}},{"properties":{"name":"BURGB","city":"SOUTHAVEN","column_7":"38671","column_8":"w2","geo_score":0.902,"column_9":"fdfsdjfkjsdkfjksdfjsdklfjklsdfjklsjfklsdjflsdjfkasdjflsjflsda","column_1":"201300019325","id":"adzo9sqorand","address":"25 PHYSICIANS LN","geo_precision":"range","column_3":"15:30","state":"MS"},"type":"Feature","geometry":{"type":"Point","coordinates":[-89.988859,34.960402]}},{"properties":{"name":"BURGB","city":"SOUTHAVEN","column_7":"38671","column_8":"w2","geo_score":0.902,"column_9":"flsfjasfjdslasdkfjassdlfjsdfjsdkfjskldfjksdjfklasjfkasdjfkl","column_1":"201300019364","id":"adzo9srubkjw","address":"35 STATELINE RD W","geo_precision":"range","column_3":"15:30","state":"MS"},"type":"Feature","geometry":{"type":"Point","coordinates":[-89.990388,34.991756]}},{"properties":{"name":"BURGR","city":"SOUTHAVEN","column_7":"38671","column_8":"w2","geo_score":0.709,"column_9":"fjsdkjflsfjasfjdslasdkfjassdlfjsdfjsdkfjskldfjksdjfklasjfkasdjfkl","column_1":"201300019055","id":"adzo9ss3pn4l","address":"1344 CUSTER DR","geo_precision":"street","column_3":"15:30","state":"MS"},"type":"Feature","geometry":{"type":"Point","coordinates":[-90.016052,34.974899]}},{"properties":{"name":"BURGR","city":"SOUTHAVEN","column_7":"38671","column_8":null,"geo_score":0.805,"column_9":null,"column_1":"201300019619","id":"adzo9sq9wxyu","address":"1390 DORSHIRE RD","geo_precision":"range","column_3":"15:30","state":null},"type":"Feature","geometry":{"type":"Point","coordinates":[-90.012334,34.970654]}},{"properties":{"name":"BURGR","city":"SOUTHAVEN","column_7":"38671","column_8":null,"geo_score":0.902,"column_9":null,"column_1":"201300020009","id":"adzo9t2qvhaq","address":"1837 CHERRY CREEK DR","geo_precision":"range","column_3":"15:30","state":"MS"},"type":"Feature","geometry":{"type":"Point","coordinates":[-89.957975,34.977735]}},{"properties":{"name":"BURGR","city":"Southaven","column_7":"38671","column_8":null,"geo_score":0.805,"column_9":null,"column_1":"201300020100","id":"adzo9sxykamt","address":"5082 CHURCH LAKE DR","geo_precision":"range","column_3":"15:30","state":null},"type":"Feature","geometry":{"type":"Point","coordinates":[-90.005993,34.935213]}},{"properties":{"name":"BURGR","city":"SOUTHAVEN","column_7":"38671","column_8":null,"geo_score":0.902,"column_9":null,"column_1":"201300020930","id":"adzo9t04p076","address":"7856 JANE AYRE DR","geo_precision":"range","column_3":null,"state":"MS"},"type":"Feature","geometry":{"type":"Point","coordinates":[-89.958421,34.975037]}},{"properties":{"name":"BURGR","city":"SOUTHAVEN","column_7":"38671","column_8":null,"geo_score":0.805,"column_9":null,"column_1":"201300021731","id":"adzo9t59nvdu","address":"1412 CUSTER DR EAST","geo_precision":"range","column_3":null,"state":null},"type":"Feature","geometry":{"type":"Point","coordinates":[-90.015559,34.974965]}},{"properties":{"name":"BURGR","city":"SOUTHAVEN","column_7":"38671","column_8":null,"geo_score":0.902,"column_9":null,"column_1":"201300021743","id":"adzo9sruexdw","address":"8082 JAMESBROOK DR","geo_precision":"range","column_3":null,"state":"MS"},"type":"Feature","geometry":{"type":"Point","coordinates":[-89.992042,34.980585]}},{"properties":{"name":"COMPJ","city":"SOUTHAVEN","column_7":"38671","column_8":null,"geo_score":0.902,"column_9":null,"column_1":"201300019832","id":"adzo9t1dfvml","address":"899 RASCO RD W","geo_precision":"range","column_3":"15:30","state":"MS"},"type":"Feature","geometry":{"type":"Point","coordinates":[-90.005427,34.977295]}},{"properties":{"name":"COMPJ","city":"SOUTHAVEN","column_7":"38671","column_8":null,"geo_score":0.902,"column_9":null,"column_1":"201300020425","id":"adzo9t2f1hku","address":"899 RASCO RD W","geo_precision":"range","column_3":null,"state":"MS"},"type":"Feature","geometry":{"type":"Point","coordinates":[-90.005427,34.977295]}},{"properties":{"name":"COUN","city":"SOUTHAVEN","column_7":"38671","column_8":"w1","geo_score":0.902,"column_9":"fjsdkjflsfjasfjdslasdkfjassdlfjsdfjsdkfjskldfjksdjfklasjfkasdjfkl","column_1":"201300018441","id":"adzo9t1vy0tp","address":"735 RASCO RD W","geo_precision":"range","column_3":"15:30","state":"MS"},"type":"Feature","geometry":{"type":"Point","coordinates":[-90.003213,34.9773]}},{"properties":{"name":"COUN","city":"SOUTHAVEN","column_7":"38671","column_8":null,"geo_score":0.902,"column_9":null,"column_1":"201300020115","id":"adzo9srswyas","address":"1185 STATELINE RD W","geo_precision":"range","column_3":"15:30","state":"MS"},"type":"Feature","geometry":{"type":"Point","coordinates":[-90.010879,34.991777]}},{"properties":{"name":"FALSP","city":"SOUTHAVEN","column_7":"38671","column_8":"w3","geo_score":0.902,"column_9":null,"column_1":"201300019576","id":"adzo9sva6yee","address":"65 GOODMAN RD W","geo_precision":"range","column_3":"15:30","state":"MS"},"type":"Feature","geometry":{"type":"Point","coordinates":[-89.990864,34.96261]}},{"properties":{"name":"FRAUD","city":"SOUTHAVEN","column_7":"38671","column_8":"w1","geo_score":0.902,"column_9":"fjsdkjflsfjasfjdslasdkfjassdlfjsdfjsdkfjskldfjksdjfklasjfkasdjfkl","column_1":"201300018229","id":"adzo9sydeotf","address":"7528 STILLWELL PL","geo_precision":"range","column_3":"15:30","state":"MS"},"type":"Feature","geometry":{"type":"Point","coordinates":[-89.974272,34.971717]}},{"properties":{"name":"FRAUD","city":"SOUTHAVEN","column_7":"38671","column_8":"w2","geo_score":0.74,"column_9":"fjsdkjflsfjasfjdslasdkfjassdlfjsdfjsdkfjskldfjksdjfklasjfkasdjfkl","column_1":"201300018793","id":"adzo9syn7n4k","address":"385 NAIL RD E","geo_precision":"range","column_3":"15:30","state":null},"type":"Feature","geometry":{"type":"Point","coordinates":[-89.98696,34.94798]}},{"properties":{"name":"FRAUD","city":"SOUTHAVEN","column_7":"38671","column_8":null,"geo_score":0.505,"column_9":null,"column_1":"201300019612","id":"adzo9t10zuij","address":"400 MARKET PLZ","geo_precision":"street","column_3":"15:30","state":null},"type":"Feature","geometry":{"type":"Point","coordinates":[-76.490698,38.975383]}},{"properties":{"name":"LARCG","city":"SOUTHAVEN","column_7":"38671","column_8":"w2","geo_score":0.902,"column_9":"flsfjasfjdslasdkfjassdlfjsdfjsdkfjskldfjksdjfklasjfkasdjfkl","column_1":"201300018716","id":"adzo9stxgduj","address":"9172 FORREST DR","geo_precision":"range","column_3":"15:30","state":"MS"},"type":"Feature","geometry":{"type":"Point","coordinates":[-90.02408,34.993633]}},{"properties":{"name":"LARCG","city":"SOUTHAVEN","column_7":"38671","column_8":null,"geo_score":0.902,"column_9":null,"column_1":"201300019581","id":"adzo9sx5ejee","address":"899 RASCO RD W","geo_precision":"range","column_3":"15:30","state":"MS"},"type":"Feature","geometry":{"type":"Point","coordinates":[-90.005427,34.977295]}},{"properties":{"name":"LARCG","city":"SOUTHAVEN","column_7":"38671","column_8":null,"geo_score":0.902,"column_9":null,"column_1":"201300021119","id":"adzo9sveeqgw","address":"8053 SHELBURNE LN E","geo_precision":"range","column_3":null,"state":"MS"},"type":"Feature","geometry":{"type":"Point","coordinates":[-89.943836,34.978314]}},{"properties":{"name":"LARCG","city":"SOUTHAVEN","column_7":"38671","column_8":null,"geo_score":0.805,"column_9":null,"column_1":"201300021749","id":"adzo9t58iwye","address":"580 STATELINE RD W","geo_precision":"range","column_3":null,"state":null},"type":"Feature","geometry":{"type":"Point","coordinates":[-90.000129,34.991954]}},{"properties":{"name":"LARCG","city":"SOUTHAVEN","column_7":"38671","column_8":null,"geo_score":0.493,"column_9":null,"column_1":"201300021865","id":"adzo9t10fwep","address":"8911 LITTLE HOUSE CV","geo_precision":"street","column_3":null,"state":"MS"},"type":"Feature","geometry":{"type":"Point","coordinates":[-89.966031,34.912831]}},{"properties":{"name":"MM","city":"SOUTHAVEN","column_7":"38671","column_8":"w1","geo_score":0.902,"column_9":"flsfjasfjdslasdkfjassdlfjsdfjsdkfjskldfjksdjfklasjfkasdjfkl","column_1":"201300018457","id":"adzo9sxzle29","address":"480 STATELINE RD E","geo_precision":"range","column_3":"15:30","state":"MS"},"type":"Feature","geometry":{"type":"Point","coordinates":[-89.978626,34.991892]}},{"properties":{"name":"MM","city":"SOUTHAVEN","column_7":"38671","column_8":"w2","geo_score":0.902,"column_9":null,"column_1":"201300019366","id":"adzo9svtrl62","address":"1011 GOODMAN RD E","geo_precision":"range","column_3":"15:30","state":"MS"},"type":"Feature","geometry":{"type":"Point","coordinates":[-89.972006,34.96255]}},{"properties":{"name":"MM","city":"SOUTHAVEN","column_7":"38671","column_8":null,"geo_score":0.902,"column_9":null,"column_1":"201300020176","id":"adzo9st5asod","address":"520 GOODMAN RD E","geo_precision":"range","column_3":"15:30","state":"MS"},"type":"Feature","geometry":{"type":"Point","coordinates":[-89.981413,34.962818]}},{"properties":{"name":"NARCI","city":"SOUTHAVEN","column_7":"38671","column_8":null,"geo_score":0.902,"column_9":null,"column_1":"201300019584","id":"adzo9t1vthm0","address":"5905 AIRWAYS BLVD","geo_precision":"range","column_3":"15:30","state":"MS"},"type":"Feature","geometry":{"type":"Point","coordinates":[-89.99295,34.948115]}},{"properties":{"name":"NARCV","city":"SOUTHAVEN","column_7":"38671","column_8":null,"geo_score":0.902,"column_9":null,"column_1":"201300020067","id":"adzo9t3n281v","address":"2930 GOODMAN RD E","geo_precision":"range","column_3":"15:30","state":"MS"},"type":"Feature","geometry":{"type":"Point","coordinates":[-89.938151,34.962532]}},{"properties":{"name":"NARCV","city":"Southaven","column_7":"38671","column_8":null,"geo_score":0.902,"column_9":null,"column_1":"201300020436","id":"adzo9spjxzqb","address":"710 CHURCH RD E","geo_precision":"range","column_3":null,"state":"MS"},"type":"Feature","geometry":{"type":"Point","coordinates":[-89.976869,34.933533]}},{"properties":{"name":"NARCV","city":"SOUTHAVEN","column_7":"38671","column_8":null,"geo_score":0.902,"column_9":null,"column_1":"201300021357","id":"adzo9syq0txb","address":"773 GOODMAN RD E","geo_precision":"range","column_3":null,"state":"MS"},"type":"Feature","geometry":{"type":"Point","coordinates":[-89.972458,34.962557]}},{"properties":{"name":"NARCV","city":"SOUTHAVEN","column_7":"38671","column_8":null,"geo_score":0.707,"column_9":null,"column_1":"201300021632","id":"adzo9t2e78v3","address":"1200 CHESTERIDGE AVE","geo_precision":"street","column_3":null,"state":"MS"},"type":"Feature","geometry":{"type":"Point","coordinates":[-90.011665,34.97047]}},{"properties":{"name":"RSV","city":"SOUTHAVEN","column_7":"38671","column_8":"w2","geo_score":0.607,"column_9":"fdfsdjfkjsdkfjksdfjsdklfjklsdfjklsjfklsdjflsdjfkasdjflsjflsda","column_1":"201300018713","id":"adzo9t07jthp","address":"TCHULAHOMA RD &amp; STATELINE","geo_precision":"street","column_3":"15:30","state":null},"type":"Feature","geometry":{"type":"Point","coordinates":[-89.962274,34.991723]}},{"properties":{"name":"SL","city":"SOUTHAVEN","column_7":"38671","column_8":"w2","geo_score":0.883,"column_9":null,"column_1":"201300019384","id":"adzo9sym8cok","address":"6811 SOUTHCREST PKY","geo_precision":"range","column_3":"15:30","state":"MS"},"type":"Feature","geometry":{"type":"Point","coordinates":[-89.994491,34.96271]}},{"properties":{"name":"SL","city":"SOUTHAVEN","column_7":"38671","column_8":null,"geo_score":0.883,"column_9":null,"column_1":"201300020225","id":"adzo9t0eikti","address":"6811 SOUTHCREST PKY","geo_precision":"range","column_3":null,"state":"MS"},"type":"Feature","geometry":{"type":"Point","coordinates":[-89.994491,34.96271]}},{"properties":{"name":"SL","city":"SOUTHAVEN","column_7":"38671","column_8":null,"geo_score":0.524,"column_9":null,"column_1":"201300021191","id":"adzo9spgqe9y","address":"230 TOWNE CENTER LOOP","geo_precision":"street","column_3":null,"state":"MS"},"type":"Feature","geometry":{"type":"Point","coordinates":[-89.987444,34.990694]}},{"properties":{"name":"SV","city":"SOUTAHVEN","column_7":"38671","column_8":"w1","geo_score":0.0,"column_9":"fjsdkjflsfjasfjdslasdkfjassdlfjsdfjsdkfjskldfjksdjfklasjfkasdjfkl","column_1":"201300018490","id":"adzo9szl5j19","address":"4744 WE ROSS PARKWAY","geo_precision":"unmatched","column_3":"15:30","state":"MS"},"type":"Feature","geometry":null},{"properties":{"name":"SV","city":"Southaven","column_7":"38671","column_8":null,"geo_score":0.885,"column_9":null,"column_1":"201300019782","id":"adzo9sy7kt8h","address":"1040 STARLANDING RD W","geo_precision":"range","column_3":"15:30","state":"MS"},"type":"Feature","geometry":{"type":"Point","coordinates":[-90.00801,34.904519]}},{"properties":{"name":"SV","city":"SOUTHAVEN","column_7":"38671","column_8":null,"geo_score":0.49,"column_9":null,"column_1":"201300021402","id":"adzo9t1ly8c0","address":"I 55 RAMP &amp; STATELINE RD W","geo_precision":"street","column_3":null,"state":"MS"},"type":"Feature","geometry":{"type":"Point","coordinates":[-89.982652,34.991844]}},{"properties":{"name":"TS","city":"Southaven","column_7":"38671","column_8":null,"geo_score":0.714,"column_9":null,"column_1":"201300021788","id":"adzo9sppqi0x","address":"SHADY WIND DR &amp; TCHULAHOMA RD","geo_precision":"street","column_3":null,"state":null},"type":"Feature","geometry":{"type":"Point","coordinates":[-89.952844,34.939766]}},{"properties":{"name":"type","city":"city","column_7":"zip","column_8":"ward","geo_score":0.589,"column_9":"notes","column_1":"number","id":"adzo9spmy1ai","address":"address","geo_precision":"street","column_3":"time","state":"state"},"type":"Feature","geometry":{"type":"Point","coordinates":[-91.885508,29.938685]}}],"is_temporal":false,"author":{"url":"","metadata":"","contact_name":"","contact_address":"","source":"","contact_phone":""},"source":"","pagination":{"sort":null,"start":0,"total":52,"limit":1000000},"state":"complete","tags":"","published":"2014-08-16T17:49:06-04:00","id":352846}