{"type":"FeatureCollection","data_type":"Dataset","url_type":null,"permissions":[{"permissions":{"download":true,"view":true},"group_id":"everyone"}],"classification":null,"title":"Zip Data- BMO Port.","count":165,"stream_id":353878,"contributor":{"url":"http://geocommons.com/users/71402","name":"jakebierly"},"data_attributes":null,"calculation_params":null,"icon_link":null,"link":"http://geocommons.com/overlays/353878.json","extent":[-112.187,26.9298,-81.2545,46.9049],"geometry_types":["point"],"unique_name":null,"name":"Zip Data- BMO Port.","feature_count":165,"description":"","next_feature":null,"is_raster":false,"short_classification":"Y","stats":{},"features":[{"properties":{"zip":"30269","upb":"3,675,000.00","id":"ae200yk446nj","geo_precision":"zip"},"type":"Feature","geometry":{"type":"Point","coordinates":[-84.559373,33.417616]}},{"properties":{"zip":"32195","upb":"149,000.00","id":"ae200yb5tzck","geo_precision":"zip"},"type":"Feature","geometry":{"type":"Point","coordinates":[-81.87785,29.006144]}},{"properties":{"zip":"32712","upb":"310,000.00","id":"ae200yamrwx8","geo_precision":"zip"},"type":"Feature","geometry":{"type":"Point","coordinates":[-81.537602,28.731322]}},{"properties":{"zip":"32750","upb":"2,030,000.00","id":"ae200yaplwgp","geo_precision":"zip"},"type":"Feature","geometry":{"type":"Point","coordinates":[-81.340639,28.705924]}},{"properties":{"zip":"32771","upb":"1,837,500.00","id":"ae200ygt1oho","geo_precision":"zip"},"type":"Feature","geometry":{"type":"Point","coordinates":[-81.254509,28.794993]}},{"properties":{"zip":"32804","upb":"845,000.00","id":"ae200yi40hjq","geo_precision":"zip"},"type":"Feature","geometry":{"type":"Point","coordinates":[-81.394237,28.591111]}},{"properties":{"zip":"32822","upb":"4,904,000.00","id":"ae200ydzvh0z","geo_precision":"zip"},"type":"Feature","geometry":{"type":"Point","coordinates":[-81.29024,28.494385]}},{"properties":{"zip":"33830","upb":"2,732,778.00","id":"ae200yhqcj90","geo_precision":"zip"},"type":"Feature","geometry":{"type":"Point","coordinates":[-81.786192,27.909192]}},{"properties":{"zip":"34231","upb":"600,000.00","id":"ae200ymxyb96","geo_precision":"zip"},"type":"Feature","geometry":{"type":"Point","coordinates":[-82.432111,27.227589]}},{"properties":{"zip":"34240","upb":"3,650,000.00","id":"ae200yiwxany","geo_precision":"zip"},"type":"Feature","geometry":{"type":"Point","coordinates":[-82.3504,27.231941]}},{"properties":{"zip":"34275","upb":"12,786,027.00","id":"ae200yibk39r","geo_precision":"zip"},"type":"Feature","geometry":{"type":"Point","coordinates":[-82.459848,27.229227]}},{"properties":{"zip":"34287","upb":"2,323,055.00","id":"ae200yatqqpa","geo_precision":"zip"},"type":"Feature","geometry":{"type":"Point","coordinates":[-82.334882,27.189487]}},{"properties":{"zip":"34433","upb":null,"id":"ae200yjimywt","geo_precision":"zip"},"type":"Feature","geometry":{"type":"Point","coordinates":[-82.470655,28.997477]}},{"properties":{"zip":"35215","upb":"2,380,000.00","id":"ae200yeyc2kr","geo_precision":"zip"},"type":"Feature","geometry":{"type":"Point","coordinates":[-86.698878,33.644269]}},{"properties":{"zip":"46020","upb":"16,772,600.00","id":"ae200y8yh1lu","geo_precision":"unmatched"},"type":"Feature","geometry":null},{"properties":{"zip":"46055","upb":null,"id":"ae200ynnbek3","geo_precision":"zip"},"type":"Feature","geometry":{"type":"Point","coordinates":[-85.894981,39.908651]}},{"properties":{"zip":"46060","upb":null,"id":"ae200yh2wux3","geo_precision":"zip"},"type":"Feature","geometry":{"type":"Point","coordinates":[-86.024429,40.053648]}},{"properties":{"zip":"46106","upb":null,"id":"ae200yjtyyp3","geo_precision":"zip"},"type":"Feature","geometry":{"type":"Point","coordinates":[-86.102271,39.489652]}},{"properties":{"zip":"46143","upb":null,"id":"ae200yfjvatu","geo_precision":"zip"},"type":"Feature","geometry":{"type":"Point","coordinates":[-86.10149,39.50708]}},{"properties":{"zip":"46202","upb":"4,800,000.00","id":"ae200ykhw00b","geo_precision":"zip"},"type":"Feature","geometry":{"type":"Point","coordinates":[-86.143736,39.762392]}},{"properties":{"zip":"46204","upb":"4,020,000.00","id":"ae200ycpxjfw","geo_precision":"zip"},"type":"Feature","geometry":{"type":"Point","coordinates":[-86.158038,39.772692]}},{"properties":{"zip":"46205","upb":null,"id":"ae200ynoizwz","geo_precision":"zip"},"type":"Feature","geometry":{"type":"Point","coordinates":[-86.129886,39.822641]}},{"properties":{"zip":"46218","upb":"1,550,000.00","id":"ae200ylrghkk","geo_precision":"zip"},"type":"Feature","geometry":{"type":"Point","coordinates":[-86.100535,39.806991]}},{"properties":{"zip":"46227","upb":null,"id":"ae200yj4x75f","geo_precision":"zip"},"type":"Feature","geometry":{"type":"Point","coordinates":[-86.13443,39.704767]}},{"properties":{"zip":"46250","upb":null,"id":"ae200yd7zqgx","geo_precision":"zip"},"type":"Feature","geometry":{"type":"Point","coordinates":[-86.052207,39.906983]}},{"properties":{"zip":"47401","upb":null,"id":"ae200yjy6pwo","geo_precision":"zip"},"type":"Feature","geometry":{"type":"Point","coordinates":[-86.503052,39.151992]}},{"properties":{"zip":"53005","upb":"3,200,000.00","id":"ae200ygj63w4","geo_precision":"zip"},"type":"Feature","geometry":{"type":"Point","coordinates":[-88.105906,43.062707]}},{"properties":{"zip":"53018","upb":"15,640,443.00","id":"ae200ygojdvd","geo_precision":"zip"},"type":"Feature","geometry":{"type":"Point","coordinates":[-88.386519,43.015666]}},{"properties":{"zip":"53024","upb":null,"id":"ae200ykvcoxn","geo_precision":"zip"},"type":"Feature","geometry":{"type":"Point","coordinates":[-87.925644,43.295005]}},{"properties":{"zip":"53036","upb":"700,000.00","id":"ae200yl7p0kt","geo_precision":"zip"},"type":"Feature","geometry":{"type":"Point","coordinates":[-88.588628,43.147748]}},{"properties":{"zip":"53051","upb":null,"id":"ae200yiksryo","geo_precision":"zip"},"type":"Feature","geometry":{"type":"Point","coordinates":[-88.077868,43.151676]}},{"properties":{"zip":"53069","upb":null,"id":"ae200yfjj3ic","geo_precision":"zip"},"type":"Feature","geometry":{"type":"Point","coordinates":[-88.440653,43.12334]}},{"properties":{"zip":"53072","upb":"419,779.07","id":"ae200yfp8zqn","geo_precision":"zip"},"type":"Feature","geometry":{"type":"Point","coordinates":[-88.264875,43.080185]}},{"properties":{"zip":"53081","upb":"1,357,068.71","id":"ae200yb5mn8n","geo_precision":"zip"},"type":"Feature","geometry":{"type":"Point","coordinates":[-87.856793,43.722489]}},{"properties":{"zip":"53090","upb":null,"id":"ae200ygfudod","geo_precision":"zip"},"type":"Feature","geometry":{"type":"Point","coordinates":[-88.19631,43.443839]}},{"properties":{"zip":"53092","upb":"-","id":"ae200y93mqny","geo_precision":"zip"},"type":"Feature","geometry":{"type":"Point","coordinates":[-88.04259,43.236118]}},{"properties":{"zip":"53095","upb":"776,102.37","id":"ae200ykku5x5","geo_precision":"zip"},"type":"Feature","geometry":{"type":"Point","coordinates":[-88.185928,43.451666]}},{"properties":{"zip":"53120","upb":"430,000.00","id":"ae200yndyxxh","geo_precision":"zip"},"type":"Feature","geometry":{"type":"Point","coordinates":[-88.348983,42.821681]}},{"properties":{"zip":"53124","upb":null,"id":"ae200yctu8xx","geo_precision":"unmatched"},"type":"Feature","geometry":null},{"properties":{"zip":"53130","upb":null,"id":"ae200ya72wso","geo_precision":"zip"},"type":"Feature","geometry":{"type":"Point","coordinates":[-88.070642,42.866405]}},{"properties":{"zip":"53149","upb":"1,101,500.00","id":"ae200ydxcvuy","geo_precision":"zip"},"type":"Feature","geometry":{"type":"Point","coordinates":[-88.358984,42.95279]}},{"properties":{"zip":"53150","upb":"1,600,000.00","id":"ae200ylhbbf7","geo_precision":"zip"},"type":"Feature","geometry":{"type":"Point","coordinates":[-88.132708,42.88799]}},{"properties":{"zip":"53151","upb":"1,530,000.00","id":"ae200yb71ab7","geo_precision":"zip"},"type":"Feature","geometry":{"type":"Point","coordinates":[-88.127689,42.973459]}},{"properties":{"zip":"53154","upb":null,"id":"ae200ybancq0","geo_precision":"zip"},"type":"Feature","geometry":{"type":"Point","coordinates":[-87.89198,42.886266]}},{"properties":{"zip":"53202","upb":"982,079.09","id":"ae200ygq7goo","geo_precision":"zip"},"type":"Feature","geometry":{"type":"Point","coordinates":[-87.894734,43.043213]}},{"properties":{"zip":"53203","upb":"2,200,000.00","id":"ae200yk90cdr","geo_precision":"zip"},"type":"Feature","geometry":{"type":"Point","coordinates":[-87.916534,43.038313]}},{"properties":{"zip":"53204","upb":null,"id":"ae200yc8ozax","geo_precision":"zip"},"type":"Feature","geometry":{"type":"Point","coordinates":[-87.925534,43.019463]}},{"properties":{"zip":"53207","upb":null,"id":"ae200yapmm8e","geo_precision":"zip"},"type":"Feature","geometry":{"type":"Point","coordinates":[-87.894682,42.975115]}},{"properties":{"zip":"53211","upb":"3,670,705.63","id":"ae200ynbbvqs","geo_precision":"zip"},"type":"Feature","geometry":{"type":"Point","coordinates":[-87.889534,43.082018]}},{"properties":{"zip":"53212","upb":"4,011,918.39","id":"ae200y8duash","geo_precision":"zip"},"type":"Feature","geometry":{"type":"Point","coordinates":[-87.907178,43.074862]}},{"properties":{"zip":"53214","upb":"750,000.00","id":"ae200ymdzar4","geo_precision":"zip"},"type":"Feature","geometry":{"type":"Point","coordinates":[-88.017587,43.021514]}},{"properties":{"zip":"53215","upb":null,"id":"ae200ybt6ooj","geo_precision":"zip"},"type":"Feature","geometry":{"type":"Point","coordinates":[-87.942935,43.006014]}},{"properties":{"zip":"53220","upb":null,"id":"ae200ydd6ehu","geo_precision":"zip"},"type":"Feature","geometry":{"type":"Point","coordinates":[-88.012587,42.961404]}},{"properties":{"zip":"53222","upb":"240,000.00","id":"ae200y9y2g7a","geo_precision":"zip"},"type":"Feature","geometry":{"type":"Point","coordinates":[-88.036938,43.082161]}},{"properties":{"zip":"53223","upb":null,"id":"ae200ymvghgh","geo_precision":"zip"},"type":"Feature","geometry":{"type":"Point","coordinates":[-87.977896,43.162959]}},{"properties":{"zip":"53224","upb":null,"id":"ae200yb64i9p","geo_precision":"zip"},"type":"Feature","geometry":{"type":"Point","coordinates":[-88.022586,43.163122]}},{"properties":{"zip":"53225","upb":null,"id":"ae200yah0asy","geo_precision":"zip"},"type":"Feature","geometry":{"type":"Point","coordinates":[-88.040188,43.115159]}},{"properties":{"zip":"53226","upb":"4,250,000.00","id":"ae200yh78asd","geo_precision":"zip"},"type":"Feature","geometry":{"type":"Point","coordinates":[-88.041387,43.049312]}},{"properties":{"zip":"53227","upb":null,"id":"ae200ym3758p","geo_precision":"zip"},"type":"Feature","geometry":{"type":"Point","coordinates":[-88.031418,43.000926]}},{"properties":{"zip":"53233","upb":null,"id":"ae200yktir3s","geo_precision":"zip"},"type":"Feature","geometry":{"type":"Point","coordinates":[-87.933529,43.037213]}},{"properties":{"zip":"53406","upb":"1,043,000.18","id":"ae200ynydhag","geo_precision":"zip"},"type":"Feature","geometry":{"type":"Point","coordinates":[-87.866213,42.72993]}},{"properties":{"zip":"53511","upb":null,"id":"ae200yc36mrx","geo_precision":"zip"},"type":"Feature","geometry":{"type":"Point","coordinates":[-89.072889,42.528903]}},{"properties":{"zip":"53536","upb":"2,050,000.00","id":"ae200ylefxb6","geo_precision":"zip"},"type":"Feature","geometry":{"type":"Point","coordinates":[-89.240672,42.835282]}},{"properties":{"zip":"53719","upb":"9,545,366.00","id":"ae200ycnsl7i","geo_precision":"zip"},"type":"Feature","geometry":{"type":"Point","coordinates":[-89.494568,43.03125]}},{"properties":{"zip":"53946","upb":"500,000.00","id":"ae200ynyoqrk","geo_precision":"zip"},"type":"Feature","geometry":{"type":"Point","coordinates":[-88.981224,43.808593]}},{"properties":{"zip":"53950","upb":null,"id":"ae200ya461d5","geo_precision":"zip"},"type":"Feature","geometry":{"type":"Point","coordinates":[-90.165918,43.911145]}},{"properties":{"zip":"53959","upb":null,"id":"ae200yfbbc5x","geo_precision":"zip"},"type":"Feature","geometry":{"type":"Point","coordinates":[-89.966806,43.482108]}},{"properties":{"zip":"54115","upb":"761,897.49","id":"ae200ymxig7z","geo_precision":"zip"},"type":"Feature","geometry":{"type":"Point","coordinates":[-87.978279,44.453629]}},{"properties":{"zip":"54143","upb":null,"id":"ae200ykz1x4w","geo_precision":"zip"},"type":"Feature","geometry":{"type":"Point","coordinates":[-87.716311,45.086805]}},{"properties":{"zip":"54303","upb":"942,214.23","id":"ae200ylpp11d","geo_precision":"zip"},"type":"Feature","geometry":{"type":"Point","coordinates":[-88.078803,44.552247]}},{"properties":{"zip":"54914","upb":null,"id":"ae200yh0pome","geo_precision":"zip"},"type":"Feature","geometry":{"type":"Point","coordinates":[-88.486307,44.271285]}},{"properties":{"zip":"54923","upb":null,"id":"ae200yndfro1","geo_precision":"zip"},"type":"Feature","geometry":{"type":"Point","coordinates":[-89.037338,43.971091]}},{"properties":{"zip":"54935","upb":null,"id":"ae200yee3hej","geo_precision":"zip"},"type":"Feature","geometry":{"type":"Point","coordinates":[-88.376494,43.816379]}},{"properties":{"zip":"54937","upb":null,"id":"ae200yf0d574","geo_precision":"zip"},"type":"Feature","geometry":{"type":"Point","coordinates":[-88.605657,43.765009]}},{"properties":{"zip":"54952","upb":"680,366.32","id":"ae200yc72pzn","geo_precision":"zip"},"type":"Feature","geometry":{"type":"Point","coordinates":[-88.569088,44.141025]}},{"properties":{"zip":"54982","upb":"735,000.00","id":"ae200yn1ptqj","geo_precision":"zip"},"type":"Feature","geometry":{"type":"Point","coordinates":[-89.22623,44.055256]}},{"properties":{"zip":"55025","upb":"5,700,000.00","id":"ae200yl5qif7","geo_precision":"zip"},"type":"Feature","geometry":{"type":"Point","coordinates":[-92.949266,45.246466]}},{"properties":{"zip":"55044","upb":"19,820,000.00","id":"ae200yilh6vz","geo_precision":"zip"},"type":"Feature","geometry":{"type":"Point","coordinates":[-93.265499,44.66302]}},{"properties":{"zip":"55057","upb":null,"id":"ae200yaozsh9","geo_precision":"zip"},"type":"Feature","geometry":{"type":"Point","coordinates":[-93.286054,44.522464]}},{"properties":{"zip":"55102","upb":"367,500.00","id":"ae200ya89i3h","geo_precision":"zip"},"type":"Feature","geometry":{"type":"Point","coordinates":[-93.118968,44.932929]}},{"properties":{"zip":"55106","upb":"250,000.00","id":"ae200yonnun2","geo_precision":"zip"},"type":"Feature","geometry":{"type":"Point","coordinates":[-93.041616,44.957065]}},{"properties":{"zip":"55126","upb":"460,000.00","id":"ae200yl3nhtx","geo_precision":"zip"},"type":"Feature","geometry":{"type":"Point","coordinates":[-93.147167,45.079133]}},{"properties":{"zip":"55128","upb":"9,500,000.00","id":"ae200yj0mdxo","geo_precision":"zip"},"type":"Feature","geometry":{"type":"Point","coordinates":[-92.964936,44.963022]}},{"properties":{"zip":"55303","upb":"250,000.00","id":"ae200yj0wx3c","geo_precision":"zip"},"type":"Feature","geometry":{"type":"Point","coordinates":[-93.191893,45.279966]}},{"properties":{"zip":"55311","upb":"5,000,000.00","id":"ae200yj7xuwh","geo_precision":"zip"},"type":"Feature","geometry":{"type":"Point","coordinates":[-93.499583,45.124263]}},{"properties":{"zip":"55317","upb":null,"id":"ae200yhsbfyl","geo_precision":"zip"},"type":"Feature","geometry":{"type":"Point","coordinates":[-93.572584,44.853364]}},{"properties":{"zip":"55318","upb":null,"id":"ae200ydn5imk","geo_precision":"zip"},"type":"Feature","geometry":{"type":"Point","coordinates":[-93.688016,44.804963]}},{"properties":{"zip":"55330","upb":"73,000.00","id":"ae200yg5ql4q","geo_precision":"zip"},"type":"Feature","geometry":{"type":"Point","coordinates":[-93.644522,45.403289]}},{"properties":{"zip":"55331","upb":"250,000.00","id":"ae200ymztw5u","geo_precision":"zip"},"type":"Feature","geometry":{"type":"Point","coordinates":[-93.623186,44.912712]}},{"properties":{"zip":"55343","upb":"1,150,000.00","id":"ae200yiycvd2","geo_precision":"zip"},"type":"Feature","geometry":{"type":"Point","coordinates":[-93.441897,44.941075]}},{"properties":{"zip":"55347","upb":null,"id":"ae200yg0li7h","geo_precision":"zip"},"type":"Feature","geometry":{"type":"Point","coordinates":[-93.459829,44.841713]}},{"properties":{"zip":"55376","upb":"750,000.00","id":"ae200yn693ig","geo_precision":"zip"},"type":"Feature","geometry":{"type":"Point","coordinates":[-93.893628,45.16826]}},{"properties":{"zip":"55379","upb":"18,400,000.00","id":"ae200yn30mac","geo_precision":"zip"},"type":"Feature","geometry":{"type":"Point","coordinates":[-93.474144,44.731113]}},{"properties":{"zip":"55387","upb":"6,431,000.00","id":"ae200yl6dfv4","geo_precision":"zip"},"type":"Feature","geometry":{"type":"Point","coordinates":[-93.746148,44.844847]}},{"properties":{"zip":"55391","upb":"4,540,000.00","id":"ae200ynmk7fr","geo_precision":"zip"},"type":"Feature","geometry":{"type":"Point","coordinates":[-93.542233,44.984663]}},{"properties":{"zip":"55404","upb":"500,000.00","id":"ae200yiute30","geo_precision":"zip"},"type":"Feature","geometry":{"type":"Point","coordinates":[-93.329926,44.948614]}},{"properties":{"zip":"55423","upb":"340,000.00","id":"ae200yb3z6ix","geo_precision":"zip"},"type":"Feature","geometry":{"type":"Point","coordinates":[-93.283002,44.883298]}},{"properties":{"zip":"55427","upb":"350,000.00","id":"ae200y8o7uj7","geo_precision":"zip"},"type":"Feature","geometry":{"type":"Point","coordinates":[-93.349117,45.009687]}},{"properties":{"zip":"55428","upb":"1,672,289.00","id":"ae200ykuxxhg","geo_precision":"zip"},"type":"Feature","geometry":{"type":"Point","coordinates":[-93.360229,45.032743]}},{"properties":{"zip":"55429","upb":"1,000,000.00","id":"ae200yj3zuw3","geo_precision":"zip"},"type":"Feature","geometry":{"type":"Point","coordinates":[-93.332728,45.076076]}},{"properties":{"zip":"55432","upb":"1,213,000.00","id":"ae200ywsp0gs","geo_precision":"zip"},"type":"Feature","geometry":{"type":"Point","coordinates":[-93.238004,45.107743]}},{"properties":{"zip":"55437","upb":null,"id":"ae200z2ikrtu","geo_precision":"zip"},"type":"Feature","geometry":{"type":"Point","coordinates":[-93.353791,44.826064]}},{"properties":{"zip":"55446","upb":null,"id":"ae200yyd8jc0","geo_precision":"zip"},"type":"Feature","geometry":{"type":"Point","coordinates":[-93.486482,45.040013]}},{"properties":{"zip":"55802","upb":"960,000.00","id":"ae200z0b6125","geo_precision":"zip"},"type":"Feature","geometry":{"type":"Point","coordinates":[-92.039109,46.904912]}},{"properties":{"zip":"56301","upb":"475,000.00","id":"ae200z1unjau","geo_precision":"zip"},"type":"Feature","geometry":{"type":"Point","coordinates":[-94.24638,45.452743]}},{"properties":{"zip":"60012","upb":"2,545,000.00","id":"ae200z3do73j","geo_precision":"zip"},"type":"Feature","geometry":{"type":"Point","coordinates":[-88.361476,42.268356]}},{"properties":{"zip":"60014","upb":"2,019,000.00","id":"ae200z0e9zw7","geo_precision":"zip"},"type":"Feature","geometry":{"type":"Point","coordinates":[-88.291751,42.223079]}},{"properties":{"zip":"60035","upb":"-","id":"ae200yrt6n79","geo_precision":"zip"},"type":"Feature","geometry":{"type":"Point","coordinates":[-87.787009,42.163637]}},{"properties":{"zip":"60067","upb":"1,492,400.00","id":"ae200ywf06t0","geo_precision":"zip"},"type":"Feature","geometry":{"type":"Point","coordinates":[-88.055908,42.152248]}},{"properties":{"zip":"60083","upb":"6,370,000.00","id":"ae200yqpcur5","geo_precision":"zip"},"type":"Feature","geometry":{"type":"Point","coordinates":[-87.952578,42.465298]}},{"properties":{"zip":"60102","upb":"8,013,750.00","id":"ae200z2b28fb","geo_precision":"zip"},"type":"Feature","geometry":{"type":"Point","coordinates":[-88.260638,42.188913]}},{"properties":{"zip":"60107","upb":"4,561,364.71","id":"ae200z0pkuy4","geo_precision":"zip"},"type":"Feature","geometry":{"type":"Point","coordinates":[-88.178475,42.019093]}},{"properties":{"zip":"60123","upb":"18,240,000.00","id":"ae200yzgo4gs","geo_precision":"zip"},"type":"Feature","geometry":{"type":"Point","coordinates":[-88.371044,42.036325]}},{"properties":{"zip":"60143","upb":"-","id":"ae200yv9v7hb","geo_precision":"zip"},"type":"Feature","geometry":{"type":"Point","coordinates":[-88.088716,41.839679]}},{"properties":{"zip":"60152","upb":"185,585.00","id":"ae200yv2u7i0","geo_precision":"zip"},"type":"Feature","geometry":{"type":"Point","coordinates":[-88.564536,42.217245]}},{"properties":{"zip":"60174","upb":"730,000.00","id":"ae200z10p3nb","geo_precision":"zip"},"type":"Feature","geometry":{"type":"Point","coordinates":[-88.309799,41.960027]}},{"properties":{"zip":"60181","upb":"784,000.00","id":"ae200yxk1s4f","geo_precision":"zip"},"type":"Feature","geometry":{"type":"Point","coordinates":[-87.97643,41.875379]}},{"properties":{"zip":"60193","upb":"547,500.00","id":"ae200yube651","geo_precision":"zip"},"type":"Feature","geometry":{"type":"Point","coordinates":[-88.117844,42.016827]}},{"properties":{"zip":"60201","upb":null,"id":"ae200yzqzw04","geo_precision":"zip"},"type":"Feature","geometry":{"type":"Point","coordinates":[-87.702155,42.049148]}},{"properties":{"zip":"60423","upb":"10,246,895.00","id":"ae200yxpkdv9","geo_precision":"zip"},"type":"Feature","geometry":{"type":"Point","coordinates":[-87.896109,41.451744]}},{"properties":{"zip":"60426","upb":"4,150,000.00","id":"ae200yuni3fb","geo_precision":"zip"},"type":"Feature","geometry":{"type":"Point","coordinates":[-87.634768,41.611146]}},{"properties":{"zip":"60429","upb":"-","id":"ae200z0pyd39","geo_precision":"zip"},"type":"Feature","geometry":{"type":"Point","coordinates":[-87.646435,41.573646]}},{"properties":{"zip":"60432","upb":null,"id":"ae200z51yomb","geo_precision":"zip"},"type":"Feature","geometry":{"type":"Point","coordinates":[-88.045146,41.54273]}},{"properties":{"zip":"60434","upb":"1,000,000.00","id":"ae200z326coj","geo_precision":"zip"},"type":"Feature","geometry":{"type":"Point","coordinates":[-88.084208,41.52543]}},{"properties":{"zip":"60436","upb":"1,300,000.00","id":"ae200z0zq9b8","geo_precision":"zip"},"type":"Feature","geometry":{"type":"Point","coordinates":[-88.15716,41.48843]}},{"properties":{"zip":"60443","upb":null,"id":"ae200yxzfm6h","geo_precision":"zip"},"type":"Feature","geometry":{"type":"Point","coordinates":[-87.68732,41.811929]}},{"properties":{"zip":"60448","upb":"9,989,000.00","id":"ae200yp24kbs","geo_precision":"zip"},"type":"Feature","geometry":{"type":"Point","coordinates":[-87.847551,41.535589]}},{"properties":{"zip":"60451","upb":null,"id":"ae200z371cmm","geo_precision":"zip"},"type":"Feature","geometry":{"type":"Point","coordinates":[-87.912553,41.511421]}},{"properties":{"zip":"60459","upb":"-","id":"ae200z3nzid4","geo_precision":"zip"},"type":"Feature","geometry":{"type":"Point","coordinates":[-87.68732,41.811929]}},{"properties":{"zip":"60462","upb":"1,300,000.00","id":"ae200ysm4o9f","geo_precision":"zip"},"type":"Feature","geometry":{"type":"Point","coordinates":[-87.68732,41.811929]}},{"properties":{"zip":"60501","upb":"-","id":"ae200yxymihe","geo_precision":"zip"},"type":"Feature","geometry":{"type":"Point","coordinates":[-87.68732,41.811929]}},{"properties":{"zip":"60504","upb":null,"id":"ae200z2hk17f","geo_precision":"zip"},"type":"Feature","geometry":{"type":"Point","coordinates":[-88.136616,41.768399]}},{"properties":{"zip":"60523","upb":"726,300.00","id":"ae200yxxgd7i","geo_precision":"zip"},"type":"Feature","geometry":{"type":"Point","coordinates":[-87.963759,41.83713]}},{"properties":{"zip":"60563","upb":"7,785,000.00","id":"ae200yyxbmpp","geo_precision":"zip"},"type":"Feature","geometry":{"type":"Point","coordinates":[-88.149884,41.782455]}},{"properties":{"zip":"60608","upb":"338,958.00","id":"ae200yqas1s5","geo_precision":"zip"},"type":"Feature","geometry":{"type":"Point","coordinates":[-87.68732,41.811929]}},{"properties":{"zip":"60610","upb":"1,501,000.00","id":"ae200z34nc86","geo_precision":"zip"},"type":"Feature","geometry":{"type":"Point","coordinates":[-87.68732,41.811929]}},{"properties":{"zip":"60615","upb":"1,766,250.00","id":"ae200z3piakx","geo_precision":"zip"},"type":"Feature","geometry":{"type":"Point","coordinates":[-87.68732,41.811929]}},{"properties":{"zip":"60616","upb":"18,000,000.00","id":"ae200yv356pq","geo_precision":"zip"},"type":"Feature","geometry":{"type":"Point","coordinates":[-87.68732,41.811929]}},{"properties":{"zip":"60619","upb":"2,500,000.00","id":"ae200z4zo7g7","geo_precision":"zip"},"type":"Feature","geometry":{"type":"Point","coordinates":[-87.68732,41.811929]}},{"properties":{"zip":"60622","upb":"1,819,606.00","id":"ae200z0bitpp","geo_precision":"zip"},"type":"Feature","geometry":{"type":"Point","coordinates":[-87.68732,41.811929]}},{"properties":{"zip":"60623","upb":null,"id":"ae200z25m031","geo_precision":"zip"},"type":"Feature","geometry":{"type":"Point","coordinates":[-87.68732,41.811929]}},{"properties":{"zip":"60629","upb":"11,532,000.00","id":"ae200z1c815d","geo_precision":"zip"},"type":"Feature","geometry":{"type":"Point","coordinates":[-87.68732,41.811929]}},{"properties":{"zip":"60637","upb":"-","id":"ae200yy3qq7s","geo_precision":"zip"},"type":"Feature","geometry":{"type":"Point","coordinates":[-87.68732,41.811929]}},{"properties":{"zip":"60640","upb":"20,060,000.00","id":"ae200ysiq7mc","geo_precision":"zip"},"type":"Feature","geometry":{"type":"Point","coordinates":[-87.68732,41.811929]}},{"properties":{"zip":"60649","upb":"1,441,245.00","id":"ae200yuunwvs","geo_precision":"zip"},"type":"Feature","geometry":{"type":"Point","coordinates":[-87.68732,41.811929]}},{"properties":{"zip":"60657","upb":"2,170,000.00","id":"ae200ysa1009","geo_precision":"zip"},"type":"Feature","geometry":{"type":"Point","coordinates":[-87.68732,41.811929]}},{"properties":{"zip":"61111","upb":null,"id":"ae200yp5ek1b","geo_precision":"zip"},"type":"Feature","geometry":{"type":"Point","coordinates":[-89.017884,42.340296]}},{"properties":{"zip":"63104","upb":"550,000.00","id":"ae200yx0lgwb","geo_precision":"zip"},"type":"Feature","geometry":{"type":"Point","coordinates":[-90.214461,38.611401]}},{"properties":{"zip":"63119","upb":"7,400,000.00","id":"ae200yyzyoha","geo_precision":"zip"},"type":"Feature","geometry":{"type":"Point","coordinates":[-90.348116,38.589302]}},{"properties":{"zip":"63141","upb":"100,000.00","id":"ae200yt73xs7","geo_precision":"zip"},"type":"Feature","geometry":{"type":"Point","coordinates":[-90.422618,38.660886]}},{"properties":{"zip":"63144","upb":"4,950,000.00","id":"ae200z37sjfr","geo_precision":"zip"},"type":"Feature","geometry":{"type":"Point","coordinates":[-90.349283,38.617552]}},{"properties":{"zip":"63301","upb":"750,000.00","id":"ae200ywis11g","geo_precision":"zip"},"type":"Feature","geometry":{"type":"Point","coordinates":[-90.523175,38.865328]}},{"properties":{"zip":"64086","upb":"2,800,000.00","id":"ae200ytuwrmm","geo_precision":"zip"},"type":"Feature","geometry":{"type":"Point","coordinates":[-94.288086,38.944006]}},{"properties":{"zip":"64108","upb":"9,915,978.80","id":"ae200ywddu94","geo_precision":"zip"},"type":"Feature","geometry":{"type":"Point","coordinates":[-94.584133,39.083804]}},{"properties":{"zip":"64116","upb":"1,970,212.96","id":"ae200yqty8h4","geo_precision":"zip"},"type":"Feature","geometry":{"type":"Point","coordinates":[-94.562177,39.130004]}},{"properties":{"zip":"65262","upb":"1,155,382.00","id":"ae200yrafe2d","geo_precision":"zip"},"type":"Feature","geometry":{"type":"Point","coordinates":[-91.92418,38.959176]}},{"properties":{"zip":"66062","upb":"635,998.36","id":"ae200yruio58","geo_precision":"zip"},"type":"Feature","geometry":{"type":"Point","coordinates":[-94.778714,38.847391]}},{"properties":{"zip":"66209","upb":"5,300,000.00","id":"ae200yrm480x","geo_precision":"zip"},"type":"Feature","geometry":{"type":"Point","coordinates":[-94.616901,38.966673]}},{"properties":{"zip":"66224","upb":"3,633,147.00","id":"ae200yzfxnmj","geo_precision":"zip"},"type":"Feature","geometry":{"type":"Point","coordinates":[-94.631442,38.859094]}},{"properties":{"zip":"75035","upb":null,"id":"ae200z1267e5","geo_precision":"zip"},"type":"Feature","geometry":{"type":"Point","coordinates":[-96.772929,33.157083]}},{"properties":{"zip":"85377","upb":"1,700,000.00","id":"ae200ypving4","geo_precision":"zip"},"type":"Feature","geometry":{"type":"Point","coordinates":[-112.18717,33.276539]}},{"properties":{"zip":"87109","upb":null,"id":"ae200yprqj9z","geo_precision":"zip"},"type":"Feature","geometry":{"type":"Point","coordinates":[-106.58678,35.127194]}},{"properties":{"zip":"87111","upb":null,"id":"ae200ywr12kp","geo_precision":"zip"},"type":"Feature","geometry":{"type":"Point","coordinates":[-106.454173,35.071965]}},{"properties":{"zip":"87113","upb":null,"id":"ae200yv2r2bz","geo_precision":"zip"},"type":"Feature","geometry":{"type":"Point","coordinates":[-106.50573,35.145397]}},{"properties":{"zip":"33966","upb":"14,540,750.00","id":"ae200z0mry1p","geo_precision":"zip"},"type":"Feature","geometry":{"type":"Point","coordinates":[-82.045366,26.929784]}}],"is_temporal":false,"author":{"url":"","metadata":"","contact_name":"","contact_address":"","source":"","contact_phone":""},"source":"","pagination":{"sort":null,"start":0,"total":165,"limit":1000000},"state":"complete","tags":"","published":"2014-08-16T19:04:53-04:00","id":353878}