{"type":"FeatureCollection","data_type":"Dataset","url_type":null,"permissions":[{"permissions":{"download":true,"view":true},"group_id":"everyone"}],"classification":null,"title":"library","count":27,"stream_id":353927,"contributor":{"url":"http://geocommons.com/users/71403","name":"mofat01"},"data_attributes":null,"calculation_params":null,"icon_link":null,"link":"http://geocommons.com/overlays/353927.json","extent":[-112.862,31.5757,-110.787,32.4904],"geometry_types":["point"],"unique_name":null,"name":"library","feature_count":27,"description":"","next_feature":null,"is_raster":false,"short_classification":"Y","stats":{},"features":[{"properties":{"BRANCH":"Dewhirst-Catalina","PHONE":"594-5240","id":"ae2e0dgd0evb","ADDRESS":"15631 N ORACLE RD #199"},"type":"Feature","geometry":{"type":"Point","coordinates":[-110.92526822914,32.4903955212782]}},{"properties":{"BRANCH":"Dusenberry-River","PHONE":"594-5345","id":"ae2e0dqovb96","ADDRESS":"5605 E RIVER RD #105"},"type":"Feature","geometry":{"type":"Point","coordinates":[-110.873139159691,32.275224219268]}},{"properties":{"BRANCH":"Kirk-Bear Canyon","PHONE":"594-5275","id":"ae2e0dlsyo6b","ADDRESS":"8959 E TANQUE VERDE RD"},"type":"Feature","geometry":{"type":"Point","coordinates":[-110.801393822484,32.2594367934653]}},{"properties":{"BRANCH":"Woods Memorial","PHONE":"594-5445","id":"ae2e0dirxk7k","ADDRESS":"3455 N 1ST AV"},"type":"Feature","geometry":{"type":"Point","coordinates":[-110.961548033481,32.269878918089]}},{"properties":{"BRANCH":"Joel Valdez-Main","PHONE":"594-5500","id":"ae2e0domiav3","ADDRESS":"101 N STONE AV"},"type":"Feature","geometry":{"type":"Point","coordinates":[-110.972005011723,32.2236033446487]}},{"properties":{"BRANCH":"Eckstrom-Columbus","PHONE":"594-5285","id":"ae2e0don8d0k","ADDRESS":"4350 E 22ND ST"},"type":"Feature","geometry":{"type":"Point","coordinates":[-110.900346345254,32.2065661695811]}},{"properties":{"BRANCH":"El Pueblo","PHONE":"594-5250","id":"ae2e0dirkhis","ADDRESS":"101 W IRVINGTON RD"},"type":"Feature","geometry":{"type":"Point","coordinates":[-110.970054946499,32.1625755379796]}},{"properties":{"BRANCH":"El Rio","PHONE":"594-5245","id":"ae2e0ddrdlqc","ADDRESS":"1390 W SPEEDWAY BL"},"type":"Feature","geometry":{"type":"Point","coordinates":[-110.994749855972,32.236371993495]}},{"properties":{"BRANCH":"Himmel Park","PHONE":"594-5305","id":"ae2e0dc2fb4f","ADDRESS":"1035 N TREAT AV"},"type":"Feature","geometry":{"type":"Point","coordinates":[-110.9315726819,32.2345695363598]}},{"properties":{"BRANCH":"Mission","PHONE":"594-5325","id":"ae2e0ddyprzx","ADDRESS":"3770 S MISSION RD"},"type":"Feature","geometry":{"type":"Point","coordinates":[-111.004308873883,32.1783790197624]}},{"properties":{"BRANCH":"Sam Lena-South Tucson","PHONE":"594-5275","id":"ae2e0drajlnf","ADDRESS":"1607 S 6TH AV"},"type":"Feature","geometry":{"type":"Point","coordinates":[-110.968028784733,32.2024144124244]}},{"properties":{"BRANCH":"Valencia","PHONE":"594-5390","id":"ae2e0djo88cv","ADDRESS":"202 W VALENCIA RD"},"type":"Feature","geometry":{"type":"Point","coordinates":[-110.972487684488,32.1345375263536]}},{"properties":{"BRANCH":"Murphy-Wilmot","PHONE":"594-5420","id":"ae2e0dk0ysx4","ADDRESS":"530 N WILMOT RD"},"type":"Feature","geometry":{"type":"Point","coordinates":[-110.857287663574,32.2278322807489]}},{"properties":{"BRANCH":"Salazar-Ajo","PHONE":"387-6075","id":"ae2e0do5n9m1","ADDRESS":"33 W PLAZA ST"},"type":"Feature","geometry":{"type":"Point","coordinates":[-112.861964849674,32.3726034190275]}},{"properties":{"BRANCH":"Caviglia-Arivaca","PHONE":"594-5235","id":"ae2e0dlbkksq","ADDRESS":"17050 W ARIVACA RD"},"type":"Feature","geometry":{"type":"Point","coordinates":[-111.326942875599,31.5756793039354]}},{"properties":{"BRANCH":"Joyner-Green Valley","PHONE":"594-5295","id":"ae2e0digtm47","ADDRESS":"601 N LA CANADA DR"},"type":"Feature","geometry":{"type":"Point","coordinates":[-110.996194954667,31.8811984136243]}},{"properties":{"BRANCH":"Miller-Golf Links","PHONE":"594-5355","id":"ae2e0dp73fs5","ADDRESS":"9640 E GOLF LINKS RD"},"type":"Feature","geometry":{"type":"Point","coordinates":[-110.786590593058,32.1907657752129]}},{"properties":{"BRANCH":"Nanini","PHONE":"594-5365","id":"ae2e0dl14zyg","ADDRESS":"7300 N SHANNON RD"},"type":"Feature","geometry":{"type":"Point","coordinates":[-111.028213581003,32.3398736796392]}},{"properties":{"BRANCH":"Oro Valley Library","PHONE":"229-5300","id":"ae2e0dbm9zuy","ADDRESS":"1305 W NARANJA DR"},"type":"Feature","geometry":{"type":"Point","coordinates":[-110.994398457109,32.4088878708057]}},{"properties":{"BRANCH":"Geasa-Marana","PHONE":"594-5255","id":"ae2e0dc37ps6","ADDRESS":"13370 N LON ADAMS RD"},"type":"Feature","geometry":{"type":"Point","coordinates":[-111.207602532707,32.4493637903321]}},{"properties":{"BRANCH":"Martha Cooper","PHONE":"594-5315","id":"ae2e0dcma3yu","ADDRESS":"1377 N CATALINA AV"},"type":"Feature","geometry":{"type":"Point","coordinates":[-110.899595222388,32.2393469971839]}},{"properties":{"BRANCH":"Quincie Douglas","PHONE":"594-5335","id":"ae2e0dnl6y7q","ADDRESS":"1585 E 36TH ST"},"type":"Feature","geometry":{"type":"Point","coordinates":[-110.949139088785,32.1933060853828]}},{"properties":{"BRANCH":"Santa Rosa","PHONE":"594-5260","id":"ae2e0djjv59c","ADDRESS":"1075 S 10TH AV"},"type":"Feature","geometry":{"type":"Point","coordinates":[-110.974381441424,32.2084775666019]}},{"properties":{"BRANCH":"Southwest","PHONE":"594-5270","id":"ae2e0dmxqbls","ADDRESS":"6855 S MARK RD"},"type":"Feature","geometry":{"type":"Point","coordinates":[-111.071094330937,32.1274401348197]}},{"properties":{"BRANCH":"Wheeler Taft Abbett, Sr.","PHONE":"594-5200","id":"ae2e0dfocuff","ADDRESS":"7800 N SCHISLER DR"},"type":"Feature","geometry":{"type":"Point","coordinates":[-111.095354997291,32.348687926311]}},{"properties":{"BRANCH":"Flowing Wells","PHONE":"594-5225","id":"ae2e0dk44xri","ADDRESS":"1730 W WETMORE RD"},"type":"Feature","geometry":{"type":"Point","coordinates":[-111.001949414961,32.28729374491]}},{"properties":{"BRANCH":"Sahuarita","PHONE":"594-5490","id":"ae2e0ddh7vaa","ADDRESS":"725 W VIA RANCHO SAHUARITA"},"type":"Feature","geometry":{"type":"Point","coordinates":[-110.980113635247,31.9567511113273]}}],"is_temporal":false,"author":{"url":"","metadata":null,"contact_name":null,"contact_address":null,"source":null,"contact_phone":null},"source":"","pagination":{"sort":null,"start":0,"total":27,"limit":1000000},"state":"complete","tags":"","published":"2014-08-16T19:09:43-04:00","id":353927}