{"type":"FeatureCollection","data_type":"Dataset","url_type":null,"permissions":[{"permissions":{"download":true,"view":true},"group_id":"everyone"}],"classification":null,"title":"Feb 10 LA","count":580,"stream_id":35411,"contributor":{"url":"http://geocommons.com/users/12300","name":"trgresham"},"data_attributes":null,"calculation_params":null,"icon_link":null,"link":"http://geocommons.com/overlays/35411.json","extent":[-120.573,32.5664,-114.414,35.888],"geometry_types":["point"],"unique_name":null,"name":"Feb 10 LA","feature_count":580,"description":"Feb 2010 Median Sales by zip, change from Feb 2009","next_feature":null,"is_raster":false,"short_classification":"Y","stats":{"chg":{"max":5.06,"mean":0.078448275862069,"variance":0.169600005955572,"stdev":0.411825212870183,"min":-0.69,"median":0.02},"median":{"max":4150,"mean":455.786206896552,"variance":161488.078565898,"stdev":401.855793246655,"min":45,"median":360}},"features":[{"properties":{"zip":"90001","chg":-0.04,"median":160,"id":"a632c1x5bei0"},"type":"Feature","geometry":{"type":"Point","coordinates":[-118.243128,33.965571]}},{"properties":{"zip":"90002","chg":0.11,"median":143,"id":"a632c1vvof45"},"type":"Feature","geometry":{"type":"Point","coordinates":[-118.237305,33.960214]}},{"properties":{"zip":"90003","chg":-0.11,"median":136,"id":"a632c1pmk3ee"},"type":"Feature","geometry":{"type":"Point","coordinates":[-118.273156,33.949164]}},{"properties":{"zip":"90004","chg":-0.39,"median":512,"id":"a632c1qhlmxi"},"type":"Feature","geometry":{"type":"Point","coordinates":[-118.298662,33.786594]}},{"properties":{"zip":"90006","chg":-0.32,"median":220,"id":"a632c21ojxem"},"type":"Feature","geometry":{"type":"Point","coordinates":[-118.298662,33.786594]}},{"properties":{"zip":"90007","chg":-0.69,"median":315,"id":"a632c1n9ctq4"},"type":"Feature","geometry":{"type":"Point","coordinates":[-118.298662,33.786594]}},{"properties":{"zip":"90008","chg":-0.03,"median":450,"id":"a632c1wsppwz"},"type":"Feature","geometry":{"type":"Point","coordinates":[-118.298662,33.786594]}},{"properties":{"zip":"90011","chg":-0.08,"median":140,"id":"a632c1mg96i4"},"type":"Feature","geometry":{"type":"Point","coordinates":[-118.250056,33.989264]}},{"properties":{"zip":"90012","chg":0.81,"median":445,"id":"a632c1xc8ms1"},"type":"Feature","geometry":{"type":"Point","coordinates":[-118.298662,33.786594]}},{"properties":{"zip":"90016","chg":0.15,"median":340,"id":"a632c1pku26e"},"type":"Feature","geometry":{"type":"Point","coordinates":[-118.298662,33.786594]}},{"properties":{"zip":"90018","chg":-0.04,"median":271,"id":"a632c209lrcu"},"type":"Feature","geometry":{"type":"Point","coordinates":[-118.298662,33.786594]}},{"properties":{"zip":"90019","chg":0.0,"median":476,"id":"a632c1oayju9"},"type":"Feature","geometry":{"type":"Point","coordinates":[-118.298662,33.786594]}},{"properties":{"zip":"90020","chg":-0.3,"median":2532,"id":"a632c1ykw57r"},"type":"Feature","geometry":{"type":"Point","coordinates":[-118.298662,33.786594]}},{"properties":{"zip":"90022","chg":-0.03,"median":215,"id":"a632c1lsyy6b"},"type":"Feature","geometry":{"type":"Point","coordinates":[-118.162849,34.02779]}},{"properties":{"zip":"90023","chg":0.3,"median":156,"id":"a632c1pp1jte"},"type":"Feature","geometry":{"type":"Point","coordinates":[-118.196055,34.008262]}},{"properties":{"zip":"90024","chg":0.31,"median":1448,"id":"a632c1oubk0g"},"type":"Feature","geometry":{"type":"Point","coordinates":[-118.298662,33.786594]}},{"properties":{"zip":"90025","chg":-0.27,"median":757,"id":"a632c1zxh4ti"},"type":"Feature","geometry":{"type":"Point","coordinates":[-118.448135,34.046399]}},{"properties":{"zip":"90026","chg":-0.25,"median":325,"id":"a632c21la3zx"},"type":"Feature","geometry":{"type":"Point","coordinates":[-118.259241,34.09001]}},{"properties":{"zip":"90027","chg":-0.46,"median":651,"id":"a632c1q2fsaf"},"type":"Feature","geometry":{"type":"Point","coordinates":[-118.298662,33.786594]}},{"properties":{"zip":"90029","chg":-0.09,"median":260,"id":"a632c1s7yogq"},"type":"Feature","geometry":{"type":"Point","coordinates":[-118.298662,33.786594]}},{"properties":{"zip":"90031","chg":-0.03,"median":301,"id":"a632c1nn71of"},"type":"Feature","geometry":{"type":"Point","coordinates":[-118.205073,34.070566]}},{"properties":{"zip":"90032","chg":-0.01,"median":220,"id":"a632c1qayacy"},"type":"Feature","geometry":{"type":"Point","coordinates":[-118.17785,34.081121]}},{"properties":{"zip":"90033","chg":0.12,"median":223,"id":"a632c1xpx9wd"},"type":"Feature","geometry":{"type":"Point","coordinates":[-118.20535,34.033901]}},{"properties":{"zip":"90034","chg":-0.34,"median":511,"id":"a632c1orb8h1"},"type":"Feature","geometry":{"type":"Point","coordinates":[-118.405633,34.022789]}},{"properties":{"zip":"90035","chg":-0.57,"median":811,"id":"a632c21oq7ov"},"type":"Feature","geometry":{"type":"Point","coordinates":[-118.298662,33.786594]}},{"properties":{"zip":"90036","chg":0.37,"median":1000,"id":"a632c1w0ooki"},"type":"Feature","geometry":{"type":"Point","coordinates":[-118.298662,33.786594]}},{"properties":{"zip":"90037","chg":-0.11,"median":160,"id":"a632c1looq8v"},"type":"Feature","geometry":{"type":"Point","coordinates":[-118.298662,33.786594]}},{"properties":{"zip":"90039","chg":-0.13,"median":525,"id":"a632c1swwdca"},"type":"Feature","geometry":{"type":"Point","coordinates":[-118.298662,33.786594]}},{"properties":{"zip":"90040","chg":0.53,"median":268,"id":"a632c1mmwbwy"},"type":"Feature","geometry":{"type":"Point","coordinates":[-118.159793,34.000569]}},{"properties":{"zip":"90041","chg":0.23,"median":419,"id":"a632c1txca9b"},"type":"Feature","geometry":{"type":"Point","coordinates":[-118.213962,34.138897]}},{"properties":{"zip":"90042","chg":0.09,"median":303,"id":"a632c1qhankv"},"type":"Feature","geometry":{"type":"Point","coordinates":[-118.198962,34.111953]}},{"properties":{"zip":"90043","chg":0.01,"median":251,"id":"a632c1r92ig4"},"type":"Feature","geometry":{"type":"Point","coordinates":[-118.342576,33.998902]}},{"properties":{"zip":"90044","chg":0.18,"median":176,"id":"a632c1qzrh22"},"type":"Feature","geometry":{"type":"Point","coordinates":[-118.302296,33.941404]}},{"properties":{"zip":"90045","chg":0.08,"median":685,"id":"a632c1n2lol3"},"type":"Feature","geometry":{"type":"Point","coordinates":[-118.375354,33.994179]}},{"properties":{"zip":"90046","chg":-0.25,"median":805,"id":"a632c1p8olcj"},"type":"Feature","geometry":{"type":"Point","coordinates":[-118.298662,33.786594]}},{"properties":{"zip":"90047","chg":0.01,"median":213,"id":"a632c1licuae"},"type":"Feature","geometry":{"type":"Point","coordinates":[-118.281184,33.920015]}},{"properties":{"zip":"90048","chg":-0.13,"median":1050,"id":"a632c1t1uj2l"},"type":"Feature","geometry":{"type":"Point","coordinates":[-118.298662,33.786594]}},{"properties":{"zip":"90049","chg":-0.53,"median":1473,"id":"a632c1vnei4q"},"type":"Feature","geometry":{"type":"Point","coordinates":[-118.473969,34.051954]}},{"properties":{"zip":"90056","chg":-0.2,"median":547,"id":"a632c20t918d"},"type":"Feature","geometry":{"type":"Point","coordinates":[-118.353965,33.988902]}},{"properties":{"zip":"90059","chg":0.03,"median":120,"id":"a632c2078o8q"},"type":"Feature","geometry":{"type":"Point","coordinates":[-118.244955,33.921065]}},{"properties":{"zip":"90061","chg":0.04,"median":150,"id":"a632c1ziuay1"},"type":"Feature","geometry":{"type":"Point","coordinates":[-118.275356,33.920965]}},{"properties":{"zip":"90062","chg":-0.29,"median":160,"id":"a632c1tcr63l"},"type":"Feature","geometry":{"type":"Point","coordinates":[-118.331465,34.006957]}},{"properties":{"zip":"90063","chg":-0.09,"median":208,"id":"a632c1z7hkv1"},"type":"Feature","geometry":{"type":"Point","coordinates":[-118.18285,34.050012]}},{"properties":{"zip":"90064","chg":-0.45,"median":720,"id":"a632c1ohpnr1"},"type":"Feature","geometry":{"type":"Point","coordinates":[-118.298662,33.786594]}},{"properties":{"zip":"90065","chg":-0.07,"median":405,"id":"a632c1q2hbe5"},"type":"Feature","geometry":{"type":"Point","coordinates":[-118.298662,33.786594]}},{"properties":{"zip":"90066","chg":0.1,"median":660,"id":"a632c1vm922m"},"type":"Feature","geometry":{"type":"Point","coordinates":[-118.430912,34.004734]}},{"properties":{"zip":"90068","chg":0.4,"median":994,"id":"a632c20wgq0o"},"type":"Feature","geometry":{"type":"Point","coordinates":[-118.298662,33.786594]}},{"properties":{"zip":"90069","chg":-0.05,"median":1920,"id":"a632c1n2ersk"},"type":"Feature","geometry":{"type":"Point","coordinates":[-118.298662,33.786594]}},{"properties":{"zip":"90077","chg":-0.22,"median":1800,"id":"a632c1x4gfpc"},"type":"Feature","geometry":{"type":"Point","coordinates":[-118.298662,33.786594]}},{"properties":{"zip":"90201","chg":0.11,"median":290,"id":"a632c1qx74iz"},"type":"Feature","geometry":{"type":"Point","coordinates":[-118.172849,33.980292]}},{"properties":{"zip":"90210","chg":-0.36,"median":2359,"id":"a632c1r44ctv"},"type":"Feature","geometry":{"type":"Point","coordinates":[-118.298662,33.786594]}},{"properties":{"zip":"90211","chg":0.17,"median":1400,"id":"a632c1lry2l5"},"type":"Feature","geometry":{"type":"Point","coordinates":[-118.298662,33.786594]}},{"properties":{"zip":"90220","chg":-0.13,"median":160,"id":"a632c1p33twa"},"type":"Feature","geometry":{"type":"Point","coordinates":[-118.240208,33.874815]}},{"properties":{"zip":"90221","chg":0.0,"median":183,"id":"a632c1zp0lem"},"type":"Feature","geometry":{"type":"Point","coordinates":[-118.195348,33.898071]}},{"properties":{"zip":"90222","chg":0.05,"median":150,"id":"a632c1stccp9"},"type":"Feature","geometry":{"type":"Point","coordinates":[-118.255073,33.91696]}},{"properties":{"zip":"90230","chg":0.16,"median":585,"id":"a632c1pp247h"},"type":"Feature","geometry":{"type":"Point","coordinates":[-118.298662,33.786594]}},{"properties":{"zip":"90232","chg":-0.45,"median":456,"id":"a632c1n53ksj"},"type":"Feature","geometry":{"type":"Point","coordinates":[-118.298662,33.786594]}},{"properties":{"zip":"90240","chg":0.05,"median":405,"id":"a632c20aj9jy"},"type":"Feature","geometry":{"type":"Point","coordinates":[-118.119461,33.946363]}},{"properties":{"zip":"90241","chg":0.12,"median":425,"id":"a632c1xol3g9"},"type":"Feature","geometry":{"type":"Point","coordinates":[-118.125851,33.939164]}},{"properties":{"zip":"90242","chg":0.08,"median":335,"id":"a632c1onwxyi"},"type":"Feature","geometry":{"type":"Point","coordinates":[-118.139969,33.922714]}},{"properties":{"zip":"90245","chg":-0.07,"median":707,"id":"a632c1olvm41"},"type":"Feature","geometry":{"type":"Point","coordinates":[-118.378687,33.922236]}},{"properties":{"zip":"90247","chg":-0.05,"median":307,"id":"a632c1mwsac6"},"type":"Feature","geometry":{"type":"Point","coordinates":[-118.303407,33.923348]}},{"properties":{"zip":"90248","chg":0.52,"median":485,"id":"a632c1xwk8wc"},"type":"Feature","geometry":{"type":"Point","coordinates":[-118.269605,33.877165]}},{"properties":{"zip":"90249","chg":0.09,"median":380,"id":"a632c1wcdzpq"},"type":"Feature","geometry":{"type":"Point","coordinates":[-118.299106,33.858866]}},{"properties":{"zip":"90250","chg":0.1,"median":345,"id":"a632c20s9xt9"},"type":"Feature","geometry":{"type":"Point","coordinates":[-118.298662,33.786594]}},{"properties":{"zip":"90254","chg":0.4,"median":1250,"id":"a632c1rw7y1g"},"type":"Feature","geometry":{"type":"Point","coordinates":[-118.298662,33.786594]}},{"properties":{"zip":"90255","chg":-0.08,"median":240,"id":"a632c1t8jygk"},"type":"Feature","geometry":{"type":"Point","coordinates":[-118.225072,33.96807]}},{"properties":{"zip":"90260","chg":0.02,"median":371,"id":"a632c1om16z9"},"type":"Feature","geometry":{"type":"Point","coordinates":[-118.298662,33.786594]}},{"properties":{"zip":"90262","chg":0.05,"median":235,"id":"a632c21w0oyf"},"type":"Feature","geometry":{"type":"Point","coordinates":[-118.192015,33.910293]}},{"properties":{"zip":"90265","chg":-0.25,"median":1573,"id":"a632c1nusvph"},"type":"Feature","geometry":{"type":"Point","coordinates":[-118.579527,34.040009]}},{"properties":{"zip":"90266","chg":0.27,"median":1530,"id":"a632c21cngz7"},"type":"Feature","geometry":{"type":"Point","coordinates":[-118.298662,33.786594]}},{"properties":{"zip":"90270","chg":0.21,"median":243,"id":"a632c1rb76rn"},"type":"Feature","geometry":{"type":"Point","coordinates":[-118.187376,33.988463]}},{"properties":{"zip":"90272","chg":0.02,"median":1696,"id":"a632c1mxe2ti"},"type":"Feature","geometry":{"type":"Point","coordinates":[-118.561194,34.042509]}},{"properties":{"zip":"90274","chg":0.27,"median":1500,"id":"a632c1p9w0te"},"type":"Feature","geometry":{"type":"Point","coordinates":[-118.358128,33.787794]}},{"properties":{"zip":"90275","chg":0.12,"median":1020,"id":"a632c1s9iqib"},"type":"Feature","geometry":{"type":"Point","coordinates":[-118.298662,33.786594]}},{"properties":{"zip":"90277","chg":0.12,"median":725,"id":"a632c1y6fcd0"},"type":"Feature","geometry":{"type":"Point","coordinates":[-118.379796,33.827515]}},{"properties":{"zip":"90278","chg":-0.12,"median":555,"id":"a632c1p4ay3y"},"type":"Feature","geometry":{"type":"Point","coordinates":[-118.179754,33.987613]}},{"properties":{"zip":"90280","chg":0.02,"median":250,"id":"a632c1za2png"},"type":"Feature","geometry":{"type":"Point","coordinates":[-118.168125,33.929737]}},{"properties":{"zip":"90290","chg":0.22,"median":856,"id":"a632c1sdxg4j"},"type":"Feature","geometry":{"type":"Point","coordinates":[-118.629252,34.107507]}},{"properties":{"zip":"90291","chg":-0.4,"median":759,"id":"a632c1wzkt7g"},"type":"Feature","geometry":{"type":"Point","coordinates":[-118.298662,33.786594]}},{"properties":{"zip":"90292","chg":-0.14,"median":1185,"id":"a632c1vko0j9"},"type":"Feature","geometry":{"type":"Point","coordinates":[-118.298662,33.786594]}},{"properties":{"zip":"90293","chg":0.22,"median":1159,"id":"a632c1ndx8xw"},"type":"Feature","geometry":{"type":"Point","coordinates":[-118.298662,33.786594]}},{"properties":{"zip":"90301","chg":-0.1,"median":245,"id":"a632c1m28b8h"},"type":"Feature","geometry":{"type":"Point","coordinates":[-118.298662,33.786594]}},{"properties":{"zip":"90302","chg":-0.21,"median":240,"id":"a632c21uzpsk"},"type":"Feature","geometry":{"type":"Point","coordinates":[-118.298662,33.786594]}},{"properties":{"zip":"90303","chg":-0.02,"median":275,"id":"a632c1t0diwf"},"type":"Feature","geometry":{"type":"Point","coordinates":[-118.298662,33.786594]}},{"properties":{"zip":"90305","chg":-0.14,"median":299,"id":"a632c1wkb5ad"},"type":"Feature","geometry":{"type":"Point","coordinates":[-118.326464,33.959736]}},{"properties":{"zip":"90402","chg":-0.06,"median":2057,"id":"a632c1s1y4fs"},"type":"Feature","geometry":{"type":"Point","coordinates":[-118.298662,33.786594]}},{"properties":{"zip":"90405","chg":-0.33,"median":736,"id":"a632c1scs6gx"},"type":"Feature","geometry":{"type":"Point","coordinates":[-118.483691,34.002233]}},{"properties":{"zip":"90501","chg":0.06,"median":472,"id":"a632c206c9e4"},"type":"Feature","geometry":{"type":"Point","coordinates":[-118.303805,33.835665]}},{"properties":{"zip":"90503","chg":0.02,"median":608,"id":"a632c1wqcqw5"},"type":"Feature","geometry":{"type":"Point","coordinates":[-118.210348,33.846406]}},{"properties":{"zip":"90504","chg":0.04,"median":469,"id":"a632c1vss20y"},"type":"Feature","geometry":{"type":"Point","coordinates":[-118.298662,33.786594]}},{"properties":{"zip":"90505","chg":-0.1,"median":609,"id":"a632c206tce1"},"type":"Feature","geometry":{"type":"Point","coordinates":[-118.298662,33.786594]}},{"properties":{"zip":"90601","chg":-0.1,"median":360,"id":"a632c1lq1f1f"},"type":"Feature","geometry":{"type":"Point","coordinates":[-118.0441,34.004311]}},{"properties":{"zip":"90602","chg":0.07,"median":299,"id":"a632c1r359ue"},"type":"Feature","geometry":{"type":"Point","coordinates":[-118.036578,33.971839]}},{"properties":{"zip":"90603","chg":0.19,"median":438,"id":"a632c20r6fg5"},"type":"Feature","geometry":{"type":"Point","coordinates":[-118.344518,33.865571]}},{"properties":{"zip":"90604","chg":-0.07,"median":313,"id":"a632c1opp2z2"},"type":"Feature","geometry":{"type":"Point","coordinates":[-118.009085,33.932663]}},{"properties":{"zip":"90605","chg":0.07,"median":320,"id":"a632c21tyoec"},"type":"Feature","geometry":{"type":"Point","coordinates":[-118.041733,33.960846]}},{"properties":{"zip":"90606","chg":-0.06,"median":273,"id":"a632c1vhgtj8"},"type":"Feature","geometry":{"type":"Point","coordinates":[-118.057012,33.988624]}},{"properties":{"zip":"90620","chg":0.07,"median":380,"id":"a632c1pfz13f"},"type":"Feature","geometry":{"type":"Point","coordinates":[-117.769442,33.640302]}},{"properties":{"zip":"90621","chg":0.29,"median":334,"id":"a632c1n871fo"},"type":"Feature","geometry":{"type":"Point","coordinates":[-117.769442,33.640302]}},{"properties":{"zip":"90623","chg":0.07,"median":553,"id":"a632c1u20km4"},"type":"Feature","geometry":{"type":"Point","coordinates":[-117.769442,33.640302]}},{"properties":{"zip":"90630","chg":-0.07,"median":468,"id":"a632c1tzuw3j"},"type":"Feature","geometry":{"type":"Point","coordinates":[-118.023952,33.82446]}},{"properties":{"zip":"90631","chg":0.3,"median":430,"id":"a632c1p6gb9e"},"type":"Feature","geometry":{"type":"Point","coordinates":[-117.950619,33.960846]}},{"properties":{"zip":"90638","chg":-0.09,"median":335,"id":"a632c1npqh2p"},"type":"Feature","geometry":{"type":"Point","coordinates":[-118.007297,33.900863]}},{"properties":{"zip":"90640","chg":0.07,"median":348,"id":"a632c1pxok34"},"type":"Feature","geometry":{"type":"Point","coordinates":[-118.298662,33.786594]}},{"properties":{"zip":"90650","chg":-0.03,"median":267,"id":"a632c1u7p3iv"},"type":"Feature","geometry":{"type":"Point","coordinates":[-118.096178,33.919737]}},{"properties":{"zip":"90660","chg":0.04,"median":282,"id":"a632c21nnnbi"},"type":"Feature","geometry":{"type":"Point","coordinates":[-118.612032,34.377498]}},{"properties":{"zip":"90670","chg":0.06,"median":340,"id":"a632c1v5xvez"},"type":"Feature","geometry":{"type":"Point","coordinates":[-118.046176,33.891403]}},{"properties":{"zip":"90680","chg":0.03,"median":282,"id":"a632c1qazn3q"},"type":"Feature","geometry":{"type":"Point","coordinates":[-117.769442,33.640302]}},{"properties":{"zip":"90701","chg":-0.42,"median":218,"id":"a632c1ujj7tb"},"type":"Feature","geometry":{"type":"Point","coordinates":[-118.064787,33.858348]}},{"properties":{"zip":"90703","chg":0.02,"median":555,"id":"a632c1tci81h"},"type":"Feature","geometry":{"type":"Point","coordinates":[-118.068648,33.866914]}},{"properties":{"zip":"90706","chg":0.0,"median":320,"id":"a632c1wd2i0c"},"type":"Feature","geometry":{"type":"Point","coordinates":[-118.12965,33.888014]}},{"properties":{"zip":"90710","chg":-0.05,"median":416,"id":"a632c1ofdf0b"},"type":"Feature","geometry":{"type":"Point","coordinates":[-118.251554,33.791267]}},{"properties":{"zip":"90712","chg":0.05,"median":403,"id":"a632c1np5yk9"},"type":"Feature","geometry":{"type":"Point","coordinates":[-118.14645,33.845624]}},{"properties":{"zip":"90713","chg":0.05,"median":398,"id":"a632c1qc7vqb"},"type":"Feature","geometry":{"type":"Point","coordinates":[-118.109399,33.850465]}},{"properties":{"zip":"90715","chg":0.37,"median":392,"id":"a632c1taj53f"},"type":"Feature","geometry":{"type":"Point","coordinates":[-118.078748,33.840565]}},{"properties":{"zip":"90717","chg":-0.05,"median":350,"id":"a632c20wj1h1"},"type":"Feature","geometry":{"type":"Point","coordinates":[-118.298662,33.786594]}},{"properties":{"zip":"90720","chg":0.09,"median":688,"id":"a632c1pwrvkh"},"type":"Feature","geometry":{"type":"Point","coordinates":[-118.085064,33.785572]}},{"properties":{"zip":"90723","chg":-0.15,"median":210,"id":"a632c1qrndwe"},"type":"Feature","geometry":{"type":"Point","coordinates":[-118.165152,33.899015]}},{"properties":{"zip":"90731","chg":-0.07,"median":333,"id":"a632c1m8kyt1"},"type":"Feature","geometry":{"type":"Point","coordinates":[-118.253053,33.753088]}},{"properties":{"zip":"90732","chg":-0.12,"median":542,"id":"a632c1vfyg6o"},"type":"Feature","geometry":{"type":"Point","coordinates":[-118.298662,33.786594]}},{"properties":{"zip":"90740","chg":-0.03,"median":685,"id":"a632c1yxmxwg"},"type":"Feature","geometry":{"type":"Point","coordinates":[-117.769442,33.640302]}},{"properties":{"zip":"90744","chg":0.17,"median":248,"id":"a632c1po0cuj"},"type":"Feature","geometry":{"type":"Point","coordinates":[-118.234793,33.808351]}},{"properties":{"zip":"90745","chg":-0.02,"median":315,"id":"a632c1vsn5c6"},"type":"Feature","geometry":{"type":"Point","coordinates":[-118.261154,33.813317]}},{"properties":{"zip":"90746","chg":-0.09,"median":325,"id":"a632c1og1fl5"},"type":"Feature","geometry":{"type":"Point","coordinates":[-118.255204,33.859716]}},{"properties":{"zip":"90803","chg":0.47,"median":806,"id":"a632c1qao9p3"},"type":"Feature","geometry":{"type":"Point","coordinates":[-118.123676,33.754462]}},{"properties":{"zip":"90804","chg":0.31,"median":282,"id":"a632c1y41iy8"},"type":"Feature","geometry":{"type":"Point","coordinates":[-118.135699,33.785666]}},{"properties":{"zip":"90805","chg":-0.03,"median":224,"id":"a632c1o4g0wa"},"type":"Feature","geometry":{"type":"Point","coordinates":[-118.185625,33.860016]}},{"properties":{"zip":"90806","chg":-0.18,"median":250,"id":"a632c1v0ro7g"},"type":"Feature","geometry":{"type":"Point","coordinates":[-118.167846,33.804461]}},{"properties":{"zip":"90807","chg":-0.01,"median":373,"id":"a632c212w594"},"type":"Feature","geometry":{"type":"Point","coordinates":[-118.181102,33.831466]}},{"properties":{"zip":"90808","chg":-0.01,"median":446,"id":"a632c1t6ohtx"},"type":"Feature","geometry":{"type":"Point","coordinates":[-118.106132,33.800266]}},{"properties":{"zip":"90810","chg":-0.04,"median":240,"id":"a632c1qi3f7t"},"type":"Feature","geometry":{"type":"Point","coordinates":[-118.222848,33.827795]}},{"properties":{"zip":"90813","chg":-0.08,"median":213,"id":"a632c1xozdbh"},"type":"Feature","geometry":{"type":"Point","coordinates":[-118.183701,33.780017]}},{"properties":{"zip":"90814","chg":1.02,"median":870,"id":"a632c21839uw"},"type":"Feature","geometry":{"type":"Point","coordinates":[-118.142654,33.771301]}},{"properties":{"zip":"90815","chg":0.04,"median":479,"id":"a632c1s4leon"},"type":"Feature","geometry":{"type":"Point","coordinates":[-118.114612,33.793516]}},{"properties":{"zip":"91001","chg":0.26,"median":557,"id":"a632c1tvmmhl"},"type":"Feature","geometry":{"type":"Point","coordinates":[-118.298662,33.786594]}},{"properties":{"zip":"91006","chg":0.29,"median":626,"id":"a632c1u7sll2"},"type":"Feature","geometry":{"type":"Point","coordinates":[-118.017567,34.105564]}},{"properties":{"zip":"91007","chg":0.31,"median":995,"id":"a632c1o6utu1"},"type":"Feature","geometry":{"type":"Point","coordinates":[-118.298662,33.786594]}},{"properties":{"zip":"91010","chg":-0.08,"median":260,"id":"a632c1sjo09x"},"type":"Feature","geometry":{"type":"Point","coordinates":[-117.970898,34.146951]}},{"properties":{"zip":"91011","chg":-0.25,"median":1150,"id":"a632c1xoqo7t"},"type":"Feature","geometry":{"type":"Point","coordinates":[-118.298662,33.786594]}},{"properties":{"zip":"91016","chg":0.15,"median":449,"id":"a632c1zw1h0q"},"type":"Feature","geometry":{"type":"Point","coordinates":[-118.009788,34.115008]}},{"properties":{"zip":"91024","chg":-0.17,"median":615,"id":"a632c1vx0mol"},"type":"Feature","geometry":{"type":"Point","coordinates":[-118.298662,33.786594]}},{"properties":{"zip":"91030","chg":-0.12,"median":640,"id":"a632c1xabxwd"},"type":"Feature","geometry":{"type":"Point","coordinates":[-118.298662,33.786594]}},{"properties":{"zip":"91040","chg":0.01,"median":365,"id":"a632c1ycefjh"},"type":"Feature","geometry":{"type":"Point","coordinates":[-118.298662,33.786594]}},{"properties":{"zip":"91042","chg":-0.2,"median":320,"id":"a632c1ujh4ik"},"type":"Feature","geometry":{"type":"Point","coordinates":[-118.298662,33.786594]}},{"properties":{"zip":"91103","chg":0.1,"median":342,"id":"a632c20e3mzs"},"type":"Feature","geometry":{"type":"Point","coordinates":[-118.298662,33.786594]}},{"properties":{"zip":"91104","chg":-0.25,"median":420,"id":"a632c1puadwi"},"type":"Feature","geometry":{"type":"Point","coordinates":[-118.298662,33.786594]}},{"properties":{"zip":"91105","chg":0.68,"median":1300,"id":"a632c1xzeblm"},"type":"Feature","geometry":{"type":"Point","coordinates":[-118.298662,33.786594]}},{"properties":{"zip":"91106","chg":-0.21,"median":910,"id":"a632c1lk7hco"},"type":"Feature","geometry":{"type":"Point","coordinates":[-118.298662,33.786594]}},{"properties":{"zip":"91107","chg":-0.08,"median":578,"id":"a632c1p74bcv"},"type":"Feature","geometry":{"type":"Point","coordinates":[-118.094236,34.146118]}},{"properties":{"zip":"91108","chg":-0.07,"median":1530,"id":"a632c1lu8nto"},"type":"Feature","geometry":{"type":"Point","coordinates":[-118.298662,33.786594]}},{"properties":{"zip":"91201","chg":-0.37,"median":415,"id":"a632c1xpggh0"},"type":"Feature","geometry":{"type":"Point","coordinates":[-118.298662,33.786594]}},{"properties":{"zip":"91202","chg":-0.19,"median":592,"id":"a632c1w6qdvx"},"type":"Feature","geometry":{"type":"Point","coordinates":[-118.26452,34.160563]}},{"properties":{"zip":"91203","chg":0.15,"median":380,"id":"a632c1va8kbe"},"type":"Feature","geometry":{"type":"Point","coordinates":[-118.298662,33.786594]}},{"properties":{"zip":"91205","chg":-0.06,"median":420,"id":"a632c1nim4r1"},"type":"Feature","geometry":{"type":"Point","coordinates":[-118.298662,33.786594]}},{"properties":{"zip":"91206","chg":0.75,"median":883,"id":"a632c1mymobr"},"type":"Feature","geometry":{"type":"Point","coordinates":[-118.298662,33.786594]}},{"properties":{"zip":"91207","chg":0.52,"median":995,"id":"a632c1sf9nlt"},"type":"Feature","geometry":{"type":"Point","coordinates":[-118.298662,33.786594]}},{"properties":{"zip":"91208","chg":0.02,"median":710,"id":"a632c1ntoj68"},"type":"Feature","geometry":{"type":"Point","coordinates":[-118.298662,33.786594]}},{"properties":{"zip":"91214","chg":-0.18,"median":510,"id":"a632c1mmg7fc"},"type":"Feature","geometry":{"type":"Point","coordinates":[-118.298662,33.786594]}},{"properties":{"zip":"91301","chg":-0.04,"median":645,"id":"a632c1usza05"},"type":"Feature","geometry":{"type":"Point","coordinates":[-118.777868,34.11445]}},{"properties":{"zip":"91302","chg":0.53,"median":1100,"id":"a632c1s6bv3b"},"type":"Feature","geometry":{"type":"Point","coordinates":[-118.687031,34.08084]}},{"properties":{"zip":"91303","chg":-0.09,"median":232,"id":"a632c1x2e6gy"},"type":"Feature","geometry":{"type":"Point","coordinates":[-118.298662,33.786594]}},{"properties":{"zip":"91304","chg":0.2,"median":435,"id":"a632c1px5sj9"},"type":"Feature","geometry":{"type":"Point","coordinates":[-118.298662,33.786594]}},{"properties":{"zip":"91306","chg":0.06,"median":350,"id":"a632c1z4ro9h"},"type":"Feature","geometry":{"type":"Point","coordinates":[-118.298662,33.786594]}},{"properties":{"zip":"91307","chg":-0.1,"median":483,"id":"a632c1uglfmp"},"type":"Feature","geometry":{"type":"Point","coordinates":[-118.298662,33.786594]}},{"properties":{"zip":"91311","chg":-0.02,"median":450,"id":"a632c1xwvte8"},"type":"Feature","geometry":{"type":"Point","coordinates":[-118.298662,33.786594]}},{"properties":{"zip":"91316","chg":-0.26,"median":399,"id":"a632c1yqrvqv"},"type":"Feature","geometry":{"type":"Point","coordinates":[-118.298662,33.786594]}},{"properties":{"zip":"91320","chg":0.19,"median":620,"id":"a632c1uuekr6"},"type":"Feature","geometry":{"type":"Point","coordinates":[-118.905874,34.175921]}},{"properties":{"zip":"91321","chg":-0.05,"median":385,"id":"a632c1mdvr3p"},"type":"Feature","geometry":{"type":"Point","coordinates":[-118.298662,33.786594]}},{"properties":{"zip":"91324","chg":-0.07,"median":366,"id":"a632c1uoboq7"},"type":"Feature","geometry":{"type":"Point","coordinates":[-118.298662,33.786594]}},{"properties":{"zip":"91325","chg":0.38,"median":444,"id":"a632c1uddvva"},"type":"Feature","geometry":{"type":"Point","coordinates":[-118.298662,33.786594]}},{"properties":{"zip":"91326","chg":-0.04,"median":540,"id":"a632c20oxo3f"},"type":"Feature","geometry":{"type":"Point","coordinates":[-118.298662,33.786594]}},{"properties":{"zip":"91331","chg":0.09,"median":250,"id":"a632c1x6hbj0"},"type":"Feature","geometry":{"type":"Point","coordinates":[-118.298662,33.786594]}},{"properties":{"zip":"91335","chg":0.2,"median":336,"id":"a632c20rjlnw"},"type":"Feature","geometry":{"type":"Point","coordinates":[-118.298662,33.786594]}},{"properties":{"zip":"91340","chg":-0.02,"median":235,"id":"a632c1z3szzt"},"type":"Feature","geometry":{"type":"Point","coordinates":[-118.298662,33.786594]}},{"properties":{"zip":"91342","chg":0.0,"median":280,"id":"a632c1ns0qeb"},"type":"Feature","geometry":{"type":"Point","coordinates":[-118.298662,33.786594]}},{"properties":{"zip":"91343","chg":-0.01,"median":369,"id":"a632c1yy8i35"},"type":"Feature","geometry":{"type":"Point","coordinates":[-118.484722,34.236389]}},{"properties":{"zip":"91344","chg":0.16,"median":413,"id":"a632c1oxfk6y"},"type":"Feature","geometry":{"type":"Point","coordinates":[-118.298662,33.786594]}},{"properties":{"zip":"91345","chg":0.06,"median":302,"id":"a632c1tii34o"},"type":"Feature","geometry":{"type":"Point","coordinates":[-118.298662,33.786594]}},{"properties":{"zip":"91350","chg":0.17,"median":420,"id":"a632c20lbw1m"},"type":"Feature","geometry":{"type":"Point","coordinates":[-118.298662,33.786594]}},{"properties":{"zip":"91351","chg":0.18,"median":323,"id":"a632c1ovnhkv"},"type":"Feature","geometry":{"type":"Point","coordinates":[-118.298662,33.786594]}},{"properties":{"zip":"91352","chg":-0.15,"median":230,"id":"a632c1zlzyc7"},"type":"Feature","geometry":{"type":"Point","coordinates":[-118.351746,34.261947]}},{"properties":{"zip":"91354","chg":0.1,"median":453,"id":"a632c1ro5tj0"},"type":"Feature","geometry":{"type":"Point","coordinates":[-118.298662,33.786594]}},{"properties":{"zip":"91355","chg":-0.13,"median":379,"id":"a632c21rd27q"},"type":"Feature","geometry":{"type":"Point","coordinates":[-118.298662,33.786594]}},{"properties":{"zip":"91356","chg":0.07,"median":725,"id":"a632c1rhqzop"},"type":"Feature","geometry":{"type":"Point","coordinates":[-118.298662,33.786594]}},{"properties":{"zip":"91360","chg":0.19,"median":475,"id":"a632c1rhue9a"},"type":"Feature","geometry":{"type":"Point","coordinates":[-118.805647,34.145839]}},{"properties":{"zip":"91361","chg":0.12,"median":865,"id":"a632c1mf6nsk"},"type":"Feature","geometry":{"type":"Point","coordinates":[-118.82193,34.137015]}},{"properties":{"zip":"91362","chg":0.1,"median":755,"id":"a632c1qulf80"},"type":"Feature","geometry":{"type":"Point","coordinates":[-118.823177,34.194756]}},{"properties":{"zip":"91364","chg":0.08,"median":560,"id":"a632c1r6swo9"},"type":"Feature","geometry":{"type":"Point","coordinates":[-118.645364,34.130839]}},{"properties":{"zip":"91367","chg":0.07,"median":565,"id":"a632c1xqemhv"},"type":"Feature","geometry":{"type":"Point","coordinates":[-118.298662,33.786594]}},{"properties":{"zip":"91377","chg":0.32,"median":607,"id":"a632c1uuo1xl"},"type":"Feature","geometry":{"type":"Point","coordinates":[-119.1343,34.032383]}},{"properties":{"zip":"91381","chg":0.09,"median":726,"id":"a632c1mocjaf"},"type":"Feature","geometry":{"type":"Point","coordinates":[-118.298662,33.786594]}},{"properties":{"zip":"91384","chg":-0.21,"median":357,"id":"a632c1ljx21i"},"type":"Feature","geometry":{"type":"Point","coordinates":[-118.298662,33.786594]}},{"properties":{"zip":"91387","chg":-0.1,"median":384,"id":"a632c1uvzkg0"},"type":"Feature","geometry":{"type":"Point","coordinates":[-118.39882,34.401969]}},{"properties":{"zip":"91390","chg":-0.21,"median":405,"id":"a632c1wrrk93"},"type":"Feature","geometry":{"type":"Point","coordinates":[-118.503225,34.411231]}},{"properties":{"zip":"91401","chg":0.17,"median":545,"id":"a632c1v9ycep"},"type":"Feature","geometry":{"type":"Point","coordinates":[-118.298662,33.786594]}},{"properties":{"zip":"91402","chg":0.13,"median":276,"id":"a632c210sinp"},"type":"Feature","geometry":{"type":"Point","coordinates":[-118.298662,33.786594]}},{"properties":{"zip":"91403","chg":-0.26,"median":599,"id":"a632c1yrixfh"},"type":"Feature","geometry":{"type":"Point","coordinates":[-118.298662,33.786594]}},{"properties":{"zip":"91405","chg":-0.15,"median":295,"id":"a632c1ykds4f"},"type":"Feature","geometry":{"type":"Point","coordinates":[-118.424248,34.174172]}},{"properties":{"zip":"91406","chg":0.0,"median":328,"id":"a632c1m076t7"},"type":"Feature","geometry":{"type":"Point","coordinates":[-118.298662,33.786594]}},{"properties":{"zip":"91411","chg":0.26,"median":509,"id":"a632c1ukf7ea"},"type":"Feature","geometry":{"type":"Point","coordinates":[-118.298662,33.786594]}},{"properties":{"zip":"91423","chg":-0.18,"median":800,"id":"a632c1mjtnts"},"type":"Feature","geometry":{"type":"Point","coordinates":[-118.298662,33.786594]}},{"properties":{"zip":"91436","chg":-0.25,"median":820,"id":"a632c1ssopv5"},"type":"Feature","geometry":{"type":"Point","coordinates":[-118.298662,33.786594]}},{"properties":{"zip":"91501","chg":0.34,"median":590,"id":"a632c1qzw16g"},"type":"Feature","geometry":{"type":"Point","coordinates":[-118.298662,33.786594]}},{"properties":{"zip":"91504","chg":0.01,"median":579,"id":"a632c1x4jvye"},"type":"Feature","geometry":{"type":"Point","coordinates":[-118.298662,33.786594]}},{"properties":{"zip":"91505","chg":0.12,"median":493,"id":"a632c1rilkyt"},"type":"Feature","geometry":{"type":"Point","coordinates":[-118.347301,34.167784]}},{"properties":{"zip":"91506","chg":0.28,"median":595,"id":"a632c1rowuz6"},"type":"Feature","geometry":{"type":"Point","coordinates":[-118.298662,33.786594]}},{"properties":{"zip":"91601","chg":0.84,"median":515,"id":"a632c1upvza4"},"type":"Feature","geometry":{"type":"Point","coordinates":[-118.298662,33.786594]}},{"properties":{"zip":"91602","chg":-0.2,"median":625,"id":"a632c1yvxvd0"},"type":"Feature","geometry":{"type":"Point","coordinates":[-118.298662,33.786594]}},{"properties":{"zip":"91604","chg":0.12,"median":760,"id":"a632c1rbv7mz"},"type":"Feature","geometry":{"type":"Point","coordinates":[-118.298662,33.786594]}},{"properties":{"zip":"91605","chg":-0.03,"median":291,"id":"a632c1wzavpx"},"type":"Feature","geometry":{"type":"Point","coordinates":[-118.298662,33.786594]}},{"properties":{"zip":"91606","chg":0.08,"median":330,"id":"a632c1vb3esj"},"type":"Feature","geometry":{"type":"Point","coordinates":[-118.298662,33.786594]}},{"properties":{"zip":"91607","chg":0.21,"median":630,"id":"a632c1r080cq"},"type":"Feature","geometry":{"type":"Point","coordinates":[-118.298662,33.786594]}},{"properties":{"zip":"91701","chg":-0.17,"median":315,"id":"a632c1zqt40q"},"type":"Feature","geometry":{"type":"Point","coordinates":[-115.967051,34.839964]}},{"properties":{"zip":"91702","chg":0.29,"median":309,"id":"a632c1siqgw6"},"type":"Feature","geometry":{"type":"Point","coordinates":[-118.298662,33.786594]}},{"properties":{"zip":"91706","chg":-0.09,"median":232,"id":"a632c1mal88p"},"type":"Feature","geometry":{"type":"Point","coordinates":[-117.935341,34.106953]}},{"properties":{"zip":"91709","chg":-0.1,"median":420,"id":"a632c1v2awo9"},"type":"Feature","geometry":{"type":"Point","coordinates":[-117.708111,33.972791]}},{"properties":{"zip":"91710","chg":-0.02,"median":305,"id":"a632c1uimdca"},"type":"Feature","geometry":{"type":"Point","coordinates":[-117.778668,33.947792]}},{"properties":{"zip":"91711","chg":-0.14,"median":509,"id":"a632c1ozyib0"},"type":"Feature","geometry":{"type":"Point","coordinates":[-118.298662,33.786594]}},{"properties":{"zip":"91722","chg":0.0,"median":300,"id":"a632c1mhjwrp"},"type":"Feature","geometry":{"type":"Point","coordinates":[-118.298662,33.786594]}},{"properties":{"zip":"91723","chg":-0.07,"median":315,"id":"a632c1xof3wv"},"type":"Feature","geometry":{"type":"Point","coordinates":[-118.298662,33.786594]}},{"properties":{"zip":"91724","chg":0.09,"median":523,"id":"a632c1re1q5o"},"type":"Feature","geometry":{"type":"Point","coordinates":[-117.845894,34.103065]}},{"properties":{"zip":"91730","chg":-0.1,"median":271,"id":"a632c1s1a8cw"},"type":"Feature","geometry":{"type":"Point","coordinates":[-115.967051,34.839964]}},{"properties":{"zip":"91731","chg":0.02,"median":300,"id":"a632c1sbeont"},"type":"Feature","geometry":{"type":"Point","coordinates":[-118.298662,33.786594]}},{"properties":{"zip":"91732","chg":-0.04,"median":298,"id":"a632c1p2efx0"},"type":"Feature","geometry":{"type":"Point","coordinates":[-118.298662,33.786594]}},{"properties":{"zip":"91733","chg":-0.15,"median":204,"id":"a632c1v1eua4"},"type":"Feature","geometry":{"type":"Point","coordinates":[-118.298662,33.786594]}},{"properties":{"zip":"91737","chg":-0.03,"median":375,"id":"a632c1pxmgye"},"type":"Feature","geometry":{"type":"Point","coordinates":[-115.967051,34.839964]}},{"properties":{"zip":"91739","chg":-0.14,"median":363,"id":"a632c1qj4hs7"},"type":"Feature","geometry":{"type":"Point","coordinates":[-117.523662,34.126121]}},{"properties":{"zip":"91740","chg":0.07,"median":360,"id":"a632c1ytlh9d"},"type":"Feature","geometry":{"type":"Point","coordinates":[-117.881451,34.138896]}},{"properties":{"zip":"91741","chg":-0.17,"median":539,"id":"a632c1w5y7ld"},"type":"Feature","geometry":{"type":"Point","coordinates":[-118.298662,33.786594]}},{"properties":{"zip":"91744","chg":-0.01,"median":248,"id":"a632c1vvg4rc"},"type":"Feature","geometry":{"type":"Point","coordinates":[-117.968398,34.051677]}},{"properties":{"zip":"91745","chg":0.12,"median":367,"id":"a632c21iv71u"},"type":"Feature","geometry":{"type":"Point","coordinates":[-117.981631,33.976114]}},{"properties":{"zip":"91746","chg":-0.02,"median":255,"id":"a632c2187bx3"},"type":"Feature","geometry":{"type":"Point","coordinates":[-117.991177,34.036122]}},{"properties":{"zip":"91748","chg":-0.08,"median":382,"id":"a632c1m854xi"},"type":"Feature","geometry":{"type":"Point","coordinates":[-117.884784,33.987513]}},{"properties":{"zip":"91750","chg":0.44,"median":530,"id":"a632c1wi0rni"},"type":"Feature","geometry":{"type":"Point","coordinates":[-118.298662,33.786594]}},{"properties":{"zip":"91752","chg":-0.3,"median":195,"id":"a632c1mwunmc"},"type":"Feature","geometry":{"type":"Point","coordinates":[-116.055617,33.752886]}},{"properties":{"zip":"91754","chg":-0.02,"median":455,"id":"a632c1ox2dbt"},"type":"Feature","geometry":{"type":"Point","coordinates":[-118.298662,33.786594]}},{"properties":{"zip":"91755","chg":0.19,"median":444,"id":"a632c1vq139x"},"type":"Feature","geometry":{"type":"Point","coordinates":[-118.298662,33.786594]}},{"properties":{"zip":"91761","chg":-0.06,"median":250,"id":"a632c1w06m11"},"type":"Feature","geometry":{"type":"Point","coordinates":[-115.967051,34.839964]}},{"properties":{"zip":"91762","chg":0.07,"median":220,"id":"a632c1u2ig9e"},"type":"Feature","geometry":{"type":"Point","coordinates":[-115.967051,34.839964]}},{"properties":{"zip":"91763","chg":-0.11,"median":212,"id":"a632c1yjti76"},"type":"Feature","geometry":{"type":"Point","coordinates":[-115.967051,34.839964]}},{"properties":{"zip":"91764","chg":-0.1,"median":158,"id":"a632c1qszajw"},"type":"Feature","geometry":{"type":"Point","coordinates":[-115.967051,34.839964]}},{"properties":{"zip":"91765","chg":0.14,"median":516,"id":"a632c1zp1847"},"type":"Feature","geometry":{"type":"Point","coordinates":[-118.298662,33.786594]}},{"properties":{"zip":"91766","chg":0.15,"median":230,"id":"a632c1rpckxv"},"type":"Feature","geometry":{"type":"Point","coordinates":[-119.382338,35.888009]}},{"properties":{"zip":"91767","chg":0.16,"median":227,"id":"a632c1qg4lo0"},"type":"Feature","geometry":{"type":"Point","coordinates":[-118.298662,33.786594]}},{"properties":{"zip":"91768","chg":0.01,"median":188,"id":"a632c2181d3d"},"type":"Feature","geometry":{"type":"Point","coordinates":[-118.298662,33.786594]}},{"properties":{"zip":"91770","chg":0.17,"median":400,"id":"a632c1reg6iw"},"type":"Feature","geometry":{"type":"Point","coordinates":[-118.090347,34.06251]}},{"properties":{"zip":"91773","chg":-0.01,"median":535,"id":"a632c1ua66dy"},"type":"Feature","geometry":{"type":"Point","coordinates":[-118.298662,33.786594]}},{"properties":{"zip":"91775","chg":-0.14,"median":515,"id":"a632c2148egc"},"type":"Feature","geometry":{"type":"Point","coordinates":[-118.298662,33.786594]}},{"properties":{"zip":"91776","chg":-0.06,"median":351,"id":"a632c1vw1xe7"},"type":"Feature","geometry":{"type":"Point","coordinates":[-118.298662,33.786594]}},{"properties":{"zip":"91780","chg":0.06,"median":533,"id":"a632c1tu18ls"},"type":"Feature","geometry":{"type":"Point","coordinates":[-118.298662,33.786594]}},{"properties":{"zip":"91784","chg":0.05,"median":461,"id":"a632c1ng6cdg"},"type":"Feature","geometry":{"type":"Point","coordinates":[-116.246997,34.128118]}},{"properties":{"zip":"91786","chg":0.04,"median":273,"id":"a632c1yzl56n"},"type":"Feature","geometry":{"type":"Point","coordinates":[-117.656444,34.155564]}},{"properties":{"zip":"91789","chg":0.06,"median":538,"id":"a632c1oye04s"},"type":"Feature","geometry":{"type":"Point","coordinates":[-118.298662,33.786594]}},{"properties":{"zip":"91790","chg":0.04,"median":344,"id":"a632c1x3gxzo"},"type":"Feature","geometry":{"type":"Point","coordinates":[-118.298662,33.786594]}},{"properties":{"zip":"91791","chg":-0.06,"median":391,"id":"a632c1paegxa"},"type":"Feature","geometry":{"type":"Point","coordinates":[-118.298662,33.786594]}},{"properties":{"zip":"91792","chg":0.23,"median":400,"id":"a632c1zk05xz"},"type":"Feature","geometry":{"type":"Point","coordinates":[-118.298662,33.786594]}},{"properties":{"zip":"91801","chg":0.13,"median":518,"id":"a632c1sk3mxh"},"type":"Feature","geometry":{"type":"Point","coordinates":[-118.298662,33.786594]}},{"properties":{"zip":"91803","chg":0.07,"median":448,"id":"a632c1s8ih1q"},"type":"Feature","geometry":{"type":"Point","coordinates":[-118.298662,33.786594]}},{"properties":{"zip":"91901","chg":-0.04,"median":386,"id":"a632c20q8jfs"},"type":"Feature","geometry":{"type":"Point","coordinates":[-116.976341,32.74081]}},{"properties":{"zip":"91902","chg":0.08,"median":470,"id":"a632c1xrbkyf"},"type":"Feature","geometry":{"type":"Point","coordinates":[-117.020668,32.67387]}},{"properties":{"zip":"91906","chg":-0.28,"median":165,"id":"a632c1xdghd8"},"type":"Feature","geometry":{"type":"Point","coordinates":[-116.846046,33.016928]}},{"properties":{"zip":"91910","chg":0.23,"median":331,"id":"a632c1spkeuq"},"type":"Feature","geometry":{"type":"Point","coordinates":[-117.050072,32.636922]}},{"properties":{"zip":"91911","chg":0.0,"median":250,"id":"a632c1rovp4l"},"type":"Feature","geometry":{"type":"Point","coordinates":[-117.034012,32.615983]}},{"properties":{"zip":"91913","chg":0.04,"median":380,"id":"a632c21p7g01"},"type":"Feature","geometry":{"type":"Point","coordinates":[-116.984669,32.639967]}},{"properties":{"zip":"91914","chg":0.09,"median":525,"id":"a632c1nngjw3"},"type":"Feature","geometry":{"type":"Point","coordinates":[-116.966139,32.656159]}},{"properties":{"zip":"91915","chg":0.08,"median":353,"id":"a632c1xytwmo"},"type":"Feature","geometry":{"type":"Point","coordinates":[-116.948228,32.629234]}},{"properties":{"zip":"91916","chg":0.04,"median":276,"id":"a632c21rrb0u"},"type":"Feature","geometry":{"type":"Point","coordinates":[-116.846046,33.016928]}},{"properties":{"zip":"91932","chg":0.0,"median":255,"id":"a632c1wm1j5m"},"type":"Feature","geometry":{"type":"Point","coordinates":[-117.117351,32.578991]}},{"properties":{"zip":"91934","chg":1.05,"median":131,"id":"a632c1q7nttj"},"type":"Feature","geometry":{"type":"Point","coordinates":[-116.846046,33.016928]}},{"properties":{"zip":"91935","chg":-0.37,"median":325,"id":"a632c1nhckl4"},"type":"Feature","geometry":{"type":"Point","coordinates":[-116.846046,33.016928]}},{"properties":{"zip":"91941","chg":0.1,"median":388,"id":"a632c1zbn8fe"},"type":"Feature","geometry":{"type":"Point","coordinates":[-116.998102,32.76105]}},{"properties":{"zip":"91942","chg":-0.06,"median":364,"id":"a632c1nvxs6d"},"type":"Feature","geometry":{"type":"Point","coordinates":[-116.988361,32.778384]}},{"properties":{"zip":"91945","chg":-0.1,"median":225,"id":"a632c1lvc9pi"},"type":"Feature","geometry":{"type":"Point","coordinates":[-117.037344,32.732288]}},{"properties":{"zip":"91950","chg":0.37,"median":213,"id":"a632c1th2q5z"},"type":"Feature","geometry":{"type":"Point","coordinates":[-117.084353,32.671194]}},{"properties":{"zip":"91962","chg":0.36,"median":253,"id":"a632c1zs2mrd"},"type":"Feature","geometry":{"type":"Point","coordinates":[-116.846046,33.016928]}},{"properties":{"zip":"91977","chg":-0.08,"median":240,"id":"a632c1x8673q"},"type":"Feature","geometry":{"type":"Point","coordinates":[-116.98086,32.748941]}},{"properties":{"zip":"91978","chg":0.27,"median":445,"id":"a632c1lkuxw0"},"type":"Feature","geometry":{"type":"Point","coordinates":[-116.957898,32.733452]}},{"properties":{"zip":"92003","chg":-0.13,"median":428,"id":"a632c1rb9lj4"},"type":"Feature","geometry":{"type":"Point","coordinates":[-116.846046,33.016928]}},{"properties":{"zip":"92004","chg":0.2,"median":145,"id":"a632c1t8pjiz"},"type":"Feature","geometry":{"type":"Point","coordinates":[-116.134174,33.144489]}},{"properties":{"zip":"92007","chg":0.91,"median":625,"id":"a632c1zs9jf5"},"type":"Feature","geometry":{"type":"Point","coordinates":[-117.274469,33.023042]}},{"properties":{"zip":"92008","chg":-0.03,"median":525,"id":"a632c1q9gaq7"},"type":"Feature","geometry":{"type":"Point","coordinates":[-116.846046,33.016928]}},{"properties":{"zip":"92009","chg":0.03,"median":608,"id":"a632c1y2603z"},"type":"Feature","geometry":{"type":"Point","coordinates":[-117.267169,33.082192]}},{"properties":{"zip":"92010","chg":0.01,"median":512,"id":"a632c20gada9"},"type":"Feature","geometry":{"type":"Point","coordinates":[-117.068084,32.644776]}},{"properties":{"zip":"92011","chg":0.35,"median":839,"id":"a632c1oz8x48"},"type":"Feature","geometry":{"type":"Point","coordinates":[-117.067528,32.610333]}},{"properties":{"zip":"92014","chg":0.19,"median":1913,"id":"a632c1y6r86g"},"type":"Feature","geometry":{"type":"Point","coordinates":[-117.224167,32.974074]}},{"properties":{"zip":"92019","chg":-0.13,"median":300,"id":"a632c1wbxebw"},"type":"Feature","geometry":{"type":"Point","coordinates":[-117.041287,32.865113]}},{"properties":{"zip":"92020","chg":0.0,"median":315,"id":"a632c1qjc86q"},"type":"Feature","geometry":{"type":"Point","coordinates":[-116.863358,32.811163]}},{"properties":{"zip":"92021","chg":0.06,"median":313,"id":"a632c1swtywe"},"type":"Feature","geometry":{"type":"Point","coordinates":[-116.905859,32.832273]}},{"properties":{"zip":"92024","chg":0.33,"median":800,"id":"a632c1m1nzp8"},"type":"Feature","geometry":{"type":"Point","coordinates":[-117.234758,33.046153]}},{"properties":{"zip":"92025","chg":0.35,"median":265,"id":"a632c1ulezes"},"type":"Feature","geometry":{"type":"Point","coordinates":[-116.953918,33.091709]}},{"properties":{"zip":"92026","chg":0.25,"median":308,"id":"a632c1yew3ni"},"type":"Feature","geometry":{"type":"Point","coordinates":[-116.846046,33.016928]}},{"properties":{"zip":"92027","chg":0.25,"median":298,"id":"a632c1na32ms"},"type":"Feature","geometry":{"type":"Point","coordinates":[-116.846046,33.016928]}},{"properties":{"zip":"92028","chg":-0.03,"median":320,"id":"a632c1tec2mr"},"type":"Feature","geometry":{"type":"Point","coordinates":[-117.222257,33.340865]}},{"properties":{"zip":"92029","chg":0.04,"median":346,"id":"a632c1wswix7"},"type":"Feature","geometry":{"type":"Point","coordinates":[-117.158497,33.071941]}},{"properties":{"zip":"92036","chg":3.97,"median":380,"id":"a632c1q3sbk7"},"type":"Feature","geometry":{"type":"Point","coordinates":[-116.630853,33.048378]}},{"properties":{"zip":"92037","chg":-0.08,"median":1200,"id":"a632c1udcgwo"},"type":"Feature","geometry":{"type":"Point","coordinates":[-117.225744,32.898511]}},{"properties":{"zip":"92040","chg":0.26,"median":320,"id":"a632c1z2xvpk"},"type":"Feature","geometry":{"type":"Point","coordinates":[-116.93336,32.831161]}},{"properties":{"zip":"92054","chg":0.54,"median":408,"id":"a632c20ec2nj"},"type":"Feature","geometry":{"type":"Point","coordinates":[-117.36865,33.181704]}},{"properties":{"zip":"92056","chg":0.17,"median":340,"id":"a632c1vncz46"},"type":"Feature","geometry":{"type":"Point","coordinates":[-116.846046,33.016928]}},{"properties":{"zip":"92057","chg":0.27,"median":280,"id":"a632c1q87bki"},"type":"Feature","geometry":{"type":"Point","coordinates":[-116.846046,33.016928]}},{"properties":{"zip":"92064","chg":0.29,"median":499,"id":"a632c1yibnlz"},"type":"Feature","geometry":{"type":"Point","coordinates":[-117.030299,32.994097]}},{"properties":{"zip":"92065","chg":0.02,"median":335,"id":"a632c1zl13vg"},"type":"Feature","geometry":{"type":"Point","coordinates":[-116.911694,32.968102]}},{"properties":{"zip":"92069","chg":0.16,"median":337,"id":"a632c1mc1r0x"},"type":"Feature","geometry":{"type":"Point","coordinates":[-117.154756,33.185315]}},{"properties":{"zip":"92071","chg":0.11,"median":349,"id":"a632c1ntrxuf"},"type":"Feature","geometry":{"type":"Point","coordinates":[-116.994511,32.843956]}},{"properties":{"zip":"92075","chg":-0.31,"median":1130,"id":"a632c1zx0d68"},"type":"Feature","geometry":{"type":"Point","coordinates":[-117.258092,32.987266]}},{"properties":{"zip":"92078","chg":-0.08,"median":460,"id":"a632c1qw9qcg"},"type":"Feature","geometry":{"type":"Point","coordinates":[-116.972526,32.741719]}},{"properties":{"zip":"92081","chg":0.03,"median":375,"id":"a632c1p0a7ax"},"type":"Feature","geometry":null},{"properties":{"zip":"92082","chg":0.22,"median":425,"id":"a632c1ri0t9s"},"type":"Feature","geometry":{"type":"Point","coordinates":[-116.846046,33.016928]}},{"properties":{"zip":"92083","chg":0.14,"median":245,"id":"a632c1pl5ct6"},"type":"Feature","geometry":{"type":"Point","coordinates":[-117.208646,33.173371]}},{"properties":{"zip":"92084","chg":0.21,"median":301,"id":"a632c1zgttkj"},"type":"Feature","geometry":{"type":"Point","coordinates":[-116.846046,33.016928]}},{"properties":{"zip":"92091","chg":5.06,"median":4150,"id":"a632c1lio4h5"},"type":"Feature","geometry":{"type":"Point","coordinates":[-117.046183,32.962307]}},{"properties":{"zip":"92102","chg":0.63,"median":245,"id":"a632c1x9v6gy"},"type":"Feature","geometry":{"type":"Point","coordinates":[-117.157533,32.747828]}},{"properties":{"zip":"92103","chg":0.01,"median":575,"id":"a632c1wazokb"},"type":"Feature","geometry":{"type":"Point","coordinates":[-117.170517,32.746085]}},{"properties":{"zip":"92104","chg":0.07,"median":505,"id":"a632c1olxphl"},"type":"Feature","geometry":{"type":"Point","coordinates":[-117.130588,32.740884]}},{"properties":{"zip":"92105","chg":0.22,"median":215,"id":"a632c21oqznf"},"type":"Feature","geometry":{"type":"Point","coordinates":[-117.110032,32.749495]}},{"properties":{"zip":"92106","chg":0.06,"median":650,"id":"a632c1mi6tjz"},"type":"Feature","geometry":{"type":"Point","coordinates":[-117.232764,32.709355]}},{"properties":{"zip":"92107","chg":-0.1,"median":600,"id":"a632c1revptf"},"type":"Feature","geometry":{"type":"Point","coordinates":[-117.261982,32.744494]}},{"properties":{"zip":"92109","chg":0.08,"median":688,"id":"a632c1rmiuqt"},"type":"Feature","geometry":{"type":"Point","coordinates":[-117.240314,32.797827]}},{"properties":{"zip":"92110","chg":0.36,"median":650,"id":"a632c1sh30f8"},"type":"Feature","geometry":{"type":"Point","coordinates":[-117.207965,32.775849]}},{"properties":{"zip":"92111","chg":0.03,"median":390,"id":"a632c21k9w5c"},"type":"Feature","geometry":{"type":"Point","coordinates":[-117.171423,32.783383]}},{"properties":{"zip":"92113","chg":-0.09,"median":119,"id":"a632c1rqhj2v"},"type":"Feature","geometry":{"type":"Point","coordinates":[-117.121678,32.694601]}},{"properties":{"zip":"92114","chg":0.19,"median":235,"id":"a632c1zpiom3"},"type":"Feature","geometry":{"type":"Point","coordinates":[-117.050306,32.711997]}},{"properties":{"zip":"92115","chg":0.28,"median":380,"id":"a632c1vn71k4"},"type":"Feature","geometry":{"type":"Point","coordinates":[-117.070688,32.7576]}},{"properties":{"zip":"92116","chg":0.09,"median":365,"id":"a632c1mh4pu9"},"type":"Feature","geometry":{"type":"Point","coordinates":[-117.127894,32.7654]}},{"properties":{"zip":"92117","chg":0.16,"median":400,"id":"a632c1znr2a0"},"type":"Feature","geometry":{"type":"Point","coordinates":[-117.197168,32.818398]}},{"properties":{"zip":"92118","chg":-0.04,"median":815,"id":"a632c1m16p2l"},"type":"Feature","geometry":{"type":"Point","coordinates":[-117.160815,32.656176]}},{"properties":{"zip":"92119","chg":0.02,"median":415,"id":"a632c1wbcvam"},"type":"Feature","geometry":{"type":"Point","coordinates":[-117.033162,32.815849]}},{"properties":{"zip":"92120","chg":0.11,"median":430,"id":"a632c1ogk5hc"},"type":"Feature","geometry":{"type":"Point","coordinates":[-117.097254,32.78755]}},{"properties":{"zip":"92121","chg":0.04,"median":753,"id":"a632c1y1fwyx"},"type":"Feature","geometry":{"type":"Point","coordinates":[-117.207828,32.90391]}},{"properties":{"zip":"92122","chg":-0.19,"median":537,"id":"a632c1mzg9lr"},"type":"Feature","geometry":{"type":"Point","coordinates":[-117.203924,32.85477]}},{"properties":{"zip":"92123","chg":-0.02,"median":372,"id":"a632c1wou8rj"},"type":"Feature","geometry":{"type":"Point","coordinates":[-117.138366,32.802827]}},{"properties":{"zip":"92124","chg":-0.21,"median":440,"id":"a632c1qgw93c"},"type":"Feature","geometry":{"type":"Point","coordinates":[-117.082387,32.818733]}},{"properties":{"zip":"92126","chg":0.15,"median":395,"id":"a632c1o73414"},"type":"Feature","geometry":{"type":"Point","coordinates":[-117.143923,32.915602]}},{"properties":{"zip":"92127","chg":0.1,"median":769,"id":"a632c1t1p6ba"},"type":"Feature","geometry":{"type":"Point","coordinates":[-117.120915,33.021243]}},{"properties":{"zip":"92128","chg":0.1,"median":540,"id":"a632c1z1209d"},"type":"Feature","geometry":{"type":"Point","coordinates":[-117.060866,33.018655]}},{"properties":{"zip":"92129","chg":0.12,"median":600,"id":"a632c1q7qys7"},"type":"Feature","geometry":{"type":"Point","coordinates":[-117.126619,32.965012]}},{"properties":{"zip":"92130","chg":0.1,"median":878,"id":"a632c1q5lewo"},"type":"Feature","geometry":{"type":"Point","coordinates":[-117.161871,32.952467]}},{"properties":{"zip":"92131","chg":-0.08,"median":628,"id":"a632c20conmk"},"type":"Feature","geometry":{"type":"Point","coordinates":[-117.088322,32.874916]}},{"properties":{"zip":"92139","chg":0.1,"median":235,"id":"a632c1n9285y"},"type":"Feature","geometry":{"type":"Point","coordinates":[-117.047627,32.68018]}},{"properties":{"zip":"92154","chg":-0.07,"median":312,"id":"a632c1s1x1sl"},"type":"Feature","geometry":{"type":"Point","coordinates":[-117.035225,32.628038]}},{"properties":{"zip":"92173","chg":-0.01,"median":265,"id":"a632c1sjuj4c"},"type":"Feature","geometry":{"type":"Point","coordinates":[-116.997475,32.566356]}},{"properties":{"zip":"92201","chg":0.11,"median":161,"id":"a632c21iazvv"},"type":"Feature","geometry":{"type":"Point","coordinates":[-116.289175,33.742799]}},{"properties":{"zip":"92203","chg":0.0,"median":200,"id":"a632c1r7fmog"},"type":"Feature","geometry":{"type":"Point","coordinates":[-116.26764,33.75317]}},{"properties":{"zip":"92210","chg":-0.54,"median":636,"id":"a632c1s64h50"},"type":"Feature","geometry":{"type":"Point","coordinates":[-116.303759,33.70271]}},{"properties":{"zip":"92211","chg":-0.03,"median":317,"id":"a632c1yp7oui"},"type":"Feature","geometry":{"type":"Point","coordinates":[-116.339766,33.76437]}},{"properties":{"zip":"92220","chg":0.47,"median":130,"id":"a632c1urj8jm"},"type":"Feature","geometry":{"type":"Point","coordinates":[-116.864197,33.919215]}},{"properties":{"zip":"92223","chg":-0.01,"median":205,"id":"a632c1m80uac"},"type":"Feature","geometry":{"type":"Point","coordinates":[-116.977248,33.972515]}},{"properties":{"zip":"92225","chg":0.17,"median":175,"id":"a632c1n0vjkj"},"type":"Feature","geometry":{"type":"Point","coordinates":[-114.573845,33.61058]}},{"properties":{"zip":"92230","chg":-0.47,"median":45,"id":"a632c1tb42wb"},"type":"Feature","geometry":{"type":"Point","coordinates":[-116.607126,33.842969]}},{"properties":{"zip":"92234","chg":-0.03,"median":166,"id":"a632c1ym1fhc"},"type":"Feature","geometry":{"type":"Point","coordinates":[-116.277152,33.647301]}},{"properties":{"zip":"92236","chg":0.0,"median":143,"id":"a632c1v0krms"},"type":"Feature","geometry":{"type":"Point","coordinates":[-116.143588,33.646405]}},{"properties":{"zip":"92240","chg":0.1,"median":88,"id":"a632c1p7ti7h"},"type":"Feature","geometry":{"type":"Point","coordinates":[-116.35251,33.890015]}},{"properties":{"zip":"92241","chg":0.17,"median":125,"id":"a632c1mnxhju"},"type":"Feature","geometry":{"type":"Point","coordinates":[-116.354024,33.876265]}},{"properties":{"zip":"92252","chg":-0.14,"median":60,"id":"a632c1yom9m2"},"type":"Feature","geometry":{"type":"Point","coordinates":[-116.247232,34.163893]}},{"properties":{"zip":"92253","chg":0.27,"median":350,"id":"a632c1nvjvli"},"type":"Feature","geometry":{"type":"Point","coordinates":[-116.259176,33.670978]}},{"properties":{"zip":"92256","chg":-0.38,"median":70,"id":"a632c1s7qbny"},"type":"Feature","geometry":{"type":"Point","coordinates":[-116.539458,34.077787]}},{"properties":{"zip":"92260","chg":0.39,"median":290,"id":"a632c21q4g7q"},"type":"Feature","geometry":{"type":"Point","coordinates":[-116.416402,33.688635]}},{"properties":{"zip":"92262","chg":-0.01,"median":276,"id":"a632c1p7s8si"},"type":"Feature","geometry":{"type":"Point","coordinates":[-116.527996,33.842567]}},{"properties":{"zip":"92264","chg":-0.36,"median":308,"id":"a632c1nqre1c"},"type":"Feature","geometry":{"type":"Point","coordinates":[-116.511883,33.797145]}},{"properties":{"zip":"92268","chg":1.57,"median":90,"id":"a632c1rn1r70"},"type":"Feature","geometry":{"type":"Point","coordinates":[-116.554462,34.198062]}},{"properties":{"zip":"92270","chg":0.29,"median":497,"id":"a632c1o6wsjb"},"type":"Feature","geometry":{"type":"Point","coordinates":[-116.431961,33.703598]}},{"properties":{"zip":"92276","chg":-0.52,"median":70,"id":"a632c1yxawpv"},"type":"Feature","geometry":{"type":"Point","coordinates":[-116.393413,33.843837]}},{"properties":{"zip":"92277","chg":0.18,"median":98,"id":"a632c1uvzi9c"},"type":"Feature","geometry":{"type":"Point","coordinates":[-116.235073,34.234411]}},{"properties":{"zip":"92282","chg":-0.21,"median":83,"id":"a632c20shi7h"},"type":"Feature","geometry":{"type":"Point","coordinates":[-116.684182,33.890016]}},{"properties":{"zip":"92284","chg":-0.3,"median":76,"id":"a632c1xoj4zs"},"type":"Feature","geometry":{"type":"Point","coordinates":[-115.896753,34.451263]}},{"properties":{"zip":"92285","chg":0.03,"median":58,"id":"a632c1wx35dt"},"type":"Feature","geometry":{"type":"Point","coordinates":[-116.524124,34.310323]}},{"properties":{"zip":"92301","chg":-0.02,"median":81,"id":"a632c1suq3w0"},"type":"Feature","geometry":{"type":"Point","coordinates":[-117.631168,34.602213]}},{"properties":{"zip":"92307","chg":-0.08,"median":115,"id":"a632c1zklf20"},"type":"Feature","geometry":{"type":"Point","coordinates":[-117.171709,34.471388]}},{"properties":{"zip":"92308","chg":-0.08,"median":115,"id":"a632c1tzvbyw"},"type":"Feature","geometry":{"type":"Point","coordinates":[-116.726751,34.450143]}},{"properties":{"zip":"92311","chg":-0.41,"median":58,"id":"a632c1ryy6oc"},"type":"Feature","geometry":{"type":"Point","coordinates":[-117.103931,34.87665]}},{"properties":{"zip":"92313","chg":0.24,"median":215,"id":"a632c1zrk6nx"},"type":"Feature","geometry":{"type":"Point","coordinates":[-115.967051,34.839964]}},{"properties":{"zip":"92314","chg":-0.31,"median":163,"id":"a632c1oxkt25"},"type":"Feature","geometry":{"type":"Point","coordinates":[-116.110086,34.50514]}},{"properties":{"zip":"92315","chg":-0.22,"median":229,"id":"a632c20nav4m"},"type":"Feature","geometry":{"type":"Point","coordinates":[-116.855585,34.235286]}},{"properties":{"zip":"92316","chg":-0.27,"median":105,"id":"a632c1x78svu"},"type":"Feature","geometry":{"type":"Point","coordinates":[-117.396157,34.044458]}},{"properties":{"zip":"92320","chg":-0.02,"median":171,"id":"a632c1visgrp"},"type":"Feature","geometry":{"type":"Point","coordinates":[-117.038262,33.976814]}},{"properties":{"zip":"92322","chg":0.81,"median":145,"id":"a632c21mifdt"},"type":"Feature","geometry":{"type":"Point","coordinates":[-115.967051,34.839964]}},{"properties":{"zip":"92324","chg":-0.07,"median":128,"id":"a632c1p055h5"},"type":"Feature","geometry":{"type":"Point","coordinates":[-117.313654,34.033903]}},{"properties":{"zip":"92325","chg":-0.3,"median":106,"id":"a632c1ul01lu"},"type":"Feature","geometry":{"type":"Point","coordinates":[-117.304767,34.246673]}},{"properties":{"zip":"92333","chg":1.18,"median":475,"id":"a632c1mbty1n"},"type":"Feature","geometry":{"type":"Point","coordinates":[-116.951508,34.258346]}},{"properties":{"zip":"92335","chg":0.03,"median":138,"id":"a632c1lrv256"},"type":"Feature","geometry":{"type":"Point","coordinates":[-117.488939,34.06279]}},{"properties":{"zip":"92336","chg":0.0,"median":260,"id":"a632c1omfpxi"},"type":"Feature","geometry":{"type":"Point","coordinates":[-116.247005,34.122307]}},{"properties":{"zip":"92337","chg":-0.07,"median":195,"id":"a632c1rmhixn"},"type":"Feature","geometry":{"type":"Point","coordinates":[-115.967051,34.839964]}},{"properties":{"zip":"92341","chg":-0.18,"median":89,"id":"a632c1qqp62r"},"type":"Feature","geometry":{"type":"Point","coordinates":[-116.938548,34.241137]}},{"properties":{"zip":"92342","chg":-0.33,"median":90,"id":"a632c1tt6e6c"},"type":"Feature","geometry":{"type":"Point","coordinates":[-116.378323,34.496921]}},{"properties":{"zip":"92344","chg":-0.11,"median":143,"id":"a632c1qtabo1"},"type":"Feature","geometry":null},{"properties":{"zip":"92345","chg":-0.16,"median":103,"id":"a632c1qgqjyn"},"type":"Feature","geometry":{"type":"Point","coordinates":[-115.967051,34.839964]}},{"properties":{"zip":"92346","chg":-0.2,"median":160,"id":"a632c1uk9755"},"type":"Feature","geometry":{"type":"Point","coordinates":[-117.226152,34.1214]}},{"properties":{"zip":"92347","chg":2.47,"median":250,"id":"a632c1sewpuw"},"type":"Feature","geometry":{"type":"Point","coordinates":[-117.330884,35.014699]}},{"properties":{"zip":"92352","chg":-0.06,"median":355,"id":"a632c21vzzp2"},"type":"Feature","geometry":{"type":"Point","coordinates":[-117.129213,34.209221]}},{"properties":{"zip":"92354","chg":-0.06,"median":240,"id":"a632c1ovk4wy"},"type":"Feature","geometry":{"type":"Point","coordinates":[-115.967051,34.839964]}},{"properties":{"zip":"92356","chg":-0.02,"median":50,"id":"a632c1x5pz27"},"type":"Feature","geometry":{"type":"Point","coordinates":[-116.206281,34.770403]}},{"properties":{"zip":"92358","chg":0.4,"median":125,"id":"a632c1urc38t"},"type":"Feature","geometry":{"type":"Point","coordinates":[-115.967051,34.839964]}},{"properties":{"zip":"92359","chg":0.23,"median":233,"id":"a632c1qn2vr5"},"type":"Feature","geometry":{"type":"Point","coordinates":[-116.999198,34.100567]}},{"properties":{"zip":"92363","chg":0.17,"median":67,"id":"a632c21tszqa"},"type":"Feature","geometry":{"type":"Point","coordinates":[-114.413847,34.482234]}},{"properties":{"zip":"92371","chg":0.09,"median":172,"id":"a632c1yifqpt"},"type":"Feature","geometry":{"type":"Point","coordinates":[-115.967051,34.839964]}},{"properties":{"zip":"92372","chg":-0.16,"median":130,"id":"a632c1qwzvta"},"type":"Feature","geometry":{"type":"Point","coordinates":[-116.855056,34.237294]}},{"properties":{"zip":"92373","chg":-0.23,"median":288,"id":"a632c1mt474l"},"type":"Feature","geometry":{"type":"Point","coordinates":[-117.158648,34.033903]}},{"properties":{"zip":"92374","chg":-0.15,"median":188,"id":"a632c1rn6ftd"},"type":"Feature","geometry":{"type":"Point","coordinates":[-116.898232,34.153575]}},{"properties":{"zip":"92376","chg":0.13,"median":140,"id":"a632c1y5n3vk"},"type":"Feature","geometry":{"type":"Point","coordinates":[-115.567483,34.202339]}},{"properties":{"zip":"92377","chg":-0.1,"median":185,"id":"a632c1tefl6p"},"type":"Feature","geometry":{"type":"Point","coordinates":[-116.982871,34.141501]}},{"properties":{"zip":"92378","chg":2.0,"median":270,"id":"a632c1xtohbv"},"type":"Feature","geometry":{"type":"Point","coordinates":[-115.967051,34.839964]}},{"properties":{"zip":"92382","chg":-0.36,"median":86,"id":"a632c1mbcdg3"},"type":"Feature","geometry":{"type":"Point","coordinates":[-117.127539,34.198342]}},{"properties":{"zip":"92386","chg":-0.25,"median":83,"id":"a632c1ugr1w1"},"type":"Feature","geometry":{"type":"Point","coordinates":[-116.818764,34.247205]}},{"properties":{"zip":"92391","chg":0.16,"median":176,"id":"a632c1o2jhfq"},"type":"Feature","geometry":{"type":"Point","coordinates":[-115.967051,34.839964]}},{"properties":{"zip":"92392","chg":0.02,"median":122,"id":"a632c1ouwt9u"},"type":"Feature","geometry":{"type":"Point","coordinates":[-114.754916,34.491985]}},{"properties":{"zip":"92394","chg":-0.05,"median":115,"id":"a632c20pnx2d"},"type":"Feature","geometry":{"type":"Point","coordinates":[-115.172471,34.527103]}},{"properties":{"zip":"92395","chg":0.08,"median":105,"id":"a632c1m30g55"},"type":"Feature","geometry":null},{"properties":{"zip":"92397","chg":0.13,"median":208,"id":"a632c1q7g7tg"},"type":"Feature","geometry":{"type":"Point","coordinates":[-115.967051,34.839964]}},{"properties":{"zip":"92399","chg":0.09,"median":202,"id":"a632c1yo842q"},"type":"Feature","geometry":{"type":"Point","coordinates":[-116.947805,34.049457]}},{"properties":{"zip":"92404","chg":0.26,"median":100,"id":"a632c1y4mngz"},"type":"Feature","geometry":{"type":"Point","coordinates":[-117.243375,34.148899]}},{"properties":{"zip":"92405","chg":-0.04,"median":84,"id":"a632c1md1fe6"},"type":"Feature","geometry":{"type":"Point","coordinates":[-117.344212,34.154176]}},{"properties":{"zip":"92407","chg":-0.06,"median":147,"id":"a632c1lohxlq"},"type":"Feature","geometry":{"type":"Point","coordinates":[-117.415604,34.237229]}},{"properties":{"zip":"92408","chg":-0.3,"median":79,"id":"a632c1me9bdp"},"type":"Feature","geometry":{"type":"Point","coordinates":[-115.967051,34.839964]}},{"properties":{"zip":"92410","chg":0.45,"median":81,"id":"a632c202a52m"},"type":"Feature","geometry":{"type":"Point","coordinates":[-116.479963,34.095956]}},{"properties":{"zip":"92411","chg":0.01,"median":59,"id":"a632c1ll4yu5"},"type":"Feature","geometry":{"type":"Point","coordinates":[-115.967051,34.839964]}},{"properties":{"zip":"92501","chg":-0.06,"median":183,"id":"a632c1oh30en"},"type":"Feature","geometry":{"type":"Point","coordinates":[-116.055617,33.752886]}},{"properties":{"zip":"92503","chg":0.08,"median":195,"id":"a632c1uiz39j"},"type":"Feature","geometry":{"type":"Point","coordinates":[-117.446435,33.920293]}},{"properties":{"zip":"92504","chg":0.13,"median":170,"id":"a632c1pquntn"},"type":"Feature","geometry":{"type":"Point","coordinates":[-117.357265,33.882239]}},{"properties":{"zip":"92505","chg":-0.03,"median":185,"id":"a632c1qvrpjn"},"type":"Feature","geometry":{"type":"Point","coordinates":[-117.496437,33.920848]}},{"properties":{"zip":"92506","chg":0.13,"median":260,"id":"a632c1wnb89s"},"type":"Feature","geometry":{"type":"Point","coordinates":[-116.055617,33.752886]}},{"properties":{"zip":"92507","chg":0.22,"median":210,"id":"a632c1zdr1xo"},"type":"Feature","geometry":{"type":"Point","coordinates":[-117.333377,34.015848]}},{"properties":{"zip":"92508","chg":-0.09,"median":280,"id":"a632c20xblfv"},"type":"Feature","geometry":{"type":"Point","coordinates":[-117.2631,33.892091]}},{"properties":{"zip":"92509","chg":0.31,"median":185,"id":"a632c1whz1ru"},"type":"Feature","geometry":{"type":"Point","coordinates":[-117.433381,34.011958]}},{"properties":{"zip":"92530","chg":0.17,"median":158,"id":"a632c21u3b8k"},"type":"Feature","geometry":{"type":"Point","coordinates":[-116.649216,33.658068]}},{"properties":{"zip":"92532","chg":0.1,"median":225,"id":"a632c1tbza8q"},"type":"Feature","geometry":{"type":"Point","coordinates":[-116.055617,33.752886]}},{"properties":{"zip":"92536","chg":-0.15,"median":204,"id":"a632c1og1ypk"},"type":"Feature","geometry":{"type":"Point","coordinates":[-116.737521,33.350869]}},{"properties":{"zip":"92543","chg":0.03,"median":69,"id":"a632c1yb39pf"},"type":"Feature","geometry":{"type":"Point","coordinates":[-116.777014,33.651652]}},{"properties":{"zip":"92544","chg":-0.08,"median":110,"id":"a632c1z47861"},"type":"Feature","geometry":{"type":"Point","coordinates":[-116.786275,33.617074]}},{"properties":{"zip":"92545","chg":0.1,"median":140,"id":"a632c1rceeu6"},"type":"Feature","geometry":{"type":"Point","coordinates":[-116.055617,33.752886]}},{"properties":{"zip":"92548","chg":1.42,"median":215,"id":"a632c1pt1lxb"},"type":"Feature","geometry":{"type":"Point","coordinates":[-116.055617,33.752886]}},{"properties":{"zip":"92549","chg":0.01,"median":221,"id":"a632c1q8euj0"},"type":"Feature","geometry":{"type":"Point","coordinates":[-116.721444,33.741769]}},{"properties":{"zip":"92551","chg":0.03,"median":150,"id":"a632c1x5jwai"},"type":"Feature","geometry":{"type":"Point","coordinates":[-116.055617,33.752886]}},{"properties":{"zip":"92553","chg":0.18,"median":122,"id":"a632c1ska4o1"},"type":"Feature","geometry":{"type":"Point","coordinates":[-116.505017,32.679501]}},{"properties":{"zip":"92555","chg":0.0,"median":208,"id":"a632c1vqciet"},"type":"Feature","geometry":{"type":"Point","coordinates":[-116.920413,33.855098]}},{"properties":{"zip":"92557","chg":-0.01,"median":156,"id":"a632c1zrkb3d"},"type":"Feature","geometry":{"type":"Point","coordinates":[-116.055617,33.752886]}},{"properties":{"zip":"92561","chg":0.62,"median":233,"id":"a632c1wsiyjh"},"type":"Feature","geometry":{"type":"Point","coordinates":[-116.452792,33.589471]}},{"properties":{"zip":"92562","chg":-0.04,"median":250,"id":"a632c1njojm8"},"type":"Feature","geometry":{"type":"Point","coordinates":[-116.861027,33.44204]}},{"properties":{"zip":"92563","chg":0.02,"median":244,"id":"a632c1rmdj7m"},"type":"Feature","geometry":{"type":"Point","coordinates":[-117.158088,33.560581]}},{"properties":{"zip":"92567","chg":-0.3,"median":130,"id":"a632c1xsm9pd"},"type":"Feature","geometry":{"type":"Point","coordinates":[-116.406069,33.628192]}},{"properties":{"zip":"92570","chg":-0.1,"median":135,"id":"a632c1x6su48"},"type":"Feature","geometry":{"type":"Point","coordinates":[-116.055617,33.752886]}},{"properties":{"zip":"92571","chg":0.09,"median":147,"id":"a632c1uegr40"},"type":"Feature","geometry":{"type":"Point","coordinates":[-116.055617,33.752886]}},{"properties":{"zip":"92582","chg":0.02,"median":159,"id":"a632c1nl4yg6"},"type":"Feature","geometry":{"type":"Point","coordinates":[-116.055617,33.752886]}},{"properties":{"zip":"92583","chg":0.17,"median":132,"id":"a632c1m94tah"},"type":"Feature","geometry":{"type":"Point","coordinates":[-116.92919,33.799741]}},{"properties":{"zip":"92584","chg":0.05,"median":200,"id":"a632c1uc6h3t"},"type":"Feature","geometry":{"type":"Point","coordinates":[-116.055617,33.752886]}},{"properties":{"zip":"92585","chg":-0.17,"median":157,"id":"a632c1oaa8p2"},"type":"Feature","geometry":{"type":"Point","coordinates":[-117.175034,33.745853]}},{"properties":{"zip":"92586","chg":0.11,"median":130,"id":"a632c1v4vulc"},"type":"Feature","geometry":{"type":"Point","coordinates":[-116.784521,33.48777]}},{"properties":{"zip":"92587","chg":0.11,"median":201,"id":"a632c1t067wy"},"type":"Feature","geometry":{"type":"Point","coordinates":[-117.273093,33.685022]}},{"properties":{"zip":"92590","chg":-0.15,"median":510,"id":"a632c1x4lqi3"},"type":"Feature","geometry":{"type":"Point","coordinates":[-116.055617,33.752886]}},{"properties":{"zip":"92591","chg":-0.09,"median":235,"id":"a632c1wz4y1b"},"type":"Feature","geometry":{"type":"Point","coordinates":[-116.055617,33.752886]}},{"properties":{"zip":"92592","chg":-0.05,"median":280,"id":"a632c1pyt16v"},"type":"Feature","geometry":{"type":"Point","coordinates":[-116.055617,33.752886]}},{"properties":{"zip":"92595","chg":-0.05,"median":215,"id":"a632c21zioqt"},"type":"Feature","geometry":{"type":"Point","coordinates":[-116.055617,33.752886]}},{"properties":{"zip":"92596","chg":0.04,"median":239,"id":"a632c1w5547v"},"type":"Feature","geometry":{"type":"Point","coordinates":[-116.055617,33.752886]}},{"properties":{"zip":"92602","chg":-0.19,"median":802,"id":"a632c21rvnpe"},"type":"Feature","geometry":{"type":"Point","coordinates":[-117.72222,33.718018]}},{"properties":{"zip":"92603","chg":-0.37,"median":1283,"id":"a632c1v9s5j8"},"type":"Feature","geometry":{"type":"Point","coordinates":[-117.764637,33.648871]}},{"properties":{"zip":"92604","chg":0.05,"median":596,"id":"a632c209up0e"},"type":"Feature","geometry":{"type":"Point","coordinates":[-117.790059,33.690475]}},{"properties":{"zip":"92606","chg":0.26,"median":825,"id":"a632c1vua4ka"},"type":"Feature","geometry":{"type":"Point","coordinates":[-117.817338,33.701121]}},{"properties":{"zip":"92610","chg":-0.12,"median":530,"id":"a632c1o21il3"},"type":"Feature","geometry":{"type":"Point","coordinates":[-117.730745,33.663011]}},{"properties":{"zip":"92612","chg":-0.15,"median":460,"id":"a632c1q7rawh"},"type":"Feature","geometry":{"type":"Point","coordinates":[-117.782805,33.615525]}},{"properties":{"zip":"92614","chg":0.09,"median":720,"id":"a632c1r7g7fn"},"type":"Feature","geometry":{"type":"Point","coordinates":[-117.827913,33.685319]}},{"properties":{"zip":"92618","chg":1.77,"median":1150,"id":"a632c21y4n3t"},"type":"Feature","geometry":{"type":"Point","coordinates":[-117.73269,33.641579]}},{"properties":{"zip":"92620","chg":0.03,"median":720,"id":"a632c1qevrdw"},"type":"Feature","geometry":{"type":"Point","coordinates":[-117.765186,33.691619]}},{"properties":{"zip":"92624","chg":0.49,"median":748,"id":"a632c1ulldzn"},"type":"Feature","geometry":{"type":"Point","coordinates":[-117.662824,33.455277]}},{"properties":{"zip":"92625","chg":-0.11,"median":1698,"id":"a632c1xnf7d4"},"type":"Feature","geometry":{"type":"Point","coordinates":[-117.865325,33.599956]}},{"properties":{"zip":"92626","chg":0.09,"median":570,"id":"a632c1nu07nt"},"type":"Feature","geometry":{"type":"Point","coordinates":[-117.778398,33.6829]}},{"properties":{"zip":"92627","chg":-0.18,"median":495,"id":"a632c21gyc37"},"type":"Feature","geometry":{"type":"Point","coordinates":[-117.763886,33.685069]}},{"properties":{"zip":"92629","chg":-0.16,"median":625,"id":"a632c1q1wtrk"},"type":"Feature","geometry":{"type":"Point","coordinates":[-117.696366,33.485903]}},{"properties":{"zip":"92630","chg":0.01,"median":438,"id":"a632c1sh5a8k"},"type":"Feature","geometry":{"type":"Point","coordinates":[-117.683662,33.646966]}},{"properties":{"zip":"92646","chg":-0.09,"median":565,"id":"a632c1sn63g8"},"type":"Feature","geometry":{"type":"Point","coordinates":[-117.769442,33.640302]}},{"properties":{"zip":"92647","chg":-0.04,"median":515,"id":"a632c1svmbfq"},"type":"Feature","geometry":{"type":"Point","coordinates":[-117.769442,33.640302]}},{"properties":{"zip":"92648","chg":0.2,"median":920,"id":"a632c1pgby6u"},"type":"Feature","geometry":{"type":"Point","coordinates":[-117.769442,33.640302]}},{"properties":{"zip":"92649","chg":-0.07,"median":673,"id":"a632c1pt1ch4"},"type":"Feature","geometry":{"type":"Point","coordinates":[-117.769442,33.640302]}},{"properties":{"zip":"92651","chg":0.32,"median":1685,"id":"a632c1tyzmyn"},"type":"Feature","geometry":{"type":"Point","coordinates":[-117.754221,33.548359]}},{"properties":{"zip":"92653","chg":-0.12,"median":485,"id":"a632c20gjfih"},"type":"Feature","geometry":{"type":"Point","coordinates":[-117.725331,33.610301]}},{"properties":{"zip":"92655","chg":0.79,"median":538,"id":"a632c1pf3ni9"},"type":"Feature","geometry":{"type":"Point","coordinates":[-117.769442,33.640302]}},{"properties":{"zip":"92656","chg":0.04,"median":554,"id":"a632c20xmlmp"},"type":"Feature","geometry":{"type":"Point","coordinates":[-117.751341,33.603459]}},{"properties":{"zip":"92657","chg":0.64,"median":2298,"id":"a632c1lyjnn6"},"type":"Feature","geometry":{"type":"Point","coordinates":[-117.928947,33.61891]}},{"properties":{"zip":"92660","chg":0.19,"median":1013,"id":"a632c20xb3la"},"type":"Feature","geometry":{"type":"Point","coordinates":[-117.875189,33.637771]}},{"properties":{"zip":"92661","chg":2.56,"median":4046,"id":"a632c1znzwbb"},"type":"Feature","geometry":{"type":"Point","coordinates":[-117.900891,33.586967]}},{"properties":{"zip":"92663","chg":0.25,"median":1000,"id":"a632c214alqz"},"type":"Feature","geometry":{"type":"Point","coordinates":[-117.91709,33.61837]}},{"properties":{"zip":"92672","chg":-0.17,"median":600,"id":"a632c21qa7oi"},"type":"Feature","geometry":{"type":"Point","coordinates":[-117.573102,33.381141]}},{"properties":{"zip":"92673","chg":0.03,"median":785,"id":"a632c1qdj79b"},"type":"Feature","geometry":{"type":"Point","coordinates":[-117.625076,33.459745]}},{"properties":{"zip":"92675","chg":-0.16,"median":369,"id":"a632c1s85cba"},"type":"Feature","geometry":{"type":"Point","coordinates":[-117.618932,33.530631]}},{"properties":{"zip":"92676","chg":0.32,"median":280,"id":"a632c1tm7pzy"},"type":"Feature","geometry":{"type":"Point","coordinates":[-117.62616,33.709186]}},{"properties":{"zip":"92677","chg":0.12,"median":710,"id":"a632c1qu3tq8"},"type":"Feature","geometry":{"type":"Point","coordinates":[-117.732276,33.490861]}},{"properties":{"zip":"92679","chg":0.08,"median":750,"id":"a632c1u0kg86"},"type":"Feature","geometry":{"type":"Point","coordinates":[-117.631161,33.679187]}},{"properties":{"zip":"92683","chg":-0.04,"median":414,"id":"a632c1pwsg2p"},"type":"Feature","geometry":{"type":"Point","coordinates":[-118.024228,33.758905]}},{"properties":{"zip":"92688","chg":0.2,"median":533,"id":"a632c1w7cwlt"},"type":"Feature","geometry":{"type":"Point","coordinates":[-117.83728,33.901959]}},{"properties":{"zip":"92691","chg":0.09,"median":488,"id":"a632c1xik7bd"},"type":"Feature","geometry":{"type":"Point","coordinates":[-117.667923,33.605527]}},{"properties":{"zip":"92692","chg":-0.24,"median":483,"id":"a632c215g8e0"},"type":"Feature","geometry":{"type":"Point","coordinates":[-117.659899,33.575026]}},{"properties":{"zip":"92694","chg":0.06,"median":765,"id":"a632c1wolf62"},"type":"Feature","geometry":{"type":"Point","coordinates":[-117.769442,33.640302]}},{"properties":{"zip":"92701","chg":0.09,"median":227,"id":"a632c1riod8b"},"type":"Feature","geometry":{"type":"Point","coordinates":[-117.769442,33.640302]}},{"properties":{"zip":"92703","chg":0.12,"median":280,"id":"a632c1n8zhav"},"type":"Feature","geometry":{"type":"Point","coordinates":[-117.769442,33.640302]}},{"properties":{"zip":"92704","chg":0.28,"median":345,"id":"a632c1vw7c5d"},"type":"Feature","geometry":{"type":"Point","coordinates":[-117.769442,33.640302]}},{"properties":{"zip":"92705","chg":-0.26,"median":518,"id":"a632c1mtlfhd"},"type":"Feature","geometry":{"type":"Point","coordinates":[-117.79811,33.777795]}},{"properties":{"zip":"92706","chg":0.07,"median":396,"id":"a632c1r1plbh"},"type":"Feature","geometry":{"type":"Point","coordinates":[-117.769442,33.640302]}},{"properties":{"zip":"92707","chg":0.0,"median":259,"id":"a632c1wicakb"},"type":"Feature","geometry":{"type":"Point","coordinates":[-117.895613,33.65252]}},{"properties":{"zip":"92708","chg":0.05,"median":575,"id":"a632c1m1t8oj"},"type":"Feature","geometry":{"type":"Point","coordinates":[-117.769442,33.640302]}},{"properties":{"zip":"92780","chg":0.06,"median":450,"id":"a632c1nbflml"},"type":"Feature","geometry":{"type":"Point","coordinates":[-117.731534,33.579122]}},{"properties":{"zip":"92782","chg":0.19,"median":810,"id":"a632c20nltvv"},"type":"Feature","geometry":{"type":"Point","coordinates":[-117.816189,33.705787]}},{"properties":{"zip":"92801","chg":0.22,"median":325,"id":"a632c1neanhr"},"type":"Feature","geometry":{"type":"Point","coordinates":[-117.769442,33.640302]}},{"properties":{"zip":"92802","chg":0.1,"median":358,"id":"a632c1s3robd"},"type":"Feature","geometry":{"type":"Point","coordinates":[-117.769442,33.640302]}},{"properties":{"zip":"92804","chg":-0.02,"median":335,"id":"a632c1wun30s"},"type":"Feature","geometry":{"type":"Point","coordinates":[-117.769442,33.640302]}},{"properties":{"zip":"92805","chg":0.09,"median":333,"id":"a632c1yi5nb2"},"type":"Feature","geometry":{"type":"Point","coordinates":[-117.769442,33.640302]}},{"properties":{"zip":"92806","chg":0.11,"median":404,"id":"a632c20bk8wm"},"type":"Feature","geometry":{"type":"Point","coordinates":[-117.769442,33.640302]}},{"properties":{"zip":"92807","chg":0.15,"median":488,"id":"a632c1mq17rd"},"type":"Feature","geometry":{"type":"Point","coordinates":[-117.777277,33.84446]}},{"properties":{"zip":"92808","chg":-0.07,"median":570,"id":"a632c1wvz6n5"},"type":"Feature","geometry":{"type":"Point","coordinates":[-117.769442,33.640302]}},{"properties":{"zip":"92821","chg":-0.06,"median":502,"id":"a632c1w5mn8p"},"type":"Feature","geometry":{"type":"Point","coordinates":[-117.769442,33.640302]}},{"properties":{"zip":"92823","chg":0.11,"median":680,"id":"a632c1miqtd9"},"type":"Feature","geometry":{"type":"Point","coordinates":[-117.769442,33.640302]}},{"properties":{"zip":"92831","chg":-0.21,"median":398,"id":"a632c1mo9t0o"},"type":"Feature","geometry":{"type":"Point","coordinates":[-117.769442,33.640302]}},{"properties":{"zip":"92832","chg":0.06,"median":295,"id":"a632c20gl9lq"},"type":"Feature","geometry":{"type":"Point","coordinates":[-117.769442,33.640302]}},{"properties":{"zip":"92833","chg":0.07,"median":375,"id":"a632c1whb1gt"},"type":"Feature","geometry":{"type":"Point","coordinates":[-117.769442,33.640302]}},{"properties":{"zip":"92835","chg":0.83,"median":665,"id":"a632c1o7vs26"},"type":"Feature","geometry":{"type":"Point","coordinates":[-117.769442,33.640302]}},{"properties":{"zip":"92840","chg":0.07,"median":350,"id":"a632c1tpdcbr"},"type":"Feature","geometry":{"type":"Point","coordinates":[-117.769442,33.640302]}},{"properties":{"zip":"92841","chg":0.09,"median":389,"id":"a632c1q4jtjh"},"type":"Feature","geometry":{"type":"Point","coordinates":[-117.769442,33.640302]}},{"properties":{"zip":"92843","chg":0.07,"median":375,"id":"a632c1uwd338"},"type":"Feature","geometry":{"type":"Point","coordinates":[-117.769442,33.640302]}},{"properties":{"zip":"92844","chg":-0.21,"median":305,"id":"a632c1uhecml"},"type":"Feature","geometry":{"type":"Point","coordinates":[-117.769442,33.640302]}},{"properties":{"zip":"92845","chg":0.18,"median":559,"id":"a632c1ol6ag7"},"type":"Feature","geometry":{"type":"Point","coordinates":[-117.769442,33.640302]}},{"properties":{"zip":"92860","chg":0.27,"median":425,"id":"a632c1uyq3nd"},"type":"Feature","geometry":{"type":"Point","coordinates":[-116.055617,33.752886]}},{"properties":{"zip":"92861","chg":0.0,"median":855,"id":"a632c1ol1rxk"},"type":"Feature","geometry":{"type":"Point","coordinates":[-117.769442,33.640302]}},{"properties":{"zip":"92865","chg":0.02,"median":430,"id":"a632c1n7x7eg"},"type":"Feature","geometry":{"type":"Point","coordinates":[-117.769442,33.640302]}},{"properties":{"zip":"92866","chg":-0.14,"median":485,"id":"a632c214mgst"},"type":"Feature","geometry":{"type":"Point","coordinates":[-117.769442,33.640302]}},{"properties":{"zip":"92867","chg":0.1,"median":480,"id":"a632c21wtgxm"},"type":"Feature","geometry":{"type":"Point","coordinates":[-117.769442,33.640302]}},{"properties":{"zip":"92868","chg":0.1,"median":346,"id":"a632c1pmvsbb"},"type":"Feature","geometry":{"type":"Point","coordinates":[-117.769442,33.640302]}},{"properties":{"zip":"92869","chg":0.16,"median":592,"id":"a632c1o1y113"},"type":"Feature","geometry":{"type":"Point","coordinates":[-117.769442,33.640302]}},{"properties":{"zip":"92870","chg":0.0,"median":518,"id":"a632c1tqngrm"},"type":"Feature","geometry":{"type":"Point","coordinates":[-117.769442,33.640302]}},{"properties":{"zip":"92879","chg":0.0,"median":255,"id":"a632c1okxon4"},"type":"Feature","geometry":{"type":"Point","coordinates":[-116.055617,33.752886]}},{"properties":{"zip":"92880","chg":0.01,"median":355,"id":"a632c1prdnst"},"type":"Feature","geometry":{"type":"Point","coordinates":[-116.055617,33.752886]}},{"properties":{"zip":"92881","chg":-0.06,"median":325,"id":"a632c21c5gjh"},"type":"Feature","geometry":{"type":"Point","coordinates":[-116.055617,33.752886]}},{"properties":{"zip":"92882","chg":0.28,"median":335,"id":"a632c1nnz3t4"},"type":"Feature","geometry":{"type":"Point","coordinates":[-116.055617,33.752886]}},{"properties":{"zip":"92883","chg":0.02,"median":298,"id":"a632c1qmtonw"},"type":"Feature","geometry":{"type":"Point","coordinates":[-116.055617,33.752886]}},{"properties":{"zip":"92886","chg":-0.21,"median":585,"id":"a632c1o7ugqu"},"type":"Feature","geometry":{"type":"Point","coordinates":[-117.588233,33.674044]}},{"properties":{"zip":"92887","chg":-0.05,"median":693,"id":"a632c1mowu7z"},"type":"Feature","geometry":{"type":"Point","coordinates":[-117.769442,33.640302]}},{"properties":{"zip":"93001","chg":1.0,"median":540,"id":"a632c1pjdwlh"},"type":"Feature","geometry":{"type":"Point","coordinates":[-119.293168,34.278335]}},{"properties":{"zip":"93003","chg":0.18,"median":437,"id":"a632c1y04nlz"},"type":"Feature","geometry":{"type":"Point","coordinates":[-119.221299,34.230353]}},{"properties":{"zip":"93004","chg":0.04,"median":421,"id":"a632c1z1apmd"},"type":"Feature","geometry":{"type":"Point","coordinates":[-119.149829,34.283058]}},{"properties":{"zip":"93010","chg":-0.02,"median":441,"id":"a632c211mdn8"},"type":"Feature","geometry":{"type":"Point","coordinates":[-119.095938,34.22056]}},{"properties":{"zip":"93012","chg":0.18,"median":605,"id":"a632c1v3m57c"},"type":"Feature","geometry":{"type":"Point","coordinates":[-118.974355,34.204429]}},{"properties":{"zip":"93013","chg":0.42,"median":848,"id":"a632c1uu58qe"},"type":"Feature","geometry":{"type":"Point","coordinates":[-119.572627,34.418606]}},{"properties":{"zip":"93015","chg":0.0,"median":250,"id":"a632c1uv19hv"},"type":"Feature","geometry":{"type":"Point","coordinates":[-118.950378,34.399997]}},{"properties":{"zip":"93021","chg":0.15,"median":453,"id":"a632c1llazwp"},"type":"Feature","geometry":{"type":"Point","coordinates":[-118.858429,34.28778]}},{"properties":{"zip":"93022","chg":-0.35,"median":286,"id":"a632c1vg55hh"},"type":"Feature","geometry":{"type":"Point","coordinates":[-119.308447,34.40694]}},{"properties":{"zip":"93023","chg":0.5,"median":540,"id":"a632c1ota3c6"},"type":"Feature","geometry":{"type":"Point","coordinates":[-119.291503,34.508047]}},{"properties":{"zip":"93030","chg":-0.03,"median":296,"id":"a632c1rj01ta"},"type":"Feature","geometry":{"type":"Point","coordinates":[-119.16383,34.235783]}},{"properties":{"zip":"93033","chg":0.08,"median":260,"id":"a632c1xlub9x"},"type":"Feature","geometry":{"type":"Point","coordinates":[-119.131326,34.154141]}},{"properties":{"zip":"93035","chg":0.66,"median":590,"id":"a632c1mu76p0"},"type":"Feature","geometry":{"type":"Point","coordinates":[-119.218442,34.152783]}},{"properties":{"zip":"93036","chg":0.23,"median":366,"id":"a632c1ny8t2u"},"type":"Feature","geometry":{"type":"Point","coordinates":[-119.21216,34.199838]}},{"properties":{"zip":"93040","chg":0.14,"median":240,"id":"a632c1wec6nk"},"type":"Feature","geometry":{"type":"Point","coordinates":[-118.756759,34.406664]}},{"properties":{"zip":"93041","chg":0.01,"median":260,"id":"a632c1nhajdd"},"type":"Feature","geometry":{"type":"Point","coordinates":[-119.15458,34.148893]}},{"properties":{"zip":"93060","chg":0.24,"median":285,"id":"a632c1t4x2qp"},"type":"Feature","geometry":{"type":"Point","coordinates":[-119.09455,34.42694]}},{"properties":{"zip":"93063","chg":0.26,"median":457,"id":"a632c1u38lfl"},"type":"Feature","geometry":{"type":"Point","coordinates":[-118.70898,34.271669]}},{"properties":{"zip":"93065","chg":-0.12,"median":351,"id":"a632c1ojfugu"},"type":"Feature","geometry":{"type":"Point","coordinates":[-118.737592,34.26917]}},{"properties":{"zip":"93066","chg":1.46,"median":935,"id":"a632c1wubi3n"},"type":"Feature","geometry":{"type":"Point","coordinates":[-119.039305,34.304034]}},{"properties":{"zip":"93101","chg":-0.04,"median":555,"id":"a632c1q51ajx"},"type":"Feature","geometry":{"type":"Point","coordinates":[-119.990975,34.5861]}},{"properties":{"zip":"93103","chg":-0.17,"median":1200,"id":"a632c207ahy4"},"type":"Feature","geometry":{"type":"Point","coordinates":[-119.626863,34.430908]}},{"properties":{"zip":"93105","chg":-0.01,"median":775,"id":"a632c1md96zi"},"type":"Feature","geometry":{"type":"Point","coordinates":[-119.770971,34.421942]}},{"properties":{"zip":"93108","chg":-0.42,"median":1765,"id":"a632c1moyjrq"},"type":"Feature","geometry":{"type":"Point","coordinates":[-119.632075,34.436663]}},{"properties":{"zip":"93109","chg":-0.28,"median":1016,"id":"a632c1x5bbcz"},"type":"Feature","geometry":{"type":"Point","coordinates":[-119.723668,34.406997]}},{"properties":{"zip":"93110","chg":-0.51,"median":628,"id":"a632c1wql5jd"},"type":"Feature","geometry":{"type":"Point","coordinates":[-119.906198,34.539027]}},{"properties":{"zip":"93111","chg":0.16,"median":810,"id":"a632c20rmlyl"},"type":"Feature","geometry":{"type":"Point","coordinates":[-119.798472,34.453046]}},{"properties":{"zip":"93117","chg":-0.04,"median":615,"id":"a632c1nvqflj"},"type":"Feature","geometry":{"type":"Point","coordinates":[-120.22904,34.508044]}},{"properties":{"zip":"93427","chg":-0.06,"median":423,"id":"a632c1v3czm2"},"type":"Feature","geometry":{"type":"Point","coordinates":[-120.201469,34.635927]}},{"properties":{"zip":"93434","chg":0.91,"median":220,"id":"a632c1pkvs81"},"type":"Feature","geometry":{"type":"Point","coordinates":[-120.57318,34.938796]}},{"properties":{"zip":"93436","chg":-0.07,"median":200,"id":"a632c2157lzd"},"type":"Feature","geometry":{"type":"Point","coordinates":[-120.467664,34.708316]}},{"properties":{"zip":"93454","chg":-0.13,"median":210,"id":"a632c1nswei9"},"type":"Feature","geometry":{"type":"Point","coordinates":[-120.291546,34.864702]}},{"properties":{"zip":"93455","chg":0.01,"median":305,"id":"a632c1zzm85y"},"type":"Feature","geometry":{"type":"Point","coordinates":[-120.435997,34.865257]}},{"properties":{"zip":"93458","chg":0.08,"median":194,"id":"a632c1xi6yzx"},"type":"Feature","geometry":{"type":"Point","coordinates":[-120.495723,34.953532]}},{"properties":{"zip":"93460","chg":0.23,"median":505,"id":"a632c21vkssc"},"type":"Feature","geometry":{"type":"Point","coordinates":[-120.091629,34.646136]}},{"properties":{"zip":"93463","chg":-0.14,"median":483,"id":"a632c1r9e34w"},"type":"Feature","geometry":{"type":"Point","coordinates":[-120.113203,34.635819]}},{"properties":{"zip":"93510","chg":0.12,"median":460,"id":"a632c1nzq5ml"},"type":"Feature","geometry":{"type":"Point","coordinates":[-118.298662,33.786594]}},{"properties":{"zip":"93532","chg":1.29,"median":144,"id":"a632c1yep8a1"},"type":"Feature","geometry":{"type":"Point","coordinates":[-118.598698,34.735816]}},{"properties":{"zip":"93534","chg":0.25,"median":95,"id":"a632c1m9k8b2"},"type":"Feature","geometry":{"type":"Point","coordinates":[-117.825619,34.667766]}},{"properties":{"zip":"93535","chg":0.21,"median":115,"id":"a632c1yhluds"},"type":"Feature","geometry":{"type":"Point","coordinates":[-117.777285,34.734986]}},{"properties":{"zip":"93536","chg":0.05,"median":195,"id":"a632c1oxc47g"},"type":"Feature","geometry":{"type":"Point","coordinates":[-118.288688,34.689707]}},{"properties":{"zip":"93543","chg":-0.08,"median":97,"id":"a632c1tf8k8l"},"type":"Feature","geometry":{"type":"Point","coordinates":[-117.935344,34.444163]}},{"properties":{"zip":"93550","chg":0.19,"median":125,"id":"a632c20npu4d"},"type":"Feature","geometry":{"type":"Point","coordinates":[-118.116462,34.500549]}},{"properties":{"zip":"93551","chg":-0.12,"median":202,"id":"a632c20lflyr"},"type":"Feature","geometry":{"type":"Point","coordinates":[-118.298662,33.786594]}},{"properties":{"zip":"93552","chg":0.02,"median":148,"id":"a632c1x7kufw"},"type":"Feature","geometry":{"type":"Point","coordinates":[-118.298662,33.786594]}},{"properties":{"zip":"93553","chg":-0.29,"median":235,"id":"a632c1nul0tw"},"type":"Feature","geometry":{"type":"Point","coordinates":[-117.896732,34.493606]}},{"properties":{"zip":"93591","chg":0.09,"median":60,"id":"a632c1vrqmvn"},"type":"Feature","geometry":{"type":"Point","coordinates":[-118.298662,33.786594]}}],"is_temporal":false,"author":{"url":"","metadata":"","contact_name":"","contact_address":"","source":"","contact_phone":""},"source":"","pagination":{"sort":null,"start":0,"total":580,"limit":1000000},"state":"complete","tags":"angeles,home,los,sales","published":"2010-03-30T07:05:05Z","id":35411}