{"type":"FeatureCollection","data_type":"Dataset","url_type":null,"permissions":[{"permissions":{"download":true,"view":true},"group_id":"everyone"}],"classification":null,"title":"Texas Women for the Arts Membership","count":306,"stream_id":355137,"contributor":{"url":"http://geocommons.com/users/71752","name":"lwilshusen"},"data_attributes":null,"calculation_params":null,"icon_link":null,"link":"http://geocommons.com/overlays/355137.json","extent":[-102.908,27.4229,-94.1097,36.2782],"geometry_types":["point"],"unique_name":null,"name":"Texas Women for the Arts Membership","feature_count":306,"description":"","next_feature":null,"is_raster":false,"short_classification":"Y","stats":{},"features":[{"properties":{"city":"Abilene","geo_score":0.714,"id":"ae6914wloolh","geo_precision":"city","state":"Texas"},"type":"Feature","geometry":{"type":"Point","coordinates":[-99.80213,32.344457]}},{"properties":{"city":"Abilene","geo_score":0.714,"id":"ae6914xpbg4l","geo_precision":"city","state":"Texas"},"type":"Feature","geometry":{"type":"Point","coordinates":[-99.80213,32.344457]}},{"properties":{"city":"Abilene","geo_score":0.714,"id":"ae6914xfhnza","geo_precision":"city","state":"Texas"},"type":"Feature","geometry":{"type":"Point","coordinates":[-99.80213,32.344457]}},{"properties":{"city":"Aledo","geo_score":0.714,"id":"ae691514qjxo","geo_precision":"city","state":"Texas"},"type":"Feature","geometry":{"type":"Point","coordinates":[-95.142971,31.806668]}},{"properties":{"city":"Alice","geo_score":0.714,"id":"ae6914ri65p6","geo_precision":"city","state":"Texas"},"type":"Feature","geometry":{"type":"Point","coordinates":[-98.055296,27.703829]}},{"properties":{"city":"Alice","geo_score":0.714,"id":"ae69151o5wd5","geo_precision":"city","state":"Texas"},"type":"Feature","geometry":{"type":"Point","coordinates":[-98.055296,27.703829]}},{"properties":{"city":"Allen","geo_score":0.714,"id":"ae6914u4ic01","geo_precision":"city","state":"Texas"},"type":"Feature","geometry":{"type":"Point","coordinates":[-96.646773,33.208033]}},{"properties":{"city":"Amarillo","geo_score":0.714,"id":"ae6914t6n974","geo_precision":"city","state":"Texas"},"type":"Feature","geometry":{"type":"Point","coordinates":[-101.831297,35.221997]}},{"properties":{"city":"Amarillo","geo_score":0.714,"id":"ae6915147a9f","geo_precision":"city","state":"Texas"},"type":"Feature","geometry":{"type":"Point","coordinates":[-101.831297,35.221997]}},{"properties":{"city":"Amarillo","geo_score":0.714,"id":"ae6914zqbbb0","geo_precision":"city","state":"Texas"},"type":"Feature","geometry":{"type":"Point","coordinates":[-101.831297,35.221997]}},{"properties":{"city":"Amarillo","geo_score":0.714,"id":"ae6914uzfvb3","geo_precision":"city","state":"Texas"},"type":"Feature","geometry":{"type":"Point","coordinates":[-101.831297,35.221997]}},{"properties":{"city":"Amarillo","geo_score":0.714,"id":"ae6914sae6ic","geo_precision":"city","state":"Texas"},"type":"Feature","geometry":{"type":"Point","coordinates":[-101.831297,35.221997]}},{"properties":{"city":"Amarillo","geo_score":0.714,"id":"ae69155l8zzm","geo_precision":"city","state":"Texas"},"type":"Feature","geometry":{"type":"Point","coordinates":[-101.831297,35.221997]}},{"properties":{"city":"Amarillo","geo_score":0.714,"id":"ae6914t0sv3f","geo_precision":"city","state":"Texas"},"type":"Feature","geometry":{"type":"Point","coordinates":[-101.831297,35.221997]}},{"properties":{"city":"Amarillo","geo_score":0.714,"id":"ae69151hvp1i","geo_precision":"city","state":"Texas"},"type":"Feature","geometry":{"type":"Point","coordinates":[-101.831297,35.221997]}},{"properties":{"city":"Amarillo","geo_score":0.714,"id":"ae69152384wg","geo_precision":"city","state":"Texas"},"type":"Feature","geometry":{"type":"Point","coordinates":[-101.831297,35.221997]}},{"properties":{"city":"Amarillo","geo_score":0.714,"id":"ae6914w41980","geo_precision":"city","state":"Texas"},"type":"Feature","geometry":{"type":"Point","coordinates":[-101.831297,35.221997]}},{"properties":{"city":"Amarillo","geo_score":0.714,"id":"ae6914s3acr5","geo_precision":"city","state":"Texas"},"type":"Feature","geometry":{"type":"Point","coordinates":[-101.831297,35.221997]}},{"properties":{"city":"Amarillo","geo_score":0.714,"id":"ae6915788lau","geo_precision":"city","state":"Texas"},"type":"Feature","geometry":{"type":"Point","coordinates":[-101.831297,35.221997]}},{"properties":{"city":"Amarillo","geo_score":0.714,"id":"ae69151nowkx","geo_precision":"city","state":"Texas"},"type":"Feature","geometry":{"type":"Point","coordinates":[-101.831297,35.221997]}},{"properties":{"city":"Arlington","geo_score":0.714,"id":"ae6914tvankb","geo_precision":"city","state":"Texas"},"type":"Feature","geometry":{"type":"Point","coordinates":[-97.291484,32.771419]}},{"properties":{"city":"Arlington","geo_score":0.714,"id":"ae6914xkpjos","geo_precision":"city","state":"Texas"},"type":"Feature","geometry":{"type":"Point","coordinates":[-97.291484,32.771419]}},{"properties":{"city":"Austin","geo_score":0.714,"id":"ae6914srj112","geo_precision":"city","state":"Texas"},"type":"Feature","geometry":{"type":"Point","coordinates":[-97.771258,30.326374]}},{"properties":{"city":"Austin","geo_score":0.714,"id":"ae69156ncvjd","geo_precision":"city","state":"Texas"},"type":"Feature","geometry":{"type":"Point","coordinates":[-97.771258,30.326374]}},{"properties":{"city":"Austin","geo_score":0.714,"id":"ae6914tlj8zg","geo_precision":"city","state":"Texas"},"type":"Feature","geometry":{"type":"Point","coordinates":[-97.771258,30.326374]}},{"properties":{"city":"Austin","geo_score":0.714,"id":"ae6914robzax","geo_precision":"city","state":"Texas"},"type":"Feature","geometry":{"type":"Point","coordinates":[-97.771258,30.326374]}},{"properties":{"city":"Austin","geo_score":0.714,"id":"ae6914qqhvtt","geo_precision":"city","state":"Texas"},"type":"Feature","geometry":{"type":"Point","coordinates":[-97.771258,30.326374]}},{"properties":{"city":"Austin","geo_score":0.714,"id":"ae6914zbruxa","geo_precision":"city","state":"Texas"},"type":"Feature","geometry":{"type":"Point","coordinates":[-97.771258,30.326374]}},{"properties":{"city":"Austin","geo_score":0.714,"id":"ae69153ngho0","geo_precision":"city","state":"Texas"},"type":"Feature","geometry":{"type":"Point","coordinates":[-97.771258,30.326374]}},{"properties":{"city":"Austin","geo_score":0.714,"id":"ae691553m1yl","geo_precision":"city","state":"Texas"},"type":"Feature","geometry":{"type":"Point","coordinates":[-97.771258,30.326374]}},{"properties":{"city":"Austin","geo_score":0.714,"id":"ae6914tgfoz7","geo_precision":"city","state":"Texas"},"type":"Feature","geometry":{"type":"Point","coordinates":[-97.771258,30.326374]}},{"properties":{"city":"Austin","geo_score":0.714,"id":"ae691507w1b8","geo_precision":"city","state":"Texas"},"type":"Feature","geometry":{"type":"Point","coordinates":[-97.771258,30.326374]}},{"properties":{"city":"Austin","geo_score":0.714,"id":"ae69150vz12w","geo_precision":"city","state":"Texas"},"type":"Feature","geometry":{"type":"Point","coordinates":[-97.771258,30.326374]}},{"properties":{"city":"Austin","geo_score":0.714,"id":"ae6914t3yvrn","geo_precision":"city","state":"Texas"},"type":"Feature","geometry":{"type":"Point","coordinates":[-97.771258,30.326374]}},{"properties":{"city":"Austin","geo_score":0.714,"id":"ae69150y7yz9","geo_precision":"city","state":"Texas"},"type":"Feature","geometry":{"type":"Point","coordinates":[-97.771258,30.326374]}},{"properties":{"city":"Austin","geo_score":0.714,"id":"ae691546t0xs","geo_precision":"city","state":"Texas"},"type":"Feature","geometry":{"type":"Point","coordinates":[-97.771258,30.326374]}},{"properties":{"city":"Austin","geo_score":0.714,"id":"ae6915587ul5","geo_precision":"city","state":"Texas"},"type":"Feature","geometry":{"type":"Point","coordinates":[-97.771258,30.326374]}},{"properties":{"city":"Austin","geo_score":0.714,"id":"ae6914zubxcn","geo_precision":"city","state":"Texas"},"type":"Feature","geometry":{"type":"Point","coordinates":[-97.771258,30.326374]}},{"properties":{"city":"Austin","geo_score":0.714,"id":"ae6915573jiw","geo_precision":"city","state":"Texas"},"type":"Feature","geometry":{"type":"Point","coordinates":[-97.771258,30.326374]}},{"properties":{"city":"Austin","geo_score":0.714,"id":"ae6914svrzks","geo_precision":"city","state":"Texas"},"type":"Feature","geometry":{"type":"Point","coordinates":[-97.771258,30.326374]}},{"properties":{"city":"Austin","geo_score":0.714,"id":"ae69155yncim","geo_precision":"city","state":"Texas"},"type":"Feature","geometry":{"type":"Point","coordinates":[-97.771258,30.326374]}},{"properties":{"city":"Austin","geo_score":0.714,"id":"ae6914v8et6q","geo_precision":"city","state":"Texas"},"type":"Feature","geometry":{"type":"Point","coordinates":[-97.771258,30.326374]}},{"properties":{"city":"Austin","geo_score":0.714,"id":"ae691518ngbo","geo_precision":"city","state":"Texas"},"type":"Feature","geometry":{"type":"Point","coordinates":[-97.771258,30.326374]}},{"properties":{"city":"Austin","geo_score":0.714,"id":"ae6914v8f3ca","geo_precision":"city","state":"Texas"},"type":"Feature","geometry":{"type":"Point","coordinates":[-97.771258,30.326374]}},{"properties":{"city":"Austin","geo_score":0.714,"id":"ae6914v87q1e","geo_precision":"city","state":"Texas"},"type":"Feature","geometry":{"type":"Point","coordinates":[-97.771258,30.326374]}},{"properties":{"city":"Austin","geo_score":0.714,"id":"ae691566xsgu","geo_precision":"city","state":"Texas"},"type":"Feature","geometry":{"type":"Point","coordinates":[-97.771258,30.326374]}},{"properties":{"city":"Austin","geo_score":0.714,"id":"ae6914u1o2ah","geo_precision":"city","state":"Texas"},"type":"Feature","geometry":{"type":"Point","coordinates":[-97.771258,30.326374]}},{"properties":{"city":"Austin","geo_score":0.714,"id":"ae6914w5wkr2","geo_precision":"city","state":"Texas"},"type":"Feature","geometry":{"type":"Point","coordinates":[-97.771258,30.326374]}},{"properties":{"city":"Austin","geo_score":0.714,"id":"ae69154betk4","geo_precision":"city","state":"Texas"},"type":"Feature","geometry":{"type":"Point","coordinates":[-97.771258,30.326374]}},{"properties":{"city":"Austin","geo_score":0.714,"id":"ae6915366sr6","geo_precision":"city","state":"Texas"},"type":"Feature","geometry":{"type":"Point","coordinates":[-97.771258,30.326374]}},{"properties":{"city":"Austin","geo_score":0.714,"id":"ae69152wx3m4","geo_precision":"city","state":"Texas"},"type":"Feature","geometry":{"type":"Point","coordinates":[-97.771258,30.326374]}},{"properties":{"city":"Austin","geo_score":0.714,"id":"ae69152djalw","geo_precision":"city","state":"Texas"},"type":"Feature","geometry":{"type":"Point","coordinates":[-97.771258,30.326374]}},{"properties":{"city":"Austin","geo_score":0.714,"id":"ae691574pg7b","geo_precision":"city","state":"Texas"},"type":"Feature","geometry":{"type":"Point","coordinates":[-97.771258,30.326374]}},{"properties":{"city":"Austin","geo_score":0.714,"id":"ae6914xi6voq","geo_precision":"city","state":"Texas"},"type":"Feature","geometry":{"type":"Point","coordinates":[-97.771258,30.326374]}},{"properties":{"city":"Austin","geo_score":0.714,"id":"ae6914yhxxw1","geo_precision":"city","state":"Texas"},"type":"Feature","geometry":{"type":"Point","coordinates":[-97.771258,30.326374]}},{"properties":{"city":"Austin","geo_score":0.714,"id":"ae6914w2wyrd","geo_precision":"city","state":"Texas"},"type":"Feature","geometry":{"type":"Point","coordinates":[-97.771258,30.326374]}},{"properties":{"city":"Austin","geo_score":0.714,"id":"ae69152914ci","geo_precision":"city","state":"Texas"},"type":"Feature","geometry":{"type":"Point","coordinates":[-97.771258,30.326374]}},{"properties":{"city":"Austin","geo_score":0.714,"id":"ae691518ow18","geo_precision":"city","state":"Texas"},"type":"Feature","geometry":{"type":"Point","coordinates":[-97.771258,30.326374]}},{"properties":{"city":"Bacliff","geo_score":0.714,"id":"ae6914xv5ypm","geo_precision":"city","state":"Texas"},"type":"Feature","geometry":{"type":"Point","coordinates":[-94.961157,29.497095]}},{"properties":{"city":"Beaumont","geo_score":0.714,"id":"ae6914twiclf","geo_precision":"city","state":"Texas"},"type":"Feature","geometry":{"type":"Point","coordinates":[-94.109705,30.073712]}},{"properties":{"city":"Beaumont","geo_score":0.714,"id":"ae69151ggjok","geo_precision":"city","state":"Texas"},"type":"Feature","geometry":{"type":"Point","coordinates":[-94.109705,30.073712]}},{"properties":{"city":"Canadian","geo_score":0.714,"id":"ae6914yn8hii","geo_precision":"city","state":"Texas"},"type":"Feature","geometry":{"type":"Point","coordinates":[-100.384093,35.904503]}},{"properties":{"city":"Colleyville","geo_score":0.714,"id":"ae69156dcf0s","geo_precision":"city","state":"Texas"},"type":"Feature","geometry":{"type":"Point","coordinates":[-94.409362,32.779306]}},{"properties":{"city":"Corpus Christi","geo_score":0.714,"id":"ae691565umri","geo_precision":"city","state":"Texas"},"type":"Feature","geometry":{"type":"Point","coordinates":[-94.367813,32.027962]}},{"properties":{"city":"Corpus Christi","geo_score":0.714,"id":"ae6914wbxbjj","geo_precision":"city","state":"Texas"},"type":"Feature","geometry":{"type":"Point","coordinates":[-94.367813,32.027962]}},{"properties":{"city":"Dallas","geo_score":0.714,"id":"ae6914ydkckz","geo_precision":"city","state":"Texas"},"type":"Feature","geometry":{"type":"Point","coordinates":[-96.240533,32.370699]}},{"properties":{"city":"Dallas","geo_score":0.714,"id":"ae691500kbug","geo_precision":"city","state":"Texas"},"type":"Feature","geometry":{"type":"Point","coordinates":[-96.240533,32.370699]}},{"properties":{"city":"Dallas","geo_score":0.714,"id":"ae6914svwz3m","geo_precision":"city","state":"Texas"},"type":"Feature","geometry":{"type":"Point","coordinates":[-96.240533,32.370699]}},{"properties":{"city":"Dallas","geo_score":0.714,"id":"ae6914zb2xrr","geo_precision":"city","state":"Texas"},"type":"Feature","geometry":{"type":"Point","coordinates":[-96.240533,32.370699]}},{"properties":{"city":"Dallas","geo_score":0.714,"id":"ae69156pmg2v","geo_precision":"city","state":"Texas"},"type":"Feature","geometry":{"type":"Point","coordinates":[-96.240533,32.370699]}},{"properties":{"city":"Dallas","geo_score":0.714,"id":"ae6914xdov97","geo_precision":"city","state":"Texas"},"type":"Feature","geometry":{"type":"Point","coordinates":[-96.240533,32.370699]}},{"properties":{"city":"Dallas","geo_score":0.714,"id":"ae69156zqw26","geo_precision":"city","state":"Texas"},"type":"Feature","geometry":{"type":"Point","coordinates":[-96.240533,32.370699]}},{"properties":{"city":"Dallas","geo_score":0.714,"id":"ae6914vyck6e","geo_precision":"city","state":"Texas"},"type":"Feature","geometry":{"type":"Point","coordinates":[-96.240533,32.370699]}},{"properties":{"city":"Dallas","geo_score":0.714,"id":"ae6914s6rxn3","geo_precision":"city","state":"Texas"},"type":"Feature","geometry":{"type":"Point","coordinates":[-96.240533,32.370699]}},{"properties":{"city":"Dallas","geo_score":0.714,"id":"ae6914vaszky","geo_precision":"city","state":"Texas"},"type":"Feature","geometry":{"type":"Point","coordinates":[-96.240533,32.370699]}},{"properties":{"city":"Dallas","geo_score":0.714,"id":"ae69151aij14","geo_precision":"city","state":"Texas"},"type":"Feature","geometry":{"type":"Point","coordinates":[-96.240533,32.370699]}},{"properties":{"city":"Dallas","geo_score":0.714,"id":"ae6914zksl83","geo_precision":"city","state":"Texas"},"type":"Feature","geometry":{"type":"Point","coordinates":[-96.240533,32.370699]}},{"properties":{"city":"Dallas","geo_score":0.714,"id":"ae6914zchsix","geo_precision":"city","state":"Texas"},"type":"Feature","geometry":{"type":"Point","coordinates":[-96.240533,32.370699]}},{"properties":{"city":"Dallas","geo_score":0.714,"id":"ae6914s3j5xg","geo_precision":"city","state":"Texas"},"type":"Feature","geometry":{"type":"Point","coordinates":[-96.240533,32.370699]}},{"properties":{"city":"Dallas","geo_score":0.714,"id":"ae69153h20md","geo_precision":"city","state":"Texas"},"type":"Feature","geometry":{"type":"Point","coordinates":[-96.240533,32.370699]}},{"properties":{"city":"Dallas","geo_score":0.714,"id":"ae69153qk6xi","geo_precision":"city","state":"Texas"},"type":"Feature","geometry":{"type":"Point","coordinates":[-96.240533,32.370699]}},{"properties":{"city":"Dallas","geo_score":0.714,"id":"ae6914y9pde4","geo_precision":"city","state":"Texas"},"type":"Feature","geometry":{"type":"Point","coordinates":[-96.240533,32.370699]}},{"properties":{"city":"Dallas","geo_score":0.714,"id":"ae69155dawtb","geo_precision":"city","state":"Texas"},"type":"Feature","geometry":{"type":"Point","coordinates":[-96.240533,32.370699]}},{"properties":{"city":"Dallas","geo_score":0.714,"id":"ae6914zbzg8y","geo_precision":"city","state":"Texas"},"type":"Feature","geometry":{"type":"Point","coordinates":[-96.240533,32.370699]}},{"properties":{"city":"Dallas","geo_score":0.714,"id":"ae69150ickha","geo_precision":"city","state":"Texas"},"type":"Feature","geometry":{"type":"Point","coordinates":[-96.240533,32.370699]}},{"properties":{"city":"Dallas","geo_score":0.714,"id":"ae691550zcfs","geo_precision":"city","state":"Texas"},"type":"Feature","geometry":{"type":"Point","coordinates":[-96.240533,32.370699]}},{"properties":{"city":"Dallas","geo_score":0.714,"id":"ae6914z2nd0t","geo_precision":"city","state":"Texas"},"type":"Feature","geometry":{"type":"Point","coordinates":[-96.240533,32.370699]}},{"properties":{"city":"Dallas","geo_score":0.714,"id":"ae69151rq45r","geo_precision":"city","state":"Texas"},"type":"Feature","geometry":{"type":"Point","coordinates":[-96.240533,32.370699]}},{"properties":{"city":"Dallas","geo_score":0.714,"id":"ae6914xg99af","geo_precision":"city","state":"Texas"},"type":"Feature","geometry":{"type":"Point","coordinates":[-96.240533,32.370699]}},{"properties":{"city":"Dallas","geo_score":0.714,"id":"ae6914r22vu1","geo_precision":"city","state":"Texas"},"type":"Feature","geometry":{"type":"Point","coordinates":[-96.240533,32.370699]}},{"properties":{"city":"Dallas","geo_score":0.714,"id":"ae69156wdtw2","geo_precision":"city","state":"Texas"},"type":"Feature","geometry":{"type":"Point","coordinates":[-96.240533,32.370699]}},{"properties":{"city":"Dallas","geo_score":0.714,"id":"ae6914tr7t09","geo_precision":"city","state":"Texas"},"type":"Feature","geometry":{"type":"Point","coordinates":[-96.240533,32.370699]}},{"properties":{"city":"Dallas","geo_score":0.714,"id":"ae691563b341","geo_precision":"city","state":"Texas"},"type":"Feature","geometry":{"type":"Point","coordinates":[-96.240533,32.370699]}},{"properties":{"city":"Dallas","geo_score":0.714,"id":"ae6914zb7cvw","geo_precision":"city","state":"Texas"},"type":"Feature","geometry":{"type":"Point","coordinates":[-96.240533,32.370699]}},{"properties":{"city":"Dallas","geo_score":0.714,"id":"ae6914zu6rxf","geo_precision":"city","state":"Texas"},"type":"Feature","geometry":{"type":"Point","coordinates":[-96.240533,32.370699]}},{"properties":{"city":"Dallas","geo_score":0.714,"id":"ae691532v3d3","geo_precision":"city","state":"Texas"},"type":"Feature","geometry":{"type":"Point","coordinates":[-96.240533,32.370699]}},{"properties":{"city":"Dallas","geo_score":0.714,"id":"ae6914qvw7e2","geo_precision":"city","state":"Texas"},"type":"Feature","geometry":{"type":"Point","coordinates":[-96.240533,32.370699]}},{"properties":{"city":"Dallas","geo_score":0.714,"id":"ae69156i8tec","geo_precision":"city","state":"Texas"},"type":"Feature","geometry":{"type":"Point","coordinates":[-96.240533,32.370699]}},{"properties":{"city":"Dallas","geo_score":0.714,"id":"ae69151vlz6q","geo_precision":"city","state":"Texas"},"type":"Feature","geometry":{"type":"Point","coordinates":[-96.240533,32.370699]}},{"properties":{"city":"Dallas","geo_score":0.714,"id":"ae6914so3ycc","geo_precision":"city","state":"Texas"},"type":"Feature","geometry":{"type":"Point","coordinates":[-96.240533,32.370699]}},{"properties":{"city":"Dallas","geo_score":0.714,"id":"ae6914rcdjrd","geo_precision":"city","state":"Texas"},"type":"Feature","geometry":{"type":"Point","coordinates":[-96.240533,32.370699]}},{"properties":{"city":"Dallas","geo_score":0.714,"id":"ae6914qs5klu","geo_precision":"city","state":"Texas"},"type":"Feature","geometry":{"type":"Point","coordinates":[-96.240533,32.370699]}},{"properties":{"city":"Dallas","geo_score":0.714,"id":"ae69150yas1o","geo_precision":"city","state":"Texas"},"type":"Feature","geometry":{"type":"Point","coordinates":[-96.240533,32.370699]}},{"properties":{"city":"Dallas","geo_score":0.714,"id":"ae69152x8i4f","geo_precision":"city","state":"Texas"},"type":"Feature","geometry":{"type":"Point","coordinates":[-96.240533,32.370699]}},{"properties":{"city":"Dallas","geo_score":0.714,"id":"ae6914uhvkg8","geo_precision":"city","state":"Texas"},"type":"Feature","geometry":{"type":"Point","coordinates":[-96.240533,32.370699]}},{"properties":{"city":"Dallas","geo_score":0.714,"id":"ae6914vgamhg","geo_precision":"city","state":"Texas"},"type":"Feature","geometry":{"type":"Point","coordinates":[-96.240533,32.370699]}},{"properties":{"city":"Dallas","geo_score":0.714,"id":"ae69154uqv9y","geo_precision":"city","state":"Texas"},"type":"Feature","geometry":{"type":"Point","coordinates":[-96.240533,32.370699]}},{"properties":{"city":"Dallas","geo_score":0.714,"id":"ae69153cw60n","geo_precision":"city","state":"Texas"},"type":"Feature","geometry":{"type":"Point","coordinates":[-96.240533,32.370699]}},{"properties":{"city":"Dallas","geo_score":0.714,"id":"ae6914xkon08","geo_precision":"city","state":"Texas"},"type":"Feature","geometry":{"type":"Point","coordinates":[-96.240533,32.370699]}},{"properties":{"city":"Dallas","geo_score":0.714,"id":"ae69153z9us0","geo_precision":"city","state":"Texas"},"type":"Feature","geometry":{"type":"Point","coordinates":[-96.240533,32.370699]}},{"properties":{"city":"Dallas","geo_score":0.714,"id":"ae6914rwo2ke","geo_precision":"city","state":"Texas"},"type":"Feature","geometry":{"type":"Point","coordinates":[-96.240533,32.370699]}},{"properties":{"city":"Dallas","geo_score":0.714,"id":"ae6914szjo35","geo_precision":"city","state":"Texas"},"type":"Feature","geometry":{"type":"Point","coordinates":[-96.240533,32.370699]}},{"properties":{"city":"Dallas","geo_score":0.714,"id":"ae6914vdxwvo","geo_precision":"city","state":"Texas"},"type":"Feature","geometry":{"type":"Point","coordinates":[-96.240533,32.370699]}},{"properties":{"city":"El Paso","geo_score":0.714,"id":"ae6914t41sx1","geo_precision":"city","state":"Texas"},"type":"Feature","geometry":{"type":"Point","coordinates":[-99.561747,32.342351]}},{"properties":{"city":"El Paso","geo_score":0.714,"id":"ae6914zognyh","geo_precision":"city","state":"Texas"},"type":"Feature","geometry":{"type":"Point","coordinates":[-99.561747,32.342351]}},{"properties":{"city":"El Paso","geo_score":0.714,"id":"ae691548t9j5","geo_precision":"city","state":"Texas"},"type":"Feature","geometry":{"type":"Point","coordinates":[-99.561747,32.342351]}},{"properties":{"city":"El Paso","geo_score":0.714,"id":"ae69151a32qd","geo_precision":"city","state":"Texas"},"type":"Feature","geometry":{"type":"Point","coordinates":[-99.561747,32.342351]}},{"properties":{"city":"El Paso","geo_score":0.714,"id":"ae69156knlm5","geo_precision":"city","state":"Texas"},"type":"Feature","geometry":{"type":"Point","coordinates":[-99.561747,32.342351]}},{"properties":{"city":"El Paso","geo_score":0.714,"id":"ae6914siu8w5","geo_precision":"city","state":"Texas"},"type":"Feature","geometry":{"type":"Point","coordinates":[-99.561747,32.342351]}},{"properties":{"city":"El Paso","geo_score":0.714,"id":"ae6914v7wit8","geo_precision":"city","state":"Texas"},"type":"Feature","geometry":{"type":"Point","coordinates":[-99.561747,32.342351]}},{"properties":{"city":"El Paso","geo_score":0.714,"id":"ae69155zlohi","geo_precision":"city","state":"Texas"},"type":"Feature","geometry":{"type":"Point","coordinates":[-99.561747,32.342351]}},{"properties":{"city":"El Paso","geo_score":0.714,"id":"ae69156eemmj","geo_precision":"city","state":"Texas"},"type":"Feature","geometry":{"type":"Point","coordinates":[-99.561747,32.342351]}},{"properties":{"city":"El Paso","geo_score":0.714,"id":"ae69153f78kb","geo_precision":"city","state":"Texas"},"type":"Feature","geometry":{"type":"Point","coordinates":[-99.561747,32.342351]}},{"properties":{"city":"El Paso","geo_score":0.714,"id":"ae691565745s","geo_precision":"city","state":"Texas"},"type":"Feature","geometry":{"type":"Point","coordinates":[-99.561747,32.342351]}},{"properties":{"city":"El Paso","geo_score":0.714,"id":"ae6914qxq85w","geo_precision":"city","state":"Texas"},"type":"Feature","geometry":{"type":"Point","coordinates":[-99.561747,32.342351]}},{"properties":{"city":"El Paso","geo_score":0.714,"id":"ae6914yo4qz1","geo_precision":"city","state":"Texas"},"type":"Feature","geometry":{"type":"Point","coordinates":[-99.561747,32.342351]}},{"properties":{"city":"El Paso","geo_score":0.714,"id":"ae6914tqepb6","geo_precision":"city","state":"Texas"},"type":"Feature","geometry":{"type":"Point","coordinates":[-99.561747,32.342351]}},{"properties":{"city":"El Paso","geo_score":0.714,"id":"ae6914u7qzod","geo_precision":"city","state":"Texas"},"type":"Feature","geometry":{"type":"Point","coordinates":[-99.561747,32.342351]}},{"properties":{"city":"El Paso","geo_score":0.714,"id":"ae691555ko5z","geo_precision":"city","state":"Texas"},"type":"Feature","geometry":{"type":"Point","coordinates":[-99.561747,32.342351]}},{"properties":{"city":"El Paso","geo_score":0.714,"id":"ae6914sfiiao","geo_precision":"city","state":"Texas"},"type":"Feature","geometry":{"type":"Point","coordinates":[-99.561747,32.342351]}},{"properties":{"city":"El Paso","geo_score":0.714,"id":"ae6914sr1qr9","geo_precision":"city","state":"Texas"},"type":"Feature","geometry":{"type":"Point","coordinates":[-99.561747,32.342351]}},{"properties":{"city":"El Paso","geo_score":0.714,"id":"ae6914xicaxf","geo_precision":"city","state":"Texas"},"type":"Feature","geometry":{"type":"Point","coordinates":[-99.561747,32.342351]}},{"properties":{"city":"El Paso","geo_score":0.714,"id":"ae6914tntpk6","geo_precision":"city","state":"Texas"},"type":"Feature","geometry":{"type":"Point","coordinates":[-99.561747,32.342351]}},{"properties":{"city":"El Paso","geo_score":0.714,"id":"ae69156emxlk","geo_precision":"city","state":"Texas"},"type":"Feature","geometry":{"type":"Point","coordinates":[-99.561747,32.342351]}},{"properties":{"city":"El Paso","geo_score":0.714,"id":"ae69152iiuyh","geo_precision":"city","state":"Texas"},"type":"Feature","geometry":{"type":"Point","coordinates":[-99.561747,32.342351]}},{"properties":{"city":"El Paso","geo_score":0.714,"id":"ae691566ed0a","geo_precision":"city","state":"Texas"},"type":"Feature","geometry":{"type":"Point","coordinates":[-99.561747,32.342351]}},{"properties":{"city":"El Paso","geo_score":0.714,"id":"ae69151nn5t5","geo_precision":"city","state":"Texas"},"type":"Feature","geometry":{"type":"Point","coordinates":[-99.561747,32.342351]}},{"properties":{"city":"Fort Worth","geo_score":0.714,"id":"ae69155tfdtm","geo_precision":"city","state":"Texas"},"type":"Feature","geometry":{"type":"Point","coordinates":[-98.399458,29.049969]}},{"properties":{"city":"Fort Worth","geo_score":0.714,"id":"ae691570tmfj","geo_precision":"city","state":"Texas"},"type":"Feature","geometry":{"type":"Point","coordinates":[-98.399458,29.049969]}},{"properties":{"city":"Fort Worth","geo_score":0.714,"id":"ae6914rg2j11","geo_precision":"city","state":"Texas"},"type":"Feature","geometry":{"type":"Point","coordinates":[-98.399458,29.049969]}},{"properties":{"city":"Fort Worth","geo_score":0.714,"id":"ae6914sx5iak","geo_precision":"city","state":"Texas"},"type":"Feature","geometry":{"type":"Point","coordinates":[-98.399458,29.049969]}},{"properties":{"city":"Fort Worth","geo_score":0.714,"id":"ae6914vv4qa7","geo_precision":"city","state":"Texas"},"type":"Feature","geometry":{"type":"Point","coordinates":[-98.399458,29.049969]}},{"properties":{"city":"Fort Worth","geo_score":0.714,"id":"ae6914y5fge3","geo_precision":"city","state":"Texas"},"type":"Feature","geometry":{"type":"Point","coordinates":[-98.399458,29.049969]}},{"properties":{"city":"Fort Worth","geo_score":0.714,"id":"ae69154pmtfa","geo_precision":"city","state":"Texas"},"type":"Feature","geometry":{"type":"Point","coordinates":[-98.399458,29.049969]}},{"properties":{"city":"Fort Worth","geo_score":0.714,"id":"ae69152yhh4i","geo_precision":"city","state":"Texas"},"type":"Feature","geometry":{"type":"Point","coordinates":[-98.399458,29.049969]}},{"properties":{"city":"Fort Worth","geo_score":0.714,"id":"ae6914thidiq","geo_precision":"city","state":"Texas"},"type":"Feature","geometry":{"type":"Point","coordinates":[-98.399458,29.049969]}},{"properties":{"city":"Fort Worth","geo_score":0.714,"id":"ae6914unh6qd","geo_precision":"city","state":"Texas"},"type":"Feature","geometry":{"type":"Point","coordinates":[-98.399458,29.049969]}},{"properties":{"city":"Fort Worth","geo_score":0.714,"id":"ae69152owfyu","geo_precision":"city","state":"Texas"},"type":"Feature","geometry":{"type":"Point","coordinates":[-98.399458,29.049969]}},{"properties":{"city":"Fort Worth","geo_score":0.714,"id":"ae69153xx1tk","geo_precision":"city","state":"Texas"},"type":"Feature","geometry":{"type":"Point","coordinates":[-98.399458,29.049969]}},{"properties":{"city":"Fort Worth","geo_score":0.714,"id":"ae6915714aqr","geo_precision":"city","state":"Texas"},"type":"Feature","geometry":{"type":"Point","coordinates":[-98.399458,29.049969]}},{"properties":{"city":"Fort Worth","geo_score":0.714,"id":"ae6914s466i4","geo_precision":"city","state":"Texas"},"type":"Feature","geometry":{"type":"Point","coordinates":[-98.399458,29.049969]}},{"properties":{"city":"Fort Worth","geo_score":0.714,"id":"ae69152r4f0e","geo_precision":"city","state":"Texas"},"type":"Feature","geometry":{"type":"Point","coordinates":[-98.399458,29.049969]}},{"properties":{"city":"Fort Worth","geo_score":0.714,"id":"ae6914z8k6kl","geo_precision":"city","state":"Texas"},"type":"Feature","geometry":{"type":"Point","coordinates":[-98.399458,29.049969]}},{"properties":{"city":"Fort Worth","geo_score":0.714,"id":"ae6914xq4z6t","geo_precision":"city","state":"Texas"},"type":"Feature","geometry":{"type":"Point","coordinates":[-98.399458,29.049969]}},{"properties":{"city":"Fort Worth","geo_score":0.714,"id":"ae6914x4ej9h","geo_precision":"city","state":"Texas"},"type":"Feature","geometry":{"type":"Point","coordinates":[-98.399458,29.049969]}},{"properties":{"city":"Fort Worth","geo_score":0.714,"id":"ae6914tmj90p","geo_precision":"city","state":"Texas"},"type":"Feature","geometry":{"type":"Point","coordinates":[-98.399458,29.049969]}},{"properties":{"city":"Fort Worth","geo_score":0.714,"id":"ae69155lgouo","geo_precision":"city","state":"Texas"},"type":"Feature","geometry":{"type":"Point","coordinates":[-98.399458,29.049969]}},{"properties":{"city":"Fort Worth","geo_score":0.714,"id":"ae6914xja62d","geo_precision":"city","state":"Texas"},"type":"Feature","geometry":{"type":"Point","coordinates":[-98.399458,29.049969]}},{"properties":{"city":"Fort Worth","geo_score":0.714,"id":"ae691521u8nb","geo_precision":"city","state":"Texas"},"type":"Feature","geometry":{"type":"Point","coordinates":[-98.399458,29.049969]}},{"properties":{"city":"Fort Worth","geo_score":0.714,"id":"ae69152l9478","geo_precision":"city","state":"Texas"},"type":"Feature","geometry":{"type":"Point","coordinates":[-98.399458,29.049969]}},{"properties":{"city":"Fort Worth","geo_score":0.714,"id":"ae6914xgxf4k","geo_precision":"city","state":"Texas"},"type":"Feature","geometry":{"type":"Point","coordinates":[-98.399458,29.049969]}},{"properties":{"city":"Fort Worth","geo_score":0.714,"id":"ae69154l6ujj","geo_precision":"city","state":"Texas"},"type":"Feature","geometry":{"type":"Point","coordinates":[-98.399458,29.049969]}},{"properties":{"city":"Fort Worth","geo_score":0.714,"id":"ae69153868ts","geo_precision":"city","state":"Texas"},"type":"Feature","geometry":{"type":"Point","coordinates":[-98.399458,29.049969]}},{"properties":{"city":"Fort Worth","geo_score":0.714,"id":"ae6914tnua9r","geo_precision":"city","state":"Texas"},"type":"Feature","geometry":{"type":"Point","coordinates":[-98.399458,29.049969]}},{"properties":{"city":"Fort Worth","geo_score":0.714,"id":"ae6915294gyj","geo_precision":"city","state":"Texas"},"type":"Feature","geometry":{"type":"Point","coordinates":[-98.399458,29.049969]}},{"properties":{"city":"Fort Worth","geo_score":0.714,"id":"ae69152t2dcx","geo_precision":"city","state":"Texas"},"type":"Feature","geometry":{"type":"Point","coordinates":[-98.399458,29.049969]}},{"properties":{"city":"Fort Worth","geo_score":0.714,"id":"ae69156wbifl","geo_precision":"city","state":"Texas"},"type":"Feature","geometry":{"type":"Point","coordinates":[-98.399458,29.049969]}},{"properties":{"city":"Fort Worth","geo_score":0.714,"id":"ae691555vf7t","geo_precision":"city","state":"Texas"},"type":"Feature","geometry":{"type":"Point","coordinates":[-98.399458,29.049969]}},{"properties":{"city":"Fort Worth","geo_score":0.714,"id":"ae6914zlw2c7","geo_precision":"city","state":"Texas"},"type":"Feature","geometry":{"type":"Point","coordinates":[-98.399458,29.049969]}},{"properties":{"city":"Fort Worth","geo_score":0.714,"id":"ae6914vwuiev","geo_precision":"city","state":"Texas"},"type":"Feature","geometry":{"type":"Point","coordinates":[-98.399458,29.049969]}},{"properties":{"city":"Fort Worth","geo_score":0.714,"id":"ae69155d7j06","geo_precision":"city","state":"Texas"},"type":"Feature","geometry":{"type":"Point","coordinates":[-98.399458,29.049969]}},{"properties":{"city":"Fort Worth","geo_score":0.714,"id":"ae6914yz07pt","geo_precision":"city","state":"Texas"},"type":"Feature","geometry":{"type":"Point","coordinates":[-98.399458,29.049969]}},{"properties":{"city":"Fredericksburg","geo_score":0.714,"id":"ae69150w6upa","geo_precision":"city","state":"Texas"},"type":"Feature","geometry":{"type":"Point","coordinates":[-98.8936,30.313385]}},{"properties":{"city":"Fredericksburg","geo_score":0.714,"id":"ae6914rmbfmm","geo_precision":"city","state":"Texas"},"type":"Feature","geometry":{"type":"Point","coordinates":[-98.8936,30.313385]}},{"properties":{"city":"Fredericksburg","geo_score":0.714,"id":"ae69153mfsii","geo_precision":"city","state":"Texas"},"type":"Feature","geometry":{"type":"Point","coordinates":[-98.8936,30.313385]}},{"properties":{"city":"Fredericksburg","geo_score":0.714,"id":"ae69150khvff","geo_precision":"city","state":"Texas"},"type":"Feature","geometry":{"type":"Point","coordinates":[-98.8936,30.313385]}},{"properties":{"city":"Fredericksburg","geo_score":0.714,"id":"ae6914trujna","geo_precision":"city","state":"Texas"},"type":"Feature","geometry":{"type":"Point","coordinates":[-98.8936,30.313385]}},{"properties":{"city":"Fredericksburg","geo_score":0.714,"id":"ae69156urf2w","geo_precision":"city","state":"Texas"},"type":"Feature","geometry":{"type":"Point","coordinates":[-98.8936,30.313385]}},{"properties":{"city":"Fredericksburg","geo_score":0.714,"id":"ae6914vwnw93","geo_precision":"city","state":"Texas"},"type":"Feature","geometry":{"type":"Point","coordinates":[-98.8936,30.313385]}},{"properties":{"city":"Ft. Davis","geo_score":0.714,"id":"ae691522zcjd","geo_precision":"city","state":"Texas"},"type":"Feature","geometry":{"type":"Point","coordinates":[-96.367821,32.955476]}},{"properties":{"city":"Fort Worth","geo_score":0.714,"id":"ae6914zpmqru","geo_precision":"city","state":"Texas"},"type":"Feature","geometry":{"type":"Point","coordinates":[-98.399458,29.049969]}},{"properties":{"city":"Houston","geo_score":0.714,"id":"ae6914tenyqm","geo_precision":"city","state":"Texas"},"type":"Feature","geometry":{"type":"Point","coordinates":[-96.919704,29.845783]}},{"properties":{"city":"Houston","geo_score":0.714,"id":"ae6914rcskjs","geo_precision":"city","state":"Texas"},"type":"Feature","geometry":{"type":"Point","coordinates":[-96.919704,29.845783]}},{"properties":{"city":"Houston","geo_score":0.714,"id":"ae6914s2pip5","geo_precision":"city","state":"Texas"},"type":"Feature","geometry":{"type":"Point","coordinates":[-96.919704,29.845783]}},{"properties":{"city":"Houston","geo_score":0.714,"id":"ae6914zfailj","geo_precision":"city","state":"Texas"},"type":"Feature","geometry":{"type":"Point","coordinates":[-96.919704,29.845783]}},{"properties":{"city":"Houston","geo_score":0.714,"id":"ae69154u5fm0","geo_precision":"city","state":"Texas"},"type":"Feature","geometry":{"type":"Point","coordinates":[-96.919704,29.845783]}},{"properties":{"city":"Houston","geo_score":0.714,"id":"ae69151bbww2","geo_precision":"city","state":"Texas"},"type":"Feature","geometry":{"type":"Point","coordinates":[-96.919704,29.845783]}},{"properties":{"city":"Houston","geo_score":0.714,"id":"ae6914slfluw","geo_precision":"city","state":"Texas"},"type":"Feature","geometry":{"type":"Point","coordinates":[-96.919704,29.845783]}},{"properties":{"city":"Houston","geo_score":0.714,"id":"ae6914vyy0pn","geo_precision":"city","state":"Texas"},"type":"Feature","geometry":{"type":"Point","coordinates":[-96.919704,29.845783]}},{"properties":{"city":"Houston","geo_score":0.714,"id":"ae6914vr7em0","geo_precision":"city","state":"Texas"},"type":"Feature","geometry":{"type":"Point","coordinates":[-96.919704,29.845783]}},{"properties":{"city":"Houston","geo_score":0.714,"id":"ae69151yf7mq","geo_precision":"city","state":"Texas"},"type":"Feature","geometry":{"type":"Point","coordinates":[-96.919704,29.845783]}},{"properties":{"city":"Houston","geo_score":0.714,"id":"ae6915429bjq","geo_precision":"city","state":"Texas"},"type":"Feature","geometry":{"type":"Point","coordinates":[-96.919704,29.845783]}},{"properties":{"city":"Houston","geo_score":0.714,"id":"ae6914tyfgtz","geo_precision":"city","state":"Texas"},"type":"Feature","geometry":{"type":"Point","coordinates":[-96.919704,29.845783]}},{"properties":{"city":"Houston","geo_score":0.714,"id":"ae6914ztdom7","geo_precision":"city","state":"Texas"},"type":"Feature","geometry":{"type":"Point","coordinates":[-96.919704,29.845783]}},{"properties":{"city":"Houston","geo_score":0.714,"id":"ae69155i80ma","geo_precision":"city","state":"Texas"},"type":"Feature","geometry":{"type":"Point","coordinates":[-96.919704,29.845783]}},{"properties":{"city":"Houston","geo_score":0.714,"id":"ae6914xc1eme","geo_precision":"city","state":"Texas"},"type":"Feature","geometry":{"type":"Point","coordinates":[-96.919704,29.845783]}},{"properties":{"city":"Houston","geo_score":0.714,"id":"ae69156pkk7q","geo_precision":"city","state":"Texas"},"type":"Feature","geometry":{"type":"Point","coordinates":[-96.919704,29.845783]}},{"properties":{"city":"Houston","geo_score":0.714,"id":"ae691561u8lc","geo_precision":"city","state":"Texas"},"type":"Feature","geometry":{"type":"Point","coordinates":[-96.919704,29.845783]}},{"properties":{"city":"Houston","geo_score":0.714,"id":"ae6914zd3aj8","geo_precision":"city","state":"Texas"},"type":"Feature","geometry":{"type":"Point","coordinates":[-96.919704,29.845783]}},{"properties":{"city":"Houston","geo_score":0.714,"id":"ae6914w5sgwa","geo_precision":"city","state":"Texas"},"type":"Feature","geometry":{"type":"Point","coordinates":[-96.919704,29.845783]}},{"properties":{"city":"Houston","geo_score":0.714,"id":"ae69157802fu","geo_precision":"city","state":"Texas"},"type":"Feature","geometry":{"type":"Point","coordinates":[-96.919704,29.845783]}},{"properties":{"city":"Houston","geo_score":0.714,"id":"ae6914vmpl2o","geo_precision":"city","state":"Texas"},"type":"Feature","geometry":{"type":"Point","coordinates":[-96.919704,29.845783]}},{"properties":{"city":"Houston","geo_score":0.714,"id":"ae69157271p4","geo_precision":"city","state":"Texas"},"type":"Feature","geometry":{"type":"Point","coordinates":[-96.919704,29.845783]}},{"properties":{"city":"Houston","geo_score":0.714,"id":"ae69153ep3hl","geo_precision":"city","state":"Texas"},"type":"Feature","geometry":{"type":"Point","coordinates":[-96.919704,29.845783]}},{"properties":{"city":"Houston","geo_score":0.714,"id":"ae69154p2yc4","geo_precision":"city","state":"Texas"},"type":"Feature","geometry":{"type":"Point","coordinates":[-96.919704,29.845783]}},{"properties":{"city":"Houston","geo_score":0.714,"id":"ae6914rn1dqq","geo_precision":"city","state":"Texas"},"type":"Feature","geometry":{"type":"Point","coordinates":[-96.919704,29.845783]}},{"properties":{"city":"Houston","geo_score":0.714,"id":"ae6914w1f2x4","geo_precision":"city","state":"Texas"},"type":"Feature","geometry":{"type":"Point","coordinates":[-96.919704,29.845783]}},{"properties":{"city":"Houston","geo_score":0.714,"id":"ae6914z34vuo","geo_precision":"city","state":"Texas"},"type":"Feature","geometry":{"type":"Point","coordinates":[-96.919704,29.845783]}},{"properties":{"city":"Houston","geo_score":0.714,"id":"ae6914x7qxwb","geo_precision":"city","state":"Texas"},"type":"Feature","geometry":{"type":"Point","coordinates":[-96.919704,29.845783]}},{"properties":{"city":"Houston","geo_score":0.714,"id":"ae6914rgrht0","geo_precision":"city","state":"Texas"},"type":"Feature","geometry":{"type":"Point","coordinates":[-96.919704,29.845783]}},{"properties":{"city":"Houston","geo_score":0.714,"id":"ae69154ze0h6","geo_precision":"city","state":"Texas"},"type":"Feature","geometry":{"type":"Point","coordinates":[-96.919704,29.845783]}},{"properties":{"city":"Houston","geo_score":0.714,"id":"ae6914vvcknt","geo_precision":"city","state":"Texas"},"type":"Feature","geometry":{"type":"Point","coordinates":[-96.919704,29.845783]}},{"properties":{"city":"Houston","geo_score":0.714,"id":"ae69156cjq9j","geo_precision":"city","state":"Texas"},"type":"Feature","geometry":{"type":"Point","coordinates":[-96.919704,29.845783]}},{"properties":{"city":"Houston","geo_score":0.714,"id":"ae691541ucln","geo_precision":"city","state":"Texas"},"type":"Feature","geometry":{"type":"Point","coordinates":[-96.919704,29.845783]}},{"properties":{"city":"Houston","geo_score":0.714,"id":"ae69156p52bf","geo_precision":"city","state":"Texas"},"type":"Feature","geometry":{"type":"Point","coordinates":[-96.919704,29.845783]}},{"properties":{"city":"Houston","geo_score":0.714,"id":"ae6914y7152k","geo_precision":"city","state":"Texas"},"type":"Feature","geometry":{"type":"Point","coordinates":[-96.919704,29.845783]}},{"properties":{"city":"Houston","geo_score":0.714,"id":"ae6914zzghjg","geo_precision":"city","state":"Texas"},"type":"Feature","geometry":{"type":"Point","coordinates":[-96.919704,29.845783]}},{"properties":{"city":"Houston","geo_score":0.714,"id":"ae69152fckl4","geo_precision":"city","state":"Texas"},"type":"Feature","geometry":{"type":"Point","coordinates":[-96.919704,29.845783]}},{"properties":{"city":"Houston","geo_score":0.714,"id":"ae6914tari2w","geo_precision":"city","state":"Texas"},"type":"Feature","geometry":{"type":"Point","coordinates":[-96.919704,29.845783]}},{"properties":{"city":"Houston","geo_score":0.714,"id":"ae6914z2ft90","geo_precision":"city","state":"Texas"},"type":"Feature","geometry":{"type":"Point","coordinates":[-96.919704,29.845783]}},{"properties":{"city":"Houston","geo_score":0.714,"id":"ae6914xn24ti","geo_precision":"city","state":"Texas"},"type":"Feature","geometry":{"type":"Point","coordinates":[-96.919704,29.845783]}},{"properties":{"city":"Houston","geo_score":0.714,"id":"ae6914vfz7ae","geo_precision":"city","state":"Texas"},"type":"Feature","geometry":{"type":"Point","coordinates":[-96.919704,29.845783]}},{"properties":{"city":"Houston","geo_score":0.714,"id":"ae6914xslojs","geo_precision":"city","state":"Texas"},"type":"Feature","geometry":{"type":"Point","coordinates":[-96.919704,29.845783]}},{"properties":{"city":"Houston","geo_score":0.714,"id":"ae69152h8ca5","geo_precision":"city","state":"Texas"},"type":"Feature","geometry":{"type":"Point","coordinates":[-96.919704,29.845783]}},{"properties":{"city":"Houston","geo_score":0.714,"id":"ae6914sogxp5","geo_precision":"city","state":"Texas"},"type":"Feature","geometry":{"type":"Point","coordinates":[-96.919704,29.845783]}},{"properties":{"city":"Houston","geo_score":0.714,"id":"ae6914vvfbpy","geo_precision":"city","state":"Texas"},"type":"Feature","geometry":{"type":"Point","coordinates":[-96.919704,29.845783]}},{"properties":{"city":"Houston","geo_score":0.714,"id":"ae6914whpcql","geo_precision":"city","state":"Texas"},"type":"Feature","geometry":{"type":"Point","coordinates":[-96.919704,29.845783]}},{"properties":{"city":"Houston","geo_score":0.714,"id":"ae6914xo477p","geo_precision":"city","state":"Texas"},"type":"Feature","geometry":{"type":"Point","coordinates":[-96.919704,29.845783]}},{"properties":{"city":"Houston","geo_score":0.714,"id":"ae69155zqn1j","geo_precision":"city","state":"Texas"},"type":"Feature","geometry":{"type":"Point","coordinates":[-96.919704,29.845783]}},{"properties":{"city":"Houston","geo_score":0.714,"id":"ae69151ql6dz","geo_precision":"city","state":"Texas"},"type":"Feature","geometry":{"type":"Point","coordinates":[-96.919704,29.845783]}},{"properties":{"city":"Houston","geo_score":0.714,"id":"ae6914quwquk","geo_precision":"city","state":"Texas"},"type":"Feature","geometry":{"type":"Point","coordinates":[-96.919704,29.845783]}},{"properties":{"city":"Houston","geo_score":0.714,"id":"ae6914vlx5ni","geo_precision":"city","state":"Texas"},"type":"Feature","geometry":{"type":"Point","coordinates":[-96.919704,29.845783]}},{"properties":{"city":"Houston","geo_score":0.714,"id":"ae6914t6u582","geo_precision":"city","state":"Texas"},"type":"Feature","geometry":{"type":"Point","coordinates":[-96.919704,29.845783]}},{"properties":{"city":"Houston","geo_score":0.714,"id":"ae69155y7091","geo_precision":"city","state":"Texas"},"type":"Feature","geometry":{"type":"Point","coordinates":[-96.919704,29.845783]}},{"properties":{"city":"Houston","geo_score":0.714,"id":"ae6914rxb5jf","geo_precision":"city","state":"Texas"},"type":"Feature","geometry":{"type":"Point","coordinates":[-96.919704,29.845783]}},{"properties":{"city":"Houston","geo_score":0.714,"id":"ae6914rng7x2","geo_precision":"city","state":"Texas"},"type":"Feature","geometry":{"type":"Point","coordinates":[-96.919704,29.845783]}},{"properties":{"city":"Houston","geo_score":0.714,"id":"ae69155mx1eh","geo_precision":"city","state":"Texas"},"type":"Feature","geometry":{"type":"Point","coordinates":[-96.919704,29.845783]}},{"properties":{"city":"Houston","geo_score":0.714,"id":"ae69151vnhho","geo_precision":"city","state":"Texas"},"type":"Feature","geometry":{"type":"Point","coordinates":[-96.919704,29.845783]}},{"properties":{"city":"Houston","geo_score":0.714,"id":"ae6914smgalm","geo_precision":"city","state":"Texas"},"type":"Feature","geometry":{"type":"Point","coordinates":[-96.919704,29.845783]}},{"properties":{"city":"Houston","geo_score":0.714,"id":"ae69155c8vs0","geo_precision":"city","state":"Texas"},"type":"Feature","geometry":{"type":"Point","coordinates":[-96.919704,29.845783]}},{"properties":{"city":"Houston","geo_score":0.714,"id":"ae6914uogxr5","geo_precision":"city","state":"Texas"},"type":"Feature","geometry":{"type":"Point","coordinates":[-96.919704,29.845783]}},{"properties":{"city":"Houston","geo_score":0.714,"id":"ae6914yg91by","geo_precision":"city","state":"Texas"},"type":"Feature","geometry":{"type":"Point","coordinates":[-96.919704,29.845783]}},{"properties":{"city":"Houston","geo_score":0.714,"id":"ae6914zd4118","geo_precision":"city","state":"Texas"},"type":"Feature","geometry":{"type":"Point","coordinates":[-96.919704,29.845783]}},{"properties":{"city":"Houston","geo_score":0.714,"id":"ae6914uihh1m","geo_precision":"city","state":"Texas"},"type":"Feature","geometry":{"type":"Point","coordinates":[-96.919704,29.845783]}},{"properties":{"city":"Houston","geo_score":0.714,"id":"ae6914wyw2n9","geo_precision":"city","state":"Texas"},"type":"Feature","geometry":{"type":"Point","coordinates":[-96.919704,29.845783]}},{"properties":{"city":"Houston","geo_score":0.714,"id":"ae6914yfhv5n","geo_precision":"city","state":"Texas"},"type":"Feature","geometry":{"type":"Point","coordinates":[-96.919704,29.845783]}},{"properties":{"city":"Houston","geo_score":0.714,"id":"ae6914zb2wmi","geo_precision":"city","state":"Texas"},"type":"Feature","geometry":{"type":"Point","coordinates":[-96.919704,29.845783]}},{"properties":{"city":"Houston","geo_score":0.714,"id":"ae69153l93r5","geo_precision":"city","state":"Texas"},"type":"Feature","geometry":{"type":"Point","coordinates":[-96.919704,29.845783]}},{"properties":{"city":"Houston","geo_score":0.714,"id":"ae6914w5ow3f","geo_precision":"city","state":"Texas"},"type":"Feature","geometry":{"type":"Point","coordinates":[-96.919704,29.845783]}},{"properties":{"city":"Houston","geo_score":0.714,"id":"ae6914r2293l","geo_precision":"city","state":"Texas"},"type":"Feature","geometry":{"type":"Point","coordinates":[-96.919704,29.845783]}},{"properties":{"city":"Houston","geo_score":0.714,"id":"ae6914xxahpn","geo_precision":"city","state":"Texas"},"type":"Feature","geometry":{"type":"Point","coordinates":[-96.919704,29.845783]}},{"properties":{"city":"Houston","geo_score":0.714,"id":"ae6914r2f8zo","geo_precision":"city","state":"Texas"},"type":"Feature","geometry":{"type":"Point","coordinates":[-96.919704,29.845783]}},{"properties":{"city":"Kemah","geo_score":0.714,"id":"ae691530sdki","geo_precision":"city","state":"Texas"},"type":"Feature","geometry":{"type":"Point","coordinates":[-95.656717,33.095582]}},{"properties":{"city":"Kerrville","geo_score":0.714,"id":"ae6914ysdtrl","geo_precision":"city","state":"Texas"},"type":"Feature","geometry":{"type":"Point","coordinates":[-95.585498,30.012165]}},{"properties":{"city":"Kingsville","geo_score":0.714,"id":"ae691563ys8g","geo_precision":"city","state":"Texas"},"type":"Feature","geometry":{"type":"Point","coordinates":[-97.84068,27.422876]}},{"properties":{"city":"Laredo","geo_score":0.714,"id":"ae6915144k17","geo_precision":"city","state":"Texas"},"type":"Feature","geometry":{"type":"Point","coordinates":[-102.907999,34.330354]}},{"properties":{"city":"Laredo","geo_score":0.714,"id":"ae6914szyzpo","geo_precision":"city","state":"Texas"},"type":"Feature","geometry":{"type":"Point","coordinates":[-102.907999,34.330354]}},{"properties":{"city":"Little Rock","geo_score":0.714,"id":"ae6914ynal65","geo_precision":"city","state":"Texas"},"type":"Feature","geometry":{"type":"Point","coordinates":[-97.198052,30.986572]}},{"properties":{"city":"Marfa","geo_score":0.714,"id":"ae6914xp96ib","geo_precision":"city","state":"Texas"},"type":"Feature","geometry":{"type":"Point","coordinates":[-96.984983,29.589681]}},{"properties":{"city":"Mcallen","geo_score":0.714,"id":"ae691533kuw7","geo_precision":"city","state":"Texas"},"type":"Feature","geometry":{"type":"Point","coordinates":[-100.60084,35.231235]}},{"properties":{"city":"Medina","geo_score":0.714,"id":"ae6914tzqrwv","geo_precision":"city","state":"Texas"},"type":"Feature","geometry":{"type":"Point","coordinates":[-99.191141,29.729603]}},{"properties":{"city":"Midland","geo_score":0.714,"id":"ae6915061h2n","geo_precision":"city","state":"Texas"},"type":"Feature","geometry":{"type":"Point","coordinates":[-102.091276,31.861876]}},{"properties":{"city":"Midland","geo_score":0.714,"id":"ae6914rrhd54","geo_precision":"city","state":"Texas"},"type":"Feature","geometry":{"type":"Point","coordinates":[-102.091276,31.861876]}},{"properties":{"city":"Fulton","geo_score":0.714,"id":"ae69156thsml","geo_precision":"city","state":"Texas"},"type":"Feature","geometry":{"type":"Point","coordinates":[-97.111371,29.782749]}},{"properties":{"city":"San Angelo","geo_score":0.714,"id":"ae69152qswpx","geo_precision":"city","state":"Texas"},"type":"Feature","geometry":{"type":"Point","coordinates":[-94.686315,30.577149]}},{"properties":{"city":"San Angelo","geo_score":0.714,"id":"ae6914wnq792","geo_precision":"city","state":"Texas"},"type":"Feature","geometry":{"type":"Point","coordinates":[-94.686315,30.577149]}},{"properties":{"city":"San Angelo","geo_score":0.714,"id":"ae6914ymnemy","geo_precision":"city","state":"Texas"},"type":"Feature","geometry":{"type":"Point","coordinates":[-94.686315,30.577149]}},{"properties":{"city":"San Antonio","geo_score":0.714,"id":"ae6914wopc36","geo_precision":"city","state":"Texas"},"type":"Feature","geometry":{"type":"Point","coordinates":[-102.192713,33.770506]}},{"properties":{"city":"San Antonio","geo_score":0.714,"id":"ae6914z18jm5","geo_precision":"city","state":"Texas"},"type":"Feature","geometry":{"type":"Point","coordinates":[-102.192713,33.770506]}},{"properties":{"city":"San Antonio","geo_score":0.714,"id":"ae6914ryi5t5","geo_precision":"city","state":"Texas"},"type":"Feature","geometry":{"type":"Point","coordinates":[-102.192713,33.770506]}},{"properties":{"city":"San Antonio","geo_score":0.714,"id":"ae6914vwkpn6","geo_precision":"city","state":"Texas"},"type":"Feature","geometry":{"type":"Point","coordinates":[-102.192713,33.770506]}},{"properties":{"city":"San Antonio","geo_score":0.714,"id":"ae691531p2ax","geo_precision":"city","state":"Texas"},"type":"Feature","geometry":{"type":"Point","coordinates":[-102.192713,33.770506]}},{"properties":{"city":"San Antonio","geo_score":0.714,"id":"ae6914ypdmng","geo_precision":"city","state":"Texas"},"type":"Feature","geometry":{"type":"Point","coordinates":[-102.192713,33.770506]}},{"properties":{"city":"San Antonio","geo_score":0.714,"id":"ae69154gd2yv","geo_precision":"city","state":"Texas"},"type":"Feature","geometry":{"type":"Point","coordinates":[-102.192713,33.770506]}},{"properties":{"city":"San Antonio","geo_score":0.714,"id":"ae69154tzhp9","geo_precision":"city","state":"Texas"},"type":"Feature","geometry":{"type":"Point","coordinates":[-102.192713,33.770506]}},{"properties":{"city":"San Antonio","geo_score":0.714,"id":"ae691563m4i1","geo_precision":"city","state":"Texas"},"type":"Feature","geometry":{"type":"Point","coordinates":[-102.192713,33.770506]}},{"properties":{"city":"San Antonio","geo_score":0.714,"id":"ae6914t76o8i","geo_precision":"city","state":"Texas"},"type":"Feature","geometry":{"type":"Point","coordinates":[-102.192713,33.770506]}},{"properties":{"city":"San Antonio","geo_score":0.714,"id":"ae6914scft05","geo_precision":"city","state":"Texas"},"type":"Feature","geometry":{"type":"Point","coordinates":[-102.192713,33.770506]}},{"properties":{"city":"San Antonio","geo_score":0.714,"id":"ae69155yv1fi","geo_precision":"city","state":"Texas"},"type":"Feature","geometry":{"type":"Point","coordinates":[-102.192713,33.770506]}},{"properties":{"city":"San Antonio","geo_score":0.714,"id":"ae6914uh0xtf","geo_precision":"city","state":"Texas"},"type":"Feature","geometry":{"type":"Point","coordinates":[-102.192713,33.770506]}},{"properties":{"city":"San Antonio","geo_score":0.714,"id":"ae6914tc6fio","geo_precision":"city","state":"Texas"},"type":"Feature","geometry":{"type":"Point","coordinates":[-102.192713,33.770506]}},{"properties":{"city":"San Antonio","geo_score":0.714,"id":"ae691561coqa","geo_precision":"city","state":"Texas"},"type":"Feature","geometry":{"type":"Point","coordinates":[-102.192713,33.770506]}},{"properties":{"city":"San Antonio","geo_score":0.714,"id":"ae6914ucdbbr","geo_precision":"city","state":"Texas"},"type":"Feature","geometry":{"type":"Point","coordinates":[-102.192713,33.770506]}},{"properties":{"city":"San Antonio","geo_score":0.714,"id":"ae6914w32iy2","geo_precision":"city","state":"Texas"},"type":"Feature","geometry":{"type":"Point","coordinates":[-102.192713,33.770506]}},{"properties":{"city":"San Antonio","geo_score":0.714,"id":"ae6914wpd6ez","geo_precision":"city","state":"Texas"},"type":"Feature","geometry":{"type":"Point","coordinates":[-102.192713,33.770506]}},{"properties":{"city":"San Antonio","geo_score":0.714,"id":"ae6914w9qfm2","geo_precision":"city","state":"Texas"},"type":"Feature","geometry":{"type":"Point","coordinates":[-102.192713,33.770506]}},{"properties":{"city":"San Antonio","geo_score":0.714,"id":"ae69151hemd2","geo_precision":"city","state":"Texas"},"type":"Feature","geometry":{"type":"Point","coordinates":[-102.192713,33.770506]}},{"properties":{"city":"San Antonio","geo_score":0.714,"id":"ae691563fqf1","geo_precision":"city","state":"Texas"},"type":"Feature","geometry":{"type":"Point","coordinates":[-102.192713,33.770506]}},{"properties":{"city":"San Antonio","geo_score":0.714,"id":"ae691525462f","geo_precision":"city","state":"Texas"},"type":"Feature","geometry":{"type":"Point","coordinates":[-102.192713,33.770506]}},{"properties":{"city":"Sugarland","geo_score":0.714,"id":"ae69151ggusl","geo_precision":"city","state":"Texas"},"type":"Feature","geometry":{"type":"Point","coordinates":[-95.756462,29.525461]}},{"properties":{"city":"Tyler","geo_score":0.714,"id":"ae6914yli8rk","geo_precision":"city","state":"Texas"},"type":"Feature","geometry":{"type":"Point","coordinates":[-97.933708,32.400038]}},{"properties":{"city":"Tyler","geo_score":0.714,"id":"ae6914rwrqws","geo_precision":"city","state":"Texas"},"type":"Feature","geometry":{"type":"Point","coordinates":[-97.933708,32.400038]}},{"properties":{"city":"Tyler","geo_score":0.714,"id":"ae691538ltuh","geo_precision":"city","state":"Texas"},"type":"Feature","geometry":{"type":"Point","coordinates":[-97.933708,32.400038]}},{"properties":{"city":"Tyler","geo_score":0.714,"id":"ae69151xjd3i","geo_precision":"city","state":"Texas"},"type":"Feature","geometry":{"type":"Point","coordinates":[-97.933708,32.400038]}},{"properties":{"city":"Tyler","geo_score":0.714,"id":"ae6914r3noeg","geo_precision":"city","state":"Texas"},"type":"Feature","geometry":{"type":"Point","coordinates":[-97.933708,32.400038]}},{"properties":{"city":"Tyler","geo_score":0.714,"id":"ae6914tb40by","geo_precision":"city","state":"Texas"},"type":"Feature","geometry":{"type":"Point","coordinates":[-97.933708,32.400038]}},{"properties":{"city":"Tyler","geo_score":0.714,"id":"ae6914wtm7rr","geo_precision":"city","state":"Texas"},"type":"Feature","geometry":{"type":"Point","coordinates":[-97.933708,32.400038]}},{"properties":{"city":"Tyler","geo_score":0.714,"id":"ae6914swonj7","geo_precision":"city","state":"Texas"},"type":"Feature","geometry":{"type":"Point","coordinates":[-97.933708,32.400038]}},{"properties":{"city":"Waco","geo_score":0.714,"id":"ae6914u8yu7v","geo_precision":"city","state":"Texas"},"type":"Feature","geometry":{"type":"Point","coordinates":[-100.815862,36.278199]}},{"properties":{"city":"Waco","geo_score":0.714,"id":"ae69154glcj6","geo_precision":"city","state":"Texas"},"type":"Feature","geometry":{"type":"Point","coordinates":[-100.815862,36.278199]}},{"properties":{"city":"Waco","geo_score":0.714,"id":"ae6914w6bk0i","geo_precision":"city","state":"Texas"},"type":"Feature","geometry":{"type":"Point","coordinates":[-100.815862,36.278199]}},{"properties":{"city":"Waco","geo_score":0.714,"id":"ae6914rpojma","geo_precision":"city","state":"Texas"},"type":"Feature","geometry":{"type":"Point","coordinates":[-100.815862,36.278199]}},{"properties":{"city":"Weatherford","geo_score":0.714,"id":"ae6914v7ggn3","geo_precision":"city","state":"Texas"},"type":"Feature","geometry":{"type":"Point","coordinates":[-97.806778,32.780766]}},{"properties":{"city":"Willow City","geo_score":0.714,"id":"ae6914zw9cuj","geo_precision":"city","state":"Texas"},"type":"Feature","geometry":{"type":"Point","coordinates":[-100.206705,31.359844]}},{"properties":{"city":"Willow City","geo_score":0.714,"id":"ae69152rz5u7","geo_precision":"city","state":"Texas"},"type":"Feature","geometry":{"type":"Point","coordinates":[-100.206705,31.359844]}},{"properties":{"city":"Willow City","geo_score":0.714,"id":"ae69152513ms","geo_precision":"city","state":"Texas"},"type":"Feature","geometry":{"type":"Point","coordinates":[-100.206705,31.359844]}}],"is_temporal":false,"author":{"url":"","metadata":"","contact_name":"","contact_address":"","source":"","contact_phone":""},"source":"","pagination":{"sort":null,"start":0,"total":306,"limit":1000000},"state":"complete","tags":"","published":"2013-05-08T16:00:00Z","id":355137}