{"type":"FeatureCollection","data_type":"Dataset","url_type":null,"permissions":[{"permissions":{"download":true,"view":true},"group_id":"everyone"}],"classification":null,"title":"San Clemente","count":72,"stream_id":355607,"contributor":{"url":"http://geocommons.com/users/71117","name":"zeusmiyo"},"data_attributes":null,"calculation_params":null,"icon_link":null,"link":"http://geocommons.com/overlays/355607.json","extent":[120.316,15.6373,120.387,15.7921],"geometry_types":["point"],"unique_name":null,"name":"San Clemente","feature_count":72,"description":"","next_feature":null,"is_raster":false,"short_classification":"Y","stats":{"northing":{"max":1747740,"variance":18369000.0,"mean":1739170.0,"stdev":4285.90713851805,"min":1730620,"median":1738330},"latitude":{"max":15.79213327,"variance":0.00150980040943577,"mean":15.7148673129167,"stdev":0.0388561502137791,"min":15.63726799,"median":15.70725976},"ave. no. of culms/clump":{"max":43,"variance":25.3503521126761,"mean":35.2083333333333,"stdev":5.03491331729515,"min":32,"median":32},"total hectarage (ha)":{"max":1.265343,"variance":0.0542807107842564,"mean":0.372097797222222,"stdev":0.232982211304332,"min":0.0099234,"median":0.329356},"longitude":{"max":120.3868279,"variance":0.000284642826604457,"mean":120.354394408333,"stdev":0.0168713611366854,"min":120.316317,"median":120.3568755},"total no. of clumps":{"max":258,"variance":2223.54753521127,"mean":76.2083333333333,"stdev":47.1545070508776,"min":13,"median":67},"easting":{"max":220007,"variance":3414223.98102504,"mean":216457.819444444,"stdev":1847.76188428732,"min":212281,"median":216715}},"features":[{"properties":{"northing":1730870,"ave. no. of culms/clump":43,"latitude":15.63961479,"total hectarage (ha)":0.239968,"municipality":"San Clemente","total no. of clumps":49,"longitude":120.33097,"id":"ae7dxvuxpxjo","province":"Tarlac","barangay":null,"easting":213841,"species":"Kawayan tinik","elev (masl)":null},"type":"Feature","geometry":{"type":"Point","coordinates":[120.33097,15.63961479]}},{"properties":{"northing":1730840,"ave. no. of culms/clump":43,"latitude":15.6393131,"total hectarage (ha)":0.439575,"municipality":"San Clemente","total no. of clumps":90,"longitude":120.3284479,"id":"ae7dxw21f9lj","province":"Tarlac","barangay":null,"easting":213570,"species":"Kawayan tinik","elev (masl)":null},"type":"Feature","geometry":{"type":"Point","coordinates":[120.3284479,15.6393131]}},{"properties":{"northing":1730820,"ave. no. of culms/clump":43,"latitude":15.63910953,"total hectarage (ha)":0.329356,"municipality":"San Clemente","total no. of clumps":67,"longitude":120.3265676,"id":"ae7dxw16s2bz","province":"Tarlac","barangay":null,"easting":213368,"species":"Kawayan tinik","elev (masl)":null},"type":"Feature","geometry":{"type":"Point","coordinates":[120.3265676,15.63910953]}},{"properties":{"northing":1730620,"ave. no. of culms/clump":43,"latitude":15.63726799,"total hectarage (ha)":0.259234,"municipality":"San Clemente","total no. of clumps":53,"longitude":120.3236927,"id":"ae7dxw5mx6kw","province":"Tarlac","barangay":null,"easting":213057,"species":"Kawayan tinik","elev (masl)":null},"type":"Feature","geometry":{"type":"Point","coordinates":[120.3236927,15.63726799]}},{"properties":{"northing":1730740,"ave. no. of culms/clump":43,"latitude":15.63832448,"total hectarage (ha)":0.316591,"municipality":"San Clemente","total no. of clumps":65,"longitude":120.3214512,"id":"ae7dxw800vki","province":"Tarlac","barangay":null,"easting":212818,"species":"Kawayan tinik","elev (masl)":null},"type":"Feature","geometry":{"type":"Point","coordinates":[120.3214512,15.63832448]}},{"properties":{"northing":1731840,"ave. no. of culms/clump":43,"latitude":15.64819708,"total hectarage (ha)":0.762432,"municipality":"San Clemente","total no. of clumps":156,"longitude":120.316317,"id":"ae7dxvwesbx3","province":"Tarlac","barangay":null,"easting":212281,"species":"Kawayan tinik","elev (masl)":null},"type":"Feature","geometry":{"type":"Point","coordinates":[120.316317,15.64819708]}},{"properties":{"northing":1734300,"ave. no. of culms/clump":43,"latitude":15.67053876,"total hectarage (ha)":0.405204,"municipality":"San Clemente","total no. of clumps":83,"longitude":120.3263267,"id":"ae7dxw0oxcwv","province":"Tarlac","barangay":null,"easting":213386,"species":"Kawayan tinik","elev (masl)":null},"type":"Feature","geometry":{"type":"Point","coordinates":[120.3263267,15.67053876]}},{"properties":{"northing":1734700,"ave. no. of culms/clump":43,"latitude":15.67419332,"total hectarage (ha)":0.09676,"municipality":"San Clemente","total no. of clumps":20,"longitude":120.3297379,"id":"ae7dxvwnajgh","province":"Tarlac","barangay":null,"easting":213757,"species":"Kawayan tinik","elev (masl)":null},"type":"Feature","geometry":{"type":"Point","coordinates":[120.3297379,15.67419332]}},{"properties":{"northing":1734720,"ave. no. of culms/clump":43,"latitude":15.67438213,"total hectarage (ha)":0.17074,"municipality":"San Clemente","total no. of clumps":35,"longitude":120.3304067,"id":"ae7dxw6hn7ac","province":"Tarlac","barangay":null,"easting":213829,"species":"Kawayan tinik","elev (masl)":null},"type":"Feature","geometry":{"type":"Point","coordinates":[120.3304067,15.67438213]}},{"properties":{"northing":1735050,"ave. no. of culms/clump":43,"latitude":15.67738061,"total hectarage (ha)":0.190174,"municipality":"San Clemente","total no. of clumps":39,"longitude":120.3318687,"id":"ae7dxw6e62ed","province":"Tarlac","barangay":null,"easting":213990,"species":"Kawayan tinik","elev (masl)":null},"type":"Feature","geometry":{"type":"Point","coordinates":[120.3318687,15.67738061]}},{"properties":{"northing":1735520,"ave. no. of culms/clump":43,"latitude":15.6816616,"total hectarage (ha)":0.2773,"municipality":"San Clemente","total no. of clumps":57,"longitude":120.3348058,"id":"ae7dxw2he5jk","province":"Tarlac","barangay":null,"easting":214311,"species":"Kawayan tinik","elev (masl)":null},"type":"Feature","geometry":{"type":"Point","coordinates":[120.3348058,15.6816616]}},{"properties":{"northing":1735050,"ave. no. of culms/clump":43,"latitude":15.67746614,"total hectarage (ha)":0.202371,"municipality":"San Clemente","total no. of clumps":41,"longitude":120.3388878,"id":"ae7dxvw0og4f","province":"Tarlac","barangay":null,"easting":214743,"species":"Kawayan tinik","elev (masl)":null},"type":"Feature","geometry":{"type":"Point","coordinates":[120.3388878,15.67746614]}},{"properties":{"northing":1735690,"ave. no. of culms/clump":43,"latitude":15.6832476,"total hectarage (ha)":0.185241,"municipality":"San Clemente","total no. of clumps":38,"longitude":120.3389527,"id":"ae7dxvxm4gss","province":"Tarlac","barangay":null,"easting":214758,"species":"Kawayan tinik","elev (masl)":null},"type":"Feature","geometry":{"type":"Point","coordinates":[120.3389527,15.6832476]}},{"properties":{"northing":1736430,"ave. no. of culms/clump":43,"latitude":15.68998533,"total hectarage (ha)":0.175015,"municipality":"San Clemente","total no. of clumps":36,"longitude":120.3433779,"id":"ae7dxwa2ojd0","province":"Tarlac","barangay":null,"easting":215242,"species":"Kawayan tinik","elev (masl)":null},"type":"Feature","geometry":{"type":"Point","coordinates":[120.3433779,15.68998533]}},{"properties":{"northing":1736660,"ave. no. of culms/clump":43,"latitude":15.69212189,"total hectarage (ha)":0.213115,"municipality":"San Clemente","total no. of clumps":43,"longitude":120.3482452,"id":"ae7dxw6notx2","province":"Tarlac","barangay":null,"easting":215767,"species":"Kawayan tinik","elev (masl)":null},"type":"Feature","geometry":{"type":"Point","coordinates":[120.3482452,15.69212189]}},{"properties":{"northing":1736670,"ave. no. of culms/clump":43,"latitude":15.69226792,"total hectarage (ha)":0.899671,"municipality":"San Clemente","total no. of clumps":184,"longitude":120.35284,"id":"ae7dxw2gcmmf","province":"Tarlac","barangay":null,"easting":216260,"species":"Kawayan tinik","elev (masl)":null},"type":"Feature","geometry":{"type":"Point","coordinates":[120.35284,15.69226792]}},{"properties":{"northing":1737120,"ave. no. of culms/clump":43,"latitude":15.6963392,"total hectarage (ha)":0.959122,"municipality":"San Clemente","total no. of clumps":196,"longitude":120.3533935,"id":"ae7dxw3n35f1","province":"Tarlac","barangay":null,"easting":216325,"species":"Kawayan tinik","elev (masl)":null},"type":"Feature","geometry":{"type":"Point","coordinates":[120.3533935,15.6963392]}},{"properties":{"northing":1737310,"ave. no. of culms/clump":43,"latitude":15.69806761,"total hectarage (ha)":0.443642,"municipality":"San Clemente","total no. of clumps":91,"longitude":120.3544062,"id":"ae7dxw86gecr","province":"Tarlac","barangay":null,"easting":216436,"species":"Kawayan tinik","elev (masl)":null},"type":"Feature","geometry":{"type":"Point","coordinates":[120.3544062,15.69806761]}},{"properties":{"northing":1737600,"ave. no. of culms/clump":43,"latitude":15.70069834,"total hectarage (ha)":0.389635,"municipality":"San Clemente","total no. of clumps":80,"longitude":120.3553419,"id":"ae7dxvwidvry","province":"Tarlac","barangay":null,"easting":216540,"species":"Kawayan tinik","elev (masl)":null},"type":"Feature","geometry":{"type":"Point","coordinates":[120.3553419,15.70069834]}},{"properties":{"northing":1737470,"ave. no. of culms/clump":43,"latitude":15.69953469,"total hectarage (ha)":0.563734,"municipality":"San Clemente","total no. of clumps":115,"longitude":120.3562148,"id":"ae7dxw2l8w3m","province":"Tarlac","barangay":null,"easting":216632,"species":"Kawayan tinik","elev (masl)":null},"type":"Feature","geometry":{"type":"Point","coordinates":[120.3562148,15.69953469]}},{"properties":{"northing":1737780,"ave. no. of culms/clump":43,"latitude":15.70232967,"total hectarage (ha)":0.27525,"municipality":"San Clemente","total no. of clumps":56,"longitude":120.3557964,"id":"ae7dxw1u73rd","province":"Tarlac","barangay":null,"easting":216591,"species":"Kawayan tinik","elev (masl)":null},"type":"Feature","geometry":{"type":"Point","coordinates":[120.3557964,15.70232967]}},{"properties":{"northing":1737860,"ave. no. of culms/clump":32,"latitude":15.70306614,"total hectarage (ha)":0.189618,"municipality":"San Clemente","total no. of clumps":39,"longitude":120.3569431,"id":"ae7dxw7jax40","province":"Tarlac","barangay":null,"easting":216715,"species":"Bayog","elev (masl)":null},"type":"Feature","geometry":{"type":"Point","coordinates":[120.3569431,15.70306614]}},{"properties":{"northing":1737920,"ave. no. of culms/clump":32,"latitude":15.70361714,"total hectarage (ha)":0.110148,"municipality":"San Clemente","total no. of clumps":22,"longitude":120.3576913,"id":"ae7dxvwtgqwk","province":"Tarlac","barangay":null,"easting":216796,"species":"Bayog","elev (masl)":null},"type":"Feature","geometry":{"type":"Point","coordinates":[120.3576913,15.70361714]}},{"properties":{"northing":1738050,"ave. no. of culms/clump":32,"latitude":15.70479726,"total hectarage (ha)":0.363889,"municipality":"San Clemente","total no. of clumps":74,"longitude":120.3581796,"id":"ae7dxvvnsmul","province":"Tarlac","barangay":null,"easting":216850,"species":"Bayog","elev (masl)":null},"type":"Feature","geometry":{"type":"Point","coordinates":[120.3581796,15.70479726]}},{"properties":{"northing":1738160,"ave. no. of culms/clump":32,"latitude":15.705813,"total hectarage (ha)":0.60464,"municipality":"San Clemente","total no. of clumps":123,"longitude":120.3600127,"id":"ae7dxw3me28c","province":"Tarlac","barangay":null,"easting":217048,"species":"Bayog","elev (masl)":null},"type":"Feature","geometry":{"type":"Point","coordinates":[120.3600127,15.705813]}},{"properties":{"northing":1738210,"ave. no. of culms/clump":32,"latitude":15.70628483,"total hectarage (ha)":0.19451,"municipality":"San Clemente","total no. of clumps":40,"longitude":120.3616851,"id":"ae7dxvxl2f5u","province":"Tarlac","barangay":null,"easting":217228,"species":"Bayog","elev (masl)":null},"type":"Feature","geometry":{"type":"Point","coordinates":[120.3616851,15.70628483]}},{"properties":{"northing":1738360,"ave. no. of culms/clump":32,"latitude":15.70766167,"total hectarage (ha)":0.46791,"municipality":"San Clemente","total no. of clumps":95,"longitude":120.3635043,"id":"ae7dxvwuvslj","province":"Tarlac","barangay":null,"easting":217425,"species":"Bayog","elev (masl)":null},"type":"Feature","geometry":{"type":"Point","coordinates":[120.3635043,15.70766167]}},{"properties":{"northing":1738510,"ave. no. of culms/clump":32,"latitude":15.70902736,"total hectarage (ha)":0.396901,"municipality":"San Clemente","total no. of clumps":81,"longitude":120.3644005,"id":"ae7dxw53kdre","province":"Tarlac","barangay":null,"easting":217523,"species":"Bayog","elev (masl)":null},"type":"Feature","geometry":{"type":"Point","coordinates":[120.3644005,15.70902736]}},{"properties":{"northing":1738230,"ave. no. of culms/clump":32,"latitude":15.70649,"total hectarage (ha)":0.214417,"municipality":"San Clemente","total no. of clumps":44,"longitude":120.3637152,"id":"ae7dxvz3np01","province":"Tarlac","barangay":null,"easting":217446,"species":"Bayog","elev (masl)":null},"type":"Feature","geometry":{"type":"Point","coordinates":[120.3637152,15.70649]}},{"properties":{"northing":1738190,"ave. no. of culms/clump":32,"latitude":15.70610365,"total hectarage (ha)":0.221948,"municipality":"San Clemente","total no. of clumps":45,"longitude":120.3616408,"id":"ae7dxw596r8j","province":"Tarlac","barangay":null,"easting":217223,"species":"Bayog","elev (masl)":null},"type":"Feature","geometry":{"type":"Point","coordinates":[120.3616408,15.70610365]}},{"properties":{"northing":1738400,"ave. no. of culms/clump":32,"latitude":15.70810814,"total hectarage (ha)":0.139858,"municipality":"San Clemente","total no. of clumps":29,"longitude":120.3705666,"id":"ae7dxvzumw8f","province":"Tarlac","barangay":null,"easting":218183,"species":"Bayog","elev (masl)":null},"type":"Feature","geometry":{"type":"Point","coordinates":[120.3705666,15.70810814]}},{"properties":{"northing":1737020,"ave. no. of culms/clump":32,"latitude":15.69529814,"total hectarage (ha)":0.337559,"municipality":"San Clemente","total no. of clumps":69,"longitude":120.3420411,"id":"ae7dxw6z6pyp","province":"Tarlac","barangay":null,"easting":215106,"species":"Bayog","elev (masl)":null},"type":"Feature","geometry":{"type":"Point","coordinates":[120.3420411,15.69529814]}},{"properties":{"northing":1737290,"ave. no. of culms/clump":32,"latitude":15.69772978,"total hectarage (ha)":0.527919,"municipality":"San Clemente","total no. of clumps":108,"longitude":120.3414594,"id":"ae7dxvwyra9o","province":"Tarlac","barangay":null,"easting":215047,"species":"Bayog","elev (masl)":null},"type":"Feature","geometry":{"type":"Point","coordinates":[120.3414594,15.69772978]}},{"properties":{"northing":1737460,"ave. no. of culms/clump":32,"latitude":15.69927229,"total hectarage (ha)":0.332544,"municipality":"San Clemente","total no. of clumps":68,"longitude":120.3420362,"id":"ae7dxw51uzwt","province":"Tarlac","barangay":null,"easting":215111,"species":"Bayog","elev (masl)":null},"type":"Feature","geometry":{"type":"Point","coordinates":[120.3420362,15.69927229]}},{"properties":{"northing":1737640,"ave. no. of culms/clump":32,"latitude":15.7009067,"total hectarage (ha)":0.375776,"municipality":"San Clemente","total no. of clumps":77,"longitude":120.3427422,"id":"ae7dxvv2kv50","province":"Tarlac","barangay":null,"easting":215189,"species":"Bayog","elev (masl)":null},"type":"Feature","geometry":{"type":"Point","coordinates":[120.3427422,15.7009067]}},{"properties":{"northing":1737720,"ave. no. of culms/clump":32,"latitude":15.70167531,"total hectarage (ha)":0.19871,"municipality":"San Clemente","total no. of clumps":41,"longitude":120.3465272,"id":"ae7dxw54vpqx","province":"Tarlac","barangay":null,"easting":215596,"species":"Bayog","elev (masl)":null},"type":"Feature","geometry":{"type":"Point","coordinates":[120.3465272,15.70167531]}},{"properties":{"northing":1737740,"ave. no. of culms/clump":32,"latitude":15.70188559,"total hectarage (ha)":0.321381,"municipality":"San Clemente","total no. of clumps":66,"longitude":120.3489675,"id":"ae7dxw7bbnh1","province":"Tarlac","barangay":null,"easting":215858,"species":"Bayog","elev (masl)":null},"type":"Feature","geometry":{"type":"Point","coordinates":[120.3489675,15.70188559]}},{"properties":{"northing":1737990,"ave. no. of culms/clump":32,"latitude":15.70415735,"total hectarage (ha)":1.265343,"municipality":"San Clemente","total no. of clumps":258,"longitude":120.3500943,"id":"ae7dxvxlbm6z","province":"Tarlac","barangay":null,"easting":215982,"species":"Bayog","elev (masl)":null},"type":"Feature","geometry":{"type":"Point","coordinates":[120.3500943,15.70415735]}},{"properties":{"northing":1738070,"ave. no. of culms/clump":32,"latitude":15.70490041,"total hectarage (ha)":0.172024,"municipality":"San Clemente","total no. of clumps":35,"longitude":120.3517817,"id":"ae7dxvxhbjey","province":"Tarlac","barangay":null,"easting":216164,"species":"Bayog","elev (masl)":null},"type":"Feature","geometry":{"type":"Point","coordinates":[120.3517817,15.70490041]}},{"properties":{"northing":1738330,"ave. no. of culms/clump":32,"latitude":15.70725976,"total hectarage (ha)":0.319525,"municipality":"San Clemente","total no. of clumps":65,"longitude":120.3526837,"id":"ae7dxvxkpry3","province":"Tarlac","barangay":null,"easting":216264,"species":"Bayog","elev (masl)":null},"type":"Feature","geometry":{"type":"Point","coordinates":[120.3526837,15.70725976]}},{"properties":{"northing":1738640,"ave. no. of culms/clump":32,"latitude":15.71012983,"total hectarage (ha)":0.357394,"municipality":"San Clemente","total no. of clumps":73,"longitude":120.3584652,"id":"ae7dxw42i6c6","province":"Tarlac","barangay":null,"easting":216888,"species":"Bayog","elev (masl)":null},"type":"Feature","geometry":{"type":"Point","coordinates":[120.3584652,15.71012983]}},{"properties":{"northing":1738700,"ave. no. of culms/clump":32,"latitude":15.71066018,"total hectarage (ha)":0.135794,"municipality":"San Clemente","total no. of clumps":28,"longitude":120.3575072,"id":"ae7dxw5a6pj8","province":"Tarlac","barangay":null,"easting":216786,"species":"Bayog","elev (masl)":null},"type":"Feature","geometry":{"type":"Point","coordinates":[120.3575072,15.71066018]}},{"properties":{"northing":1739090,"ave. no. of culms/clump":32,"latitude":15.71418746,"total hectarage (ha)":0.198191,"municipality":"San Clemente","total no. of clumps":40,"longitude":120.3578906,"id":"ae7dxvywi4wz","province":"Tarlac","barangay":null,"easting":216832,"species":"Bayog","elev (masl)":null},"type":"Feature","geometry":{"type":"Point","coordinates":[120.3578906,15.71418746]}},{"properties":{"northing":1739240,"ave. no. of culms/clump":32,"latitude":15.71553003,"total hectarage (ha)":0.411175,"municipality":"San Clemente","total no. of clumps":84,"longitude":120.3568755,"id":"ae7dxw7xexfn","province":"Tarlac","barangay":null,"easting":216725,"species":"Bayog","elev (masl)":null},"type":"Feature","geometry":{"type":"Point","coordinates":[120.3568755,15.71553003]}},{"properties":{"northing":1739430,"ave. no. of culms/clump":32,"latitude":15.71724828,"total hectarage (ha)":0.647675,"municipality":"San Clemente","total no. of clumps":132,"longitude":120.3570492,"id":"ae7dxw8nqlde","province":"Tarlac","barangay":null,"easting":216746,"species":"Bayog","elev (masl)":null},"type":"Feature","geometry":{"type":"Point","coordinates":[120.3570492,15.71724828]}},{"properties":{"northing":1739640,"ave. no. of culms/clump":32,"latitude":15.71914106,"total hectarage (ha)":0.707172,"municipality":"San Clemente","total no. of clumps":144,"longitude":120.356717,"id":"ae7dxvu8nzbd","province":"Tarlac","barangay":null,"easting":216713,"species":"Bayog","elev (masl)":null},"type":"Feature","geometry":{"type":"Point","coordinates":[120.356717,15.71914106]}},{"properties":{"northing":1739930,"ave. no. of culms/clump":32,"latitude":15.72176321,"total hectarage (ha)":0.482585,"municipality":"San Clemente","total no. of clumps":96,"longitude":120.3569443,"id":"ae7dxw0184kw","province":"Tarlac","barangay":null,"easting":216741,"species":"Bayog","elev (masl)":null},"type":"Feature","geometry":{"type":"Point","coordinates":[120.3569443,15.72176321]}},{"properties":{"northing":1740150,"ave. no. of culms/clump":32,"latitude":15.72377114,"total hectarage (ha)":0.597898,"municipality":"San Clemente","total no. of clumps":122,"longitude":120.3586622,"id":"ae7dxw38rteu","province":"Tarlac","barangay":null,"easting":216928,"species":"Bayog","elev (masl)":null},"type":"Feature","geometry":{"type":"Point","coordinates":[120.3586622,15.72377114]}},{"properties":{"northing":1740640,"ave. no. of culms/clump":32,"latitude":15.7281874,"total hectarage (ha)":0.593194,"municipality":"San Clemente","total no. of clumps":121,"longitude":120.3578684,"id":"ae7dxw8cu293","province":"Tarlac","barangay":null,"easting":216849,"species":"Bayog","elev (masl)":null},"type":"Feature","geometry":{"type":"Point","coordinates":[120.3578684,15.7281874]}},{"properties":{"northing":1740830,"ave. no. of culms/clump":32,"latitude":15.72990927,"total hectarage (ha)":0.523389,"municipality":"San Clemente","total no. of clumps":107,"longitude":120.3583404,"id":"ae7dxw1hwvd8","province":"Tarlac","barangay":null,"easting":216902,"species":"Bayog","elev (masl)":null},"type":"Feature","geometry":{"type":"Point","coordinates":[120.3583404,15.72990927]}},{"properties":{"northing":1740930,"ave. no. of culms/clump":32,"latitude":15.73082987,"total hectarage (ha)":0.703745,"municipality":"San Clemente","total no. of clumps":144,"longitude":120.359774,"id":"ae7dxw3305nx","province":"Tarlac","barangay":null,"easting":217057,"species":"Bayog","elev (masl)":null},"type":"Feature","geometry":{"type":"Point","coordinates":[120.359774,15.73082987]}},{"properties":{"northing":1741030,"ave. no. of culms/clump":32,"latitude":15.73174697,"total hectarage (ha)":0.301761,"municipality":"San Clemente","total no. of clumps":62,"longitude":120.3609186,"id":"ae7dxw35qtun","province":"Tarlac","barangay":null,"easting":217181,"species":"Bayog","elev (masl)":null},"type":"Feature","geometry":{"type":"Point","coordinates":[120.3609186,15.73174697]}},{"properties":{"northing":1741250,"ave. no. of culms/clump":32,"latitude":15.73373333,"total hectarage (ha)":0.475943,"municipality":"San Clemente","total no. of clumps":97,"longitude":120.3608556,"id":"ae7dxw39zr7h","province":"Tarlac","barangay":null,"easting":217177,"species":"Bayog","elev (masl)":null},"type":"Feature","geometry":{"type":"Point","coordinates":[120.3608556,15.73373333]}},{"properties":{"northing":1741430,"ave. no. of culms/clump":32,"latitude":15.73538363,"total hectarage (ha)":0.827481,"municipality":"San Clemente","total no. of clumps":169,"longitude":120.3628767,"id":"ae7dxvuqftee","province":"Tarlac","barangay":null,"easting":217396,"species":"Bayog","elev (masl)":null},"type":"Feature","geometry":{"type":"Point","coordinates":[120.3628767,15.73538363]}},{"properties":{"northing":1741410,"ave. no. of culms/clump":32,"latitude":15.7352215,"total hectarage (ha)":0.437007,"municipality":"San Clemente","total no. of clumps":89,"longitude":120.3644082,"id":"ae7dxw8ro8el","province":"Tarlac","barangay":null,"easting":217560,"species":"Bayog","elev (masl)":null},"type":"Feature","geometry":{"type":"Point","coordinates":[120.3644082,15.7352215]}},{"properties":{"northing":1741520,"ave. no. of culms/clump":32,"latitude":15.73622247,"total hectarage (ha)":0.603773,"municipality":"San Clemente","total no. of clumps":123,"longitude":120.3650202,"id":"ae7dxw5mzh3j","province":"Tarlac","barangay":null,"easting":217627,"species":"Bayog","elev (masl)":null},"type":"Feature","geometry":{"type":"Point","coordinates":[120.3650202,15.73622247]}},{"properties":{"northing":1741620,"ave. no. of culms/clump":32,"latitude":15.73714022,"total hectarage (ha)":0.280775,"municipality":"San Clemente","total no. of clumps":57,"longitude":120.3662207,"id":"ae7dxw2kfeny","province":"Tarlac","barangay":null,"easting":217757,"species":"Bayog","elev (masl)":null},"type":"Feature","geometry":{"type":"Point","coordinates":[120.3662207,15.73714022]}},{"properties":{"northing":1745250,"ave. no. of culms/clump":32,"latitude":15.77013292,"total hectarage (ha)":0.487274,"municipality":"San Clemente","total no. of clumps":99,"longitude":120.3832097,"id":"ae7dxw83ko7u","province":"Tarlac","barangay":null,"easting":219624,"species":"Bayog","elev (masl)":null},"type":"Feature","geometry":{"type":"Point","coordinates":[120.3832097,15.77013292]}},{"properties":{"northing":1744700,"ave. no. of culms/clump":32,"latitude":15.76513708,"total hectarage (ha)":0.372828,"municipality":"San Clemente","total no. of clumps":76,"longitude":120.3808859,"id":"ae7dxw4e7oya","province":"Tarlac","barangay":null,"easting":219368,"species":"Bayog","elev (masl)":null},"type":"Feature","geometry":{"type":"Point","coordinates":[120.3808859,15.76513708]}},{"properties":{"northing":1744760,"ave. no. of culms/clump":32,"latitude":15.76567075,"total hectarage (ha)":0.147319,"municipality":"San Clemente","total no. of clumps":30,"longitude":120.3801982,"id":"ae7dxw2p1smd","province":"Tarlac","barangay":null,"easting":219295,"species":"Bayog","elev (masl)":null},"type":"Feature","geometry":{"type":"Point","coordinates":[120.3801982,15.76567075]}},{"properties":{"northing":1744720,"ave. no. of culms/clump":32,"latitude":15.76533465,"total hectarage (ha)":0.141684,"municipality":"San Clemente","total no. of clumps":29,"longitude":120.3822918,"id":"ae7dxw2bxknw","province":"Tarlac","barangay":null,"easting":219519,"species":"Bayog","elev (masl)":null},"type":"Feature","geometry":{"type":"Point","coordinates":[120.3822918,15.76533465]}},{"properties":{"northing":1744660,"ave. no. of culms/clump":32,"latitude":15.76480097,"total hectarage (ha)":0.061921,"municipality":"San Clemente","total no. of clumps":13,"longitude":120.3829796,"id":"ae7dxw3imfj7","province":"Tarlac","barangay":null,"easting":219592,"species":"Bayog","elev (masl)":null},"type":"Feature","geometry":{"type":"Point","coordinates":[120.3829796,15.76480097]}},{"properties":{"northing":1744730,"ave. no. of culms/clump":32,"latitude":15.76545053,"total hectarage (ha)":0.210683,"municipality":"San Clemente","total no. of clumps":43,"longitude":120.384417,"id":"ae7dxvykxo04","province":"Tarlac","barangay":null,"easting":219747,"species":"Bayog","elev (masl)":null},"type":"Feature","geometry":{"type":"Point","coordinates":[120.384417,15.76545053]}},{"properties":{"northing":1744750,"ave. no. of culms/clump":32,"latitude":15.76564258,"total hectarage (ha)":0.0099234,"municipality":"San Clemente","total no. of clumps":20,"longitude":120.3853659,"id":"ae7dxvwwrct7","province":"Tarlac","barangay":null,"easting":219849,"species":"Bayog","elev (masl)":null},"type":"Feature","geometry":{"type":"Point","coordinates":[120.3853659,15.76564258]}},{"properties":{"northing":1744840,"ave. no. of culms/clump":32,"latitude":15.76646188,"total hectarage (ha)":0.159437,"municipality":"San Clemente","total no. of clumps":33,"longitude":120.3858964,"id":"ae7dxw6uwqse","province":"Tarlac","barangay":null,"easting":219907,"species":"Bayog","elev (masl)":null},"type":"Feature","geometry":{"type":"Point","coordinates":[120.3858964,15.76646188]}},{"properties":{"northing":1744850,"ave. no. of culms/clump":32,"latitude":15.7665634,"total hectarage (ha)":0.210516,"municipality":"San Clemente","total no. of clumps":43,"longitude":120.3868279,"id":"ae7dxvy7e1od","province":"Tarlac","barangay":null,"easting":220007,"species":"Bayog","elev (masl)":null},"type":"Feature","geometry":{"type":"Point","coordinates":[120.3868279,15.7665634]}},{"properties":{"northing":1744680,"ave. no. of culms/clump":32,"latitude":15.76502396,"total hectarage (ha)":0.164811,"municipality":"San Clemente","total no. of clumps":34,"longitude":120.3865025,"id":"ae7dxvtuhi72","province":"Tarlac","barangay":null,"easting":219970,"species":"Bayog","elev (masl)":null},"type":"Feature","geometry":{"type":"Point","coordinates":[120.3865025,15.76502396]}},{"properties":{"northing":1747510,"ave. no. of culms/clump":32,"latitude":15.79010883,"total hectarage (ha)":0.745247,"municipality":"San Clemente","total no. of clumps":152,"longitude":120.347123,"id":"ae7dxw7bfhl5","province":"Tarlac","barangay":null,"easting":215783,"species":"Bayog","elev (masl)":null},"type":"Feature","geometry":{"type":"Point","coordinates":[120.347123,15.79010883]}},{"properties":{"northing":1747470,"ave. no. of culms/clump":32,"latitude":15.78973655,"total hectarage (ha)":0.321467,"municipality":"San Clemente","total no. of clumps":66,"longitude":120.346223,"id":"ae7dxw7wo0lr","province":"Tarlac","barangay":null,"easting":215686,"species":"Bayog","elev (masl)":null},"type":"Feature","geometry":{"type":"Point","coordinates":[120.346223,15.78973655]}},{"properties":{"northing":1747530,"ave. no. of culms/clump":32,"latitude":15.79027031,"total hectarage (ha)":0.393994,"municipality":"San Clemente","total no. of clumps":80,"longitude":120.3455537,"id":"ae7dxvy5hyb9","province":"Tarlac","barangay":null,"easting":215615,"species":"Bayog","elev (masl)":null},"type":"Feature","geometry":{"type":"Point","coordinates":[120.3455537,15.79027031]}},{"properties":{"northing":1747620,"ave. no. of culms/clump":32,"latitude":15.7910767,"total hectarage (ha)":0.122198,"municipality":"San Clemente","total no. of clumps":25,"longitude":120.3450208,"id":"ae7dxvtrb11y","province":"Tarlac","barangay":null,"easting":215559,"species":"Bayog","elev (masl)":null},"type":"Feature","geometry":{"type":"Point","coordinates":[120.3450208,15.7910767]}},{"properties":{"northing":1747740,"ave. no. of culms/clump":32,"latitude":15.79213327,"total hectarage (ha)":0.408037,"municipality":"San Clemente","total no. of clumps":83,"longitude":120.3427869,"id":"ae7dxw1wf4c3","province":"Tarlac","barangay":null,"easting":215321,"species":"Bayog","elev (masl)":null},"type":"Feature","geometry":{"type":"Point","coordinates":[120.3427869,15.79213327]}}],"is_temporal":false,"author":{"url":"","metadata":"","contact_name":"","contact_address":"","source":"","contact_phone":""},"source":"","pagination":{"sort":null,"start":0,"total":72,"limit":1000000},"state":"complete","tags":"","published":"2014-08-16T21:18:54-04:00","id":355607}