{"type":"FeatureCollection","data_type":"Dataset","url_type":null,"permissions":[{"permissions":{"download":true,"view":true},"group_id":"everyone"}],"classification":null,"title":"freshmarketlocations_1","count":157,"stream_id":356528,"contributor":{"url":"http://geocommons.com/users/69975","name":"sbowen3"},"data_attributes":null,"calculation_params":null,"icon_link":null,"link":"http://geocommons.com/overlays/356528.json","extent":[0.0,0.0,0.0,0.0],"geometry_types":[],"unique_name":null,"name":"freshmarketlocations_1","feature_count":157,"description":"","next_feature":null,"is_raster":false,"short_classification":"Y","stats":{"status":{"max":2,"variance":0.139065817409767,"mean":1.1656050955414,"stdev":0.372915295221001,"min":1,"median":1}},"features":[{"properties":{"status":1,"geo_score":0.0,"id":"aeakpuul5kug","address":"4700, Highway, 28, Birmingham, AL, 35242","geo_precision":"unmatched"},"type":"Feature","geometry":null},{"properties":{"status":1,"geo_score":0.0,"id":"aeakpuxhzr37","address":"6900, US, Highway, 90, Suite 2,\rDaphne, AL, 36526","geo_precision":"unmatched"},"type":"Feature","geometry":null},{"properties":{"status":1,"geo_score":0.0,"id":"aeakpv09pfbu","address":"4800, Whitesburg, Dr.,\rHuntsville, AL, 35802","geo_precision":"unmatched"},"type":"Feature","geometry":null},{"properties":{"status":1,"geo_score":0.0,"id":"aeakpulupnch","address":"3940, Airport, Boulevard,\rMobile, AL, 36608","geo_precision":"unmatched"},"type":"Feature","geometry":null},{"properties":{"status":1,"geo_score":0.0,"id":"aeakpuz60yds","address":"1635, Perry Hill Road Montgomery, AL, 36106","geo_precision":"unmatched"},"type":"Feature","geometry":null},{"properties":{"status":1,"geo_score":0.0,"id":"aeakpuzny50t","address":"11525, Cantrell Rd,\rLittle Rock, AR, 72212","geo_precision":"unmatched"},"type":"Feature","geometry":null},{"properties":{"status":1,"geo_score":0.0,"id":"aeakput0zh61","address":"2203, Promenade Boulevard, Suite 12100,\rRogers, AR, 72758","geo_precision":"unmatched"},"type":"Feature","geometry":null},{"properties":{"status":1,"geo_score":0.0,"id":"aeakpuye5nn6","address":"2030 Douglas Blvd.\rRoseville, CA 95661","geo_precision":"unmatched"},"type":"Feature","geometry":null},{"properties":{"status":1,"geo_score":0.0,"id":"aeakpuom3pn7","address":"321 West Main Street\rAvon, CT 06001","geo_precision":"unmatched"},"type":"Feature","geometry":null},{"properties":{"status":1,"geo_score":0.0,"id":"aeakpv0tiarn","address":"605 Post Road East\rWestport, CT 06880","geo_precision":"unmatched"},"type":"Feature","geometry":null},{"properties":{"status":1,"geo_score":0.0,"id":"aeakpupy8nah","address":"995 N State Road 434\rAltamonte Springs, FL 32714","geo_precision":"unmatched"},"type":"Feature","geometry":null},{"properties":{"status":1,"geo_score":0.0,"id":"aeakpv0swzc9","address":"18299 Biscayne Boulevard\rAventura, FL 33160","geo_precision":"unmatched"},"type":"Feature","geometry":null},{"properties":{"status":1,"geo_score":0.0,"id":"aeakpuswywtr","address":"100 W. Camino Real\rBoca Raton, FL 33432","geo_precision":"unmatched"},"type":"Feature","geometry":null},{"properties":{"status":1,"geo_score":0.0,"id":"aeakpuxqksci","address":"20409 State Road 7\rBoca Raton West, FL 33498","geo_precision":"unmatched"},"type":"Feature","geometry":null},{"properties":{"status":1,"geo_score":0.0,"id":"aeakpuxfljkr","address":"27251 Bay Landing Drive\rBonita Springs, FL 34135","geo_precision":"unmatched"},"type":"Feature","geometry":null},{"properties":{"status":1,"geo_score":0.0,"id":"aeakpuqvam34","address":"6701 Manatee Avenue West\rBradenton, FL 34209","geo_precision":"unmatched"},"type":"Feature","geometry":null},{"properties":{"status":1,"geo_score":0.0,"id":"aeakpv0joswj","address":"25961 US Highway 19 N\rClearwater, FL 33763","geo_precision":"unmatched"},"type":"Feature","geometry":null},{"properties":{"status":1,"geo_score":0.0,"id":"aeakputxhuee","address":"2640 S. Bayshore Drive\rCoconut Grove, FL 33133","geo_precision":"unmatched"},"type":"Feature","geometry":null},{"properties":{"status":1,"geo_score":0.0,"id":"aeakpurqost8","address":"4633 University Drive\rCoral Springs, FL 33067","geo_precision":"unmatched"},"type":"Feature","geometry":null},{"properties":{"status":1,"geo_score":0.0,"id":"aeakpuxv84xk","address":"4495 Commons Dr. West\rDestin, FL 32541","geo_precision":"unmatched"},"type":"Feature","geometry":null},{"properties":{"status":1,"geo_score":0.0,"id":"aeakpupoql21","address":"424 North Federal Highway\rFort Lauderdale, FL 33301","geo_precision":"unmatched"},"type":"Feature","geometry":null},{"properties":{"status":1,"geo_score":0.0,"id":"aeakpuqm8gn1","address":"13499 S Cleveland Avenue\rFort Myers, FL 33907","geo_precision":"unmatched"},"type":"Feature","geometry":null},{"properties":{"status":1,"geo_score":0.0,"id":"aeakpuyuo10v","address":"4120 Northwest 16th Blvd\rGainesville, FL 32605","geo_precision":"unmatched"},"type":"Feature","geometry":null},{"properties":{"status":1,"geo_score":0.0,"id":"aeakpuub0hnq","address":"12795 San Jose Boulevard\rJacksonville, FL 32223","geo_precision":"unmatched"},"type":"Feature","geometry":null},{"properties":{"status":1,"geo_score":0.0,"id":"aeakpuyejly0","address":"13493 Atlantic Blvd.\rJacksonville, FL 32225","geo_precision":"unmatched"},"type":"Feature","geometry":null},{"properties":{"status":1,"geo_score":0.0,"id":"aeakpuz48yij","address":"8888 SW 136th St.\rMiami, FL 33176","geo_precision":"unmatched"},"type":"Feature","geometry":null},{"properties":{"status":1,"geo_score":0.0,"id":"aeakpuoyhc74","address":"1800 West Avenue\rMiami Beach, FL 33139","geo_precision":"unmatched"},"type":"Feature","geometry":null},{"properties":{"status":1,"geo_score":0.0,"id":"aeakpun3b1fo","address":"4129 Tamiami Trail N\rNaples, FL 34103","geo_precision":"unmatched"},"type":"Feature","geometry":null},{"properties":{"status":1,"geo_score":0.0,"id":"aeakpuo3kv87","address":"5000 Dr. Phillips Boulevard\rOrlando, FL 32819","geo_precision":"unmatched"},"type":"Feature","geometry":null},{"properties":{"status":1,"geo_score":0.0,"id":"aeakpuzu8l4e","address":"2200 N. Flamingo Road\rPembroke Pines, FL 33028","geo_precision":"unmatched"},"type":"Feature","geometry":null},{"properties":{"status":1,"geo_score":0.0,"id":"aeakpuow8dcs","address":"1650 Airport Blvd\rPensacola, FL 32504","geo_precision":"unmatched"},"type":"Feature","geometry":null},{"properties":{"status":1,"geo_score":0.0,"id":"aeakpuqx5pz6","address":"840 A1A North Suite 200\rPonte Vedra Beach, FL 32082","geo_precision":"unmatched"},"type":"Feature","geometry":null},{"properties":{"status":1,"geo_score":0.0,"id":"aeakputsjmmq","address":"5251 University Parkway\rSarasota - University Park, FL 34201","geo_precision":"unmatched"},"type":"Feature","geometry":null},{"properties":{"status":1,"geo_score":0.0,"id":"aeakpulobyec","address":"2900 4th Street North\rSt. Petersburg, FL 33704","geo_precision":"unmatched"},"type":"Feature","geometry":null},{"properties":{"status":1,"geo_score":0.0,"id":"aeakpuwtw3o5","address":"2300 SE Ocean Boulevard\rStuart, FL 34996","geo_precision":"unmatched"},"type":"Feature","geometry":null},{"properties":{"status":1,"geo_score":0.0,"id":"aeakpuv5gple","address":"1390 Village Square Blvd.\rTallahassee, FL 32312","geo_precision":"unmatched"},"type":"Feature","geometry":null},{"properties":{"status":1,"geo_score":0.0,"id":"aeakpuu2uta5","address":"13147 N Dale Mabry Hwy\rTampa, FL 33618","geo_precision":"unmatched"},"type":"Feature","geometry":null},{"properties":{"status":1,"geo_score":0.0,"id":"aeakpul7630b","address":"3722 Henderson Blvd\rTampa, FL 33609","geo_precision":"unmatched"},"type":"Feature","geometry":null},{"properties":{"status":1,"geo_score":0.0,"id":"aeakpux9k82q","address":"3740 Wedgewood Ln\rThe Villages, FL 32162","geo_precision":"unmatched"},"type":"Feature","geometry":null},{"properties":{"status":1,"geo_score":0.0,"id":"aeakpuy7age1","address":"526 21st Street\rVero Beach, FL 32960","geo_precision":"unmatched"},"type":"Feature","geometry":null},{"properties":{"status":1,"geo_score":0.0,"id":"aeakpusduufk","address":"10640 Forest Hill Blvd\rWellington, FL 33414","geo_precision":"unmatched"},"type":"Feature","geometry":null},{"properties":{"status":1,"geo_score":0.0,"id":"aeakpumd6zwj","address":"3005 Old Alabama Road \rAlpharetta, GA 30022","geo_precision":"unmatched"},"type":"Feature","geometry":null},{"properties":{"status":1,"geo_score":0.0,"id":"aeakputduyqh","address":"196 Alps Road Unit 50\rAthens, GA 30606","geo_precision":"unmatched"},"type":"Feature","geometry":null},{"properties":{"status":1,"geo_score":0.0,"id":"aeakpuss667k","address":"2099 Peachtree Rd NE\rAtlanta, GA 30309","geo_precision":"unmatched"},"type":"Feature","geometry":null},{"properties":{"status":1,"geo_score":0.0,"id":"aeakpurvbo4x","address":"4405 Roswell Rd. NE\rAtlanta, GA 30342","geo_precision":"unmatched"},"type":"Feature","geometry":null},{"properties":{"status":1,"geo_score":0.0,"id":"aeakput8rp33","address":"2701 Washington Road\rAugusta, GA 30909","geo_precision":"unmatched"},"type":"Feature","geometry":null},{"properties":{"status":1,"geo_score":0.0,"id":"aeakpuqs5iq0","address":"1591 Bradley Park Drive\rColumbus, GA 31904","geo_precision":"unmatched"},"type":"Feature","geometry":null},{"properties":{"status":1,"geo_score":0.0,"id":"aeakpunm92lf","address":"5515 Chamblee-Dunwoody Rd\rDunwoody, GA 30338","geo_precision":"unmatched"},"type":"Feature","geometry":null},{"properties":{"status":1,"geo_score":0.0,"id":"aeakpunlknqj","address":"4357 Forsyth Road\rMacon, GA 31210","geo_precision":"unmatched"},"type":"Feature","geometry":null},{"properties":{"status":1,"geo_score":0.0,"id":"aeakpuxmgpf4","address":"1205 Johnson Ferry Road\rMarietta, GA 30068","geo_precision":"unmatched"},"type":"Feature","geometry":null},{"properties":{"status":1,"geo_score":0.0,"id":"aeakpuw1noyi","address":"100 N. Peachtree Parkway\rPeachtree City, GA 30269","geo_precision":"unmatched"},"type":"Feature","geometry":null},{"properties":{"status":1,"geo_score":0.0,"id":"aeakpuqauahr","address":"5525 Abercorn Street\rSavannah, GA 31405","geo_precision":"unmatched"},"type":"Feature","geometry":null},{"properties":{"status":1,"geo_score":0.0,"id":"aeakpv0jmkjg","address":"1500 Peachtree Industrial Blvd.\rSuwanee, GA 30024","geo_precision":"unmatched"},"type":"Feature","geometry":null},{"properties":{"status":1,"geo_score":0.0,"id":"aeakpuzumc43","address":"6000 Northwest Highway\rCrystal Lake, IL 60014","geo_precision":"unmatched"},"type":"Feature","geometry":null},{"properties":{"status":1,"geo_score":0.0,"id":"aeakpuzwxnt2","address":"718 Commons Drive\rGeneva, IL 60134","geo_precision":"unmatched"},"type":"Feature","geometry":null},{"properties":{"status":1,"geo_score":0.0,"id":"aeakpuq23ytz","address":"20771 N. Rand Road\rKildeer, IL 60047","geo_precision":"unmatched"},"type":"Feature","geometry":null},{"properties":{"status":1,"geo_score":0.0,"id":"aeakpuow76aa","address":"850 Western Ave\rLake Forest, IL 60045","geo_precision":"unmatched"},"type":"Feature","geometry":null},{"properties":{"status":1,"geo_score":0.0,"id":"aeakpumiw3hq","address":"200 N. Greenbriar Drive\rNormal, IL 61761","geo_precision":"unmatched"},"type":"Feature","geometry":null},{"properties":{"status":1,"geo_score":0.0,"id":"aeakpus53afp","address":"2601 West Lake Avenue\rPeoria, IL 61615","geo_precision":"unmatched"},"type":"Feature","geometry":null},{"properties":{"status":1,"geo_score":0.0,"id":"aeakputfbz81","address":"3232 Lake Avenue Ste 150\rWilmette, IL 60091","geo_precision":"unmatched"},"type":"Feature","geometry":null},{"properties":{"status":1,"geo_score":0.0,"id":"aeakpux502kz","address":"2490 East 146th Street\rCarmel, IN 46033","geo_precision":"unmatched"},"type":"Feature","geometry":null},{"properties":{"status":1,"geo_score":0.0,"id":"aeakputk5poy","address":"6401 E. Lloyd Expressway\rEvansville, IN 47715","geo_precision":"unmatched"},"type":"Feature","geometry":null},{"properties":{"status":1,"geo_score":0.0,"id":"aeakpuudyyfy","address":"6306 W Jefferson Blvd\rFort Wayne, IN 46804","geo_precision":"unmatched"},"type":"Feature","geometry":null},{"properties":{"status":1,"geo_score":0.0,"id":"aeakpuqbzosh","address":"5415 N. College Ave.\rIndianapolis, IN 46220","geo_precision":"unmatched"},"type":"Feature","geometry":null},{"properties":{"status":1,"geo_score":0.0,"id":"aeakpuligv4q","address":"1800 N. Rock Road Suite 500\rWichita, KS 67206","geo_precision":"unmatched"},"type":"Feature","geometry":null},{"properties":{"status":1,"geo_score":0.0,"id":"aeakpulst1fm","address":"3387 Tates Creek Rd.\rLexington, KY 40502","geo_precision":"unmatched"},"type":"Feature","geometry":null},{"properties":{"status":1,"geo_score":0.0,"id":"aeakpumwoofg","address":"10480 Shelbyville Road\rLouisville, KY 40223","geo_precision":"unmatched"},"type":"Feature","geometry":null},{"properties":{"status":1,"geo_score":0.0,"id":"aeakpv0ynzoj","address":"1805 Rudy Lane\rLouisville, KY 40207","geo_precision":"unmatched"},"type":"Feature","geometry":null},{"properties":{"status":1,"geo_score":0.0,"id":"aeakpup2bu0i","address":"10555 Perkins Rd.\rBaton Rouge, LA 70810","geo_precision":"unmatched"},"type":"Feature","geometry":null},{"properties":{"status":1,"geo_score":0.0,"id":"aeakpuxxoikx","address":"1810 Kaliste Saloom Rd.\rLafayette, LA 70508","geo_precision":"unmatched"},"type":"Feature","geometry":null},{"properties":{"status":1,"geo_score":0.0,"id":"aeakpux0jksa","address":"1816 N. Causeway Boulevard\rMandeville, LA 70471","geo_precision":"unmatched"},"type":"Feature","geometry":null},{"properties":{"status":1,"geo_score":0.0,"id":"aeakpuqsjfq2","address":"3338 St. Charles Avenue\rNew Orleans, LA 70115","geo_precision":"unmatched"},"type":"Feature","geometry":null},{"properties":{"status":1,"geo_score":0.0,"id":"aeakpuyzfcy6","address":"11 Essington Drive\rHingham, MA 02043","geo_precision":"unmatched"},"type":"Feature","geometry":null},{"properties":{"status":1,"geo_score":0.0,"id":"aeakpux88w1l","address":"2504 Solomons Island Road\rAnnapolis, MD 21401","geo_precision":"unmatched"},"type":"Feature","geometry":null},{"properties":{"status":1,"geo_score":0.0,"id":"aeakpupjnmp1","address":"2510 Quarry Lake Dr.\rBaltimore, MD 21209","geo_precision":"unmatched"},"type":"Feature","geometry":null},{"properties":{"status":1,"geo_score":0.0,"id":"aeakpuwjrv4k","address":"1649 Rockville Pike\rRockville, MD 20852","geo_precision":"unmatched"},"type":"Feature","geometry":null},{"properties":{"status":1,"geo_score":0.0,"id":"aeakpuumo4is","address":"838 Dulaney Valley Road\rTowson, MD 21204","geo_precision":"unmatched"},"type":"Feature","geometry":null},{"properties":{"status":1,"geo_score":0.0,"id":"aeakpuz8by4g","address":"1000 Highland Colony Parkway\rRidgeland, MS 39157","geo_precision":"unmatched"},"type":"Feature","geometry":null},{"properties":{"status":1,"geo_score":0.0,"id":"aeakpulg30ey","address":"944 Merrimon Avenue\rAsheville, NC 28804","geo_precision":"unmatched"},"type":"Feature","geometry":null},{"properties":{"status":1,"geo_score":0.0,"id":"aeakpunhl5dg","address":"3655 SW Cary Pkwy\rCary, NC 27513","geo_precision":"unmatched"},"type":"Feature","geometry":null},{"properties":{"status":1,"geo_score":0.0,"id":"aeakpuvskq9d","address":"1200-A Raleigh Rd.\rChapel Hill, NC 27517","geo_precision":"unmatched"},"type":"Feature","geometry":null},{"properties":{"status":1,"geo_score":0.0,"id":"aeakpuvjb3hd","address":"4223 Providence Road\rCharlotte, NC 28211","geo_precision":"unmatched"},"type":"Feature","geometry":null},{"properties":{"status":1,"geo_score":0.0,"id":"aeakpv0dzei7","address":"7625 Pineville/Matthews Rd\rCharlotte, NC 28226","geo_precision":"unmatched"},"type":"Feature","geometry":null},{"properties":{"status":1,"geo_score":0.0,"id":"aeakputs42s6","address":"20623 Torrence Chapel Road\rCornelius, NC 28031","geo_precision":"unmatched"},"type":"Feature","geometry":null},{"properties":{"status":1,"geo_score":0.0,"id":"aeakpunvmuin","address":"3712 Lawndale Drive\rGreensboro, NC 27455","geo_precision":"unmatched"},"type":"Feature","geometry":null},{"properties":{"status":1,"geo_score":0.0,"id":"aeakpuotj7dr","address":"1560 Highwoods Blvd\rGreensboro, NC 27410","geo_precision":"unmatched"},"type":"Feature","geometry":null},{"properties":{"status":1,"geo_score":0.0,"id":"aeakpuvvxxar","address":"950 Criswell Drive\rGreenville, NC 27834","geo_precision":"unmatched"},"type":"Feature","geometry":null},{"properties":{"status":1,"geo_score":0.0,"id":"aeakpuu5xt2w","address":"223 Greenville Highway\rHendersonville, NC 28792","geo_precision":"unmatched"},"type":"Feature","geometry":null},{"properties":{"status":1,"geo_score":0.0,"id":"aeakpumph9mn","address":"400 Woodburn Road\rRaleigh, NC 27605","geo_precision":"unmatched"},"type":"Feature","geometry":null},{"properties":{"status":1,"geo_score":0.0,"id":"aeakpuq0fbex","address":"6325 Falls of Neuse Road\rRaleigh, NC 27615","geo_precision":"unmatched"},"type":"Feature","geometry":null},{"properties":{"status":1,"geo_score":0.0,"id":"aeakpunkpot6","address":"155 Beverly Lane\rSouthern Pines, NC 28387","geo_precision":"unmatched"},"type":"Feature","geometry":null},{"properties":{"status":1,"geo_score":0.0,"id":"aeakpuvqspes","address":"1060 International Dr.\rWilmington, NC 28405","geo_precision":"unmatched"},"type":"Feature","geometry":null},{"properties":{"status":1,"geo_score":0.0,"id":"aeakpusc9pa9","address":"3285 Robinhood Rd\rWinston-Salem, NC 27106","geo_precision":"unmatched"},"type":"Feature","geometry":null},{"properties":{"status":1,"geo_score":0.0,"id":"aeakpulvm1gs","address":"79 South River Road, Unit 2\rBedford, NH 03110","geo_precision":"unmatched"},"type":"Feature","geometry":null},{"properties":{"status":1,"geo_score":0.0,"id":"aeakpup6okho","address":"32 Chestnut Ridge Road\rMontvale, NJ 07645","geo_precision":"unmatched"},"type":"Feature","geometry":null},{"properties":{"status":1,"geo_score":0.0,"id":"aeakpv0opnbg","address":"664 New Loudon Road\rLatham, NY 12110","geo_precision":"unmatched"},"type":"Feature","geometry":null},{"properties":{"status":1,"geo_score":0.0,"id":"aeakpuxjknld","address":"725 White Plains Road\rScarsdale, NY 10583","geo_precision":"unmatched"},"type":"Feature","geometry":null},{"properties":{"status":1,"geo_score":0.0,"id":"aeakpuzyoh6l","address":"3088 Madison Road\rCincinnati, OH 45209","geo_precision":"unmatched"},"type":"Feature","geometry":null},{"properties":{"status":1,"geo_score":0.0,"id":"aeakpul0bz1t","address":"7888 Montgomery Rd\rCincinnati, OH 45236","geo_precision":"unmatched"},"type":"Feature","geometry":null},{"properties":{"status":1,"geo_score":0.0,"id":"aeakpulon0l6","address":"1920 Henderson Road\rColumbus, OH 43220","geo_precision":"unmatched"},"type":"Feature","geometry":null},{"properties":{"status":1,"geo_score":0.0,"id":"aeakpup304ey","address":"20233 Van Aken Blvd.\rShaker Heights, OH 44122","geo_precision":"unmatched"},"type":"Feature","geometry":null},{"properties":{"status":1,"geo_score":0.0,"id":"aeakpuw0fu7v","address":"3315 West Central Avenue\rToledo, OH 43606","geo_precision":"unmatched"},"type":"Feature","geometry":null},{"properties":{"status":1,"geo_score":0.0,"id":"aeakpup1ydz9","address":"7720 Voice of America Centre Drive\rWest Chester, OH 45069","geo_precision":"unmatched"},"type":"Feature","geometry":null},{"properties":{"status":1,"geo_score":0.0,"id":"aeakpuz7ta4h","address":"8015 S. Yale Avenue\rTulsa, OK 74136","geo_precision":"unmatched"},"type":"Feature","geometry":null},{"properties":{"status":1,"geo_score":0.0,"id":"aeakpul771pu","address":"3060 Center Valley Parkway\rCenter Valley, PA 18034","geo_precision":"unmatched"},"type":"Feature","geometry":null},{"properties":{"status":1,"geo_score":0.0,"id":"aeakpv119qhx","address":"925 Baltimore Pike\rGlen Mills, PA 19342","geo_precision":"unmatched"},"type":"Feature","geometry":null},{"properties":{"status":1,"geo_score":0.0,"id":"aeakpux6b1yf","address":"100 Welsh Road\rHorsham, PA 19044","geo_precision":"unmatched"},"type":"Feature","geometry":null},{"properties":{"status":1,"geo_score":0.0,"id":"aeakpuvu44wf","address":"1400 Whiskey Road\rAiken, SC 29801","geo_precision":"unmatched"},"type":"Feature","geometry":null},{"properties":{"status":1,"geo_score":0.0,"id":"aeakpuukuzvk","address":"4840 Forest Drive\rColumbia, SC 29206","geo_precision":"unmatched"},"type":"Feature","geometry":null},{"properties":{"status":1,"geo_score":0.0,"id":"aeakputxa5r6","address":"27 South Pleasantburg Drive\rGreenville, SC 29607","geo_precision":"unmatched"},"type":"Feature","geometry":null},{"properties":{"status":1,"geo_score":0.0,"id":"aeakpuxkm6mw","address":"890 William Hilton Pkwy\rHilton Head Island, SC 29928","geo_precision":"unmatched"},"type":"Feature","geometry":null},{"properties":{"status":1,"geo_score":0.0,"id":"aeakpup06va8","address":"11421-A Ocean Highway\rPawleys Island, SC 29585","geo_precision":"unmatched"},"type":"Feature","geometry":null},{"properties":{"status":1,"geo_score":0.0,"id":"aeakputr093f","address":"1200 East Main Street\rSpartanburg, SC 29307","geo_precision":"unmatched"},"type":"Feature","geometry":null},{"properties":{"status":1,"geo_score":0.0,"id":"aeakpur7z0o4","address":"235 Franklin Road\rBrentwood, TN 37027","geo_precision":"unmatched"},"type":"Feature","geometry":null},{"properties":{"status":1,"geo_score":0.0,"id":"aeakpv0o7i1u","address":"2288 Gunbarrel Road\rChattanooga, TN 37421","geo_precision":"unmatched"},"type":"Feature","geometry":null},{"properties":{"status":1,"geo_score":0.0,"id":"aeakpukra2hj","address":"11535 Kingston Pike\rFarragut, TN 37934","geo_precision":"unmatched"},"type":"Feature","geometry":null},{"properties":{"status":1,"geo_score":0.0,"id":"aeakpuou0y2u","address":"9375 Poplar Ave \rGermantown, TN 38138","geo_precision":"unmatched"},"type":"Feature","geometry":null},{"properties":{"status":1,"geo_score":0.0,"id":"aeakpux9qt9j","address":"421 N. State of Franklin Road\rJohnson City, TN 37601","geo_precision":"unmatched"},"type":"Feature","geometry":null},{"properties":{"status":1,"geo_score":0.0,"id":"aeakpunjb5xx","address":"4475 Kingston Pike\rKnoxville, TN 37919","geo_precision":"unmatched"},"type":"Feature","geometry":null},{"properties":{"status":1,"geo_score":0.0,"id":"aeakpuku378i","address":"835 S. White Station Road\rMemphis, TN 38117","geo_precision":"unmatched"},"type":"Feature","geometry":null},{"properties":{"status":1,"geo_score":0.0,"id":"aeakpulo9f6m","address":"100 Albemarle Square\rCharlottesville, VA 22901","geo_precision":"unmatched"},"type":"Feature","geometry":null},{"properties":{"status":1,"geo_score":0.0,"id":"aeakpuumqpiu","address":"1200 Huguenot Road\rMidlothian, VA 23113","geo_precision":"unmatched"},"type":"Feature","geometry":null},{"properties":{"status":1,"geo_score":0.0,"id":"aeakpuraa0gc","address":"12131 Jefferson Avenue\rNewport News, VA 23602","geo_precision":"unmatched"},"type":"Feature","geometry":null},{"properties":{"status":1,"geo_score":0.0,"id":"aeakputlvg8p","address":"1527 N. Parham Road\rRichmond, VA 23229","geo_precision":"unmatched"},"type":"Feature","geometry":null},{"properties":{"status":1,"geo_score":0.0,"id":"aeakpumbdr2t","address":"10 N. Nansemond Street\rRichmond, VA 23221","geo_precision":"unmatched"},"type":"Feature","geometry":null},{"properties":{"status":1,"geo_score":0.0,"id":"aeakpuvykao2","address":"2207 Colonial Ave SW\rRoanoke, VA 24015","geo_precision":"unmatched"},"type":"Feature","geometry":null},{"properties":{"status":1,"geo_score":0.0,"id":"aeakpurlisoo","address":"150 Branch Road SE\rVienna, VA 22180","geo_precision":"unmatched"},"type":"Feature","geometry":null},{"properties":{"status":1,"geo_score":0.0,"id":"aeakpuqtukth","address":"744 Hilltop North Shopping Ctr\rVirginia Beach, VA 23451","geo_precision":"unmatched"},"type":"Feature","geometry":null},{"properties":{"status":1,"geo_score":0.0,"id":"aeakpuov325f","address":"5231 Monticello Avenue\rWilliamsburg, VA 23188","geo_precision":"unmatched"},"type":"Feature","geometry":null},{"properties":{"status":1,"geo_score":0.0,"id":"aeakpuneinet","address":"15895 West Bluemound Rd.\rBrookfield, WI 53005","geo_precision":"unmatched"},"type":"Feature","geometry":null},{"properties":{"status":1,"geo_score":0.0,"id":"aeakpus5qjm9","address":"8705 N. Port Washington Road\rFox Point, WI 53217","geo_precision":"unmatched"},"type":"Feature","geometry":null},{"properties":{"status":2,"geo_score":0.0,"id":"aeakpuyqw8tc","address":"3680 King Street Alexandria, Va","geo_precision":"unmatched"},"type":"Feature","geometry":null},{"properties":{"status":2,"geo_score":0.0,"id":"aeakpul9c20o","address":"135th Street Overland Park, KS","geo_precision":"unmatched"},"type":"Feature","geometry":null},{"properties":{"status":2,"geo_score":0.0,"id":"aeakpv11eqef","address":"65 Marion Avenue Saratoga Springs NY","geo_precision":"unmatched"},"type":"Feature","geometry":null},{"properties":{"status":2,"geo_score":0.0,"id":"aeakpunb88sz","address":"4700 U.S. Highway 280 Birmingham Ala.","geo_precision":"unmatched"},"type":"Feature","geometry":null},{"properties":{"status":2,"geo_score":0.0,"id":"aeakpuw29a74","address":"Woodberry, NY","geo_precision":"unmatched"},"type":"Feature","geometry":null},{"properties":{"status":2,"geo_score":0.0,"id":"aeakpuspldax","address":"Sacramento California","geo_precision":"unmatched"},"type":"Feature","geometry":null},{"properties":{"status":2,"geo_score":0.0,"id":"aeakpux3r60f","address":"Charlottesville, Virginia","geo_precision":"unmatched"},"type":"Feature","geometry":null},{"properties":{"status":2,"geo_score":0.0,"id":"aeakpumk4rzb","address":"Ashburn, Va","geo_precision":"unmatched"},"type":"Feature","geometry":null},{"properties":{"status":2,"geo_score":0.0,"id":"aeakpus3once","address":"Pensacola, Florida","geo_precision":"unmatched"},"type":"Feature","geometry":null},{"properties":{"status":2,"geo_score":0.0,"id":"aeakpuyh446l","address":"Fishers, Indiana","geo_precision":"unmatched"},"type":"Feature","geometry":null},{"properties":{"status":2,"geo_score":0.0,"id":"aeakpv025zoc","address":"Laguna Hills, California","geo_precision":"unmatched"},"type":"Feature","geometry":null},{"properties":{"status":2,"geo_score":0.0,"id":"aeakpur29b62","address":"Mt. Lebanon, Pa","geo_precision":"unmatched"},"type":"Feature","geometry":null},{"properties":{"status":2,"geo_score":0.0,"id":"aeakpuvdfc1r","address":"Lynchburg, Virginia","geo_precision":"unmatched"},"type":"Feature","geometry":null},{"properties":{"status":2,"geo_score":0.0,"id":"aeakpukysoex","address":"Lincolnshire, Illinois","geo_precision":"unmatched"},"type":"Feature","geometry":null},{"properties":{"status":2,"geo_score":0.0,"id":"aeakpuolnhy7","address":"Delray Beach, Florida","geo_precision":"unmatched"},"type":"Feature","geometry":null},{"properties":{"status":2,"geo_score":0.0,"id":"aeakpupfhe09","address":"Daphne, Ala.","geo_precision":"unmatched"},"type":"Feature","geometry":null},{"properties":{"status":2,"geo_score":0.0,"id":"aeakpuvq5p0y","address":"Roseville, California","geo_precision":"unmatched"},"type":"Feature","geometry":null},{"properties":{"status":2,"geo_score":0.0,"id":"aeakpup3u4bg","address":"Athens, Georgia","geo_precision":"unmatched"},"type":"Feature","geometry":null},{"properties":{"status":2,"geo_score":0.0,"id":"aeakpuxq06e1","address":"Richmond, Virginia","geo_precision":"unmatched"},"type":"Feature","geometry":null},{"properties":{"status":2,"geo_score":0.0,"id":"aeakpuv8laq1","address":"Orlando, Florida","geo_precision":"unmatched"},"type":"Feature","geometry":null},{"properties":{"status":2,"geo_score":0.0,"id":"aeakpumg52ht","address":"Bradenton, Florida","geo_precision":"unmatched"},"type":"Feature","geometry":null},{"properties":{"status":2,"geo_score":0.0,"id":"aeakpunj11fl","address":"West Chester, Ohio","geo_precision":"unmatched"},"type":"Feature","geometry":null},{"properties":{"status":2,"geo_score":0.0,"id":"aeakputnq3iv","address":"New Orleans, La.","geo_precision":"unmatched"},"type":"Feature","geometry":null},{"properties":{"status":2,"geo_score":0.0,"id":"aeakpuwvcj6n","address":"Open Rogers, La.","geo_precision":"unmatched"},"type":"Feature","geometry":null},{"properties":{"status":2,"geo_score":0.0,"id":"aeakpuw99r1a","address":"Bedford, New Hampshire","geo_precision":"unmatched"},"type":"Feature","geometry":null},{"properties":{"status":2,"geo_score":0.0,"id":"aeakpupeqek0","address":"Wichita, Kansas","geo_precision":"unmatched"},"type":"Feature","geometry":null}],"is_temporal":false,"author":{"url":"","metadata":null,"contact_name":null,"contact_address":null,"source":null,"contact_phone":null},"source":"","pagination":{"sort":null,"start":0,"total":157,"limit":1000000},"state":"complete","tags":"","published":"2014-08-16T22:08:26-04:00","id":356528}