{"type":"FeatureCollection","data_type":"Dataset","url_type":null,"permissions":[{"permissions":{"download":true,"view":true},"group_id":"everyone"}],"classification":null,"title":"NK Fitters as of 4-13","count":287,"stream_id":357142,"contributor":{"url":"http://geocommons.com/users/72201","name":"tshone"},"data_attributes":null,"calculation_params":null,"icon_link":null,"link":"http://geocommons.com/overlays/357142.json","extent":[0.0,0.0,0.0,0.0],"geometry_types":[],"unique_name":null,"name":"NK Fitters as of 4-13","feature_count":287,"description":"","next_feature":null,"is_raster":false,"short_classification":"Y","stats":{},"features":[{"properties":{"city":"NEW YORK","state/prov":"NY","zip/postal":"10022","geo_score":0.0,"address 2":"SUITE 201","phone":"(212)355-5145","id":"aebfg5ql8y7x","practice":"BARRY FARKAS OD","address":"30 EAST 60TH ST","geo_precision":"unmatched"},"type":"Feature","geometry":null},{"properties":{"city":"MIAMI","state/prov":"FL","zip/postal":"33136","geo_score":0.0,"address 2":"ANNE BATES LEACH EYE HSPT","phone":"(305)326-6094","id":"aebfg623mcda","practice":"HOSPITAL CONTACT LENS SRV","address":"900 NW 17TH ST","geo_precision":"unmatched"},"type":"Feature","geometry":null},{"properties":{"city":"WALTHAM","state/prov":"MA","zip/postal":"02451","geo_score":0.0,"address 2":"1601 TRAPELO RD STE 184","phone":"(781)890-1023","id":"aebfg5ukwysd","practice":"TALAMO HATCH LASER EYE CONSULTANTS LLC","address":"KAREN L ZAR OD","geo_precision":"unmatched"},"type":"Feature","geometry":null},{"properties":{"city":"FAIRFIELD","state/prov":"NJ","zip/postal":"07004","geo_score":0.0,"address 2":null,"phone":"(973)439-3937","id":"aebfg61qj5kl","practice":"CORNEAL ASSOCIATES OF NEW JERSEY","address":"100 PASSIAC AVE STE 200","geo_precision":"unmatched"},"type":"Feature","geometry":null},{"properties":{"city":"DREXEL HILL","state/prov":"PA","zip/postal":"19026","geo_score":0.0,"address 2":"SUITE 101","phone":"(610)449-2540","id":"aebfg5ysnxfh","practice":"DR SCOTT EDMONDS OD","address":"3300 TOWNSHIP LINE ROAD","geo_precision":"unmatched"},"type":"Feature","geometry":null},{"properties":{"city":"DALLAS","state/prov":"TX","zip/postal":"75225","geo_score":0.0,"address 2":"SUITE 140","phone":"(214)739-8611","id":"aebfg5rh539e","practice":"INSIGHT COMPLETE EYE CARE","address":"8611 HILLCREST ROAD","geo_precision":"unmatched"},"type":"Feature","geometry":null},{"properties":{"city":"COLUMBIA","state/prov":"MD","zip/postal":"21044","geo_score":0.0,"address 2":"SUITE 205","phone":"(410)910-2330","id":"aebfg5yhfoon","practice":"WILMER EYE INSTITUTE","address":"10700 CHARTER DRIVE","geo_precision":"unmatched"},"type":"Feature","geometry":null},{"properties":{"city":"TACOMA","state/prov":"WA","zip/postal":"98431","geo_score":0.0,"address 2":"REC SEC BUILDING 9040 A","phone":"(253)968-2544","id":"aebfg636ift0","practice":"MADIGAN ARMY MEDICAL CENTER","address":"ATTN REFRACTIVE 7 SOUTH","geo_precision":"unmatched"},"type":"Feature","geometry":null},{"properties":{"city":"CARSON","state/prov":"CA","zip/postal":"90745","geo_score":0.0,"address 2":"SUITE A","phone":"(310)830-7584","id":"aebfg61l2qoe","practice":"DR GERRY GEE","address":"22015 SOUTH AVALON BLVD","geo_precision":"unmatched"},"type":"Feature","geometry":null},{"properties":{"city":"NEW YORK","state/prov":"NY","zip/postal":"10065","geo_score":0.0,"address 2":null,"phone":"(212)717-1500","id":"aebfg5si86vq","practice":"DEMETRA HAMAKIOTES OD","address":"135 E 65TH STREET","geo_precision":"unmatched"},"type":"Feature","geometry":null},{"properties":{"city":"WILLIAMSVILLE","state/prov":"NY","zip/postal":"14221","geo_score":0.0,"address 2":"6622 MAIN STREET STE 7","phone":"(716)631-9970","id":"aebfg62ukizb","practice":"DR JEFFREY CALHOUN OD","address":"ADVANCED EYE CARE CENTER","geo_precision":"unmatched"},"type":"Feature","geometry":null},{"properties":{"city":"SAN JAUAN","state/prov":"PR","zip/postal":"00918","geo_score":0.0,"address 2":"CAPITAL CENTER 306","phone":"(787)250-1746","id":"aebfg5wq5qt0","practice":"LILIA RIVERA MD","address":"239 AVE ARTERIAL HOSTOS","geo_precision":"unmatched"},"type":"Feature","geometry":null},{"properties":{"city":"ATLANTA","state/prov":"GA","zip/postal":"30342","geo_score":0.0,"address 2":"BLDG 1 SUITE 140","phone":"(404)531-9988","id":"aebfg5q22icm","practice":"GEORGIA EYEPARTNERS CNTR POINTE BUILDING","address":"1100 JOHNSON FERRY ROAD NE","geo_precision":"unmatched"},"type":"Feature","geometry":null},{"properties":{"city":"BROOKLYN","state/prov":"NY","zip/postal":"11219","geo_score":0.0,"address 2":"1320 52ND ST","phone":"(718)435-0220","id":"aebfg5pu3uhq","practice":"DR. THOMAS STEINMETZ","address":"COMPLETE EYE CARE","geo_precision":"unmatched"},"type":"Feature","geometry":null},{"properties":{"city":"TEANECK","state/prov":"NJ","zip/postal":"07666","geo_score":0.0,"address 2":null,"phone":"(201)883-0505","id":"aebfg5vjrh1m","practice":"THE CORNEA &amp; LASER EYE INSTITUTE","address":"300 FRANK W BURR BLVD","geo_precision":"unmatched"},"type":"Feature","geometry":null},{"properties":{"city":"ERIE","state/prov":"PA","zip/postal":"16507","geo_score":0.0,"address 2":"300 STATE ST  SUITE 202","phone":"(814)454-6517","id":"aebfg63mjjrl","practice":"BAYFRONT EYECARE","address":"BAYFRONT PROFESSIONAL BLDG","geo_precision":"unmatched"},"type":"Feature","geometry":null},{"properties":{"city":"ROCHESTER","state/prov":"NY","zip/postal":"14618","geo_score":0.0,"address 2":null,"phone":"(585)271-2990","id":"aebfg5pmgduw","practice":"VISIONARY EYE ASSOCIATES","address":"169 RUE DE VILLE","geo_precision":"unmatched"},"type":"Feature","geometry":null},{"properties":{"city":"SAN ANTONIO","state/prov":"TX","zip/postal":"78257","geo_score":0.0,"address 2":null,"phone":"(210)698-4473","id":"aebfg5prq9w1","practice":"PHILLIP ESTRADA MD","address":"14 WATERFORD GLEN","geo_precision":"unmatched"},"type":"Feature","geometry":null},{"properties":{"city":"PLEASANTON","state/prov":"CA","zip/postal":"94588","geo_score":0.0,"address 2":null,"phone":"(925)463-2150","id":"aebfg604i1pw","practice":"FOOTHILL OPTOMETRIC GROUP","address":"6155 STONERIDGE DRIVE SUITE 100","geo_precision":"unmatched"},"type":"Feature","geometry":null},{"properties":{"city":"DEARBORN","state/prov":"MI","zip/postal":"48126","geo_score":0.0,"address 2":"15001 MICHIGAN AVENUE","phone":"(313)581-7002","id":"aebfg5pxj0lo","practice":"M Y EYE CARE","address":"DR MICHAEL YOUNES","geo_precision":"unmatched"},"type":"Feature","geometry":null},{"properties":{"city":"LITTLETON","state/prov":"CO","zip/postal":"80120-4548","geo_score":0.0,"address 2":null,"phone":"(303)730-0404","id":"aebfg60i5bch","practice":"CORNEAL CONSULTANTS","address":"8381 SOUTH PARK LANE","geo_precision":"unmatched"},"type":"Feature","geometry":null},{"properties":{"city":"SAN DIEGO","state/prov":"CA","zip/postal":"92122","geo_score":0.0,"address 2":null,"phone":"(858)455-9950","id":"aebfg5qzi2s6","practice":"GORDON WEISS VISION INSTITUTE","address":"8910 UNIVERSITY CENTER LANE STE 800","geo_precision":"unmatched"},"type":"Feature","geometry":null},{"properties":{"city":"WEST ALLIS","state/prov":"WI","zip/postal":"53227","geo_score":0.0,"address 2":null,"phone":"(414)541-2100","id":"aebfg626hhyq","practice":"ZIEGLER &amp; LEFFINGWELL EYECARE","address":"2400 S 102ND STREET","geo_precision":"unmatched"},"type":"Feature","geometry":null},{"properties":{"city":"ROSLYN","state/prov":"NY","zip/postal":"11576","geo_score":0.0,"address 2":"SUITE 214","phone":"(516)365-4500","id":"aebfg62ps23a","practice":"FARKAS KASSALOW &amp; RESNICK","address":"1025 NORTHERN BLVD","geo_precision":"unmatched"},"type":"Feature","geometry":null},{"properties":{"city":"NEW YORK","state/prov":"NY","zip/postal":"10065","geo_score":0.0,"address 2":null,"phone":"(212)753-2020","id":"aebfg5ux6nss","practice":"DR BARRY BELGOROD","address":"115 E 61ST ST","geo_precision":"unmatched"},"type":"Feature","geometry":null},{"properties":{"city":"BEVERLY HILLS","state/prov":"CA","zip/postal":"90210","geo_score":0.0,"address 2":"SUITE 902","phone":"(310)860-1900","id":"aebfg5ytxa82","practice":"BOXER WACHLER VISION INSTITUTE","address":"465 N ROXBURY DRIVE","geo_precision":"unmatched"},"type":"Feature","geometry":null},{"properties":{"city":"WEST CHESTER","state/prov":"PA","zip/postal":"19380","geo_score":0.0,"address 2":"BLDG B STE 200","phone":"(610)696-1230","id":"aebfg5xyep0f","practice":"CHESTER COUNTY EYE CARE","address":"915 OLD FERNHILL RD","geo_precision":"unmatched"},"type":"Feature","geometry":null},{"properties":{"city":"MONTGOMERY","state/prov":"AL","zip/postal":"36116","geo_score":0.0,"address 2":null,"phone":"(334)323-1889","id":"aebfg5x3hh0z","practice":"MONTGOMERY EYE PHYSICIANS","address":"8131 SEATON PLACE","geo_precision":"unmatched"},"type":"Feature","geometry":null},{"properties":{"city":"MILWAUKEE","state/prov":"WI","zip/postal":"53202","geo_score":0.0,"address 2":null,"phone":"(414)271-2020","id":"aebfg5x2wjbe","practice":"MILWAUKEE EYE CARE ASSOCIATES","address":"1684 NORTH PROSPECT AVE","geo_precision":"unmatched"},"type":"Feature","geometry":null},{"properties":{"city":"EAST SYRACUSE","state/prov":"NY","zip/postal":"13057","geo_score":0.0,"address 2":null,"phone":"(315)432-0555","id":"aebfg5w22vc3","practice":"DR CHRISTOPHER SHIOMOS","address":"5000 BRITTONFIELD PKWY STE A102","geo_precision":"unmatched"},"type":"Feature","geometry":null},{"properties":{"city":"BOSTON","state/prov":"MA","zip/postal":"02215","geo_score":0.0,"address 2":"UNIT #2","phone":"(617)426-0370","id":"aebfg623op6n","practice":"KORB ASSOCIATES","address":"400 COMMONWEALTH AVENUE","geo_precision":"unmatched"},"type":"Feature","geometry":null},{"properties":{"city":"PROVIDENCE","state/prov":"RI","zip/postal":"02903","geo_score":0.0,"address 2":null,"phone":"(401)831-2015","id":"aebfg62ooj8c","practice":"DR DENNIS KARAMBELAS &amp; ASSOC","address":"295 SOUTH MAIN ST","geo_precision":"unmatched"},"type":"Feature","geometry":null},{"properties":{"city":"REDDING","state/prov":"CA","zip/postal":"96002","geo_score":0.0,"address 2":null,"phone":"(530)222-1233","id":"aebfg61k2zt4","practice":"MICHAEL R YOUNG OD","address":"841 HARTNELL AVE","geo_precision":"unmatched"},"type":"Feature","geometry":null},{"properties":{"city":"RENO","state/prov":"NV","zip/postal":"89521","geo_score":0.0,"address 2":"10583 DOUBLE R BLVD","phone":"(775)323-4391","id":"aebfg60feyww","practice":"DR AL DUFUR","address":"SOUTH MEADOWS VISION SOURCE","geo_precision":"unmatched"},"type":"Feature","geometry":null},{"properties":{"city":"SALT LAKE CITY","state/prov":"UT","zip/postal":"84132","geo_score":0.0,"address 2":"65 N MEDICAL DR","phone":"(801)581-2352","id":"aebfg64b3ylt","practice":"MORAN EYE CENTER","address":"HARALD OLAFSSON OD CONTACT LENS DEPT","geo_precision":"unmatched"},"type":"Feature","geometry":null},{"properties":{"city":"AUSTIN","state/prov":"TX","zip/postal":"78756","geo_score":0.0,"address 2":null,"phone":"(512)583-2020","id":"aebfg5sk2fdj","practice":"EYE PHYSICIANS OF AUSTIN","address":"5011 BURNET ROAD","geo_precision":"unmatched"},"type":"Feature","geometry":null},{"properties":{"city":"PADUCAH","state/prov":"KY","zip/postal":"42001","geo_score":0.0,"address 2":"SUITE 1","phone":"(270)443-2020","id":"aebfg5swfa1f","practice":"OPHTHALMOLOGY GROUP/KEENE OPTICAL","address":"1900 BROADWAY","geo_precision":"unmatched"},"type":"Feature","geometry":null},{"properties":{"city":"TORONTO","state/prov":"ONTARIO","zip/postal":"M2N 3A4","geo_score":0.0,"address 2":null,"phone":"(416)733-4444","id":"aebfg5vpv0m4","practice":"EYES ON SHEPPARD","address":"180 SHEPPARD AVENUE EAST","geo_precision":"unmatched"},"type":"Feature","geometry":null},{"properties":{"city":"AVONDALE","state/prov":"AZ","zip/postal":"85392","geo_score":0.0,"address 2":null,"phone":"(623)877-3007","id":"aebfg5y7jv0n","practice":"VISION WELLNESS","address":"10750 WEST MCDOWELL RD BLDG A #100","geo_precision":"unmatched"},"type":"Feature","geometry":null},{"properties":{"city":"BEAR","state/prov":"DE","zip/postal":"19701","geo_score":0.0,"address 2":null,"phone":"(302)832-1500","id":"aebfg60n48by","practice":"SIMON EYE ASSOCIATES","address":"116-118 FOX HUNT DR","geo_precision":"unmatched"},"type":"Feature","geometry":null},{"properties":{"city":"CHAPEL HILL","state/prov":"NC","zip/postal":"27599","geo_score":0.0,"address 2":"5151 BIOINFORMATICS 130 MASON FARM RD","phone":"(919)966-2067","id":"aebfg5uk0cyc","practice":"UNIV OF NC AT CHAPEL HILL","address":"OPHTHALMOLOGY DEPT","geo_precision":"unmatched"},"type":"Feature","geometry":null},{"properties":{"city":"BUFFALO","state/prov":"NY","zip/postal":"14209","geo_score":0.0,"address 2":null,"phone":"(716)881-7900","id":"aebfg5q5w43c","practice":"ROSS EYE INSTITUTE","address":"1176 MAIN STREET","geo_precision":"unmatched"},"type":"Feature","geometry":null},{"properties":{"city":"ATLANTA","state/prov":"GA","zip/postal":"30322","geo_score":0.0,"address 2":"1365B CLIFTON ROAD","phone":"(404)778-5896","id":"aebfg60ychmj","practice":"EMORY EYE CENTER","address":"CONTACT LENS DEPT","geo_precision":"unmatched"},"type":"Feature","geometry":null},{"properties":{"city":"OVERLAND PARK","state/prov":"KS","zip/postal":"66223","geo_score":0.0,"address 2":null,"phone":"(913)851-2010","id":"aebfg5qomtdk","practice":"SPEAK EYECARE","address":"8532 WEST 135TH STREET","geo_precision":"unmatched"},"type":"Feature","geometry":null},{"properties":{"city":"SCRANTON","state/prov":"PA","zip/postal":"18503","geo_score":0.0,"address 2":null,"phone":"(570)342-3145","id":"aebfg63p43qb","practice":"NORTHEASTERN EYE INSTITUTE","address":"200 MIFFLIN AVE","geo_precision":"unmatched"},"type":"Feature","geometry":null},{"properties":{"city":"SYRACUSE","state/prov":"NY","zip/postal":"13210","geo_score":0.0,"address 2":"1101 ERIE BLVD EAST","phone":"(315)422-0022","id":"aebfg5v69uq1","practice":"EYE CONSULTANTS OF SYRACUSE","address":"ATTN ANDREW TADDEO","geo_precision":"unmatched"},"type":"Feature","geometry":null},{"properties":{"city":"NEW YORK","state/prov":"NY","zip/postal":"10017","geo_score":0.0,"address 2":null,"phone":"(212)490-3937","id":"aebfg5sbg8b2","practice":"NEW YORK EYE SPECIALIST","address":"317 MADISON AVE SUITE 1215","geo_precision":"unmatched"},"type":"Feature","geometry":null},{"properties":{"city":"PHOENIX","state/prov":"AZ","zip/postal":"85041","geo_score":0.0,"address 2":"SUITE 182-413","phone":"(602)910-0069","id":"aebfg62ux2oq","practice":"CL EYE CARE","address":"2030 WEST BASELINE ROAD","geo_precision":"unmatched"},"type":"Feature","geometry":null},{"properties":{"city":"PLANO","state/prov":"TX","zip/postal":"75023","geo_score":0.0,"address 2":null,"phone":"(972)612-2015","id":"aebfg5zukagy","practice":"FIRST EYE CARE","address":"2313 W PARKER RD","geo_precision":"unmatched"},"type":"Feature","geometry":null},{"properties":{"city":"BECKLEY","state/prov":"WV","zip/postal":"25801","geo_score":0.0,"address 2":null,"phone":"(304)252-1299","id":"aebfg621qvz1","practice":"BECKLEY VISION CENTER","address":"1928 HARPER RD","geo_precision":"unmatched"},"type":"Feature","geometry":null},{"properties":{"city":"GLENSIDE","state/prov":"PA","zip/postal":"19038","geo_score":0.0,"address 2":null,"phone":"(215)576-1321","id":"aebfg656y7su","practice":"JON MARBERGER OD","address":"2256 MT CARMEL AVE","geo_precision":"unmatched"},"type":"Feature","geometry":null},{"properties":{"city":"JACKSONVILLE","state/prov":"FL","zip/postal":"32204","geo_score":0.0,"address 2":null,"phone":"(904)356-7101","id":"aebfg62tvrlb","practice":"WOOD LANIER &amp; BOWMAN PA","address":"806 RIVERSIDE AVENUE","geo_precision":"unmatched"},"type":"Feature","geometry":null},{"properties":{"city":"SACRAMENTO","state/prov":"CA","zip/postal":"95825","geo_score":0.0,"address 2":null,"phone":"(916)925-5151","id":"aebfg63hi7lf","practice":"VISIONS OPTOMETRY","address":"535 FULTON AVE SUITE 1","geo_precision":"unmatched"},"type":"Feature","geometry":null},{"properties":{"city":"LETHBRIDGE","state/prov":"ALBERTA","zip/postal":"T1J 4C9","geo_score":0.0,"address 2":"200 FOURTH AVE SOUTH","phone":"(403)327-5035","id":"aebfg5sm1e7k","practice":"DR SHANE FERGUSON","address":"#240 LETHBRIDGE CENTER MALL","geo_precision":"unmatched"},"type":"Feature","geometry":null},{"properties":{"city":"ROANOKE","state/prov":"VA","zip/postal":"24014","geo_score":0.0,"address 2":null,"phone":"(540)855-5100","id":"aebfg5rydn58","practice":"VISTAR EYE CENTER","address":"3320 FRANKLIN RD SW","geo_precision":"unmatched"},"type":"Feature","geometry":null},{"properties":{"city":"CHEVY CHASE","state/prov":"MD","zip/postal":"20815","geo_score":0.0,"address 2":"SUITE 950","phone":"(301)654-5114","id":"aebfg5w38ued","practice":"WASHINGTON EYE PHYSICIANS","address":"5454 WISCONSIN AVENUE","geo_precision":"unmatched"},"type":"Feature","geometry":null},{"properties":{"city":"CHARLESTON","state/prov":"SC","zip/postal":"29407","geo_score":0.0,"address 2":"1470 TOBIAS GADSON BLVD STE 115","phone":"(843)556-2020","id":"aebfg5wp55ug","practice":"DRAISIN VISION GROUP","address":"DR NEIL DRAISIN","geo_precision":"unmatched"},"type":"Feature","geometry":null},{"properties":{"city":"WAITE PARK","state/prov":"MN","zip/postal":"56387","geo_score":0.0,"address 2":null,"phone":"(320)253-0365","id":"aebfg60qoj31","practice":"INSIGHT EYE CARE","address":"206 WEST DIVISION STREET","geo_precision":"unmatched"},"type":"Feature","geometry":null},{"properties":{"city":"FLEMINGTON","state/prov":"NJ","zip/postal":"08822","geo_score":0.0,"address 2":null,"phone":"(908)806-8882","id":"aebfg5wzn3hj","practice":"ALLIED VISION SERVICES","address":"14 STATE ROUTE 31","geo_precision":"unmatched"},"type":"Feature","geometry":null},{"properties":{"city":"OKLAHOMA CITY","state/prov":"OK","zip/postal":"73104","geo_score":0.0,"address 2":"608 STANTON L YOUNG BLVD","phone":"(405)271-6084","id":"aebfg5w5c7kq","practice":"DEAN A MCGEE EYE INSTITUTE","address":"JEAN ANN VICKERY FCLSA","geo_precision":"unmatched"},"type":"Feature","geometry":null},{"properties":{"city":"PENSACOLA","state/prov":"FL","zip/postal":"32506","geo_score":0.0,"address 2":null,"phone":"(850)453-4373","id":"aebfg61jwrp3","practice":"DR JAMES ANDREWS","address":"5062 MOBILE HWY","geo_precision":"unmatched"},"type":"Feature","geometry":null},{"properties":{"city":"ROBBINSVILLE","state/prov":"NJ","zip/postal":"08691","geo_score":0.0,"address 2":null,"phone":"(609)448-4872","id":"aebfg5zwnd67","practice":"ALLIED VISION SERVICES","address":"1004 WASHINGTON BLVD","geo_precision":"unmatched"},"type":"Feature","geometry":null},{"properties":{"city":"PANAMA CITY","state/prov":"FL","zip/postal":"32405","geo_score":0.0,"address 2":null,"phone":"(850)522-7953","id":"aebfg63ddmd4","practice":"EYE CENTER OF NORTH FLORIDA","address":"2500 MARTIN LUTHER KING JR BLVD","geo_precision":"unmatched"},"type":"Feature","geometry":null},{"properties":{"city":"NEWPORT BEACH","state/prov":"CA","zip/postal":"92663","geo_score":0.0,"address 2":null,"phone":"(949)650-9060","id":"aebfg5spjxer","practice":"OLD NEWPORT EYE","address":"522 OLD NEWPORT RD","geo_precision":"unmatched"},"type":"Feature","geometry":null},{"properties":{"city":"BILLINGS","state/prov":"MT","zip/postal":"59101","geo_score":0.0,"address 2":null,"phone":"(406)252-5681","id":"aebfg5utrnm8","practice":"EYE PHYSICIANS AND SURGEONS","address":"1221 N 26TH STREET","geo_precision":"unmatched"},"type":"Feature","geometry":null},{"properties":{"city":"FREEHOLD","state/prov":"NJ","zip/postal":"07728","geo_score":0.0,"address 2":null,"phone":"(732)462-8707","id":"aebfg61glkgm","practice":"GENESIS EYEWEAR","address":"500 WEST MAIN STREET","geo_precision":"unmatched"},"type":"Feature","geometry":null},{"properties":{"city":"DEERFIELD","state/prov":"IL","zip/postal":"60015","geo_score":0.0,"address 2":"360 S WAUKEGAN RD STE A","phone":"(847)412-0311","id":"aebfg5weygsh","practice":"NORTH SUBURBAN VISION CONSULTANTS LTD","address":"BARRY EIDEN OD","geo_precision":"unmatched"},"type":"Feature","geometry":null},{"properties":{"city":"HOPEWELL","state/prov":"NJ","zip/postal":"08525","geo_score":0.0,"address 2":"84 EAST BROAD ST","phone":"(609)466-0055","id":"aebfg5qq1ehk","practice":"HOPEWELL EYE ASSOCIATES","address":"DR KENNETH DANIELS","geo_precision":"unmatched"},"type":"Feature","geometry":null},{"properties":{"city":"CHARLOTTE","state/prov":"NC","zip/postal":"28226","geo_score":0.0,"address 2":null,"phone":"(704)541-0468","id":"aebfg60ifpos","practice":"VISION CARE ASSOCIATES","address":"3219 PINEVILLE MATHEWS RD","geo_precision":"unmatched"},"type":"Feature","geometry":null},{"properties":{"city":"SANDUSKY","state/prov":"OH","zip/postal":"44870","geo_score":0.0,"address 2":"2600 HAYES AVE","phone":"(419)625-6181","id":"aebfg5yvgbrt","practice":"PARSCHAUER EYE CENTER","address":"ATTN: SUE BLATNIK","geo_precision":"unmatched"},"type":"Feature","geometry":null},{"properties":{"city":"SPRINGFIELD","state/prov":"IL","zip/postal":"62703","geo_score":0.0,"address 2":"1025 SOUTH 6TH ST","phone":"(217)528-7541","id":"aebfg5yaq1dm","practice":"SPRINGFIELD CLINIC","address":"EYE INSTITUTE DR KIM KRAGER OD","geo_precision":"unmatched"},"type":"Feature","geometry":null},{"properties":{"city":"CALGARY","state/prov":"ALBERTA","zip/postal":"T2J 3V1","geo_score":0.0,"address 2":"#83 100 ANDERSON RD SE","phone":"(403)509-4830","id":"aebfg5ypugge","practice":"DR DONALD BISHOP O D","address":"DR BISHOP &amp; ASSOCIATES","geo_precision":"unmatched"},"type":"Feature","geometry":null},{"properties":{"city":"RENO","state/prov":"NV","zip/postal":"89509","geo_score":0.0,"address 2":null,"phone":"(775)329-1331","id":"aebfg5yorasx","practice":"ERIC KROLL OD","address":"118 CALIFORNIA AVE","geo_precision":"unmatched"},"type":"Feature","geometry":null},{"properties":{"city":"SACRAMENTO","state/prov":"CA","zip/postal":"95825","geo_score":0.0,"address 2":null,"phone":"(916)734-4643","id":"aebfg5va49bl","practice":"UC DAVIS EYE CLINIC","address":"77 CADILLAC DR STE 101","geo_precision":"unmatched"},"type":"Feature","geometry":null},{"properties":{"city":"COLORADO SPRINGS","state/prov":"CO","zip/postal":"80907","geo_score":0.0,"address 2":null,"phone":"(719)636-3937","id":"aebfg5wmar8g","practice":"COLORADO EYE ASSOCIATES","address":"2920 N CASCADE","geo_precision":"unmatched"},"type":"Feature","geometry":null},{"properties":{"city":"DALLAS","state/prov":"TX","zip/postal":"75225","geo_score":0.0,"address 2":"SUITE 216","phone":"(214)987-2020","id":"aebfg5zae7sq","practice":"DRS FAGADAU &amp; HAWK MD","address":"6131 LUTHER LANE","geo_precision":"unmatched"},"type":"Feature","geometry":null},{"properties":{"city":"GLOVERSVILLE","state/prov":"NY","zip/postal":"12078","geo_score":0.0,"address 2":null,"phone":"(518)725-5416","id":"aebfg5vm5gqb","practice":"DR'S MATTISON &amp; ROJEK","address":"11 CHURCH STREET","geo_precision":"unmatched"},"type":"Feature","geometry":null},{"properties":{"city":"WATERFORD","state/prov":"CT","zip/postal":"06385","geo_score":0.0,"address 2":null,"phone":"(860)442-5058","id":"aebfg5u7dx5i","practice":"DR MARY BEAULIEU OD","address":"131 BOSTON POST RD","geo_precision":"unmatched"},"type":"Feature","geometry":null},{"properties":{"city":"CITRUS HEIGHTS","state/prov":"CA","zip/postal":"95621","geo_score":0.0,"address 2":"5959 GREENBACK LN STE 130","phone":"(916)726-1818","id":"aebfg5unibbt","practice":"EYE CENTER OPTOMETRICS","address":"DRS FURST &amp; LEE","geo_precision":"unmatched"},"type":"Feature","geometry":null},{"properties":{"city":"TALLMADGE","state/prov":"OH","zip/postal":"44278","geo_score":0.0,"address 2":"518 WEST AVENUE","phone":"(330)630-9699","id":"aebfg64ga57k","practice":"NOVUS CLINIC","address":"DR JERRY SUDE","geo_precision":"unmatched"},"type":"Feature","geometry":null},{"properties":{"city":"PRINCETON","state/prov":"NJ","zip/postal":"08540","geo_score":0.0,"address 2":"SUITE A 15","phone":"(609)924-3567","id":"aebfg5vf0ezc","practice":"PRINCETON EYE CARE ASSOC","address":"601 EWING STREET","geo_precision":"unmatched"},"type":"Feature","geometry":null},{"properties":{"city":"EUGENE","state/prov":"OR","zip/postal":"97401","geo_score":0.0,"address 2":null,"phone":"(541)343-5000","id":"aebfg634z5l8","practice":"PACIFIC CLEARVISION","address":"1125 DARLENE LANE SUITE 100","geo_precision":"unmatched"},"type":"Feature","geometry":null},{"properties":{"city":"VOORHEES","state/prov":"NJ","zip/postal":"08043","geo_score":0.0,"address 2":"SUITE 303","phone":"(856)751-0220","id":"aebfg60u0z9x","practice":"GUBMAN EYE ASSOCIATES","address":"2 SHEPHARD ROAD","geo_precision":"unmatched"},"type":"Feature","geometry":null},{"properties":{"city":"FULLERTON","state/prov":"CA","zip/postal":"92833","geo_score":0.0,"address 2":"AMERIGE HEIGHTS TOWN CENTER","phone":"(714)992-8020","id":"aebfg5t3rnpc","practice":"FOCAL POINT OPTOMETRY","address":"1909 W MALVERN AVE","geo_precision":"unmatched"},"type":"Feature","geometry":null},{"properties":{"city":"HOUSTON","state/prov":"TX","zip/postal":"77039","geo_score":0.0,"address 2":null,"phone":"(281)449-7400","id":"aebfg5sdbfq0","practice":"VISION SOURCE ALDINE","address":"5164 ALDINE MAIL RT","geo_precision":"unmatched"},"type":"Feature","geometry":null},{"properties":{"city":"CINCINNATI","state/prov":"OH","zip/postal":"45214","geo_score":0.0,"address 2":null,"phone":"(513)921-5590","id":"aebfg5w2jp3t","practice":"THOMA &amp; SUTTON EYECARE PROFESSIONALS","address":"2130 OSTERFELD AVE","geo_precision":"unmatched"},"type":"Feature","geometry":null},{"properties":{"city":"SAN DIEGO","state/prov":"CA","zip/postal":"92129","geo_score":0.0,"address 2":"SUITE E","phone":"(858)484-1500","id":"aebfg5z6vst1","practice":"CARMEL MOUNTAIN VISION CARE","address":"9320 CARMEL MOUNTAIN RD","geo_precision":"unmatched"},"type":"Feature","geometry":null},{"properties":{"city":"CANYON","state/prov":"TX","zip/postal":"79015","geo_score":0.0,"address 2":null,"phone":"(806)655-7748","id":"aebfg5yy321h","practice":"ADVANCED EYECARE CANYON","address":"1801 FOURTH AVENUE","geo_precision":"unmatched"},"type":"Feature","geometry":null},{"properties":{"city":"OTTAWA","state/prov":"ONTARIO","zip/postal":"K1R 7S8","geo_score":0.0,"address 2":"SUITE 216","phone":"(613)238-5960","id":"aebfg60rhe67","practice":"THE CONTACT LENS DEPARTMENT","address":"350 SPARKS STREET","geo_precision":"unmatched"},"type":"Feature","geometry":null},{"properties":{"city":"ROCHESTER","state/prov":"NY","zip/postal":"14624","geo_score":0.0,"address 2":null,"phone":"(585)328-0153","id":"aebfg5sz6fvc","practice":"CORNERSTONE EYE ASSOC &amp; LASER","address":"2300 BUFFALO RD BLDG 700","geo_precision":"unmatched"},"type":"Feature","geometry":null},{"properties":{"city":"COLUMBUS","state/prov":"OH","zip/postal":"43215","geo_score":0.0,"address 2":"SUITE 320","phone":"(614)228-4500","id":"aebfg65a2m6w","practice":"ARENA EYE SURGEONS","address":"262 NEIL AVE","geo_precision":"unmatched"},"type":"Feature","geometry":null},{"properties":{"city":"LONDON","state/prov":"ONTARIO","zip/postal":"N6A 4V2","geo_score":0.0,"address 2":"ROOM B1-046","phone":"(519)646-6229","id":"aebfg61x387b","practice":"ALEXANDER MAO OD","address":"268 GROSVENOR STREET","geo_precision":"unmatched"},"type":"Feature","geometry":null},{"properties":{"city":"ENGLEWOOD","state/prov":"OH","zip/postal":"45322","geo_score":0.0,"address 2":null,"phone":"(937)836-3041","id":"aebfg5pr2gqc","practice":"NORTH WEST OPTOMETRY","address":"639 WEST NATIONAL ROAD","geo_precision":"unmatched"},"type":"Feature","geometry":null},{"properties":{"city":"CORAOPOLIS","state/prov":"PA","zip/postal":"15108","geo_score":0.0,"address 2":null,"phone":"(412)264-8830","id":"aebfg5wn42nf","practice":"DRS MARK &amp; NOAH EGER ODS","address":"1501 STATE AVENUE","geo_precision":"unmatched"},"type":"Feature","geometry":null},{"properties":{"city":"ALLENTOWN","state/prov":"PA","zip/postal":"18102","geo_score":0.0,"address 2":null,"phone":"(610)434-1371","id":"aebfg5uhgpx3","practice":"I.N. FEDORIW OD","address":"1320 HAMILTON STREET","geo_precision":"unmatched"},"type":"Feature","geometry":null},{"properties":{"city":"INDIANAPOLIS","state/prov":"IN","zip/postal":"46216","geo_score":0.0,"address 2":null,"phone":"(317)254-6480","id":"aebfg65um496","practice":"OSSIP OPTOMETRY","address":"5455 HARRISON PARK LANE","geo_precision":"unmatched"},"type":"Feature","geometry":null},{"properties":{"city":"FARIBAULT","state/prov":"MN","zip/postal":"55021","geo_score":0.0,"address 2":null,"phone":"(507)332-9900","id":"aebfg5tfnbq7","practice":"RICHIE EYE CLINIC","address":"1575 20TH ST SW","geo_precision":"unmatched"},"type":"Feature","geometry":null},{"properties":{"city":"ROCHESTER","state/prov":"NY","zip/postal":"14642","geo_score":0.0,"address 2":null,"phone":"(585)275-3446","id":"aebfg65gzpcl","practice":"FLAUM EYE INSTITUTE UNIV OF ROCHESTER","address":"601 ELMWOOD AVENUE","geo_precision":"unmatched"},"type":"Feature","geometry":null},{"properties":{"city":"WYOMISSING","state/prov":"PA","zip/postal":"19610","geo_score":0.0,"address 2":null,"phone":"(610)374-3134","id":"aebfg63k56co","practice":"WYOMISSING OPTOMETRIC CENTER","address":"50 BERKSHIRE COURT","geo_precision":"unmatched"},"type":"Feature","geometry":null},{"properties":{"city":"ALBUQUERQUE","state/prov":"NM","zip/postal":"87111","geo_score":0.0,"address 2":null,"phone":"(505)298-2020","id":"aebfg603lrcd","practice":"SANDIA VISION CLINIC","address":"3701 EUBANK NE","geo_precision":"unmatched"},"type":"Feature","geometry":null},{"properties":{"city":"ORLANDO","state/prov":"FL","zip/postal":"32803","geo_score":0.0,"address 2":null,"phone":"(407)841-6220","id":"aebfg61dtiop","practice":"DR JACK YAGER","address":"214 EAST MARKS ST","geo_precision":"unmatched"},"type":"Feature","geometry":null},{"properties":{"city":"DELMAR","state/prov":"NY","zip/postal":"12054","geo_score":0.0,"address 2":"228 DELAWARE AVE","phone":"(518)439-7012","id":"aebfg5wgujnq","practice":"BUENAUS OPTICIANS INC","address":"ATTN: MIKE BUENAU","geo_precision":"unmatched"},"type":"Feature","geometry":null},{"properties":{"city":"FORT WAYNE","state/prov":"IN","zip/postal":"46804","geo_score":0.0,"address 2":"6208 B CONSTITUTION DR","phone":"(260)432-0575","id":"aebfg5r21w4t","practice":"DR LAURA WINDSOR","address":"LOW VISION CENTER OF FORT WAYNE","geo_precision":"unmatched"},"type":"Feature","geometry":null},{"properties":{"city":"LONDON","state/prov":"ONTARIO","zip/postal":"N6B 2V2","geo_score":0.0,"address 2":"SUITE 200","phone":"(519)679-6001","id":"aebfg5wulr97","practice":"VAN YMEREN &amp; TOWNSHEND OPTOMETRISTS","address":"600 COLBORNE STREET","geo_precision":"unmatched"},"type":"Feature","geometry":null},{"properties":{"city":"ATLANTA","state/prov":"GA","zip/postal":"30307","geo_score":0.0,"address 2":null,"phone":"(404)522-8886","id":"aebfg5ynnk4a","practice":"ATLANTA VISION OPTICAL","address":"1215 CAROLINE STREET","geo_precision":"unmatched"},"type":"Feature","geometry":null},{"properties":{"city":"DENVER","state/prov":"CO","zip/postal":"80220","geo_score":0.0,"address 2":null,"phone":"(720)987-9561","id":"aebfg5z0cezl","practice":"COMPREHENSIVE EYE CARE LLC","address":"625 IVY STREET","geo_precision":"unmatched"},"type":"Feature","geometry":null},{"properties":{"city":"SARATOGA SPRINGS","state/prov":"NY","zip/postal":"12866","geo_score":0.0,"address 2":null,"phone":"(518)584-2620","id":"aebfg622xiyu","practice":"DR DAVID ROJEK","address":"206 LAKE AVENUE","geo_precision":"unmatched"},"type":"Feature","geometry":null},{"properties":{"city":"PHILADELPHIA","state/prov":"PA","zip/postal":"19104","geo_score":0.0,"address 2":null,"phone":"(215)386-5953","id":"aebfg5xh80jh","practice":"MODERN EYE","address":"3419 WALNUT ST","geo_precision":"unmatched"},"type":"Feature","geometry":null},{"properties":{"city":"IOWA CITY","state/prov":"IA","zip/postal":"52242-1091","geo_score":0.0,"address 2":"200 HAWKINS DR","phone":"(319)356-7440","id":"aebfg5qkgpgz","practice":"UNIV OF IOWA DEPT OF OPHTHAMOLOGY","address":null,"geo_precision":"unmatched"},"type":"Feature","geometry":null},{"properties":{"city":"MARIETTA","state/prov":"GA","zip/postal":"30064","geo_score":0.0,"address 2":null,"phone":"(770)422-8002","id":"aebfg5u5nauo","practice":"ADVANCED EYE ASSOCIATES","address":"2645 DALLAS HIGHWAY STE 100","geo_precision":"unmatched"},"type":"Feature","geometry":null},{"properties":{"city":"SOUTHFIELD","state/prov":"MI","zip/postal":"48075","geo_score":0.0,"address 2":null,"phone":"(248)552-5453","id":"aebfg5x0mdol","practice":"DR BERNARD MILLER","address":"17330 NORTHLAND PARK COURT","geo_precision":"unmatched"},"type":"Feature","geometry":null},{"properties":{"city":"ANDOVER","state/prov":"MA","zip/postal":"01810","geo_score":0.0,"address 2":null,"phone":"(978)475-5252","id":"aebfg5vg34sk","practice":"DR RONALD WATANABE &amp; ASSOC","address":"15 CENTRAL STREET","geo_precision":"unmatched"},"type":"Feature","geometry":null},{"properties":{"city":"HERNDON","state/prov":"VA","zip/postal":"20170","geo_score":0.0,"address 2":null,"phone":"(703)471-7810","id":"aebfg5qpjov8","practice":"DR FINLEYS EYE CARE","address":"709 PINE ST","geo_precision":"unmatched"},"type":"Feature","geometry":null},{"properties":{"city":"BELMONT","state/prov":"MA","zip/postal":"02478","geo_score":0.0,"address 2":null,"phone":"(617)484-1414","id":"aebfg5xl4j5r","practice":"BENNETT FAMILY EYE CARE BLEMONT","address":"231 BELMONT ST","geo_precision":"unmatched"},"type":"Feature","geometry":null},{"properties":{"city":"CLEVELAND","state/prov":"OH","zip/postal":"44195","geo_score":0.0,"address 2":"CLINIC CENTER I20","phone":"(216)444-5890","id":"aebfg62qgyqd","practice":"CLEVELAND CLINIC","address":"9500 EUCLID AVENUE","geo_precision":"unmatched"},"type":"Feature","geometry":null},{"properties":{"city":"CANANDAIGUA","state/prov":"NY","zip/postal":"14424","geo_score":0.0,"address 2":null,"phone":"(585)394-2020","id":"aebfg5w5kutx","practice":"THE EYE CARE CENTER","address":"325 WEST STREET","geo_precision":"unmatched"},"type":"Feature","geometry":null},{"properties":{"city":"CHEEKTOWAGA","state/prov":"NY","zip/postal":"14225","geo_score":0.0,"address 2":null,"phone":"(716)684-1622","id":"aebfg62iuq8s","practice":"EYE CARE PROFESSIONALS OF WNY","address":"750 DICK ROAD","geo_precision":"unmatched"},"type":"Feature","geometry":null},{"properties":{"city":"CAMPBELL","state/prov":"CA","zip/postal":"95008","geo_score":0.0,"address 2":null,"phone":"(408)866-2020","id":"aebfg5t2e0vv","practice":"FAMILY EYE CARE","address":"338 EAST HAMILTON AVE","geo_precision":"unmatched"},"type":"Feature","geometry":null},{"properties":{"city":"KENNEWICK","state/prov":"WA","zip/postal":"99336","geo_score":0.0,"address 2":null,"phone":"(509)783-0667","id":"aebfg5ugjnnx","practice":"FAMILY EYECARE","address":"7903 W GRANDRIDGE RD STE A","geo_precision":"unmatched"},"type":"Feature","geometry":null},{"properties":{"city":"FLORENCE","state/prov":"AL","zip/postal":"35630","geo_score":0.0,"address 2":null,"phone":"(256)767-5522","id":"aebfg5r3wuhj","practice":"TOMSIK EYECARE","address":"318 E TENNESSEE ST","geo_precision":"unmatched"},"type":"Feature","geometry":null},{"properties":{"city":"EDEN","state/prov":"NC","zip/postal":"27288","geo_score":0.0,"address 2":"812 S VAN BUREN ROAD","phone":"(336)623-2020","id":"aebfg63orkca","practice":"DOCTORS VISION CENTER","address":"CHARLES KINNEY OD","geo_precision":"unmatched"},"type":"Feature","geometry":null},{"properties":{"city":"BLOOMFIELD","state/prov":"CT","zip/postal":"06002","geo_score":0.0,"address 2":null,"phone":"(860)286-5448","id":"aebfg61of572","practice":"PETER C. DONSHIK MD","address":"47 JOLLEY DR","geo_precision":"unmatched"},"type":"Feature","geometry":null},{"properties":{"city":"SNOHOMISH","state/prov":"WA","zip/postal":"98290","geo_score":0.0,"address 2":null,"phone":"(360)568-6666","id":"aebfg5wiem8k","practice":"EYE CARE CENTER OF SNOHOMISH","address":"415 AVENUE D","geo_precision":"unmatched"},"type":"Feature","geometry":null},{"properties":{"city":"LUBBOCK","state/prov":"TX","zip/postal":"79430-7217","geo_score":0.0,"address 2":"3601 4TH STREET MAIL STOP 7217","phone":"(806)743-9500","id":"aebfg5v7prbt","practice":"TEXAS TECH UNIVERSITY OPTICAL SHOP","address":"ATTN: MARGIE","geo_precision":"unmatched"},"type":"Feature","geometry":null},{"properties":{"city":"CANTON","state/prov":"OH","zip/postal":"44708","geo_score":0.0,"address 2":null,"phone":"(330)478-8996","id":"aebfg60hekfm","practice":"DR KALEEL J SHAHEEN OD","address":"4555 HILLS &amp; DALES RD NW","geo_precision":"unmatched"},"type":"Feature","geometry":null},{"properties":{"city":"OPELIKA","state/prov":"AL","zip/postal":"36801","geo_score":0.0,"address 2":"BUILDING 26","phone":"(334)749-1486","id":"aebfg5tr4cas","practice":"MEDICAL ARTS EYE CLINIC","address":"122 N 20TH ST","geo_precision":"unmatched"},"type":"Feature","geometry":null},{"properties":{"city":"HOUSTON","state/prov":"TX","zip/postal":"77056","geo_score":0.0,"address 2":"SUITE 780","phone":"(713)349-0224","id":"aebfg5zjvuxp","practice":"EBLING EYE CARE","address":"5177 RICHMOND AVE","geo_precision":"unmatched"},"type":"Feature","geometry":null},{"properties":{"city":"AKRON","state/prov":"OH","zip/postal":"44319","geo_score":0.0,"address 2":"SUITE B100","phone":"(330)785-5111","id":"aebfg608gsxi","practice":"LISA M TESTA OD INC.","address":"2383 S. MAIN STREET","geo_precision":"unmatched"},"type":"Feature","geometry":null},{"properties":{"city":"BOSTON","state/prov":"MA","zip/postal":"02215","geo_score":0.0,"address 2":"SUITE #2","phone":"(617)262-2020","id":"aebfg61qvy65","practice":"NEW ENGLAND EYE INSTITUTE","address":"930 COMMONWEALTH AVE","geo_precision":"unmatched"},"type":"Feature","geometry":null},{"properties":{"city":"SYRACUSE","state/prov":"NY","zip/postal":"13210","geo_score":0.0,"address 2":"612 UNIVERSITY AVENUE","phone":"(315)475-0186","id":"aebfg628dova","practice":"OCUTIQUE INC","address":"DR JIM HAMILTON","geo_precision":"unmatched"},"type":"Feature","geometry":null},{"properties":{"city":"WORLAND","state/prov":"WY","zip/postal":"82401","geo_score":0.0,"address 2":null,"phone":"(307)347-6141","id":"aebfg5t2qcs9","practice":"WORLAND VISION CLINIC","address":"820 COBURN AVE","geo_precision":"unmatched"},"type":"Feature","geometry":null},{"properties":{"city":"WINCHESTER","state/prov":"MA","zip/postal":"01890","geo_score":0.0,"address 2":"888 MAIN STREET","phone":"(781)729-4553","id":"aebfg5qph6cj","practice":"WINCHESTER OPTICAL","address":"MR JOHN F DEERING LDO","geo_precision":"unmatched"},"type":"Feature","geometry":null},{"properties":{"city":"SYMRNA","state/prov":"GA","zip/postal":"30080","geo_score":0.0,"address 2":null,"phone":"(678)842-9544","id":"aebfg5sq7svg","practice":"STEPHEN ROTHBLOOM OD LLC","address":"1655 SPRING ROAD","geo_precision":"unmatched"},"type":"Feature","geometry":null},{"properties":{"city":"CEDAR RAPIDS","state/prov":"IA","zip/postal":"52404","geo_score":0.0,"address 2":null,"phone":"(319)366-3500","id":"aebfg5pf9gud","practice":"DR FITZGERALD &amp; ASSOCIATES","address":"3225 WILLIAMS PKWY","geo_precision":"unmatched"},"type":"Feature","geometry":null},{"properties":{"city":"WAILUKU","state/prov":"HI","zip/postal":"96793","geo_score":0.0,"address 2":null,"phone":"(808)877-3984","id":"aebfg5wkg5zk","practice":"ALOHA EYE CLINIC","address":"450 HOOKAHI ST","geo_precision":"unmatched"},"type":"Feature","geometry":null},{"properties":{"city":"LEONIA","state/prov":"NJ","zip/postal":"07605","geo_score":0.0,"address 2":null,"phone":"(201)592-8989","id":"aebfg5w8zd4w","practice":"PALISADES OPTOMETRICS","address":"348 BROAD AVE","geo_precision":"unmatched"},"type":"Feature","geometry":null},{"properties":{"city":"GLENWOOD SPRINGS","state/prov":"CO","zip/postal":"81601","geo_score":0.0,"address 2":null,"phone":"(970)945-2020","id":"aebfg5tm97a5","practice":"20/20 EYE CARE","address":"3122 BLAKE AVENUE","geo_precision":"unmatched"},"type":"Feature","geometry":null},{"properties":{"city":"SPRINGFIELD","state/prov":"VA","zip/postal":"22152","geo_score":0.0,"address 2":null,"phone":"(703)451-6111","id":"aebfg5um0v15","practice":"EYE CONSULTANTS OF NORTHERN VIRGINIA","address":"8134 OLD KEENE MILL RD STE 300","geo_precision":"unmatched"},"type":"Feature","geometry":null},{"properties":{"city":"BELLEVUE","state/prov":"WA","zip/postal":"98005","geo_score":0.0,"address 2":null,"phone":"(425)747-2020","id":"aebfg5uudzfh","practice":"BELLEVUE VISION CLINIC","address":"13401 BEL-RED RD STE A4","geo_precision":"unmatched"},"type":"Feature","geometry":null},{"properties":{"city":"CONCORD","state/prov":"NH","zip/postal":"03301","geo_score":0.0,"address 2":"SUITE 100","phone":"(603)228-1104","id":"aebfg5uurlt1","practice":"EYE CENTER OF CONCORD","address":"2 PILLSBURY ST","geo_precision":"unmatched"},"type":"Feature","geometry":null},{"properties":{"city":"TORONTO","state/prov":"ONTARIO","zip/postal":"M8X 1B3","geo_score":0.0,"address 2":null,"phone":"(416)233-7273","id":"aebfg5tbftps","practice":"LENS DESIGN LTD","address":"2875 BLOOR STREET WEST","geo_precision":"unmatched"},"type":"Feature","geometry":null},{"properties":{"city":"DENVER","state/prov":"CO","zip/postal":"80246","geo_score":0.0,"address 2":"SUITE 201","phone":"(303)691-0505","id":"aebfg5wah6xt","practice":"UNIVERSITY EYE CENTER CHERRY CREEK","address":"4999 E KENTUCKY AVENUE","geo_precision":"unmatched"},"type":"Feature","geometry":null},{"properties":{"city":"WILMINGTON","state/prov":"DE","zip/postal":"19810","geo_score":0.0,"address 2":"SUITE A","phone":"(302)475-1000","id":"aebfg608x203","practice":"KUHWALD CONTACT LENS CO.","address":"2006 FOULK ROAD","geo_precision":"unmatched"},"type":"Feature","geometry":null},{"properties":{"city":"BEACHWOOD","state/prov":"OH","zip/postal":"44122","geo_score":0.0,"address 2":"SUITE 150","phone":"(216)839-0200","id":"aebfg5pz11td","practice":"WESTERN RESERVE VISION CARE INC","address":"3690 ORANGE PLACE","geo_precision":"unmatched"},"type":"Feature","geometry":null},{"properties":{"city":"SPRING HOUSE","state/prov":"PA","zip/postal":"19477","geo_score":0.0,"address 2":"P.O. BOX 75","phone":"(215)628-8799","id":"aebfg5yzu43g","practice":"DR CHRISTOPHER WEIDIG","address":"1005 PENLLYN PIKE","geo_precision":"unmatched"},"type":"Feature","geometry":null},{"properties":{"city":"WILLIAMSPORT","state/prov":"PA","zip/postal":"17701-6402","geo_score":0.0,"address 2":"567 EAST THIRD STREET","phone":"(570)323-8000","id":"aebfg5v7bljp","practice":"PRICE OPTICAL CO","address":"LUCAS CONTACT LENS LAB","geo_precision":"unmatched"},"type":"Feature","geometry":null},{"properties":{"city":"NAMPA","state/prov":"ID","zip/postal":"83651","geo_score":0.0,"address 2":null,"phone":"(208)467-1361","id":"aebfg65de5nd","practice":"EYECARE ASSOCIATES OF NAMPA","address":"310 2ND STREET SOUTH","geo_precision":"unmatched"},"type":"Feature","geometry":null},{"properties":{"city":"SMITHFIELD","state/prov":"RI","zip/postal":"02917","geo_score":0.0,"address 2":"SUITE 203","phone":"(401)349-4791","id":"aebfg5vp86vg","practice":"JOHN PUGLIESE O D","address":"41 SANDERSON RD","geo_precision":"unmatched"},"type":"Feature","geometry":null},{"properties":{"city":"MARMORA","state/prov":"NJ","zip/postal":"08223","geo_score":0.0,"address 2":null,"phone":"(609)390-9112","id":"aebfg5qq8yk6","practice":"PRITZ &amp; GRAY EYECARE","address":"295 ROUTE US 9 S","geo_precision":"unmatched"},"type":"Feature","geometry":null},{"properties":{"city":"MONROE TWP","state/prov":"NJ","zip/postal":"08831","geo_score":0.0,"address 2":"CORCORDIA MEDICAL ARTS BLDG","phone":"(609)655-8808","id":"aebfg5umd9lm","practice":"PRINCETON EYE GROUP","address":"1600 PERRINEVILLE ROAD","geo_precision":"unmatched"},"type":"Feature","geometry":null},{"properties":{"city":"WILMINGTON","state/prov":"NC","zip/postal":"28412","geo_score":0.0,"address 2":"SUITE B","phone":"(910)452-7225","id":"aebfg60z0iuk","practice":"CAPE FEAR EYE INSTITUTE","address":"5526B CAROLINA BEACH ROAD","geo_precision":"unmatched"},"type":"Feature","geometry":null},{"properties":{"city":"CHICAGO","state/prov":"IL","zip/postal":"60632","geo_score":0.0,"address 2":null,"phone":"(773)523-3160","id":"aebfg63v0nxq","practice":"GABRIEL EYE CARE","address":"4338 S ARCHER AVENUE","geo_precision":"unmatched"},"type":"Feature","geometry":null},{"properties":{"city":"WAIPAHU","state/prov":"HI","zip/postal":"96797-5677","geo_score":0.0,"address 2":"SUITE 103","phone":"(808)671-1656","id":"aebfg5vk02up","practice":"EYE CARE ASSOCIATES OF HAWAII","address":"94-849 LUMIAINA STREET","geo_precision":"unmatched"},"type":"Feature","geometry":null},{"properties":{"city":"PEMBROKES PINES","state/prov":"FL","zip/postal":"33024","geo_score":0.0,"address 2":"1732 NORTH UNIVERSITY DRIVE","phone":"(954)432-7711","id":"aebfg5t4x7jr","practice":"ROBERT A DAVIS OD","address":"THE EYE CARE CENTER","geo_precision":"unmatched"},"type":"Feature","geometry":null},{"properties":{"city":"EDGEWOOD","state/prov":"KY","zip/postal":"41017","geo_score":0.0,"address 2":null,"phone":"(859)341-0888","id":"aebfg5xd8m5p","practice":"EDGEWOOD EYE CENTER","address":"581 DUDLEY RD","geo_precision":"unmatched"},"type":"Feature","geometry":null},{"properties":{"city":"LOS ANGELES","state/prov":"CA","zip/postal":"90037","geo_score":0.0,"address 2":"3916 S BROADWAY","phone":"(323)234-9137","id":"aebfg5teor25","practice":"OPT CENTER OF LOS ANGELES","address":"DRS MATSUMOTO &amp; CARNEVALI","geo_precision":"unmatched"},"type":"Feature","geometry":null},{"properties":{"city":"ARLINGTON","state/prov":"VA","zip/postal":"22202","geo_score":0.0,"address 2":"SUITE C-1819","phone":"(703)413-1400","id":"aebfg5qnxt0z","practice":"NORTHERN VIRGINA DOCTORS OF OPTOMETRY","address":"1800 S BELL STREET","geo_precision":"unmatched"},"type":"Feature","geometry":null},{"properties":{"city":"GOODYEAR","state/prov":"AZ","zip/postal":"85338","geo_score":0.0,"address 2":"SUITE 108","phone":"(623)925-2121","id":"aebfg6184hzx","practice":"VISION WELLNESS","address":"15525 WEST ROOSEVELT ST","geo_precision":"unmatched"},"type":"Feature","geometry":null},{"properties":{"city":"OWENS MILLS","state/prov":"MD","zip/postal":"21131","geo_score":0.0,"address 2":null,"phone":"(410)218-0783","id":"aebfg634b5ol","practice":"EYECONSULTANTS OF MARYLAND","address":"21 CROSSROADS DRIVE","geo_precision":"unmatched"},"type":"Feature","geometry":null},{"properties":{"city":"LIVONIA","state/prov":"MI","zip/postal":"48152-1054","geo_score":0.0,"address 2":"19900 HAGGERTY RD STE 111","phone":"(734)432-7811","id":"aebfg62qhfqs","practice":"UNIV MICHIGAN CTR FOR SPECIALTY CARE","address":"MICHAEL J LIPSON OD FAAO","geo_precision":"unmatched"},"type":"Feature","geometry":null},{"properties":{"city":"MUSKEGON","state/prov":"MI","zip/postal":"49445","geo_score":0.0,"address 2":null,"phone":"(231)744-4580","id":"aebfg65ajuq1","practice":"SHORELINE VISION","address":"301 CENTER STREET","geo_precision":"unmatched"},"type":"Feature","geometry":null},{"properties":{"city":"SHEBOYGAN","state/prov":"WI","zip/postal":"53081","geo_score":0.0,"address 2":null,"phone":"(920)452-5400","id":"aebfg5qi540a","practice":"LARSON EYE CARE","address":"1442 N 31ST ST","geo_precision":"unmatched"},"type":"Feature","geometry":null},{"properties":{"city":"CHICAGO","state/prov":"IL","zip/postal":"60638","geo_score":0.0,"address 2":null,"phone":"(773)735-6090","id":"aebfg62iuubn","practice":"PRIMARY EYE CARE ASSOCIATES","address":"5460 S ARCHER AVENUE","geo_precision":"unmatched"},"type":"Feature","geometry":null},{"properties":{"city":"ENID","state/prov":"OK","zip/postal":"73701","geo_score":0.0,"address 2":null,"phone":"(580)233-4711","id":"aebfg5re06z7","practice":"ENID EYE INC","address":"615 E OKLAHOMA AVE STE #101","geo_precision":"unmatched"},"type":"Feature","geometry":null},{"properties":{"city":"SCOTTSDALE","state/prov":"AZ","zip/postal":"85251","geo_score":0.0,"address 2":"4441 N 75TH ST","phone":"(480)947-4349","id":"aebfg63fc9sh","practice":"EYECARE PLUS SCOTTSDALE","address":"DR MAURY KESSLER","geo_precision":"unmatched"},"type":"Feature","geometry":null},{"properties":{"city":"FREMONT","state/prov":"CA","zip/postal":"94538","geo_score":0.0,"address 2":"SUITE A","phone":"(510)792-9900","id":"aebfg5ycs3l6","practice":"FREMONT OPTOMETRIC VISION CARE","address":"3935 BEACON AVE","geo_precision":"unmatched"},"type":"Feature","geometry":null},{"properties":{"city":"TORONTO","state/prov":"ONTARIO","zip/postal":"M5T 2S8","geo_score":0.0,"address 2":"399 BATHURST ST MAIN FLR ATRIUM W WING","phone":"(416)603-5474","id":"aebfg63x7tgo","practice":"HARRISON OPTICAL","address":"THE TORONTO WESTERN HOSPITAL","geo_precision":"unmatched"},"type":"Feature","geometry":null},{"properties":{"city":"PRINCETON","state/prov":"NJ","zip/postal":"08540","geo_score":0.0,"address 2":null,"phone":"(609)921-9437","id":"aebfg5zk9c6m","practice":"THE PRINCETON EYE GROUP","address":"419 NORTH HARRISON STREET","geo_precision":"unmatched"},"type":"Feature","geometry":null},{"properties":{"city":"GARDEN CITY","state/prov":"NY","zip/postal":"11530","geo_score":0.0,"address 2":null,"phone":"(516)832-8000","id":"aebfg65gym74","practice":"STAHL EYE CENTER","address":"450 ENDO BLVD","geo_precision":"unmatched"},"type":"Feature","geometry":null},{"properties":{"city":"LONDON","state/prov":"ONTARIO","zip/postal":"N6G 1E2","geo_score":0.0,"address 2":null,"phone":"(519)673-0210","id":"aebfg63clhx8","practice":"DR MURRAY MCLEOD OD","address":"316 WHARNCLIFFE ROAD N","geo_precision":"unmatched"},"type":"Feature","geometry":null},{"properties":{"city":"TROY","state/prov":"AL","zip/postal":"36081","geo_score":0.0,"address 2":null,"phone":"(334)566-5658","id":"aebfg5r53d27","practice":"ADVANCED FAMILY EYE CARE","address":"502 N 3 NOTCH ST","geo_precision":"unmatched"},"type":"Feature","geometry":null},{"properties":{"city":"HARTFORD CITY","state/prov":"IN","zip/postal":"47348","geo_score":0.0,"address 2":null,"phone":"(765)348-2020","id":"aebfg6017vqd","practice":"THE EYE ASSOCIATES","address":"315 HUGGINS DR","geo_precision":"unmatched"},"type":"Feature","geometry":null},{"properties":{"city":"HOUSTON","state/prov":"TX","zip/postal":"77030","geo_score":0.0,"address 2":null,"phone":"(713)791-9494","id":"aebfg5zpjrun","practice":"EYE EXCELLENCE","address":"6624 FANNIN ST SUITE 2105","geo_precision":"unmatched"},"type":"Feature","geometry":null},{"properties":{"city":"RICHMOND HILL","state/prov":"GA","zip/postal":"31324","geo_score":0.0,"address 2":null,"phone":"(912)756-6091","id":"aebfg64ojb39","practice":"GEORGIA EYE INSTITUTE OF THE SE","address":"2429 HIGHWAY 17 SOUTH","geo_precision":"unmatched"},"type":"Feature","geometry":null},{"properties":{"city":"DENVER","state/prov":"CO","zip/postal":"80212","geo_score":0.0,"address 2":"5560 W 44TH AVE","phone":"(303)421-2424","id":"aebfg65bc622","practice":"I CARE VISION CENTER","address":"DR PARTRICK M FOWLER OD","geo_precision":"unmatched"},"type":"Feature","geometry":null},{"properties":{"city":"GREENVILLE","state/prov":"NC","zip/postal":"27834","geo_score":0.0,"address 2":"1840 W. ARLINGTON BLVD.","phone":"(252)752-2171","id":"aebfg611hn90","practice":"DOCTORS VISION CENTER","address":"JEFFREY STERLING OD","geo_precision":"unmatched"},"type":"Feature","geometry":null},{"properties":{"city":"ORCHARD PARK","state/prov":"NY","zip/postal":"14127","geo_score":0.0,"address 2":null,"phone":"(716)677-6500","id":"aebfg5x8wg2o","practice":"WESTERN NY OPTICAL CENTER","address":"300 STERLING DRIVE","geo_precision":"unmatched"},"type":"Feature","geometry":null},{"properties":{"city":"CLEVELAND","state/prov":"OH","zip/postal":"44106","geo_score":0.0,"address 2":"BOLWELL STE 3200","phone":"(216)844-5210","id":"aebfg5ze2n3v","practice":"UHMG - DEPT OF OPHTHALMOLOGY","address":"11100 EUGLID AVE","geo_precision":"unmatched"},"type":"Feature","geometry":null},{"properties":{"city":"TONAWANDA","state/prov":"NY","zip/postal":"14150","geo_score":0.0,"address 2":"1890 COLVIN BLVD","phone":"(716)836-4592","id":"aebfg5w54a84","practice":"DR RUSSELL G KNAPP","address":"EYE SIGHT MEDICAL CENTER","geo_precision":"unmatched"},"type":"Feature","geometry":null},{"properties":{"city":"MEMPHIS","state/prov":"TN","zip/postal":"38104","geo_score":0.0,"address 2":"1245 MADISON AVE","phone":"(901)722-3258","id":"aebfg60i7ayi","practice":"SOUTHERN COLLEGE OF OPTOMETRY","address":"CONTACT LENS CLINIC ATTN:LISA ANDERSON","geo_precision":"unmatched"},"type":"Feature","geometry":null},{"properties":{"city":"PORTLAND","state/prov":"OR","zip/postal":"97205","geo_score":0.0,"address 2":"511 SW 10TH AVENUE STE 500","phone":"(503)352-2500","id":"aebfg5w9fc2x","practice":"PACIFIC UNIVERSITY","address":"PACIFIC EYE CLINIC PORTLAND","geo_precision":"unmatched"},"type":"Feature","geometry":null},{"properties":{"city":"COLUMBIA","state/prov":"SC","zip/postal":"29203","geo_score":0.0,"address 2":"SUITE A","phone":"(803)741-2010","id":"aebfg5t0pwyb","practice":"OMEGA OPTICAL WHOLESALE","address":"8810 FARROW RD","geo_precision":"unmatched"},"type":"Feature","geometry":null},{"properties":{"city":"TULSA","state/prov":"OK","zip/postal":"74136","geo_score":0.0,"address 2":null,"phone":"(918)497-2002","id":"aebfg65umpc4","practice":"ADVANCED EYE CARE INC","address":"6351 EAST 67TH PLACE","geo_precision":"unmatched"},"type":"Feature","geometry":null},{"properties":{"city":"TRENTON","state/prov":"NJ","zip/postal":"08628","geo_score":0.0,"address 2":null,"phone":"(609)883-6500","id":"aebfg5qyw5yf","practice":"DR MICHAEL NEWMAN","address":"860 LOWER FERRY RD","geo_precision":"unmatched"},"type":"Feature","geometry":null},{"properties":{"city":"CROCKETT","state/prov":"TX","zip/postal":"75835","geo_score":0.0,"address 2":null,"phone":"(936)544-3763","id":"aebfg5tw46b6","practice":"CROCKETT EYE CENTER","address":"711 E GOLIAD","geo_precision":"unmatched"},"type":"Feature","geometry":null},{"properties":{"city":"BOALSBURG","state/prov":"PA","zip/postal":"16827","geo_score":0.0,"address 2":null,"phone":"(814)466-2020","id":"aebfg5xmg96v","practice":"DR HANLEN AND ASSOCIATES","address":"104 W. MAIN STREET","geo_precision":"unmatched"},"type":"Feature","geometry":null},{"properties":{"city":"OMAHA","state/prov":"NE","zip/postal":"68144","geo_score":0.0,"address 2":null,"phone":"(402)334-9100","id":"aebfg5ziabqf","practice":"EYE CARE WEST PC","address":"14760 W CENTER RD","geo_precision":"unmatched"},"type":"Feature","geometry":null},{"properties":{"city":"WINNIPEG","state/prov":"MANITOBA","zip/postal":"R3C 0L8","geo_score":0.0,"address 2":"302-414 GRAHAM AVE","phone":"(204)942-0838","id":"aebfg5yebdty","practice":"CONTACT LENS SERVICES","address":"HEATHER POWER OPTICIAN","geo_precision":"unmatched"},"type":"Feature","geometry":null},{"properties":{"city":"BROCKPORT","state/prov":"NY","zip/postal":"14420","geo_score":0.0,"address 2":null,"phone":"(585)637-2121","id":"aebfg5stxek3","practice":"BROCKPORT OPTOMETRY PC","address":"22 NORTH MAIN STREET","geo_precision":"unmatched"},"type":"Feature","geometry":null},{"properties":{"city":"SAFETY HARBOR","state/prov":"FL","zip/postal":"34695","geo_score":0.0,"address 2":null,"phone":"(727)784-3937","id":"aebfg61l2xer","practice":"SAFETY HARBOR OPTICAL","address":"330 MAIN STREET","geo_precision":"unmatched"},"type":"Feature","geometry":null},{"properties":{"city":"DICKSON","state/prov":"TN","zip/postal":"37055","geo_score":0.0,"address 2":"110 MATHIS DRIVE","phone":"(615)446-8089","id":"aebfg5psjbg6","practice":"DICKSON EYE HEALTH","address":"DICKSON PROFESSIONAL BLDG","geo_precision":"unmatched"},"type":"Feature","geometry":null},{"properties":{"city":"AMHERST","state/prov":"NY","zip/postal":"14226","geo_score":0.0,"address 2":null,"phone":"(716)833-2020","id":"aebfg5qpl9e4","practice":"EYECARE PROFESSIONALS WNY","address":"3364 SHERIDAN DR","geo_precision":"unmatched"},"type":"Feature","geometry":null},{"properties":{"city":"MERRICK","state/prov":"NY","zip/postal":"11566","geo_score":0.0,"address 2":null,"phone":"(516)546-3227","id":"aebfg62snimg","practice":"DR TERRY SCHEID OD","address":"2126 MERRICK MALL","geo_precision":"unmatched"},"type":"Feature","geometry":null},{"properties":{"city":"SOMERS","state/prov":"NY","zip/postal":"10589","geo_score":0.0,"address 2":"PO BOX 365","phone":"(914)277-5550","id":"aebfg5yt20nt","practice":"SOMERS EYE CENTER","address":"380 ROUTE 202","geo_precision":"unmatched"},"type":"Feature","geometry":null},{"properties":{"city":"BRIDGETON","state/prov":"NJ","zip/postal":"08302","geo_score":0.0,"address 2":null,"phone":"(856)455-5500","id":"aebfg5yxmwyp","practice":"SOUTH JERSEY EYE ASSOCIATES","address":"205 LAUREL HEIGHTS DRIVE","geo_precision":"unmatched"},"type":"Feature","geometry":null},{"properties":{"city":"LONGMONT","state/prov":"CO","zip/postal":"80501","geo_score":0.0,"address 2":null,"phone":"(303)772-6140","id":"aebfg652dho9","practice":"THIRD AVENUE EYECARE","address":"800 3RD AVENUE","geo_precision":"unmatched"},"type":"Feature","geometry":null},{"properties":{"city":"AMHERST","state/prov":"NY","zip/postal":"14226","geo_score":0.0,"address 2":null,"phone":"(716)832-3452","id":"aebfg5slmsp0","practice":"VISUALEYES","address":"3945 MAIN ST","geo_precision":"unmatched"},"type":"Feature","geometry":null},{"properties":{"city":"HAVELOCK","state/prov":"NC","zip/postal":"28532","geo_score":0.0,"address 2":null,"phone":"(252)447-2768","id":"aebfg64fmb18","practice":"DESMONE FAMILY EYE CARE","address":"306 EAST MAIN STREET","geo_precision":"unmatched"},"type":"Feature","geometry":null},{"properties":{"city":"LOUISVILLE","state/prov":"KY","zip/postal":"40222","geo_score":0.0,"address 2":null,"phone":"(502)423-8500","id":"aebfg5vcl065","practice":"GADDIE VISION CENTER","address":"7635 SHELBYVILLE RD","geo_precision":"unmatched"},"type":"Feature","geometry":null},{"properties":{"city":"LONG BEACH","state/prov":"CA","zip/postal":"90815","geo_score":0.0,"address 2":null,"phone":"(562)437-1276","id":"aebfg622v8av","practice":"TOMLIN EYE CARE","address":"4409 E LOS COYOTES DIAGONAL","geo_precision":"unmatched"},"type":"Feature","geometry":null},{"properties":{"city":"CHICAGO","state/prov":"IL","zip/postal":"60612","geo_score":0.0,"address 2":"STE 3154","phone":"(312)996-5410","id":"aebfg5z5g6p2","practice":"UIC CONTACT LENS SERVICE","address":"1855 W TAYLOR ST","geo_precision":"unmatched"},"type":"Feature","geometry":null},{"properties":{"city":"DANVERS","state/prov":"MA","zip/postal":"01923","geo_score":0.0,"address 2":null,"phone":"(978)777-0379","id":"aebfg64dpsvp","practice":"PARRELLI OPTICAL","address":"35 ELM ST","geo_precision":"unmatched"},"type":"Feature","geometry":null},{"properties":{"city":"GOODLETTSVILLE","state/prov":"TN","zip/postal":"37072","geo_score":0.0,"address 2":"SUITE 101","phone":"(615)851-7575","id":"aebfg5ptoc6c","practice":"WALTER CHOATE OD","address":"306 NORTH CREEK BLVD.","geo_precision":"unmatched"},"type":"Feature","geometry":null},{"properties":{"city":"ALDEN","state/prov":"NY","zip/postal":"14004","geo_score":0.0,"address 2":null,"phone":"(716)937-7373","id":"aebfg657llun","practice":"CREIGHTON OPTICAL","address":"13375 BROADWAY","geo_precision":"unmatched"},"type":"Feature","geometry":null},{"properties":{"city":"DELMAR","state/prov":"NY","zip/postal":"12054","geo_score":0.0,"address 2":null,"phone":"(518)439-6309","id":"aebfg63ze3pq","practice":"DINAPOLI OPTICIANS","address":"266 DELAWARE AVE","geo_precision":"unmatched"},"type":"Feature","geometry":null},{"properties":{"city":"TORONTO","state/prov":"ONTARIO","zip/postal":"M3C 1J4","geo_score":0.0,"address 2":"SUITE 310","phone":"(416)445-4738","id":"aebfg64okaes","practice":"STEVE SANGER","address":"310-20 WYNFORD DRIVE","geo_precision":"unmatched"},"type":"Feature","geometry":null},{"properties":{"city":"ETOBICOKE","state/prov":"ONTARIO","zip/postal":"M9W 4L6","geo_score":0.0,"address 2":null,"phone":"(416)740-8676","id":"aebfg647utgq","practice":"DR WARREN SAMUEL","address":"2291 KIPLING AVENUE","geo_precision":"unmatched"},"type":"Feature","geometry":null},{"properties":{"city":"TERRYTOWN","state/prov":"LA","zip/postal":"70056","geo_score":0.0,"address 2":"SUITE 9","phone":"(504)361-4446","id":"aebfg5snjbgk","practice":"SCOTT BLAHNIK OD","address":"93 PERRY PARKWAY","geo_precision":"unmatched"},"type":"Feature","geometry":null},{"properties":{"city":"PASADENA","state/prov":"MD","zip/postal":"21122","geo_score":0.0,"address 2":"SUITE 124","phone":"(410)768-0202","id":"aebfg5q14bei","practice":"LOOKING GLASS OPTICAL","address":"8028 RITCHIE HWY","geo_precision":"unmatched"},"type":"Feature","geometry":null},{"properties":{"city":"CALABASAS","state/prov":"CA","zip/postal":"91302","geo_score":0.0,"address 2":null,"phone":"(818)222-4393","id":"aebfg5u0ajvp","practice":"OPTOMETRICS OF CALABASAS","address":"4505 LAS VIRGENES RD SUITE 105","geo_precision":"unmatched"},"type":"Feature","geometry":null},{"properties":{"city":"WHITTIER","state/prov":"CA","zip/postal":"90606","geo_score":0.0,"address 2":"11412 WASHINGTON BLVD","phone":"(562)908-0510","id":"aebfg5ufcphd","practice":"DR STEVE PHUNG","address":"SPEX OPTOMETRY","geo_precision":"unmatched"},"type":"Feature","geometry":null},{"properties":{"city":"LOS ANGELES","state/prov":"CA","zip/postal":"90039","geo_score":0.0,"address 2":"4580 ELECTRONICS PLACE","phone":"(818)502-5133","id":"aebfg5wck86x","practice":"SOUTHERN CALIFORNIA PERMANENTE MED GROUP","address":"CONTACT LENS DEPT","geo_precision":"unmatched"},"type":"Feature","geometry":null},{"properties":{"city":"HAMPTON BAYS","state/prov":"NY","zip/postal":"11946","geo_score":0.0,"address 2":null,"phone":"(631)728-3132","id":"aebfg647rl5b","practice":"DR GLENN SEIFERT OD","address":"4 SPRINGVILLE RD.","geo_precision":"unmatched"},"type":"Feature","geometry":null},{"properties":{"city":"MCKINNEY","state/prov":"TX","zip/postal":"75070","geo_score":0.0,"address 2":null,"phone":"(972)542-0331","id":"aebfg5pg6q7r","practice":"ALAN UPCHURCH OD","address":"3705 ELDORADO PARK WAY","geo_precision":"unmatched"},"type":"Feature","geometry":null},{"properties":{"city":"DALLAS","state/prov":"TX","zip/postal":"75237","geo_score":0.0,"address 2":null,"phone":"(972)780-7199","id":"aebfg5t5p0vu","practice":"DR CRAIG THOMAS OD","address":"3900 WEST WHEATLAND RD","geo_precision":"unmatched"},"type":"Feature","geometry":null},{"properties":{"city":"PITTSFIELD","state/prov":"MA","zip/postal":"01201","geo_score":0.0,"address 2":null,"phone":"(413)499-3797","id":"aebfg5qn2gzz","practice":"DR JOHN P HERMAN","address":"217 SOUTH STREET","geo_precision":"unmatched"},"type":"Feature","geometry":null},{"properties":{"city":"WILMINGTON","state/prov":"DE","zip/postal":"19808-1652","geo_score":0.0,"address 2":"SUITE 102","phone":"(302)993-1300","id":"aebfg5xjx2ze","practice":"DELAWARE EYE SURGEONS","address":"2710 CENTERVILLE ROAD","geo_precision":"unmatched"},"type":"Feature","geometry":null},{"properties":{"city":"PHOENIX","state/prov":"MD","zip/postal":"21131","geo_score":0.0,"address 2":null,"phone":"(410)628-1510","id":"aebfg5pjb4rq","practice":"JACKSONVILLE EYE CARE","address":"33332 PAPER MILL ROAD","geo_precision":"unmatched"},"type":"Feature","geometry":null},{"properties":{"city":"ST PAUL","state/prov":"MN","zip/postal":"55113","geo_score":0.0,"address 2":null,"phone":"(651)488-6771","id":"aebfg5thx57n","practice":"KENNEDY EYE ASSOCIATES","address":"1790 N LEXINGTON","geo_precision":"unmatched"},"type":"Feature","geometry":null},{"properties":{"city":"WILLIAMSVILLE","state/prov":"NY","zip/postal":"14221","geo_score":0.0,"address 2":null,"phone":"(716)633-2203","id":"aebfg5v5y4al","practice":"LEGARRETA EYE CENTER","address":"1301 N FOREST RD","geo_precision":"unmatched"},"type":"Feature","geometry":null},{"properties":{"city":"FALLS CHURCH","state/prov":"VA","zip/postal":"22042","geo_score":0.0,"address 2":"7263-E ARLINGTON BLVD","phone":"(703)573-1200","id":"aebfg62r5krj","practice":"NORTHERN VIRGINIA DOCTORS OF OPTOMETRY","address":"LOEHMANNS PLAZA OFFICE","geo_precision":"unmatched"},"type":"Feature","geometry":null},{"properties":{"city":"BERKELEY","state/prov":"CA","zip/postal":"94720-2020","geo_score":0.0,"address 2":"200 MINOR HALL","phone":"(510)642-2020","id":"aebfg5q94eon","practice":"UC BERKELEY SCHOOL OF OPTOMETRY","address":"CONTACT LENS CLINIC","geo_precision":"unmatched"},"type":"Feature","geometry":null},{"properties":{"city":"VICTOR","state/prov":"NY","zip/postal":"14564","geo_score":0.0,"address 2":null,"phone":"(585)880-4818","id":"aebfg5wpgxyt","practice":"XTREMESIGHT","address":"274 W MAIN STREET","geo_precision":"unmatched"},"type":"Feature","geometry":null},{"properties":{"city":"WEST HARTFORD","state/prov":"CT","zip/postal":"06107","geo_score":0.0,"address 2":null,"phone":"(860)521-9230","id":"aebfg5pjsmiu","practice":"CONNECTICUT EYE CENTER PC","address":"639 PARK ROAD","geo_precision":"unmatched"},"type":"Feature","geometry":null},{"properties":{"city":"KENNESAW","state/prov":"GA","zip/postal":"30144","geo_score":0.0,"address 2":"SUITE H2","phone":"(770)428-8090","id":"aebfg5yzev4d","practice":"GEORGIA OPTOMETRY GROUP","address":"2700 TOWN CENTER DRIVE","geo_precision":"unmatched"},"type":"Feature","geometry":null},{"properties":{"city":"MOUNTAIN VIEW","state/prov":"CA","zip/postal":"94041","geo_score":0.0,"address 2":"495 CASTRO ST","phone":"(650)967-6649","id":"aebfg60m9uvd","practice":"MOUNTAIN VIEW OPTOMETRY AND CONTACT LENS","address":"CLINIC","geo_precision":"unmatched"},"type":"Feature","geometry":null},{"properties":{"city":"KALISPELL","state/prov":"MT","zip/postal":"59901","geo_score":0.0,"address 2":null,"phone":"(406)755-5171","id":"aebfg5wqgh88","practice":"BIG MOUNTAIN EYE CARE","address":"340 W CENTER ST STE B","geo_precision":"unmatched"},"type":"Feature","geometry":null},{"properties":{"city":"ANN ARBOR","state/prov":"MI","zip/postal":"48108","geo_score":0.0,"address 2":"324 BRIARWOOD CIRCLE","phone":"(734)994-1444","id":"aebfg60nc3ip","practice":"DR. STEVEN LUTZ","address":"ATTN: DESIREE AARON","geo_precision":"unmatched"},"type":"Feature","geometry":null},{"properties":{"city":"NEW YORK","state/prov":"NY","zip/postal":"10036","geo_score":0.0,"address 2":"33 WEST 42ND ST  8TH FLOOR","phone":"(212)938-4145","id":"aebfg61sealn","practice":"ANITA BARRINGTON","address":"SUNY COLLEGE OF OPTOMETRY CONT LENS","geo_precision":"unmatched"},"type":"Feature","geometry":null},{"properties":{"city":"MARKHAM","state/prov":"ONTARIO","zip/postal":"L3R 1N1","geo_score":0.0,"address 2":"UNIT 110","phone":"(905)513-1252","id":"aebfg5s35lvl","practice":"MARKHAM OPTOMETRIC CLINIC","address":"4997 HIGHWAY 7","geo_precision":"unmatched"},"type":"Feature","geometry":null},{"properties":{"city":"HUNTINGTON VALLEY","state/prov":"PA","zip/postal":"19006","geo_score":0.0,"address 2":null,"phone":"(215)357-9011","id":"aebfg5t6ssyy","practice":"VISUAL EYES","address":"1924 COUNTY LINE RD","geo_precision":"unmatched"},"type":"Feature","geometry":null},{"properties":{"city":"LOS ANGELES","state/prov":"CA","zip/postal":"90048","geo_score":0.0,"address 2":null,"phone":"(310)652-1133","id":"aebfg5ztmc6z","practice":"AMERICAN EYE INSTITUTE","address":"8635 W 3RD ST STE 390W","geo_precision":"unmatched"},"type":"Feature","geometry":null},{"properties":{"city":"BUFFALO","state/prov":"NY","zip/postal":"14215","geo_score":0.0,"address 2":null,"phone":"(716)862-6358","id":"aebfg5rgi1fb","practice":"BUFFALO VAMC (528/121)","address":"3495 BAILEY AVENUE","geo_precision":"unmatched"},"type":"Feature","geometry":null},{"properties":{"city":"SAN DIEGO","state/prov":"CA","zip/postal":"92123","geo_score":0.0,"address 2":"SUITE B","phone":"(858)278-4720","id":"aebfg5putl46","practice":"COMPLETE FAMILY VISION CARE","address":"5075 RUFFIN ROAD","geo_precision":"unmatched"},"type":"Feature","geometry":null},{"properties":{"city":"CHICAGO","state/prov":"IL","zip/postal":"60637","geo_score":0.0,"address 2":"5758 S MARYLAND AVE","phone":"(773)702-6823","id":"aebfg65vfiiy","practice":"UNIVERSITY OF CHICAGO","address":"DR LOUISE SCLAFANI","geo_precision":"unmatched"},"type":"Feature","geometry":null},{"properties":{"city":"WATERFORD","state/prov":"CT","zip/postal":"06385","geo_score":0.0,"address 2":null,"phone":"(860)442-5012","id":"aebfg61s3tyj","practice":"DR STEVEN RAPOPORT","address":"25 ROPE FERRY RD","geo_precision":"unmatched"},"type":"Feature","geometry":null},{"properties":{"city":"DEPEW","state/prov":"NY","zip/postal":"14043","geo_score":0.0,"address 2":null,"phone":"(716)656-2011","id":"aebfg60cex3c","practice":"EYE CARE PROFESSIONALS OF WNY","address":"4703 TRANSIT RD","geo_precision":"unmatched"},"type":"Feature","geometry":null},{"properties":{"city":"TOTOWA","state/prov":"NJ","zip/postal":"07512","geo_score":0.0,"address 2":null,"phone":"(973)389-0602","id":"aebfg5s8jg8m","practice":"FASHION CONTACTS","address":"20 STANFORD CT.","geo_precision":"unmatched"},"type":"Feature","geometry":null},{"properties":{"city":"MONTERY PARK","state/prov":"CA","zip/postal":"91754","geo_score":0.0,"address 2":null,"phone":"(626)570-8800","id":"aebfg61h7usy","practice":"DR BRIAN LEE","address":"500 S ATLANTIC BLVD STE A","geo_precision":"unmatched"},"type":"Feature","geometry":null},{"properties":{"city":"WILMINGTON","state/prov":"DE","zip/postal":"19806","geo_score":0.0,"address 2":null,"phone":"(302)998-3332","id":"aebfg5sibn3k","practice":"DR DENNIS MIRRA OD","address":"1207 N SCOTT ST","geo_precision":"unmatched"},"type":"Feature","geometry":null},{"properties":{"city":"VIENNA","state/prov":"VA","zip/postal":"22182","geo_score":0.0,"address 2":"SUITE 520","phone":"(703)847-8899","id":"aebfg5yxk7sp","practice":"MY EYE DOCTOR CORP OFFICES","address":"1950 OLD GALLOWS RD","geo_precision":"unmatched"},"type":"Feature","geometry":null},{"properties":{"city":"HATBORO","state/prov":"PA","zip/postal":"19040","geo_score":0.0,"address 2":null,"phone":"(215)672-4300","id":"aebfg5qnu9xb","practice":"OPHTHALMOLOGY PHYSICIANS &amp; SURGEONS PC","address":"331 N. YORK ROAD","geo_precision":"unmatched"},"type":"Feature","geometry":null},{"properties":{"city":"PHILADELPHIA","state/prov":"PA","zip/postal":"19141","geo_score":0.0,"address 2":"1201 WEST SPENCER STREET","phone":"(215)276-6000","id":"aebfg5uuxbbw","practice":"SALUS UNIVERSITY PCO EYE INSTITUTE","address":"ATTN: NORMA HAWK","geo_precision":"unmatched"},"type":"Feature","geometry":null},{"properties":{"city":"HOUSTON","state/prov":"TX","zip/postal":"77204","geo_score":0.0,"address 2":"505 J DAVIS ARMISTEAD BLDG H","phone":"(713)743-1956","id":"aebfg5tuvjkd","practice":"KATRINA PARKER OD","address":"UNIV OF HOUSTON COLLEGE OF OPTOMETRY","geo_precision":"unmatched"},"type":"Feature","geometry":null},{"properties":{"city":"SOMERSET","state/prov":"NJ","zip/postal":"08873","geo_score":0.0,"address 2":"SUITE 50","phone":"(732)565-9550","id":"aebfg63hzx27","practice":"PRINCETON EYE GROUP","address":"900 EASTON AVE","geo_precision":"unmatched"},"type":"Feature","geometry":null},{"properties":{"city":"FISHKILL","state/prov":"NY","zip/postal":"12524","geo_score":0.0,"address 2":null,"phone":"(845)896-6700","id":"aebfg64c7uf0","practice":"SOUTHERN DUTCHESS EYECARE","address":"969 MAIN STREET","geo_precision":"unmatched"},"type":"Feature","geometry":null},{"properties":{"city":"SILVERTON","state/prov":"OR","zip/postal":"97381","geo_score":0.0,"address 2":null,"phone":"(503)873-8619","id":"aebfg5zgetro","practice":"SILVER FALLS EYE CARE","address":"600 N FIRST STREET","geo_precision":"unmatched"},"type":"Feature","geometry":null},{"properties":{"city":"MORGANTOWN","state/prov":"WV","zip/postal":"26505","geo_score":0.0,"address 2":null,"phone":"(304)599-7034","id":"aebfg5won8wl","practice":"SPECTRUM OPTICAL","address":"1257 PINEVIEW DRIVE","geo_precision":"unmatched"},"type":"Feature","geometry":null},{"properties":{"city":"DALLAS","state/prov":"TX","zip/postal":"75231","geo_score":0.0,"address 2":null,"phone":"(214)341-4799","id":"aebfg5sxy14s","practice":"VIZUALEYES","address":"6510 ABRAMS RD","geo_precision":"unmatched"},"type":"Feature","geometry":null},{"properties":{"city":"LOS ANGELES","state/prov":"CA","zip/postal":"90024","geo_score":0.0,"address 2":"100 STEIN PLAZA UCLA","phone":"(310)206-6351","id":"aebfg5rr0o4y","practice":"DR BARRY WEISSMAN OD","address":"JULES STEIN EYE INSTITUTE","geo_precision":"unmatched"},"type":"Feature","geometry":null},{"properties":{"city":"FARMINGTON","state/prov":"CT","zip/postal":"06032","geo_score":0.0,"address 2":"SUITE 100","phone":"(860)678-0202","id":"aebfg6280tk5","practice":"CONSULTING OPHTHALMOLOGISTS","address":"499 FARMINGTON AVENUE","geo_precision":"unmatched"},"type":"Feature","geometry":null},{"properties":{"city":"KIRKLAND","state/prov":"WA","zip/postal":"98034-7202","geo_score":0.0,"address 2":"11830 NE 128TH ST SUITE 1","phone":"(425)821-8900","id":"aebfg65mqbjp","practice":"SPECIALTY EYECARE GROUP","address":"DAVID KADING OD","geo_precision":"unmatched"},"type":"Feature","geometry":null},{"properties":{"city":"YANKTON","state/prov":"SD","zip/postal":"57078-0819","geo_score":0.0,"address 2":null,"phone":"(605)665-9638","id":"aebfg5ub7bzc","practice":"WILLCOCKSON EYE ASSOCIATES","address":"415 WEST 3RD STREET","geo_precision":"unmatched"},"type":"Feature","geometry":null},{"properties":{"city":"CHAPEL HILL","state/prov":"NC","zip/postal":"27514","geo_score":0.0,"address 2":null,"phone":"(919)929-7111","id":"aebfg63rb7ut","practice":"ADLER EYE ASSOCIATES OD PA","address":"861 WILLOW DR","geo_precision":"unmatched"},"type":"Feature","geometry":null},{"properties":{"city":"CARTERET","state/prov":"NJ","zip/postal":"07008","geo_score":0.0,"address 2":null,"phone":"(732)541-8222","id":"aebfg62aoxft","practice":"CARTERET EYECARE ASSOCIATES","address":"43 ORCHARD STREET","geo_precision":"unmatched"},"type":"Feature","geometry":null},{"properties":{"city":"LOS ANGELES","state/prov":"CA","zip/postal":"90035","geo_score":0.0,"address 2":null,"phone":"(310)553-7011","id":"aebfg5zj6fmh","practice":"JOHN MAANUM OD","address":"9701 W PICO BLVD SUITE 215","geo_precision":"unmatched"},"type":"Feature","geometry":null},{"properties":{"city":"LOS ANGELES","state/prov":"CA","zip/postal":"90027","geo_score":0.0,"address 2":"EYE CLINIC MAIL STOP 88","phone":"(323)361-8380","id":"aebfg611nggt","practice":"CHILDREN'S HOSPITAL LOS ANGELES","address":"4650 SUNSET BLVD","geo_precision":"unmatched"},"type":"Feature","geometry":null},{"properties":{"city":"JACKSONVILLE","state/prov":"FL","zip/postal":"32244","geo_score":0.0,"address 2":"SUITE 23","phone":"(904)525-8426","id":"aebfg63l0wy4","practice":"MELANIE CARVELL OD","address":"8102 BLANDING BLVD","geo_precision":"unmatched"},"type":"Feature","geometry":null},{"properties":{"city":"GRANVILLE","state/prov":"OH","zip/postal":"43023","geo_score":0.0,"address 2":null,"phone":"(740)587-4970","id":"aebfg5ybl9lh","practice":"THE EYE SITE LLC","address":"114 NORTH GALWAY DRIVE","geo_precision":"unmatched"},"type":"Feature","geometry":null},{"properties":{"city":"ARLINGTON","state/prov":"VA","zip/postal":"22209","geo_score":0.0,"address 2":null,"phone":"(703)524-7111","id":"aebfg5xrl2fa","practice":"DAVID WEISS OD","address":"1700 N MOORE STREET","geo_precision":"unmatched"},"type":"Feature","geometry":null},{"properties":{"city":"NEW YORK","state/prov":"NY","zip/postal":"10065","geo_score":0.0,"address 2":null,"phone":"(212)832-9228","id":"aebfg5zvhz77","practice":"FROMER EYE CENTER","address":"550 PARK AVE","geo_precision":"unmatched"},"type":"Feature","geometry":null},{"properties":{"city":"LACROSSE","state/prov":"WI","zip/postal":"54601","geo_score":0.0,"address 2":"2101 SIMMS PLACE","phone":"(608)782-7300","id":"aebfg5qtlf32","practice":"GUNDERSON CLINIC","address":"CONTACT LEN DEPARTMENT","geo_precision":"unmatched"},"type":"Feature","geometry":null},{"properties":{"city":"PEABODY","state/prov":"MA","zip/postal":"01960","geo_score":0.0,"address 2":null,"phone":"(978)531-4400","id":"aebfg619i24x","practice":"MICROSURGICAL EYE CONSULTANTS","address":"31 CENTENNIAL DRIVE","geo_precision":"unmatched"},"type":"Feature","geometry":null},{"properties":{"city":"RARITAN","state/prov":"NJ","zip/postal":"08869","geo_score":0.0,"address 2":"80 E. SOMERSET ST","phone":"(908)725-3331","id":"aebfg5qziu0v","practice":"ROSENBLATT FAMILY EYE CARE","address":"DR. BRIAN ROSENBLATT","geo_precision":"unmatched"},"type":"Feature","geometry":null},{"properties":{"city":"HOUSTON","state/prov":"TX","zip/postal":"77042","geo_score":0.0,"address 2":"SUITE 580","phone":"(713)781-3517","id":"aebfg5s8tpsy","practice":"WESTHEIMER VISION ASSOCIATES","address":"10260 WESTHEIMER","geo_precision":"unmatched"},"type":"Feature","geometry":null},{"properties":{"city":"RAPID CITY","state/prov":"SD","zip/postal":"57701","geo_score":0.0,"address 2":null,"phone":"(605)718-5123","id":"aebfg5r1gmn8","practice":"WRIGHT VISION CENTER","address":"240 MINNESOTA ST","geo_precision":"unmatched"},"type":"Feature","geometry":null},{"properties":{"city":"VAUGHAN","state/prov":"ONTARIO","zip/postal":"L4H 3A5","geo_score":0.0,"address 2":null,"phone":"(905)303-9775","id":"aebfg5t7id14","practice":"VAUGHAN FAMILY VISION CARE","address":"9565 WESTON RD STE 100","geo_precision":"unmatched"},"type":"Feature","geometry":null},{"properties":{"city":"BIG RAPIDS","state/prov":"MI","zip/postal":"49307","geo_score":0.0,"address 2":"1124 SOUTH STATE ST","phone":"(231)591-2198","id":"aebfg65jarrv","practice":"FERRIS STATE UNIVERSITY","address":"MICHIGAN COLLEGE OF OPTOMETRY","geo_precision":"unmatched"},"type":"Feature","geometry":null},{"properties":{"city":"FOREST GROVE","state/prov":"OR","zip/postal":"97116","geo_score":0.0,"address 2":"2043 COLLEGE WAY","phone":"(503)352-2020","id":"aebfg5qfgpo9","practice":"PACIFIC UNIVERSITY","address":"PACIFIC EYE CLINIC FOREST GROVE","geo_precision":"unmatched"},"type":"Feature","geometry":null},{"properties":{"city":"EMPORIA","state/prov":"KS","zip/postal":"66801","geo_score":0.0,"address 2":"512 COMMERCIAL","phone":"(620)343-7120","id":"aebfg5yjy5tk","practice":"DRS COCKRELL &amp; REIMER","address":"FLINTHILLS EYE CARE ASSOC","geo_precision":"unmatched"},"type":"Feature","geometry":null},{"properties":{"city":"OAK LAWN","state/prov":"IL","zip/postal":"60453","geo_score":0.0,"address 2":null,"phone":"(708)636-0600","id":"aebfg65jpxdz","practice":"DAVIS EYECARE ASSOCIATES","address":"4663 W 95TH STREET","geo_precision":"unmatched"},"type":"Feature","geometry":null},{"properties":{"city":"SAN DIEGO","state/prov":"CA","zip/postal":"92119","geo_score":0.0,"address 2":null,"phone":"(619)464-2076","id":"aebfg65q0r2c","practice":"JEFFREY HALL OD","address":"8312 LAKE MURRAY BLVD  SUITE C","geo_precision":"unmatched"},"type":"Feature","geometry":null},{"properties":{"city":"DURHAM","state/prov":"NC","zip/postal":"27710","geo_score":0.0,"address 2":"2351 ERWIN ROAD","phone":"(919)684-6853","id":"aebfg5szok4o","practice":"DUKE EYE CENTER","address":"DUMC CONTACT LENS SERVICE","geo_precision":"unmatched"},"type":"Feature","geometry":null},{"properties":{"city":"RESTON","state/prov":"VA","zip/postal":"20190","geo_score":0.0,"address 2":"11656 PLAZA AMERICA DRIVE","phone":"(703)467-9000","id":"aebfg64b1pk9","practice":"NORTHERN VIRGINIA DOCTORS OF OPTOMETRY","address":"PLAZA AMERICA","geo_precision":"unmatched"},"type":"Feature","geometry":null},{"properties":{"city":"BRADENTON","state/prov":"FL","zip/postal":"34205","geo_score":0.0,"address 2":null,"phone":"(941)708-9000","id":"aebfg5z2aa19","practice":"DANIEL B POPE MD","address":"426 MANATEE AVE WEST","geo_precision":"unmatched"},"type":"Feature","geometry":null},{"properties":{"city":"LATHAM","state/prov":"NY","zip/postal":"12110","geo_score":0.0,"address 2":null,"phone":"(518)785-1199","id":"aebfg62w0ua3","practice":"DR ELISA PERREUALT OD","address":"952 TROY-SCHNECTADY RD","geo_precision":"unmatched"},"type":"Feature","geometry":null},{"properties":{"city":"ST LOUIS","state/prov":"MO","zip/postal":"63128","geo_score":0.0,"address 2":null,"phone":"(314)843-5700","id":"aebfg5piqrib","practice":"VISION CARE CONSULTANTS","address":"12121 TESSON FERRY RD","geo_precision":"unmatched"},"type":"Feature","geometry":null},{"properties":{"city":"SAN JUAN","state/prov":"PR","zip/postal":"00921-3201","geo_score":0.0,"address 2":"10 CALLE CASIA","phone":"(787)641-7582","id":"aebfg5pf0wo6","practice":"VAMC (672/PSAS) (672/121)","address":"DEPT OF VET AFFAIRS/VA CARIBBEAN","geo_precision":"unmatched"},"type":"Feature","geometry":null},{"properties":{"city":"WYOMISSING","state/prov":"PA","zip/postal":"19610","geo_score":0.0,"address 2":"SUITE 100","phone":"(610)378-1344","id":"aebfg64sa22t","practice":"EYE CONSULTANTS OF PENNSYLVANIA","address":"1 GRANITE POINT DR","geo_precision":"unmatched"},"type":"Feature","geometry":null},{"properties":{"city":"SHILLINGTON","state/prov":"PA","zip/postal":"19607","geo_score":0.0,"address 2":null,"phone":"(610)775-3321","id":"aebfg5ujgwwv","practice":"SHILLINGTON EYE ASSOC.","address":"453 E. LANCASTER AVE","geo_precision":"unmatched"},"type":"Feature","geometry":null},{"properties":{"city":"AMARILLO","state/prov":"TX","zip/postal":"79118","geo_score":0.0,"address 2":null,"phone":"(806)331-6150","id":"aebfg63e5i1o","practice":"OJO FAMILY EYE CARE","address":"1900 SE 34TH ST STE 250","geo_precision":"unmatched"},"type":"Feature","geometry":null},{"properties":{"city":"ALBANY","state/prov":"NY","zip/postal":"12207","geo_score":0.0,"address 2":"99 PINE ST","phone":"(518)463-1707","id":"aebfg612kv89","practice":"PROFESSIONAL EYE CARE","address":"DOWNTOWN","geo_precision":"unmatched"},"type":"Feature","geometry":null},{"properties":{"city":"CHARLOTTESVILLE","state/prov":"VA","zip/postal":"22901","geo_score":0.0,"address 2":null,"phone":"(434)978-4090","id":"aebfg5y8wzf6","practice":"DRS RECORD &amp; RECORD OPTOMERISTS","address":"1450 SACHEN PLACE","geo_precision":"unmatched"},"type":"Feature","geometry":null},{"properties":{"city":"OTTAWA","state/prov":"ONTARIO","zip/postal":"K1Z 7L6","geo_score":0.0,"address 2":null,"phone":"(613)759-4939","id":"aebfg5u7gp10","practice":"DR RJ TRIPP","address":"206-1419 CARLING AVE","geo_precision":"unmatched"},"type":"Feature","geometry":null},{"properties":{"city":"BRANSON","state/prov":"MO","zip/postal":"65616","geo_score":0.0,"address 2":null,"phone":"(417)334-0044","id":"aebfg64v1eq9","practice":"TRI-LAKES EYE CENTER","address":"915 STATE HWY 248 STE A","geo_precision":"unmatched"},"type":"Feature","geometry":null},{"properties":{"city":"WEBSTER","state/prov":"NY","zip/postal":"14580","geo_score":0.0,"address 2":null,"phone":"(585)671-3300","id":"aebfg5sis07c","practice":"VISIONARY EYE ASSOCIATES","address":"603 RIDGE ROAD","geo_precision":"unmatched"},"type":"Feature","geometry":null},{"properties":{"city":"KENNESAW","state/prov":"GA","zip/postal":"30144","geo_score":0.0,"address 2":"SUITE 404","phone":"(770)590-8191","id":"aebfg62v0jdv","practice":"HESTER EYE ASSOCIATES","address":"3745 CHEROKEE STREET","geo_precision":"unmatched"},"type":"Feature","geometry":null}],"is_temporal":false,"author":{"url":"","metadata":"","contact_name":"","contact_address":"","source":"","contact_phone":""},"source":"","pagination":{"sort":null,"start":0,"total":287,"limit":1000000},"state":"complete","tags":"","published":"2014-08-16T22:59:42-04:00","id":357142}