{"type":"FeatureCollection","data_type":"Dataset","url_type":null,"permissions":[{"permissions":{"download":true,"view":true},"group_id":"everyone"}],"classification":null,"title":"TCA ENRs March","count":53,"stream_id":357379,"contributor":{"url":"http://geocommons.com/users/72218","name":"jimmycoleman419"},"data_attributes":null,"calculation_params":null,"icon_link":null,"link":"http://geocommons.com/overlays/357379.json","extent":[-83.1291,34.6206,-77.9838,42.3837],"geometry_types":["point"],"unique_name":null,"name":"TCA ENRs March","feature_count":53,"description":"","next_feature":null,"is_raster":false,"short_classification":"Y","stats":{"id":{"max":787077,"variance":1796179344.40058,"mean":754400.943396226,"stdev":42381.3560944029,"min":640219,"median":778329}},"features":[{"properties":{"city":"Troutman","zip":"28166","geo_score":1.0,"id":"aec2n5snxpu8","channel":"Website","address":"131 Winford rd","geo_precision":"range","state":"NC"},"type":"Feature","geometry":{"type":"Point","coordinates":[-80.818785,35.677921]}},{"properties":{"city":"Siler City","zip":"27344","geo_score":0.7,"id":"aec2n5sms07e","channel":"Direct Mail","address":"PO Box 110","geo_precision":"street","state":"NC"},"type":"Feature","geometry":{"type":"Point","coordinates":[-79.503766,35.776613]}},{"properties":{"city":"Durham","zip":"27713","geo_score":0.585,"id":"aec2n607txlj","channel":"Website","address":"104 Knightwood Drive","geo_precision":"zip","state":"NC"},"type":"Feature","geometry":{"type":"Point","coordinates":[-78.917768,35.911215]}},{"properties":{"city":"Durham","zip":"27712","geo_score":1.0,"id":"aec2n5ukp0we","channel":"Website","address":"420 Lakeview Rd.","geo_precision":"range","state":"NC"},"type":"Feature","geometry":{"type":"Point","coordinates":[-78.918899,36.097779]}},{"properties":{"city":"Cary","zip":"27519","geo_score":0.707,"id":"aec2n64m8hwb","channel":"MDI","address":"1200 Glendon Way Apt. 1211","geo_precision":"range","state":"NC"},"type":"Feature","geometry":{"type":"Point","coordinates":[-78.871141,35.799507]}},{"properties":{"city":"Raleigh","zip":"27610","geo_score":1.0,"id":"aec2n5tuqbh5","channel":"SEM","address":"600 King Richard Road","geo_precision":"range","state":"NC"},"type":"Feature","geometry":{"type":"Point","coordinates":[-78.590042,35.76921]}},{"properties":{"city":"Apex","zip":"27539","geo_score":1.0,"id":"aec2n5v3f45l","channel":"SEM","address":"302 Stonecreek Drive","geo_precision":"range","state":"NC"},"type":"Feature","geometry":{"type":"Point","coordinates":[-78.827897,35.682943]}},{"properties":{"city":"Middlesex","zip":"27557","geo_score":1.0,"id":"aec2n5yfa5g2","channel":"MDI","address":"1019 Windward Hill Court","geo_precision":"range","state":"NC"},"type":"Feature","geometry":{"type":"Point","coordinates":[-78.228092,35.718781]}},{"properties":{"city":"Fuquay Varina","zip":"27526","geo_score":0.992,"id":"aec2n5somjvn","channel":"SEM","address":"51 Woodview Court","geo_precision":"range","state":"NC"},"type":"Feature","geometry":{"type":"Point","coordinates":[-78.824279,35.447895]}},{"properties":{"city":"Raleigh","zip":"27613","geo_score":0.582,"id":"aec2n5x74w7c","channel":"Website","address":"6902 Cameron Crest Circle Unit 121","geo_precision":"street","state":"NC"},"type":"Feature","geometry":{"type":"Point","coordinates":[-78.700715,35.934255]}},{"properties":{"city":"Durham","zip":"27713","geo_score":1.0,"id":"aec2n5tmp6c4","channel":"Website","address":"1303 Fairmont Street","geo_precision":"range","state":"NC"},"type":"Feature","geometry":{"type":"Point","coordinates":[-78.90743,35.911857]}},{"properties":{"city":"Waxhaw","zip":"28173","geo_score":1.0,"id":"aec2n5y2dgxc","channel":"SEM","address":"6517 Shaw Ave.","geo_precision":"range","state":"NC"},"type":"Feature","geometry":{"type":"Point","coordinates":[-80.696089,34.857517]}},{"properties":{"city":"Louisburg","zip":"27549","geo_score":0.585,"id":"aec2n5ti7xu2","channel":"SEM","address":"12 Bedrock Ln.","geo_precision":"zip","state":"NC"},"type":"Feature","geometry":{"type":"Point","coordinates":[-78.227215,36.07654]}},{"properties":{"city":"Durham","zip":"27713","geo_score":0.512,"id":"aec2n5po0109","channel":"SEM","address":"5708 Windlestraw Dr #22","geo_precision":"street","state":"NC"},"type":"Feature","geometry":{"type":"Point","coordinates":[-78.927746,35.919385]}},{"properties":{"city":"Durham","zip":"27704","geo_score":0.973,"id":"aec2n61a21bq","channel":"MDI","address":"909 DaVinci Street","geo_precision":"range","state":"NC"},"type":"Feature","geometry":{"type":"Point","coordinates":[-78.875671,36.029197]}},{"properties":{"city":"Lillington","zip":"27546","geo_score":0.451,"id":"aec2n61gqdf1","channel":"SEM","address":"PO Box 1293","geo_precision":"street","state":"NC"},"type":"Feature","geometry":{"type":"Point","coordinates":[-78.115319,35.29228]}},{"properties":{"city":"Middleburg Heights","zip":"44130","geo_score":1.0,"id":"aec2n618eq8d","channel":"Website","address":"337 University St.","geo_precision":"range","state":"OH"},"type":"Feature","geometry":{"type":"Point","coordinates":[-81.839778,41.369212]}},{"properties":{"city":"Raleigh","zip":"27604","geo_score":0.61,"id":"aec2n614z0ee","channel":"Website","address":"520 N. Person Street","geo_precision":"street","state":"NC"},"type":"Feature","geometry":{"type":"Point","coordinates":[-78.63445,35.787348]}},{"properties":{"city":"Wake Forest","zip":"27587","geo_score":1.0,"id":"aec2n5teytz7","channel":"Others","address":"2200 Wait Ave.","geo_precision":"range","state":"NC"},"type":"Feature","geometry":{"type":"Point","coordinates":[-78.467992,35.966018]}},{"properties":{"city":"Broadway","zip":"27505","geo_score":0.614,"id":"aec2n60jtpes","channel":"Website","address":"242 Omaha Drive","geo_precision":"street","state":"NC"},"type":"Feature","geometry":{"type":"Point","coordinates":[-78.180537,35.943906]}},{"properties":{"city":"Durham","zip":"27707","geo_score":0.912,"id":"aec2n5x9kvqk","channel":"SEM","address":"4637 Hope Valley Road Apt J","geo_precision":"range","state":"NC"},"type":"Feature","geometry":{"type":"Point","coordinates":[-78.955799,35.924044]}},{"properties":{"city":"Pittsboro","zip":"27312","geo_score":0.98,"id":"aec2n64lbqg2","channel":"MDI","address":"153 Burnett Circle Ext.","geo_precision":"range","state":"NC"},"type":"Feature","geometry":{"type":"Point","coordinates":[-79.169693,35.856487]}},{"properties":{"city":"Fayetteville","zip":"28311","geo_score":1.0,"id":"aec2n5sfalcn","channel":"Website","address":"481 Waterbury Drive","geo_precision":"range","state":"NC"},"type":"Feature","geometry":{"type":"Point","coordinates":[-78.892987,35.136061]}},{"properties":{"city":"Raleigh","zip":"27613","geo_score":0.875,"id":"aec2n5wcf912","channel":"MDI","address":"4133 Lake Lynn Drive  Apt 201","geo_precision":"range","state":"NC"},"type":"Feature","geometry":{"type":"Point","coordinates":[-78.702571,35.87874]}},{"properties":{"city":"Raleigh","zip":"27613","geo_score":0.643,"id":"aec2n5wlbkwa","channel":"MDI","address":"4133 Lake Lynn Dr. Apt 201","geo_precision":"street","state":"NC"},"type":"Feature","geometry":{"type":"Point","coordinates":[-78.704602,35.878761]}},{"properties":{"city":"Stanley","zip":"28164","geo_score":1.0,"id":"aec2n6161e6q","channel":"SEM","address":"5 Hillside Drive","geo_precision":"range","state":"NC"},"type":"Feature","geometry":{"type":"Point","coordinates":[-81.077857,35.365727]}},{"properties":{"city":"Garner","zip":"27529","geo_score":1.0,"id":"aec2n5vjpcni","channel":"SEM","address":"808 Stephanie Place","geo_precision":"range","state":"NC"},"type":"Feature","geometry":{"type":"Point","coordinates":[-78.560345,35.57874]}},{"properties":{"city":"Raleigh","zip":"27606","geo_score":1.0,"id":"aec2n5wo0ofl","channel":"SEM","address":"5408 Portree Place","geo_precision":"range","state":"NC"},"type":"Feature","geometry":{"type":"Point","coordinates":[-78.732148,35.780079]}},{"properties":{"city":"Raleigh","zip":"27613","geo_score":1.0,"id":"aec2n60f4ora","channel":"Website","address":"8335 Morgans Way","geo_precision":"range","state":"NC"},"type":"Feature","geometry":{"type":"Point","coordinates":[-78.685401,35.892882]}},{"properties":{"city":"Raleigh","zip":"27603","geo_score":0.912,"id":"aec2n610qv7u","channel":"SEM","address":"9108 Ten Ten Road","geo_precision":"range","state":"NC"},"type":"Feature","geometry":{"type":"Point","coordinates":[-78.668603,35.656581]}},{"properties":{"city":"Roxboro","zip":"27574","geo_score":0.806,"id":"aec2n5u2ifi0","channel":"Website","address":"628 Flem Clayton Road","geo_precision":"street","state":"NC"},"type":"Feature","geometry":{"type":"Point","coordinates":[-79.03549,36.41171]}},{"properties":{"city":"Elizabethtown","zip":"28337","geo_score":1.0,"id":"aec2n5yon7lc","channel":"SEM","address":"610 David Street","geo_precision":"range","state":"NC"},"type":"Feature","geometry":{"type":"Point","coordinates":[-78.599813,34.620635]}},{"properties":{"city":"Raleigh","zip":"27610","geo_score":0.671,"id":"aec2n6043inp","channel":"Others","address":"2000 Red Quartz Dr.","geo_precision":"street","state":"NC"},"type":"Feature","geometry":{"type":"Point","coordinates":[-78.608035,35.748025]}},{"properties":{"city":"Apex","zip":"27539","geo_score":0.48,"id":"aec2n5q3gpzw","channel":"SEM","address":"2631 Reunion Meadows Lane","geo_precision":"street","state":"NC"},"type":"Feature","geometry":{"type":"Point","coordinates":[-78.515475,36.00838]}},{"properties":{"city":"Henderson","zip":"27536","geo_score":0.481,"id":"aec2n5ynaxnf","channel":"Website","address":"8105 NC HWY 39 South","geo_precision":"street","state":"NC"},"type":"Feature","geometry":{"type":"Point","coordinates":[-78.339148,36.259194]}},{"properties":{"city":"Claremont","zip":"28610","geo_score":1.0,"id":"aec2n5s61m86","channel":"SEM","address":"2958 Shell Hollar Rd.","geo_precision":"range","state":"NC"},"type":"Feature","geometry":{"type":"Point","coordinates":[-81.162707,35.793103]}},{"properties":{"city":"Raleigh","zip":"27603","geo_score":1.0,"id":"aec2n5qpa7yt","channel":"Others","address":"10518 Robinson Avenue","geo_precision":"range","state":"NC"},"type":"Feature","geometry":{"type":"Point","coordinates":[-78.676125,35.6262]}},{"properties":{"city":"Morrisville","zip":"27560","geo_score":0.641,"id":"aec2n5ohlfjg","channel":"Website","address":"705-81 Keystone Park Drive","geo_precision":"street","state":"NC"},"type":"Feature","geometry":{"type":"Point","coordinates":[-78.86359,35.893457]}},{"properties":{"city":"Cameron","zip":"28326","geo_score":0.602,"id":"aec2n5prdifd","channel":"SEM","address":"3758 Count Road Line","geo_precision":"street","state":"NC"},"type":"Feature","geometry":{"type":"Point","coordinates":[-79.217069,35.265372]}},{"properties":{"city":"Raleigh","zip":"27607","geo_score":0.571,"id":"aec2n5s4fl4t","channel":"SEM","address":"2414 Wesvill Court #K","geo_precision":"street","state":"NC"},"type":"Feature","geometry":{"type":"Point","coordinates":[-78.695976,35.815614]}},{"properties":{"city":"Raleigh","zip":"27604","geo_score":1.0,"id":"aec2n5u8x7z0","channel":"MDI","address":"2913 Dunsinane Court","geo_precision":"range","state":"NC"},"type":"Feature","geometry":{"type":"Point","coordinates":[-78.589947,35.836667]}},{"properties":{"city":"Apex","zip":"27502","geo_score":0.585,"id":"aec2n61ppqd4","channel":"MDI","address":"122 Wirckworth Circle","geo_precision":"zip","state":"NC"},"type":"Feature","geometry":{"type":"Point","coordinates":[-78.857507,35.789317]}},{"properties":{"city":"Apex","zip":"27502","geo_score":1.0,"id":"aec2n5ot9xjm","channel":"SEM","address":"102 Kelly Brook Court","geo_precision":"range","state":"NC"},"type":"Feature","geometry":{"type":"Point","coordinates":[-78.90271,35.728889]}},{"properties":{"city":"Durham","zip":"27703","geo_score":0.902,"id":"aec2n5q0e4mh","channel":"Website","address":"907 Stennis Way","geo_precision":"street","state":"NC"},"type":"Feature","geometry":{"type":"Point","coordinates":[-78.842075,35.973884]}},{"properties":{"city":"Raleigh","zip":"27610","geo_score":0.424,"id":"aec2n61bwnhn","channel":"SEM","address":"3208 Vallejo Trails","geo_precision":"street","state":"NC"},"type":"Feature","geometry":{"type":"Point","coordinates":[-78.693179,35.817886]}},{"properties":{"city":"Durham","zip":"27713","geo_score":1.0,"id":"aec2n5r2ufzj","channel":"SEM","address":"3627 Sana Court","geo_precision":"range","state":"NC"},"type":"Feature","geometry":{"type":"Point","coordinates":[-78.897213,35.929684]}},{"properties":{"city":"Four Oaks","zip":"27524","geo_score":0.393,"id":"aec2n62xnkas","channel":"SEM","address":"PO Box1360","geo_precision":"street","state":"NC"},"type":"Feature","geometry":{"type":"Point","coordinates":[-77.98382,35.384102]}},{"properties":{"city":"Morrisville","zip":"27560","geo_score":0.707,"id":"aec2n5rztsdg","channel":"MDI","address":"300 Allagosh Drive Apt. 311","geo_precision":"range","state":"NC"},"type":"Feature","geometry":{"type":"Point","coordinates":[-78.810417,35.918821]}},{"properties":{"city":"Zebulon","zip":"27597","geo_score":1.0,"id":"aec2n5oe73hb","channel":"Website","address":"1121 Karial Court","geo_precision":"range","state":"NC"},"type":"Feature","geometry":{"type":"Point","coordinates":[-78.309741,35.836006]}},{"properties":{"city":"Detroit","zip":"48206","geo_score":0.977,"id":"aec2n5xpydqv","channel":"Others","address":"3809 Sturtevaht Street","geo_precision":"range","state":"MI"},"type":"Feature","geometry":{"type":"Point","coordinates":[-83.129135,42.383663]}},{"properties":{"city":"Durham","zip":"27713","geo_score":0.512,"id":"aec2n5r7bxss","channel":"SEM","address":"5523 NC Highway 55 Apt. 304","geo_precision":"street","state":"NC"},"type":"Feature","geometry":{"type":"Point","coordinates":[-78.888686,35.948588]}},{"properties":{"city":"Creedmoor","zip":"27522","geo_score":0.684,"id":"aec2n5xpwpue","channel":"SEM","address":"212 East Lyon Street","geo_precision":"street","state":"NC"},"type":"Feature","geometry":{"type":"Point","coordinates":[-78.679352,36.11633]}},{"properties":{"city":"Morrisville","zip":"27560","geo_score":0.937,"id":"aec2n5osz5d9","channel":"Others","address":"1331 Summit West Drive","geo_precision":"range","state":"NC"},"type":"Feature","geometry":{"type":"Point","coordinates":[-78.820002,35.812629]}}],"is_temporal":false,"author":{"url":"","metadata":"","contact_name":"","contact_address":"","source":"","contact_phone":""},"source":"","pagination":{"sort":null,"start":0,"total":53,"limit":1000000},"state":"complete","tags":"","published":"2014-08-16T23:16:37-04:00","id":357379}