{"type":"FeatureCollection","data_type":"Dataset","url_type":null,"permissions":[{"permissions":{"download":true,"view":true},"group_id":"everyone"}],"classification":null,"title":"sample","count":69,"stream_id":357568,"contributor":{"url":"http://geocommons.com/users/71117","name":"zeusmiyo"},"data_attributes":null,"calculation_params":null,"icon_link":null,"link":"http://geocommons.com/overlays/357568.json","extent":[120.338,15.6357,120.418,15.6852],"geometry_types":["point"],"unique_name":null,"name":"sample","feature_count":69,"description":"","next_feature":null,"is_raster":false,"short_classification":"Y","stats":{"northing":{"max":1735800,"variance":2140983.63171356,"mean":1732229.56521739,"stdev":1463.2100436074,"min":1730340,"median":1731550},"latitude":{"max":15.68518632,"variance":0.000177821902346026,"mean":15.6526679366667,"stdev":0.0133349879019827,"min":15.63572082,"median":15.64631744},"ave. no. of culms/clump":{"max":43,"variance":0.0,"mean":43.0,"stdev":0.0,"min":43,"median":43},"total hectarage (ha)":{"max":2.238714,"variance":0.219361667263671,"mean":0.504798347826087,"stdev":0.468360616687261,"min":0.04,"median":0.319639},"longitude":{"max":120.4177685,"variance":0.00043251694597816,"mean":120.395263734783,"stdev":0.0207970417602639,"min":120.3381171,"median":120.4056558},"total no. of clumps":{"max":457,"variance":9138.94032395567,"mean":103.028985507246,"stdev":95.5978050164106,"min":8,"median":65},"easting":{"max":223214,"variance":5016693.92625746,"mean":220756.014492754,"stdev":2239.79774226546,"min":214610,"median":221850}},"features":[{"properties":{"northing":1731070,"ave. no. of culms/clump":43,"latitude":15.64233105,"total hectarage (ha)":0.46,"municipality":"Camiling","total no. of clumps":91,"longitude":120.4067478,"id":"aecjc03jkn7n","province":"Tarlac","barangay":"Camiling","easting":221974,"species":"Kawayan tinik","elev (masl)":null},"type":"Feature","geometry":{"type":"Point","coordinates":[120.4067478,15.64233105]}},{"properties":{"northing":1730910,"ave. no. of culms/clump":43,"latitude":15.64088537,"total hectarage (ha)":0.55,"municipality":"Camiling","total no. of clumps":112,"longitude":120.4067101,"id":"aecjbzru40mz","province":"Tarlac","barangay":"Camiling","easting":221968,"species":"Kawayan tinik","elev (masl)":null},"type":"Feature","geometry":{"type":"Point","coordinates":[120.4067101,15.64088537]}},{"properties":{"northing":1730820,"ave. no. of culms/clump":43,"latitude":15.6400753,"total hectarage (ha)":0.13,"municipality":"Camiling","total no. of clumps":27,"longitude":120.4069533,"id":"aecjc0682ggi","province":"Tarlac","barangay":null,"easting":221993,"species":"Kawayan tinik","elev (masl)":null},"type":"Feature","geometry":{"type":"Point","coordinates":[120.4069533,15.6400753]}},{"properties":{"northing":1730800,"ave. no. of culms/clump":43,"latitude":15.63991066,"total hectarage (ha)":0.09,"municipality":"Camiling","total no. of clumps":18,"longitude":120.4083071,"id":"aecjbztp8smf","province":"Tarlac","barangay":null,"easting":222138,"species":"Kawayan tinik","elev (masl)":null},"type":"Feature","geometry":{"type":"Point","coordinates":[120.4083071,15.63991066]}},{"properties":{"northing":1730880,"ave. no. of culms/clump":43,"latitude":15.64062457,"total hectarage (ha)":0.13,"municipality":"Camiling","total no. of clumps":27,"longitude":120.407571,"id":"aecjc06l6vfv","province":"Tarlac","barangay":null,"easting":222060,"species":"Kawayan tinik","elev (masl)":null},"type":"Feature","geometry":{"type":"Point","coordinates":[120.407571,15.64062457]}},{"properties":{"northing":1730510,"ave. no. of culms/clump":43,"latitude":15.6372598,"total hectarage (ha)":0.26,"municipality":"Camiling","total no. of clumps":52,"longitude":120.4056558,"id":"aecjc015gzlq","province":"Tarlac","barangay":null,"easting":221850,"species":"Kawayan tinik","elev (masl)":null},"type":"Feature","geometry":{"type":"Point","coordinates":[120.4056558,15.6372598]}},{"properties":{"northing":1730420,"ave. no. of culms/clump":43,"latitude":15.63646285,"total hectarage (ha)":0.14,"municipality":"Camiling","total no. of clumps":28,"longitude":120.4070082,"id":"aecjc02ag6gs","province":"Tarlac","barangay":null,"easting":221994,"species":"Kawayan tinik","elev (masl)":null},"type":"Feature","geometry":{"type":"Point","coordinates":[120.4070082,15.63646285]}},{"properties":{"northing":1730340,"ave. no. of culms/clump":43,"latitude":15.63572082,"total hectarage (ha)":0.17,"municipality":"Camiling","total no. of clumps":34,"longitude":120.4053676,"id":"aecjbzt2zwop","province":"Tarlac","barangay":null,"easting":221817,"species":"Kawayan tinik","elev (masl)":null},"type":"Feature","geometry":{"type":"Point","coordinates":[120.4053676,15.63572082]}},{"properties":{"northing":1730600,"ave. no. of culms/clump":43,"latitude":15.63806997,"total hectarage (ha)":0.09,"municipality":"Camiling","total no. of clumps":19,"longitude":120.4054219,"id":"aecjbzwr8bef","province":"Tarlac","barangay":null,"easting":221826,"species":"Kawayan tinik","elev (masl)":null},"type":"Feature","geometry":{"type":"Point","coordinates":[120.4054219,15.63806997]}},{"properties":{"northing":1731210,"ave. no. of culms/clump":43,"latitude":15.64361001,"total hectarage (ha)":0.25,"municipality":"Camiling","total no. of clumps":52,"longitude":120.4079622,"id":"aecjc04xr96h","province":"Tarlac","barangay":null,"easting":222106,"species":"Kawayan tinik","elev (masl)":null},"type":"Feature","geometry":{"type":"Point","coordinates":[120.4079622,15.64361001]}},{"properties":{"northing":1731270,"ave. no. of culms/clump":43,"latitude":15.64414494,"total hectarage (ha)":0.13,"municipality":"Camiling","total no. of clumps":27,"longitude":120.4073681,"id":"aecjbzygtwk7","province":"Tarlac","barangay":null,"easting":222043,"species":"Kawayan tinik","elev (masl)":null},"type":"Feature","geometry":{"type":"Point","coordinates":[120.4073681,15.64414494]}},{"properties":{"northing":1731210,"ave. no. of culms/clump":43,"latitude":15.64361376,"total hectarage (ha)":0.04,"municipality":"Camiling","total no. of clumps":8,"longitude":120.4082791,"id":"aecjbzsqscry","province":"Tarlac","barangay":null,"easting":222140,"species":"Kawayan tinik","elev (masl)":null},"type":"Feature","geometry":{"type":"Point","coordinates":[120.4082791,15.64361376]}},{"properties":{"northing":1731250,"ave. no. of culms/clump":43,"latitude":15.64398107,"total hectarage (ha)":0.05,"municipality":"Camiling","total no. of clumps":10,"longitude":120.4087871,"id":"aecjc04eimsv","province":"Tarlac","barangay":null,"easting":222195,"species":"Kawayan tinik","elev (masl)":null},"type":"Feature","geometry":{"type":"Point","coordinates":[120.4087871,15.64398107]}},{"properties":{"northing":1731380,"ave. no. of culms/clump":43,"latitude":15.6451459,"total hectarage (ha)":0.2,"municipality":"Camiling","total no. of clumps":41,"longitude":120.4079894,"id":"aecjbzum50gz","province":"Tarlac","barangay":null,"easting":222111,"species":"Kawayan tinik","elev (masl)":null},"type":"Feature","geometry":{"type":"Point","coordinates":[120.4079894,15.6451459]}},{"properties":{"northing":1731450,"ave. no. of culms/clump":43,"latitude":15.64577093,"total hectarage (ha)":0.055415,"municipality":"Camiling","total no. of clumps":11,"longitude":120.4073756,"id":"aecjbzz6g8np","province":"Tarlac","barangay":null,"easting":222046,"species":"Kawayan tinik","elev (masl)":null},"type":"Feature","geometry":{"type":"Point","coordinates":[120.4073756,15.64577093]}},{"properties":{"northing":1731510,"ave. no. of culms/clump":43,"latitude":15.64631744,"total hectarage (ha)":0.152702,"municipality":"Camiling","total no. of clumps":31,"longitude":120.4077603,"id":"aecjbzx1pldy","province":"Tarlac","barangay":null,"easting":222088,"species":"Kawayan tinik","elev (masl)":null},"type":"Feature","geometry":{"type":"Point","coordinates":[120.4077603,15.64631744]}},{"properties":{"northing":1731550,"ave. no. of culms/clump":43,"latitude":15.64668664,"total hectarage (ha)":0.086969,"municipality":"Camiling","total no. of clumps":18,"longitude":120.4084268,"id":"aecjbztfdz33","province":"Tarlac","barangay":null,"easting":222160,"species":"Kawayan tinik","elev (masl)":null},"type":"Feature","geometry":{"type":"Point","coordinates":[120.4084268,15.64668664]}},{"properties":{"northing":1731580,"ave. no. of culms/clump":43,"latitude":15.64694876,"total hectarage (ha)":0.081262,"municipality":"Camiling","total no. of clumps":17,"longitude":120.4076777,"id":"aecjc06nrs0i","province":"Tarlac","barangay":null,"easting":222080,"species":"Kawayan tinik","elev (masl)":null},"type":"Feature","geometry":{"type":"Point","coordinates":[120.4076777,15.64694876]}},{"properties":{"northing":1731690,"ave. no. of culms/clump":43,"latitude":15.6479292,"total hectarage (ha)":0.400438,"municipality":"Camiling","total no. of clumps":82,"longitude":120.4065654,"id":"aecjbztf06gs","province":"Tarlac","barangay":null,"easting":221962,"species":"Kawayan tinik","elev (masl)":null},"type":"Feature","geometry":{"type":"Point","coordinates":[120.4065654,15.6479292]}},{"properties":{"northing":1731770,"ave. no. of culms/clump":43,"latitude":15.64864961,"total hectarage (ha)":0.080644,"municipality":"Camiling","total no. of clumps":16,"longitude":120.4063792,"id":"aecjc00ws01p","province":"Tarlac","barangay":null,"easting":221943,"species":"Kawayan tinik","elev (masl)":null},"type":"Feature","geometry":{"type":"Point","coordinates":[120.4063792,15.64864961]}},{"properties":{"northing":1731040,"ave. no. of culms/clump":43,"latitude":15.64123721,"total hectarage (ha)":0.236976,"municipality":"Camiling","total no. of clumps":48,"longitude":120.3381171,"id":"aecjbzz9j5sa","province":"Tarlac","barangay":null,"easting":214610,"species":"Kawayan tinik","elev (masl)":null},"type":"Feature","geometry":{"type":"Point","coordinates":[120.3381171,15.64123721]}},{"properties":{"northing":1731350,"ave. no. of culms/clump":43,"latitude":15.64407085,"total hectarage (ha)":0.296587,"municipality":"Camiling","total no. of clumps":61,"longitude":120.3408863,"id":"aecjc07vrqe3","province":"Tarlac","barangay":null,"easting":214911,"species":"Kawayan tinik","elev (masl)":null},"type":"Feature","geometry":{"type":"Point","coordinates":[120.3408863,15.64407085]}},{"properties":{"northing":1731550,"ave. no. of culms/clump":43,"latitude":15.64594461,"total hectarage (ha)":0.176502,"municipality":"Camiling","total no. of clumps":36,"longitude":120.3464364,"id":"aecjbzzcoth7","province":"Tarlac","barangay":null,"easting":215509,"species":"Kawayan tinik","elev (masl)":null},"type":"Feature","geometry":{"type":"Point","coordinates":[120.3464364,15.64594461]}},{"properties":{"northing":1730930,"ave. no. of culms/clump":43,"latitude":15.64039705,"total hectarage (ha)":0.380316,"municipality":"Camiling","total no. of clumps":78,"longitude":120.3507771,"id":"aecjbzt8t8wb","province":"Tarlac","barangay":null,"easting":215967,"species":"Kawayan tinik","elev (masl)":null},"type":"Feature","geometry":{"type":"Point","coordinates":[120.3507771,15.64039705]}},{"properties":{"northing":1731100,"ave. no. of culms/clump":43,"latitude":15.64198129,"total hectarage (ha)":0.263318,"municipality":"Camiling","total no. of clumps":54,"longitude":120.3548116,"id":"aecjbzwbu98e","province":"Tarlac","barangay":null,"easting":216402,"species":"Kawayan tinik","elev (masl)":null},"type":"Feature","geometry":{"type":"Point","coordinates":[120.3548116,15.64198129]}},{"properties":{"northing":1731310,"ave. no. of culms/clump":43,"latitude":15.64389052,"total hectarage (ha)":0.175649,"municipality":"Camiling","total no. of clumps":36,"longitude":120.3558404,"id":"aecjc0505dxk","province":"Tarlac","barangay":null,"easting":216515,"species":"Kawayan tinik","elev (masl)":null},"type":"Feature","geometry":{"type":"Point","coordinates":[120.3558404,15.64389052]}},{"properties":{"northing":1731320,"ave. no. of culms/clump":43,"latitude":15.64400433,"total hectarage (ha)":0.297425,"municipality":"Camiling","total no. of clumps":61,"longitude":120.3577872,"id":"aecjc00sq6as","province":"Tarlac","barangay":null,"easting":216724,"species":"Kawayan tinik","elev (masl)":null},"type":"Feature","geometry":{"type":"Point","coordinates":[120.3577872,15.64400433]}},{"properties":{"northing":1731360,"ave. no. of culms/clump":43,"latitude":15.64441049,"total hectarage (ha)":0.250657,"municipality":"Camiling","total no. of clumps":51,"longitude":120.3615106,"id":"aecjbzv17ktc","province":"Tarlac","barangay":null,"easting":217124,"species":"Kawayan tinik","elev (masl)":null},"type":"Feature","geometry":{"type":"Point","coordinates":[120.3615106,15.64441049]}},{"properties":{"northing":1731160,"ave. no. of culms/clump":43,"latitude":15.64261348,"total hectarage (ha)":0.234517,"municipality":"Camiling","total no. of clumps":48,"longitude":120.3622981,"id":"aecjbzwlirbo","province":"Tarlac","barangay":null,"easting":217206,"species":"Kawayan tinik","elev (masl)":null},"type":"Feature","geometry":{"type":"Point","coordinates":[120.3622981,15.64261348]}},{"properties":{"northing":1731060,"ave. no. of culms/clump":43,"latitude":15.64172831,"total hectarage (ha)":0.259041,"municipality":"Camiling","total no. of clumps":53,"longitude":120.3638009,"id":"aecjbztxedwc","province":"Tarlac","barangay":null,"easting":217366,"species":"Kawayan tinik","elev (masl)":null},"type":"Feature","geometry":{"type":"Point","coordinates":[120.3638009,15.64172831]}},{"properties":{"northing":1730980,"ave. no. of culms/clump":43,"latitude":15.64102981,"total hectarage (ha)":0.763172,"municipality":"Camiling","total no. of clumps":156,"longitude":120.3658046,"id":"aecjbztnlom9","province":"Tarlac","barangay":null,"easting":217580,"species":"Kawayan tinik","elev (masl)":null},"type":"Feature","geometry":{"type":"Point","coordinates":[120.3658046,15.64102981]}},{"properties":{"northing":1730980,"ave. no. of culms/clump":43,"latitude":15.6410672,"total hectarage (ha)":0.319639,"municipality":"Camiling","total no. of clumps":65,"longitude":120.3689176,"id":"aecjc06gaj94","province":"Tarlac","barangay":null,"easting":217914,"species":"Kawayan tinik","elev (masl)":null},"type":"Feature","geometry":{"type":"Point","coordinates":[120.3689176,15.6410672]}},{"properties":{"northing":1731160,"ave. no. of culms/clump":43,"latitude":15.64276702,"total hectarage (ha)":0.227065,"municipality":"Camiling","total no. of clumps":46,"longitude":120.3750854,"id":"aecjc05g7bue","province":"Tarlac","barangay":null,"easting":218578,"species":"Kawayan tinik","elev (masl)":null},"type":"Feature","geometry":{"type":"Point","coordinates":[120.3750854,15.64276702]}},{"properties":{"northing":1731250,"ave. no. of culms/clump":43,"latitude":15.64359334,"total hectarage (ha)":0.415975,"municipality":"Camiling","total no. of clumps":85,"longitude":120.3762028,"id":"aecjbzy92zkp","province":"Tarlac","barangay":null,"easting":218699,"species":"Kawayan tinik","elev (masl)":null},"type":"Feature","geometry":{"type":"Point","coordinates":[120.3762028,15.64359334]}},{"properties":{"northing":1731250,"ave. no. of culms/clump":43,"latitude":15.64361174,"total hectarage (ha)":0.424339,"municipality":"Camiling","total no. of clumps":87,"longitude":120.3777407,"id":"aecjc04ixhc5","province":"Tarlac","barangay":null,"easting":218864,"species":"Kawayan tinik","elev (masl)":null},"type":"Feature","geometry":{"type":"Point","coordinates":[120.3777407,15.64361174]}},{"properties":{"northing":1731140,"ave. no. of culms/clump":43,"latitude":15.64262679,"total hectarage (ha)":0.350494,"municipality":"Camiling","total no. of clumps":72,"longitude":120.3784617,"id":"aecjbzw9ny3t","province":"Tarlac","barangay":null,"easting":218940,"species":"Kawayan tinik","elev (masl)":null},"type":"Feature","geometry":{"type":"Point","coordinates":[120.3784617,15.64262679]}},{"properties":{"northing":1730420,"ave. no. of culms/clump":43,"latitude":15.63609757,"total hectarage (ha)":0.519767,"municipality":"Camiling","total no. of clumps":106,"longitude":120.3763077,"id":"aecjbzwho7c2","province":"Tarlac","barangay":null,"easting":218700,"species":"Kawayan tinik","elev (masl)":null},"type":"Feature","geometry":{"type":"Point","coordinates":[120.3763077,15.63609757]}},{"properties":{"northing":1730550,"ave. no. of culms/clump":43,"latitude":15.63728612,"total hectarage (ha)":0.273823,"municipality":"Camiling","total no. of clumps":56,"longitude":120.3775043,"id":"aecjc07gf80j","province":"Tarlac","barangay":null,"easting":218830,"species":"Kawayan tinik","elev (masl)":null},"type":"Feature","geometry":{"type":"Point","coordinates":[120.3775043,15.63728612]}},{"properties":{"northing":1731500,"ave. no. of culms/clump":43,"latitude":15.64606515,"total hectarage (ha)":1.017709,"municipality":"Camiling","total no. of clumps":208,"longitude":120.3941067,"id":"aecjc01kfmjr","province":"Tarlac","barangay":null,"easting":220623,"species":"Kawayan tinik","elev (masl)":null},"type":"Feature","geometry":{"type":"Point","coordinates":[120.3941067,15.64606515]}},{"properties":{"northing":1731960,"ave. no. of culms/clump":43,"latitude":15.65030315,"total hectarage (ha)":1.03515,"municipality":"Camiling","total no. of clumps":211,"longitude":120.4010912,"id":"aecjc036x28h","province":"Tarlac","barangay":null,"easting":221378,"species":"Kawayan tinik","elev (masl)":null},"type":"Feature","geometry":{"type":"Point","coordinates":[120.4010912,15.65030315]}},{"properties":{"northing":1732150,"ave. no. of culms/clump":43,"latitude":15.65202143,"total hectarage (ha)":0.631417,"municipality":"Camiling","total no. of clumps":129,"longitude":120.4012653,"id":"aecjc008qa3g","province":"Tarlac","barangay":null,"easting":221399,"species":"Kawayan tinik","elev (masl)":null},"type":"Feature","geometry":{"type":"Point","coordinates":[120.4012653,15.65202143]}},{"properties":{"northing":1732400,"ave. no. of culms/clump":43,"latitude":15.65428569,"total hectarage (ha)":0.422913,"municipality":"Camiling","total no. of clumps":86,"longitude":120.4017774,"id":"aecjbzv61u0m","province":"Tarlac","barangay":null,"easting":221457,"species":"Kawayan tinik","elev (masl)":null},"type":"Feature","geometry":{"type":"Point","coordinates":[120.4017774,15.65428569]}},{"properties":{"northing":1732540,"ave. no. of culms/clump":43,"latitude":15.65555815,"total hectarage (ha)":0.660307,"municipality":"Camiling","total no. of clumps":135,"longitude":120.4024418,"id":"aecjbzsx5csc","province":"Tarlac","barangay":null,"easting":221530,"species":"Kawayan tinik","elev (masl)":null},"type":"Feature","geometry":{"type":"Point","coordinates":[120.4024418,15.65555815]}},{"properties":{"northing":1732660,"ave. no. of culms/clump":43,"latitude":15.65663859,"total hectarage (ha)":0.263699,"municipality":"Camiling","total no. of clumps":54,"longitude":120.4021485,"id":"aecjbzzlf9ar","province":"Tarlac","barangay":null,"easting":221500,"species":"Kawayan tinik","elev (masl)":null},"type":"Feature","geometry":{"type":"Point","coordinates":[120.4021485,15.65663859]}},{"properties":{"northing":1733090,"ave. no. of culms/clump":43,"latitude":15.66050758,"total hectarage (ha)":0.170685,"municipality":"Camiling","total no. of clumps":35,"longitude":120.4008783,"id":"aecjbzv9ww7h","province":"Tarlac","barangay":null,"easting":221369,"species":"Kawayan tinik","elev (masl)":null},"type":"Feature","geometry":{"type":"Point","coordinates":[120.4008783,15.66050758]}},{"properties":{"northing":1733260,"ave. no. of culms/clump":43,"latitude":15.66206194,"total hectarage (ha)":0.851712,"municipality":"Camiling","total no. of clumps":174,"longitude":120.4024622,"id":"aecjbzynztcv","province":"Tarlac","barangay":null,"easting":221541,"species":"Kawayan tinik","elev (masl)":null},"type":"Feature","geometry":{"type":"Point","coordinates":[120.4024622,15.66206194]}},{"properties":{"northing":1733200,"ave. no. of culms/clump":43,"latitude":15.66153631,"total hectarage (ha)":0.304745,"municipality":"Camiling","total no. of clumps":62,"longitude":120.4038393,"id":"aecjc0227kfh","province":"Tarlac","barangay":null,"easting":221688,"species":"Kawayan tinik","elev (masl)":null},"type":"Feature","geometry":{"type":"Point","coordinates":[120.4038393,15.66153631]}},{"properties":{"northing":1733170,"ave. no. of culms/clump":43,"latitude":15.66127466,"total hectarage (ha)":0.348356,"municipality":"Camiling","total no. of clumps":71,"longitude":120.4046257,"id":"aecjbztibyss","province":"Tarlac","barangay":null,"easting":221772,"species":"Kawayan tinik","elev (masl)":null},"type":"Feature","geometry":{"type":"Point","coordinates":[120.4046257,15.66127466]}},{"properties":{"northing":1733050,"ave. no. of culms/clump":43,"latitude":15.66018923,"total hectarage (ha)":1.293948,"municipality":"Camiling","total no. of clumps":264,"longitude":120.4044995,"id":"aecjbzu42bke","province":"Tarlac","barangay":null,"easting":221757,"species":"Kawayan tinik","elev (masl)":null},"type":"Feature","geometry":{"type":"Point","coordinates":[120.4044995,15.66018923]}},{"properties":{"northing":1733230,"ave. no. of culms/clump":43,"latitude":15.66182239,"total hectarage (ha)":0.297676,"municipality":"Camiling","total no. of clumps":61,"longitude":120.4051129,"id":"aecjbzzlkuf9","province":"Tarlac","barangay":null,"easting":221825,"species":"Kawayan tinik","elev (masl)":null},"type":"Feature","geometry":{"type":"Point","coordinates":[120.4051129,15.66182239]}},{"properties":{"northing":1733380,"ave. no. of culms/clump":43,"latitude":15.66317456,"total hectarage (ha)":0.478246,"municipality":"Camiling","total no. of clumps":98,"longitude":120.4048814,"id":"aecjc054ldjm","province":"Tarlac","barangay":null,"easting":221802,"species":"Kawayan tinik","elev (masl)":null},"type":"Feature","geometry":{"type":"Point","coordinates":[120.4048814,15.66317456]}},{"properties":{"northing":1733280,"ave. no. of culms/clump":43,"latitude":15.66226877,"total hectarage (ha)":0.206144,"municipality":"Camiling","total no. of clumps":42,"longitude":120.4046691,"id":"aecjbzwoh02f","province":"Tarlac","barangay":null,"easting":221778,"species":"Kawayan tinik","elev (masl)":null},"type":"Feature","geometry":{"type":"Point","coordinates":[120.4046691,15.66226877]}},{"properties":{"northing":1733020,"ave. no. of culms/clump":43,"latitude":15.65994193,"total hectarage (ha)":0.947264,"municipality":"Camiling","total no. of clumps":193,"longitude":120.4064977,"id":"aecjbzye0c3n","province":"Tarlac","barangay":null,"easting":221971,"species":"Kawayan tinik","elev (masl)":null},"type":"Feature","geometry":{"type":"Point","coordinates":[120.4064977,15.65994193]}},{"properties":{"northing":1733010,"ave. no. of culms/clump":43,"latitude":15.65988528,"total hectarage (ha)":0.990438,"municipality":"Camiling","total no. of clumps":202,"longitude":120.4093419,"id":"aecjbztwrgha","province":"Tarlac","barangay":null,"easting":222276,"species":"Kawayan tinik","elev (masl)":null},"type":"Feature","geometry":{"type":"Point","coordinates":[120.4093419,15.65988528]}},{"properties":{"northing":1733010,"ave. no. of culms/clump":43,"latitude":15.65987767,"total hectarage (ha)":2.238714,"municipality":"Camiling","total no. of clumps":457,"longitude":120.4086987,"id":"aecjbzzgizg4","province":"Tarlac","barangay":null,"easting":222207,"species":"Kawayan tinik","elev (masl)":null},"type":"Feature","geometry":{"type":"Point","coordinates":[120.4086987,15.65987767]}},{"properties":{"northing":1733430,"ave. no. of culms/clump":43,"latitude":15.66367703,"total hectarage (ha)":0.63421,"municipality":"Camiling","total no. of clumps":129,"longitude":120.4091729,"id":"aecjc05112z1","province":"Tarlac","barangay":null,"easting":222263,"species":"Kawayan tinik","elev (masl)":null},"type":"Feature","geometry":{"type":"Point","coordinates":[120.4091729,15.66367703]}},{"properties":{"northing":1733620,"ave. no. of culms/clump":43,"latitude":15.66536761,"total hectarage (ha)":1.443869,"municipality":"Camiling","total no. of clumps":295,"longitude":120.4070073,"id":"aecjbzw68xbr","province":"Tarlac","barangay":null,"easting":222033,"species":"Kawayan tinik","elev (masl)":null},"type":"Feature","geometry":{"type":"Point","coordinates":[120.4070073,15.66536761]}},{"properties":{"northing":1733970,"ave. no. of culms/clump":43,"latitude":15.66856657,"total hectarage (ha)":1.83711,"municipality":"Camiling","total no. of clumps":375,"longitude":120.410174,"id":"aecjbzrhy92t","province":"Tarlac","barangay":null,"easting":222377,"species":"Kawayan tinik","elev (masl)":null},"type":"Feature","geometry":{"type":"Point","coordinates":[120.410174,15.66856657]}},{"properties":{"northing":1733800,"ave. no. of culms/clump":43,"latitude":15.66703123,"total hectarage (ha)":0.801568,"municipality":"Camiling","total no. of clumps":164,"longitude":120.4101934,"id":"aecjc033cywa","province":"Tarlac","barangay":null,"easting":222377,"species":"Kawayan tinik","elev (masl)":null},"type":"Feature","geometry":{"type":"Point","coordinates":[120.4101934,15.66703123]}},{"properties":{"northing":1734300,"ave. no. of culms/clump":43,"latitude":15.67158255,"total hectarage (ha)":0.684292,"municipality":"Camiling","total no. of clumps":140,"longitude":120.4131474,"id":"aecjbzz5m8la","province":"Tarlac","barangay":null,"easting":222700,"species":"Kawayan tinik","elev (masl)":null},"type":"Feature","geometry":{"type":"Point","coordinates":[120.4131474,15.67158255]}},{"properties":{"northing":1734460,"ave. no. of culms/clump":43,"latitude":15.67299427,"total hectarage (ha)":0.810345,"municipality":"Camiling","total no. of clumps":165,"longitude":120.410314,"id":"aecjc039y0r6","province":"Tarlac","barangay":null,"easting":222398,"species":"Kawayan tinik","elev (masl)":null},"type":"Feature","geometry":{"type":"Point","coordinates":[120.410314,15.67299427]}},{"properties":{"northing":1734370,"ave. no. of culms/clump":43,"latitude":15.67218939,"total hectarage (ha)":0.379442,"municipality":"Camiling","total no. of clumps":77,"longitude":120.4109954,"id":"aecjc01vzspk","province":"Tarlac","barangay":null,"easting":222470,"species":"Kawayan tinik","elev (masl)":null},"type":"Feature","geometry":{"type":"Point","coordinates":[120.4109954,15.67218939]}},{"properties":{"northing":1734490,"ave. no. of culms/clump":43,"latitude":15.6732375,"total hectarage (ha)":0.424607,"municipality":"Camiling","total no. of clumps":87,"longitude":120.4079708,"id":"aecjc03rnmf8","province":"Tarlac","barangay":null,"easting":222147,"species":"Kawayan tinik","elev (masl)":null},"type":"Feature","geometry":{"type":"Point","coordinates":[120.4079708,15.6732375]}},{"properties":{"northing":1734680,"ave. no. of culms/clump":43,"latitude":15.6749433,"total hectarage (ha)":1.002512,"municipality":"Camiling","total no. of clumps":205,"longitude":120.4070915,"id":"aecjc049b5m5","province":"Tarlac","barangay":null,"easting":222055,"species":"Kawayan tinik","elev (masl)":null},"type":"Feature","geometry":{"type":"Point","coordinates":[120.4070915,15.6749433]}},{"properties":{"northing":1734910,"ave. no. of culms/clump":43,"latitude":15.67703013,"total hectarage (ha)":1.871244,"municipality":"Camiling","total no. of clumps":382,"longitude":120.4078763,"id":"aecjc06ebr7m","province":"Tarlac","barangay":null,"easting":222142,"species":"Kawayan tinik","elev (masl)":null},"type":"Feature","geometry":{"type":"Point","coordinates":[120.4078763,15.67703013]}},{"properties":{"northing":1735260,"ave. no. of culms/clump":43,"latitude":15.68019906,"total hectarage (ha)":1.260117,"municipality":"Camiling","total no. of clumps":257,"longitude":120.4085076,"id":"aecjbzu39xic","province":"Tarlac","barangay":null,"easting":222214,"species":"Kawayan tinik","elev (masl)":null},"type":"Feature","geometry":{"type":"Point","coordinates":[120.4085076,15.68019906]}},{"properties":{"northing":1735340,"ave. no. of culms/clump":43,"latitude":15.68092853,"total hectarage (ha)":0.714054,"municipality":"Camiling","total no. of clumps":146,"longitude":120.4090857,"id":"aecjc02175l0","province":"Tarlac","barangay":null,"easting":222277,"species":"Kawayan tinik","elev (masl)":null},"type":"Feature","geometry":{"type":"Point","coordinates":[120.4090857,15.68092853]}},{"properties":{"northing":1735370,"ave. no. of culms/clump":43,"latitude":15.68124528,"total hectarage (ha)":0.140371,"municipality":"Camiling","total no. of clumps":29,"longitude":120.4129511,"id":"aecjbzz0pno2","province":"Tarlac","barangay":null,"easting":222692,"species":"Kawayan tinik","elev (masl)":null},"type":"Feature","geometry":{"type":"Point","coordinates":[120.4129511,15.68124528]}},{"properties":{"northing":1735800,"ave. no. of culms/clump":43,"latitude":15.68518632,"total hectarage (ha)":1.25553,"municipality":"Camiling","total no. of clumps":256,"longitude":120.4177685,"id":"aecjbzv8iqgd","province":"Tarlac","barangay":null,"easting":223214,"species":"Kawayan tinik","elev (masl)":null},"type":"Feature","geometry":{"type":"Point","coordinates":[120.4177685,15.68518632]}}],"is_temporal":false,"author":{"url":"","metadata":"","contact_name":"","contact_address":"","source":"","contact_phone":""},"source":"","pagination":{"sort":null,"start":0,"total":69,"limit":1000000},"state":"complete","tags":"","published":"2014-08-16T23:27:38-04:00","id":357568}