{"type":"FeatureCollection","data_type":"Dataset","url_type":null,"permissions":[{"permissions":{"download":true,"view":true},"group_id":"everyone"}],"classification":null,"title":"REITS","count":693,"stream_id":357762,"contributor":{"url":"http://geocommons.com/users/72391","name":"jhayball"},"data_attributes":null,"calculation_params":null,"icon_link":null,"link":"http://geocommons.com/overlays/357762.json","extent":[-139.887,-22.1833,166.567,61.116],"geometry_types":["point"],"unique_name":null,"name":"REITS","feature_count":693,"description":"","next_feature":null,"is_raster":false,"short_classification":"Y","stats":{},"features":[{"properties":{"property name":"Property 143","city":"Palmer","reit":"Health Care REIT","geo_score":0.0,"id":"aed06wohy0py","geo_precision":"unmatched","state":"AK","year acquired":"2007"},"type":"Feature","geometry":null},{"properties":{"property name":"638","city":"Anchorage","reit":"HCP","geo_score":0.0,"id":"aed06wl6ffys","geo_precision":"unmatched","state":"AK","year acquired":"2000"},"type":"Feature","geometry":null},{"properties":{"property name":"St. Vincent s Medical Center East #46","city":"Birmingham","reit":"Ventas","geo_score":0.0,"id":"aed06wnt7st4","geo_precision":"unmatched","state":"AL","year acquired":"2010"},"type":"Feature","geometry":null},{"properties":{"property name":"St. Vincent s Medical Center East #48","city":"Birmingham","reit":"Ventas","geo_score":0.0,"id":"aed06wwt790o","geo_precision":"unmatched","state":"AL","year acquired":"2010"},"type":"Feature","geometry":null},{"properties":{"property name":"St. Vincent s Medical Center East #52","city":"Birmingham","reit":"Ventas","geo_score":0.0,"id":"aed06wvb7yup","geo_precision":"unmatched","state":"AL","year acquired":"2010"},"type":"Feature","geometry":null},{"properties":{"property name":"Crestwood Medical Pavilion","city":"Huntsville","reit":"Ventas","geo_score":0.0,"id":"aed06wxrh2hc","geo_precision":"unmatched","state":"AL","year acquired":"2011"},"type":"Feature","geometry":null},{"properties":{"property name":"Property 19","city":"Birmingham","reit":"Health Care REIT","geo_score":0.0,"id":"aed06wrp6bju","geo_precision":"unmatched","state":"AL","year acquired":"2006"},"type":"Feature","geometry":null},{"properties":{"property name":"Property 20","city":"Birmingham","reit":"Health Care REIT","geo_score":0.0,"id":"aed06wkqhd4e","geo_precision":"unmatched","state":"AL","year acquired":"2006"},"type":"Feature","geometry":null},{"properties":{"property name":"Property 21","city":"Birmingham","reit":"Health Care REIT","geo_score":0.0,"id":"aed06wkha9it","geo_precision":"unmatched","state":"AL","year acquired":"2006"},"type":"Feature","geometry":null},{"properties":{"property name":"Property 160","city":"Rogers","reit":"Health Care REIT","geo_score":0.0,"id":"aed06wyomofw","geo_precision":"unmatched","state":"AR","year acquired":"2011"},"type":"Feature","geometry":null},{"properties":{"property name":"Canyon Springs Medical Plaza","city":"Gilbert","reit":"Ventas","geo_score":0.0,"id":"aed06wkeyo8j","geo_precision":"unmatched","state":"AZ","year acquired":"2012"},"type":"Feature","geometry":null},{"properties":{"property name":"Mercy Gilbert Medical Plaza","city":"Gilbert","reit":"Ventas","geo_score":0.0,"id":"aed06wms12jt","geo_precision":"unmatched","state":"AZ","year acquired":"2011"},"type":"Feature","geometry":null},{"properties":{"property name":"Thunderbird Paseo Medical Plaza","city":"Glendale","reit":"Ventas","geo_score":0.0,"id":"aed06wqtsz62","geo_precision":"unmatched","state":"AZ","year acquired":"2011"},"type":"Feature","geometry":null},{"properties":{"property name":"Thunderbird Paseo Medical Plaza II","city":"Glendale","reit":"Ventas","geo_score":0.0,"id":"aed06wv3klgv","geo_precision":"unmatched","state":"AZ","year acquired":"2011"},"type":"Feature","geometry":null},{"properties":{"property name":"Cobre Valley Medical Plaza","city":"Globe","reit":"Ventas","geo_score":0.0,"id":"aed06wr1n8sr","geo_precision":"unmatched","state":"AZ","year acquired":"2011"},"type":"Feature","geometry":null},{"properties":{"property name":"Desert Samaritan Medical Building I","city":"Mesa","reit":"Ventas","geo_score":0.857,"id":"aed06wv03tmu","geo_precision":"zip","state":"AZ","year acquired":"2011"},"type":"Feature","geometry":{"type":"Point","coordinates":[46.4055556,39.6938889]}},{"properties":{"property name":"Desert Samaritan Medical Building II","city":"Mesa","reit":"Ventas","geo_score":0.857,"id":"aed06wo9e3dn","geo_precision":"zip","state":"AZ","year acquired":"2011"},"type":"Feature","geometry":{"type":"Point","coordinates":[46.4055556,39.6938889]}},{"properties":{"property name":"Desert Samaritan Medical Building III","city":"Mesa","reit":"Ventas","geo_score":0.857,"id":"aed06wmpougz","geo_precision":"zip","state":"AZ","year acquired":"2011"},"type":"Feature","geometry":{"type":"Point","coordinates":[46.4055556,39.6938889]}},{"properties":{"property name":"Deer Valley Medical Office Building II","city":"Phoenix","reit":"Ventas","geo_score":0.857,"id":"aed06wyh3ik0","geo_precision":"zip","state":"AZ","year acquired":"2011"},"type":"Feature","geometry":{"type":"Point","coordinates":[46.5430556,39.7611111]}},{"properties":{"property name":"Deer Valley Medical Office Building III","city":"Phoenix","reit":"Ventas","geo_score":0.857,"id":"aed06wop3dfg","geo_precision":"zip","state":"AZ","year acquired":"2011"},"type":"Feature","geometry":{"type":"Point","coordinates":[46.5430556,39.7611111]}},{"properties":{"property name":"Edwards Medical Plaza","city":"Phoenix","reit":"Ventas","geo_score":0.857,"id":"aed06wpv7zmo","geo_precision":"zip","state":"AZ","year acquired":"2011"},"type":"Feature","geometry":{"type":"Point","coordinates":[46.5430556,39.7611111]}},{"properties":{"property name":"Papago Medical Park","city":"Phoenix","reit":"Ventas","geo_score":0.857,"id":"aed06wud6ii8","geo_precision":"zip","state":"AZ","year acquired":"2011"},"type":"Feature","geometry":{"type":"Point","coordinates":[46.5430556,39.7611111]}},{"properties":{"property name":"Property 116","city":"Mesa","reit":"Health Care REIT","geo_score":0.857,"id":"aed06wv0i2yr","geo_precision":"zip","state":"AZ","year acquired":"2008"},"type":"Feature","geometry":{"type":"Point","coordinates":[46.4055556,39.6938889]}},{"properties":{"property name":"Property 137","city":"Oro Valley","reit":"Health Care REIT","geo_score":0.857,"id":"aed06woztsjv","geo_precision":"zip","state":"AZ","year acquired":"2007"},"type":"Feature","geometry":{"type":"Point","coordinates":[48.8666667,38.6833333]}},{"properties":{"property name":"Property 147","city":"Phoenix","reit":"Health Care REIT","geo_score":0.857,"id":"aed06wn75v9v","geo_precision":"zip","state":"AZ","year acquired":"2006"},"type":"Feature","geometry":{"type":"Point","coordinates":[46.5430556,39.7611111]}},{"properties":{"property name":"Property 195","city":"Tucson","reit":"Health Care REIT","geo_score":0.0,"id":"aed06wt2d3rq","geo_precision":"unmatched","state":"AZ","year acquired":"2008"},"type":"Feature","geometry":null},{"properties":{"property name":"520","city":"Chandler","reit":"HCP","geo_score":0.0,"id":"aed06wyh4viz","geo_precision":"unmatched","state":"AZ","year acquired":"2002"},"type":"Feature","geometry":null},{"properties":{"property name":"2040","city":"Mesa","reit":"HCP","geo_score":0.857,"id":"aed06wrotqga","geo_precision":"zip","state":"AZ","year acquired":"2012"},"type":"Feature","geometry":{"type":"Point","coordinates":[46.4055556,39.6938889]}},{"properties":{"property name":"468","city":"Oro Valley","reit":"HCP","geo_score":0.857,"id":"aed06wn7oqdi","geo_precision":"zip","state":"AZ","year acquired":"2001"},"type":"Feature","geometry":{"type":"Point","coordinates":[48.8666667,38.6833333]}},{"properties":{"property name":"356","city":"Phoenix","reit":"HCP","geo_score":0.857,"id":"aed06wqykop6","geo_precision":"zip","state":"AZ","year acquired":"1999"},"type":"Feature","geometry":{"type":"Point","coordinates":[46.5430556,39.7611111]}},{"properties":{"property name":"470","city":"Phoenix","reit":"HCP","geo_score":0.857,"id":"aed06wubq8bn","geo_precision":"zip","state":"AZ","year acquired":"2001"},"type":"Feature","geometry":{"type":"Point","coordinates":[46.5430556,39.7611111]}},{"properties":{"property name":"1066","city":"Scottsdale","reit":"HCP","geo_score":0.0,"id":"aed06wyf7vjs","geo_precision":"unmatched","state":"AZ","year acquired":"2006"},"type":"Feature","geometry":null},{"properties":{"property name":"2021","city":"Scottsdale","reit":"HCP","geo_score":0.0,"id":"aed06wvtp7jz","geo_precision":"unmatched","state":"AZ","year acquired":"2012"},"type":"Feature","geometry":null},{"properties":{"property name":"2022","city":"Scottsdale","reit":"HCP","geo_score":0.0,"id":"aed06wje2zc1","geo_precision":"unmatched","state":"AZ","year acquired":"2012"},"type":"Feature","geometry":null},{"properties":{"property name":"2023","city":"Scottsdale","reit":"HCP","geo_score":0.0,"id":"aed06wppq14l","geo_precision":"unmatched","state":"AZ","year acquired":"2012"},"type":"Feature","geometry":null},{"properties":{"property name":"2024","city":"Scottsdale","reit":"HCP","geo_score":0.0,"id":"aed06wywnf85","geo_precision":"unmatched","state":"AZ","year acquired":"2012"},"type":"Feature","geometry":null},{"properties":{"property name":"2025","city":"Scottsdale","reit":"HCP","geo_score":0.0,"id":"aed06wiychjk","geo_precision":"unmatched","state":"AZ","year acquired":"2012"},"type":"Feature","geometry":null},{"properties":{"property name":"2026","city":"Scottsdale","reit":"HCP","geo_score":0.0,"id":"aed06wz7anm3","geo_precision":"unmatched","state":"AZ","year acquired":"2012"},"type":"Feature","geometry":null},{"properties":{"property name":"2027","city":"Scottsdale","reit":"HCP","geo_score":0.0,"id":"aed06wu3sapl","geo_precision":"unmatched","state":"AZ","year acquired":"2012"},"type":"Feature","geometry":null},{"properties":{"property name":"2028","city":"Scottsdale","reit":"HCP","geo_score":0.0,"id":"aed06wk4agkf","geo_precision":"unmatched","state":"AZ","year acquired":"2012"},"type":"Feature","geometry":null},{"properties":{"property name":"453","city":"Tucson","reit":"HCP","geo_score":0.0,"id":"aed06wpetyan","geo_precision":"unmatched","state":"AZ","year acquired":"2000"},"type":"Feature","geometry":null},{"properties":{"property name":"556","city":"Tucson","reit":"HCP","geo_score":0.0,"id":"aed06x1a0443","geo_precision":"unmatched","state":"AZ","year acquired":"2003"},"type":"Feature","geometry":null},{"properties":{"property name":"Burbank Medical Plaza","city":"Burbank","reit":"Ventas","geo_score":0.857,"id":"aed06x2kcuy6","geo_precision":"zip","state":"CA","year acquired":"2011"},"type":"Feature","geometry":{"type":"Point","coordinates":[-122.686224384,53.083180257]}},{"properties":{"property name":"Burbank Medical Plaza II","city":"Burbank","reit":"Ventas","geo_score":0.857,"id":"aed06x8husyb","geo_precision":"zip","state":"CA","year acquired":"2011"},"type":"Feature","geometry":{"type":"Point","coordinates":[-122.686224384,53.083180257]}},{"properties":{"property name":"Eden Medical Plaza","city":"Castro Valley","reit":"Ventas","geo_score":0.857,"id":"aed06x2nhwhk","geo_precision":"zip","state":"CA","year acquired":"2011"},"type":"Feature","geometry":{"type":"Point","coordinates":[-111.885085347,52.2168381]}},{"properties":{"property name":"Sutter Medical Center","city":"Castro Valley","reit":"Ventas","geo_score":0.857,"id":"aed06x2n49f9","geo_precision":"zip","state":"CA","year acquired":"2012"},"type":"Feature","geometry":{"type":"Point","coordinates":[-111.885085347,52.2168381]}},{"properties":{"property name":"PMB Chula Vista","city":"Chula Vista","reit":"Ventas","geo_score":0.857,"id":"aed06x672enk","geo_precision":"zip","state":"CA","year acquired":"2011"},"type":"Feature","geometry":{"type":"Point","coordinates":[-122.619710365,53.999911167]}},{"properties":{"property name":"NorthBay Corporate Headquarters","city":"Fairfield","reit":"Ventas","geo_score":0.857,"id":"aed06x7nobwk","geo_precision":"zip","state":"CA","year acquired":"2012"},"type":"Feature","geometry":{"type":"Point","coordinates":[-79.654,43.6075]}},{"properties":{"property name":"Gateway Medical Plaza","city":"Fairfield","reit":"Ventas","geo_score":0.857,"id":"aed06x6xo327","geo_precision":"zip","state":"CA","year acquired":"2012"},"type":"Feature","geometry":{"type":"Point","coordinates":[-79.654,43.6075]}},{"properties":{"property name":"Solano NorthBay Health Plaza","city":"Fairfield","reit":"Ventas","geo_score":0.857,"id":"aed06x72y87v","geo_precision":"zip","state":"CA","year acquired":"2012"},"type":"Feature","geometry":{"type":"Point","coordinates":[-79.654,43.6075]}},{"properties":{"property name":"Verdugo Hills Professional Bldg I","city":"Glendale","reit":"Ventas","geo_score":0.857,"id":"aed06x6ds9qk","geo_precision":"zip","state":"CA","year acquired":"2012"},"type":"Feature","geometry":{"type":"Point","coordinates":[-61.515242163,46.066841595]}},{"properties":{"property name":"Verdugo Hills Professional Bldg II","city":"Glendale","reit":"Ventas","geo_score":0.857,"id":"aed06x25jcad","geo_precision":"zip","state":"CA","year acquired":"2012"},"type":"Feature","geometry":{"type":"Point","coordinates":[-61.515242163,46.066841595]}},{"properties":{"property name":"St. Francis Lynwood Medical","city":"Lynwood","reit":"Ventas","geo_score":0.857,"id":"aed06xe3vuz6","geo_precision":"zip","state":"CA","year acquired":"2011"},"type":"Feature","geometry":{"type":"Point","coordinates":[-113.585355388,53.51680214]}},{"properties":{"property name":"PMB Mission Hills","city":"Mission Hills","reit":"Ventas","geo_score":0.857,"id":"aed06x42sd4r","geo_precision":"zip","state":"CA","year acquired":"2012"},"type":"Feature","geometry":{"type":"Point","coordinates":[-121.774938226,52.24296093]}},{"properties":{"property name":"PDP Mission Viejo","city":"Mission Viejo","reit":"Ventas","geo_score":0.857,"id":"aed06xb93ngn","geo_precision":"zip","state":"CA","year acquired":"2011"},"type":"Feature","geometry":{"type":"Point","coordinates":[-121.774938226,52.24296093]}},{"properties":{"property name":"PDP Orange","city":"Orange","reit":"Ventas","geo_score":0.0,"id":"aed06x8i1cax","geo_precision":"unmatched","state":"CA","year acquired":"2011"},"type":"Feature","geometry":null},{"properties":{"property name":"NHP/PMB Pasadena","city":"Pasadena","reit":"Ventas","geo_score":0.857,"id":"aed06x333dua","geo_precision":"zip","state":"CA","year acquired":"2011"},"type":"Feature","geometry":{"type":"Point","coordinates":[-57.598368708,49.016714544]}},{"properties":{"property name":"Western University of Health Sciences","city":"Pomona","reit":"Ventas","geo_score":0.857,"id":"aed06xa2ae4b","geo_precision":"zip","state":"CA","year acquired":"2011"},"type":"Feature","geometry":{"type":"Point","coordinates":[-80.649708484,44.233396101]}},{"properties":{"property name":"Pomerado Outpatient Pavilion","city":"Poway","reit":"Ventas","geo_score":0.0,"id":"aed06x1018gr","geo_precision":"unmatched","state":"CA","year acquired":"2011"},"type":"Feature","geometry":null},{"properties":{"property name":"NHP SB 399-401 East Highland","city":"San Bernardino","reit":"Ventas","geo_score":0.857,"id":"aed06x6rlrw4","geo_precision":"zip","state":"CA","year acquired":"2011"},"type":"Feature","geometry":{"type":"Point","coordinates":[-99.485506572,51.783323269]}},{"properties":{"property name":"NHP SB 399-401 East Highland","city":"San Bernardino","reit":"Ventas","geo_score":0.857,"id":"aed06xbnjrpi","geo_precision":"zip","state":"CA","year acquired":"2011"},"type":"Feature","geometry":{"type":"Point","coordinates":[-99.485506572,51.783323269]}},{"properties":{"property name":"San Gabriel Valley Medical","city":"San Gabriel","reit":"Ventas","geo_score":0.857,"id":"aed06x7zb9nq","geo_precision":"zip","state":"CA","year acquired":"2011"},"type":"Feature","geometry":{"type":"Point","coordinates":[-76.832710082,48.30017534]}},{"properties":{"property name":"Santa Clarita Valley Medical","city":"Santa Clarita","reit":"Ventas","geo_score":0.857,"id":"aed06x62rhxs","geo_precision":"zip","state":"CA","year acquired":"2011"},"type":"Feature","geometry":{"type":"Point","coordinates":[-109.701493505,49.283331736]}},{"properties":{"property name":"Kenneth E Watts Medical Plaza","city":"Torrance","reit":"Ventas","geo_score":0.857,"id":"aed06x97or3o","geo_precision":"zip","state":"CA","year acquired":"2011"},"type":"Feature","geometry":{"type":"Point","coordinates":[-79.566336821,45.000102432]}},{"properties":{"property name":"Vaca Valley Health Plaza","city":"Vacaville","reit":"Ventas","geo_score":0.0,"id":"aed06xcoisev","geo_precision":"unmatched","state":"CA","year acquired":"2012"},"type":"Feature","geometry":null},{"properties":{"property name":"Property 9","city":"Arcadia","reit":"Health Care REIT","geo_score":0.857,"id":"aed06x6bsdks","geo_precision":"zip","state":"CA","year acquired":"2006"},"type":"Feature","geometry":{"type":"Point","coordinates":[-116.135758172,55.400102883]}},{"properties":{"property name":"Property 60","city":"Fresno","reit":"Health Care REIT","geo_score":0.857,"id":"aed06x0m1ner","geo_precision":"zip","state":"CA","year acquired":"2008"},"type":"Feature","geometry":{"type":"Point","coordinates":[-58.748210046,51.300121117]}},{"properties":{"property name":"Property 66","city":"Glendale","reit":"Health Care REIT","geo_score":0.857,"id":"aed06x47mt9i","geo_precision":"zip","state":"CA","year acquired":"2007"},"type":"Feature","geometry":{"type":"Point","coordinates":[-61.515242163,46.066841595]}},{"properties":{"property name":"Property 91","city":"Lakewood","reit":"Health Care REIT","geo_score":0.857,"id":"aed06x4k0hjm","geo_precision":"zip","state":"CA","year acquired":"2006"},"type":"Feature","geometry":{"type":"Point","coordinates":[-76.666068441,47.566857213]}},{"properties":{"property name":"Property 100","city":"Los Alamitos","reit":"Health Care REIT","geo_score":0.857,"id":"aed06xdgkk16","geo_precision":"zip","state":"CA","year acquired":"2007"},"type":"Feature","geometry":{"type":"Point","coordinates":[-73.734174418,46.256476309]}},{"properties":{"property name":"Property 101","city":"Los Gatos","reit":"Health Care REIT","geo_score":0.857,"id":"aed06x87stc4","geo_precision":"zip","state":"CA","year acquired":"2006"},"type":"Feature","geometry":{"type":"Point","coordinates":[-118.069407052,55.766748522]}},{"properties":{"property name":"Property 108","city":"Merced","reit":"Health Care REIT","geo_score":0.857,"id":"aed06x43k1ox","geo_precision":"zip","state":"CA","year acquired":"2009"},"type":"Feature","geometry":{"type":"Point","coordinates":[-79.949701298,48.23346806]}},{"properties":{"property name":"Property 128","city":"Murrieta","reit":"Health Care REIT","geo_score":0.857,"id":"aed06x6cbro4","geo_precision":"zip","state":"CA","year acquired":"2010"},"type":"Feature","geometry":{"type":"Point","coordinates":[-109.901572615,51.433421371]}},{"properties":{"property name":"Property 129","city":"Murrieta","reit":"Health Care REIT","geo_score":0.857,"id":"aed06xf7ygya","geo_precision":"zip","state":"CA","year acquired":"2008"},"type":"Feature","geometry":{"type":"Point","coordinates":[-109.901572615,51.433421371]}},{"properties":{"property name":"Property 142","city":"Palm Springs","reit":"Health Care REIT","geo_score":0.857,"id":"aed06x3y2g79","geo_precision":"zip","state":"CA","year acquired":"2006"},"type":"Feature","geometry":{"type":"Point","coordinates":[-139.887340619,61.116038814]}},{"properties":{"property name":"Property 166","city":"Sacramento","reit":"Health Care REIT","geo_score":0.857,"id":"aed06xeycm2c","geo_precision":"zip","state":"CA","year acquired":"2006"},"type":"Feature","geometry":{"type":"Point","coordinates":[-118.385598186,50.449832005]}},{"properties":{"property name":"Property 170","city":"San Bernardino","reit":"Health Care REIT","geo_score":0.857,"id":"aed06xac9gee","geo_precision":"zip","state":"CA","year acquired":"2008"},"type":"Feature","geometry":{"type":"Point","coordinates":[-99.485506572,51.783323269]}},{"properties":{"property name":"Property 171","city":"San Diego","reit":"Health Care REIT","geo_score":0.857,"id":"aed06xfibp9m","geo_precision":"zip","state":"CA","year acquired":"2008"},"type":"Feature","geometry":{"type":"Point","coordinates":[-101.584220585,51.399979807]}},{"properties":{"property name":"Property 197","city":"Van Nuys","reit":"Health Care REIT","geo_score":0.857,"id":"aed06x4tjaxe","geo_precision":"zip","state":"CA","year acquired":"2009"},"type":"Feature","geometry":{"type":"Point","coordinates":[-105.301160522,51.61676768]}},{"properties":{"property name":"1041","city":"Brentwood","reit":"HCP","geo_score":0.857,"id":"aed06xfl6yum","geo_precision":"zip","state":"CA","year acquired":"2006"},"type":"Feature","geometry":{"type":"Point","coordinates":[-58.481809098,48.41671214]}},{"properties":{"property name":"1200","city":"Encino","reit":"HCP","geo_score":0.857,"id":"aed06x368nd9","geo_precision":"zip","state":"CA","year acquired":"2006"},"type":"Feature","geometry":{"type":"Point","coordinates":[-113.435221896,50.4667806]}},{"properties":{"property name":"436","city":"Murietta","reit":"HCP","geo_score":0.857,"id":"aed06x4pqfsl","geo_precision":"zip","state":"CA","year acquired":"1999"},"type":"Feature","geometry":{"type":"Point","coordinates":[-109.901572615,51.433421371]}},{"properties":{"property name":"239","city":"Poway","reit":"HCP","geo_score":0.0,"id":"aed06xdrl5b8","geo_precision":"unmatched","state":"CA","year acquired":"1997"},"type":"Feature","geometry":null},{"properties":{"property name":"318","city":"Sacramento","reit":"HCP","geo_score":0.857,"id":"aed06x1uk3lb","geo_precision":"zip","state":"CA","year acquired":"1998"},"type":"Feature","geometry":{"type":"Point","coordinates":[-118.385598186,50.449832005]}},{"properties":{"property name":"234","city":"San Diego","reit":"HCP","geo_score":0.857,"id":"aed06xcbphcq","geo_precision":"zip","state":"CA","year acquired":"1997"},"type":"Feature","geometry":{"type":"Point","coordinates":[-101.584220585,51.399979807]}},{"properties":{"property name":"235","city":"San Diego","reit":"HCP","geo_score":0.857,"id":"aed06x0qlh1q","geo_precision":"zip","state":"CA","year acquired":"1997"},"type":"Feature","geometry":{"type":"Point","coordinates":[-101.584220585,51.399979807]}},{"properties":{"property name":"236","city":"San Diego","reit":"HCP","geo_score":0.857,"id":"aed06x0bhzl6","geo_precision":"zip","state":"CA","year acquired":"1997"},"type":"Feature","geometry":{"type":"Point","coordinates":[-101.584220585,51.399979807]}},{"properties":{"property name":"421","city":"San Diego","reit":"HCP","geo_score":0.857,"id":"aed06x7yzvo6","geo_precision":"zip","state":"CA","year acquired":"1999"},"type":"Feature","geometry":{"type":"Point","coordinates":[-101.584220585,51.399979807]}},{"properties":{"property name":"564","city":"San Jose","reit":"HCP","geo_score":0.857,"id":"aed06xengiyr","geo_precision":"zip","state":"CA","year acquired":"2003"},"type":"Feature","geometry":{"type":"Point","coordinates":[-76.832710082,48.30017534]}},{"properties":{"property name":"565","city":"San Jose","reit":"HCP","geo_score":0.857,"id":"aed06x4lrfbf","geo_precision":"zip","state":"CA","year acquired":"2003"},"type":"Feature","geometry":{"type":"Point","coordinates":[-76.832710082,48.30017534]}},{"properties":{"property name":"659","city":"San Jose","reit":"HCP","geo_score":0.857,"id":"aed06xbdodyl","geo_precision":"zip","state":"CA","year acquired":"2000"},"type":"Feature","geometry":{"type":"Point","coordinates":[-76.832710082,48.30017534]}},{"properties":{"property name":"1209","city":"Sherman Oaks","reit":"HCP","geo_score":0.857,"id":"aed06x3yqqls","geo_precision":"zip","state":"CA","year acquired":"2006"},"type":"Feature","geometry":{"type":"Point","coordinates":[-119.88609793,54.599932276]}},{"properties":{"property name":"439","city":"Valencia","reit":"HCP","geo_score":0.857,"id":"aed06x41nlk6","geo_precision":"zip","state":"CA","year acquired":"1999"},"type":"Feature","geometry":{"type":"Point","coordinates":[-78.79956922,44.250118415]}},{"properties":{"property name":"1211","city":"Valencia","reit":"HCP","geo_score":0.857,"id":"aed06x8z9unv","geo_precision":"zip","state":"CA","year acquired":"2006"},"type":"Feature","geometry":{"type":"Point","coordinates":[-78.79956922,44.250118415]}},{"properties":{"property name":"440","city":"West Hills","reit":"HCP","geo_score":0.857,"id":"aed06x2pv36l","geo_precision":"zip","state":"CA","year acquired":"1999"},"type":"Feature","geometry":{"type":"Point","coordinates":[-83.166488288,47.716815065]}},{"properties":{"property name":"Potomac Medical Plaza","city":"Aurora","reit":"Ventas","geo_score":0.857,"id":"aed06x4ejiep","geo_precision":"zip","state":"CO","year acquired":"2007"},"type":"Feature","geometry":{"type":"Point","coordinates":[-74.5,4.0]}},{"properties":{"property name":"Briargate Medical Campus","city":"Colorado Springs","reit":"Ventas","geo_score":0.857,"id":"aed06x27cz75","geo_precision":"zip","state":"CO","year acquired":"2007"},"type":"Feature","geometry":{"type":"Point","coordinates":[-73.6225,5.7313889]}},{"properties":{"property name":"Printers Park Medical Plaza","city":"Colorado Springs","reit":"Ventas","geo_score":0.857,"id":"aed06x51sq6i","geo_precision":"zip","state":"CO","year acquired":"2007"},"type":"Feature","geometry":{"type":"Point","coordinates":[-73.6225,5.7313889]}},{"properties":{"property name":"Green Valley Ranch MOB","city":"Denver","reit":"Ventas","geo_score":0.0,"id":"aed06xe4j6en","geo_precision":"unmatched","state":"CO","year acquired":"2012"},"type":"Feature","geometry":null},{"properties":{"property name":"Community Physicians Pavilion","city":"Lafayette","reit":"Ventas","geo_score":0.0,"id":"aed06x68wucd","geo_precision":"unmatched","state":"CO","year acquired":"2010"},"type":"Feature","geometry":null},{"properties":{"property name":"Avista Two Medical Plaza","city":"Louisville","reit":"Ventas","geo_score":0.857,"id":"aed06x409s00","geo_precision":"zip","state":"CO","year acquired":"2009"},"type":"Feature","geometry":{"type":"Point","coordinates":[-75.425,3.3105556]}},{"properties":{"property name":"The Sierra Medical Building","city":"Parker","reit":"Ventas","geo_score":0.857,"id":"aed06xamqxt6","geo_precision":"zip","state":"CO","year acquired":"2009"},"type":"Feature","geometry":{"type":"Point","coordinates":[-78.8358333,1.6488889]}},{"properties":{"property name":"Property 68","city":"Greeley","reit":"Health Care REIT","geo_score":0.857,"id":"aed06x2hyv5w","geo_precision":"zip","state":"CO","year acquired":"2007"},"type":"Feature","geometry":{"type":"Point","coordinates":[-76.1333333,1.8666667]}},{"properties":{"property name":"728","city":"Aurora","reit":"HCP","geo_score":0.857,"id":"aed06x6493jo","geo_precision":"zip","state":"CO","year acquired":"2005"},"type":"Feature","geometry":{"type":"Point","coordinates":[-74.5,4.0]}},{"properties":{"property name":"1196","city":"Aurora","reit":"HCP","geo_score":0.857,"id":"aed06x2rxwiv","geo_precision":"zip","state":"CO","year acquired":"2006"},"type":"Feature","geometry":{"type":"Point","coordinates":[-74.5,4.0]}},{"properties":{"property name":"1197","city":"Aurora","reit":"HCP","geo_score":0.857,"id":"aed06x198tg3","geo_precision":"zip","state":"CO","year acquired":"2006"},"type":"Feature","geometry":{"type":"Point","coordinates":[-74.5,4.0]}},{"properties":{"property name":"882","city":"Colorado Springs","reit":"HCP","geo_score":0.857,"id":"aed06x5yae8x","geo_precision":"zip","state":"CO","year acquired":"2007"},"type":"Feature","geometry":{"type":"Point","coordinates":[-73.6225,5.7313889]}},{"properties":{"property name":"814","city":"Conifer","reit":"HCP","geo_score":0.857,"id":"aed06wzvfsvm","geo_precision":"zip","state":"CO","year acquired":"2005"},"type":"Feature","geometry":{"type":"Point","coordinates":[-73.5816667,7.0786111]}},{"properties":{"property name":"1199","city":"Denver","reit":"HCP","geo_score":0.0,"id":"aed06xcua365","geo_precision":"unmatched","state":"CO","year acquired":"2006"},"type":"Feature","geometry":null},{"properties":{"property name":"808","city":"Englewood","reit":"HCP","geo_score":0.0,"id":"aed06xadnrdq","geo_precision":"unmatched","state":"CO","year acquired":"2005"},"type":"Feature","geometry":null},{"properties":{"property name":"809","city":"Englewood","reit":"HCP","geo_score":0.0,"id":"aed06x0m7wr7","geo_precision":"unmatched","state":"CO","year acquired":"2005"},"type":"Feature","geometry":null},{"properties":{"property name":"810","city":"Englewood","reit":"HCP","geo_score":0.0,"id":"aed06xavqora","geo_precision":"unmatched","state":"CO","year acquired":"2005"},"type":"Feature","geometry":null},{"properties":{"property name":"811","city":"Englewood","reit":"HCP","geo_score":0.0,"id":"aed06x2gdy2h","geo_precision":"unmatched","state":"CO","year acquired":"2005"},"type":"Feature","geometry":null},{"properties":{"property name":"812","city":"Littleton","reit":"HCP","geo_score":0.0,"id":"aed06x647zar","geo_precision":"unmatched","state":"CO","year acquired":"2005"},"type":"Feature","geometry":null},{"properties":{"property name":"813","city":"Littleton","reit":"HCP","geo_score":0.0,"id":"aed06x2uxqjy","geo_precision":"unmatched","state":"CO","year acquired":"2005"},"type":"Feature","geometry":null},{"properties":{"property name":"570","city":"Lone Tree","reit":"HCP","geo_score":0.857,"id":"aed06x41nupi","geo_precision":"zip","state":"CO","year acquired":"2003"},"type":"Feature","geometry":{"type":"Point","coordinates":[-75.45,4.75]}},{"properties":{"property name":"666","city":"Lone Tree","reit":"HCP","geo_score":0.857,"id":"aed06x1kznk7","geo_precision":"zip","state":"CO","year acquired":"2000"},"type":"Feature","geometry":{"type":"Point","coordinates":[-75.45,4.75]}},{"properties":{"property name":"1076","city":"Parker","reit":"HCP","geo_score":0.857,"id":"aed06x9trtoc","geo_precision":"zip","state":"CO","year acquired":"2006"},"type":"Feature","geometry":{"type":"Point","coordinates":[-78.8358333,1.6488889]}},{"properties":{"property name":"510","city":"Thornton","reit":"HCP","geo_score":0.0,"id":"aed06x1j2osq","geo_precision":"unmatched","state":"CO","year acquired":"2002"},"type":"Feature","geometry":null},{"properties":{"property name":"884","city":"Coyoacan","reit":"HCP","geo_score":0.0,"id":"aed06x7r4c9u","geo_precision":"unmatched","state":"DF","year acquired":"2006"},"type":"Feature","geometry":null},{"properties":{"property name":"Property 24","city":"Boca Raton","reit":"Health Care REIT","geo_score":0.0,"id":"aed06x49e0bm","geo_precision":"unmatched","state":"FL","year acquired":"2006"},"type":"Feature","geometry":null},{"properties":{"property name":"Property 25","city":"Boca Raton","reit":"Health Care REIT","geo_score":0.0,"id":"aed06x2tipiw","geo_precision":"unmatched","state":"FL","year acquired":"2012"},"type":"Feature","geometry":null},{"properties":{"property name":"Property 28","city":"Boynton Beach","reit":"Health Care REIT","geo_score":0.0,"id":"aed06x4c3ylq","geo_precision":"unmatched","state":"FL","year acquired":"2006"},"type":"Feature","geometry":null},{"properties":{"property name":"Property 29","city":"Boynton Beach","reit":"Health Care REIT","geo_score":0.0,"id":"aed06xb5d6jp","geo_precision":"unmatched","state":"FL","year acquired":"2006"},"type":"Feature","geometry":null},{"properties":{"property name":"Property 30","city":"Boynton Beach","reit":"Health Care REIT","geo_score":0.0,"id":"aed06xesdol8","geo_precision":"unmatched","state":"FL","year acquired":"2007"},"type":"Feature","geometry":null},{"properties":{"property name":"Property 41","city":"Coral Springs","reit":"Health Care REIT","geo_score":0.0,"id":"aed06xbc89ir","geo_precision":"unmatched","state":"FL","year acquired":"2006"},"type":"Feature","geometry":null},{"properties":{"property name":"Property 42","city":"Dade City","reit":"Health Care REIT","geo_score":0.0,"id":"aed06x8yij2e","geo_precision":"unmatched","state":"FL","year acquired":"2011"},"type":"Feature","geometry":null},{"properties":{"property name":"Property 46","city":"Deerfield Beach","reit":"Health Care REIT","geo_score":0.0,"id":"aed06x59iv3b","geo_precision":"unmatched","state":"FL","year acquired":"2011"},"type":"Feature","geometry":null},{"properties":{"property name":"Property 47","city":"Delray Beach","reit":"Health Care REIT","geo_score":0.0,"id":"aed06x8iqe0r","geo_precision":"unmatched","state":"FL","year acquired":"2006"},"type":"Feature","geometry":null},{"properties":{"property name":"Property 83","city":"Jupiter","reit":"Health Care REIT","geo_score":0.0,"id":"aed06xe6uo8l","geo_precision":"unmatched","state":"FL","year acquired":"2006"},"type":"Feature","geometry":null},{"properties":{"property name":"Property 84","city":"Jupiter","reit":"Health Care REIT","geo_score":0.0,"id":"aed06xaimybq","geo_precision":"unmatched","state":"FL","year acquired":"2007"},"type":"Feature","geometry":null},{"properties":{"property name":"Property 102","city":"Loxahatchee","reit":"Health Care REIT","geo_score":0.0,"id":"aed06wzeeysd","geo_precision":"unmatched","state":"FL","year acquired":"2006"},"type":"Feature","geometry":null},{"properties":{"property name":"Property 103","city":"Loxahatchee","reit":"Health Care REIT","geo_score":0.0,"id":"aed06x9k2b6f","geo_precision":"unmatched","state":"FL","year acquired":"2006"},"type":"Feature","geometry":null},{"properties":{"property name":"Property 104","city":"Loxahatchee","reit":"Health Care REIT","geo_score":0.0,"id":"aed06xexrm6j","geo_precision":"unmatched","state":"FL","year acquired":"2006"},"type":"Feature","geometry":null},{"properties":{"property name":"Property 140","city":"Palm Springs","reit":"Health Care REIT","geo_score":0.0,"id":"aed06x0wtnsa","geo_precision":"unmatched","state":"FL","year acquired":"2006"},"type":"Feature","geometry":null},{"properties":{"property name":"Property 141","city":"Palm Springs","reit":"Health Care REIT","geo_score":0.0,"id":"aed06x0ad169","geo_precision":"unmatched","state":"FL","year acquired":"2006"},"type":"Feature","geometry":null},{"properties":{"property name":"Property 151","city":"Plantation","reit":"Health Care REIT","geo_score":0.0,"id":"aed06xdk7hex","geo_precision":"unmatched","state":"FL","year acquired":"2006"},"type":"Feature","geometry":null},{"properties":{"property name":"Property 152","city":"Plantation","reit":"Health Care REIT","geo_score":0.0,"id":"aed06x4w9ltq","geo_precision":"unmatched","state":"FL","year acquired":"2006"},"type":"Feature","geometry":null},{"properties":{"property name":"Property 172","city":"Sarasota","reit":"Health Care REIT","geo_score":0.0,"id":"aed06xdyvbl3","geo_precision":"unmatched","state":"FL","year acquired":"2011"},"type":"Feature","geometry":null},{"properties":{"property name":"Property 173","city":"Sarasota","reit":"Health Care REIT","geo_score":0.0,"id":"aed06x9f2rir","geo_precision":"unmatched","state":"FL","year acquired":"2012"},"type":"Feature","geometry":null},{"properties":{"property name":"Property 189","city":"Tallahassee","reit":"Health Care REIT","geo_score":0.0,"id":"aed06x7wxu1f","geo_precision":"unmatched","state":"FL","year acquired":"2010"},"type":"Feature","geometry":null},{"properties":{"property name":"Property 190","city":"Tampa","reit":"Health Care REIT","geo_score":0.0,"id":"aed06wzmyurx","geo_precision":"unmatched","state":"FL","year acquired":"2012"},"type":"Feature","geometry":null},{"properties":{"property name":"Property 191","city":"Tampa","reit":"Health Care REIT","geo_score":0.0,"id":"aed06xcq3oge","geo_precision":"unmatched","state":"FL","year acquired":"2012"},"type":"Feature","geometry":null},{"properties":{"property name":"Property 192","city":"Tampa","reit":"Health Care REIT","geo_score":0.0,"id":"aed06x78zf5m","geo_precision":"unmatched","state":"FL","year acquired":"2011"},"type":"Feature","geometry":null},{"properties":{"property name":"Property 202","city":"Wellington","reit":"Health Care REIT","geo_score":0.0,"id":"aed06xc5j8d4","geo_precision":"unmatched","state":"FL","year acquired":"2006"},"type":"Feature","geometry":null},{"properties":{"property name":"Property 203","city":"Wellington","reit":"Health Care REIT","geo_score":0.0,"id":"aed06x4dp2v5","geo_precision":"unmatched","state":"FL","year acquired":"2007"},"type":"Feature","geometry":null},{"properties":{"property name":"Property 205","city":"West Palm Beach","reit":"Health Care REIT","geo_score":0.0,"id":"aed06x80cya0","geo_precision":"unmatched","state":"FL","year acquired":"2006"},"type":"Feature","geometry":null},{"properties":{"property name":"Property 206","city":"West Palm Beach","reit":"Health Care REIT","geo_score":0.0,"id":"aed06x0vk0mb","geo_precision":"unmatched","state":"FL","year acquired":"2006"},"type":"Feature","geometry":null},{"properties":{"property name":"Property 209","city":"Zephyrhills","reit":"Health Care REIT","geo_score":0.0,"id":"aed06x7skqju","geo_precision":"unmatched","state":"FL","year acquired":"2011"},"type":"Feature","geometry":null},{"properties":{"property name":"433","city":"Atlantis","reit":"HCP","geo_score":0.0,"id":"aed06xdehsue","geo_precision":"unmatched","state":"FL","year acquired":"1999"},"type":"Feature","geometry":null},{"properties":{"property name":"434","city":"Atlantis","reit":"HCP","geo_score":0.0,"id":"aed06x6rz00q","geo_precision":"unmatched","state":"FL","year acquired":"1999"},"type":"Feature","geometry":null},{"properties":{"property name":"435","city":"Atlantis","reit":"HCP","geo_score":0.0,"id":"aed06xdzmvbc","geo_precision":"unmatched","state":"FL","year acquired":"1999"},"type":"Feature","geometry":null},{"properties":{"property name":"602","city":"Atlantis","reit":"HCP","geo_score":0.0,"id":"aed06x3i7837","geo_precision":"unmatched","state":"FL","year acquired":"2000"},"type":"Feature","geometry":null},{"properties":{"property name":"604","city":"Englewood","reit":"HCP","geo_score":0.0,"id":"aed06xa4do6s","geo_precision":"unmatched","state":"FL","year acquired":"2000"},"type":"Feature","geometry":null},{"properties":{"property name":"609","city":"Kissimmee","reit":"HCP","geo_score":0.0,"id":"aed06x1n8eg9","geo_precision":"unmatched","state":"FL","year acquired":"2000"},"type":"Feature","geometry":null},{"properties":{"property name":"610","city":"Kissimmee","reit":"HCP","geo_score":0.0,"id":"aed06wzhvmub","geo_precision":"unmatched","state":"FL","year acquired":"2000"},"type":"Feature","geometry":null},{"properties":{"property name":"671","city":"Kissimmee","reit":"HCP","geo_score":0.0,"id":"aed06x6dd01l","geo_precision":"unmatched","state":"FL","year acquired":"2000"},"type":"Feature","geometry":null},{"properties":{"property name":"603","city":"Lake Worth","reit":"HCP","geo_score":0.0,"id":"aed06xa6bpzo","geo_precision":"unmatched","state":"FL","year acquired":"2000"},"type":"Feature","geometry":null},{"properties":{"property name":"612","city":"Margate","reit":"HCP","geo_score":0.0,"id":"aed06x1k80xg","geo_precision":"unmatched","state":"FL","year acquired":"2000"},"type":"Feature","geometry":null},{"properties":{"property name":"613","city":"Miami","reit":"HCP","geo_score":0.0,"id":"aed06xexzh2f","geo_precision":"unmatched","state":"FL","year acquired":"2000"},"type":"Feature","geometry":null},{"properties":{"property name":"1067","city":"Milton","reit":"HCP","geo_score":0.0,"id":"aed06x2yo1z9","geo_precision":"unmatched","state":"FL","year acquired":"2006"},"type":"Feature","geometry":null},{"properties":{"property name":"563","city":"Orlando","reit":"HCP","geo_score":0.0,"id":"aed06x7bd5xe","geo_precision":"unmatched","state":"FL","year acquired":"2003"},"type":"Feature","geometry":null},{"properties":{"property name":"833","city":"Pace","reit":"HCP","geo_score":0.0,"id":"aed06xaekmr9","geo_precision":"unmatched","state":"FL","year acquired":"2006"},"type":"Feature","geometry":null},{"properties":{"property name":"834","city":"Pensacola","reit":"HCP","geo_score":0.0,"id":"aed06x25k0gg","geo_precision":"unmatched","state":"FL","year acquired":"2006"},"type":"Feature","geometry":null},{"properties":{"property name":"614","city":"Plantation","reit":"HCP","geo_score":0.0,"id":"aed06x92v1ua","geo_precision":"unmatched","state":"FL","year acquired":"2000"},"type":"Feature","geometry":null},{"properties":{"property name":"673","city":"Plantation","reit":"HCP","geo_score":0.0,"id":"aed06wzxl280","geo_precision":"unmatched","state":"FL","year acquired":"2002"},"type":"Feature","geometry":null},{"properties":{"property name":"701","city":"St. Petersburg","reit":"HCP","geo_score":0.0,"id":"aed06x5yozis","geo_precision":"unmatched","state":"FL","year acquired":"2004"},"type":"Feature","geometry":null},{"properties":{"property name":"1210","city":"Tampa","reit":"HCP","geo_score":0.0,"id":"aed06xcmj4ki","geo_precision":"unmatched","state":"FL","year acquired":"2006"},"type":"Feature","geometry":null},{"properties":{"property name":"Summit Professional Plaza II","city":"Brunswick","reit":"Ventas","geo_score":0.0,"id":"aed06x7f3qzl","geo_precision":"unmatched","state":"GA","year acquired":"2012"},"type":"Feature","geometry":null},{"properties":{"property name":"Columbia Medical Plaza","city":"Evans","reit":"Ventas","geo_score":0.0,"id":"aed06x3a8eqo","geo_precision":"unmatched","state":"GA","year acquired":"2011"},"type":"Feature","geometry":null},{"properties":{"property name":"Parkway Physicians Center","city":"Ringgold","reit":"Ventas","geo_score":0.0,"id":"aed06xfdz8xm","geo_precision":"unmatched","state":"GA","year acquired":"2011"},"type":"Feature","geometry":null},{"properties":{"property name":"Eastside Physicians Center","city":"Snellville","reit":"Ventas","geo_score":0.0,"id":"aed06x94iw5h","geo_precision":"unmatched","state":"GA","year acquired":"2008"},"type":"Feature","geometry":null},{"properties":{"property name":"Eastside Physicians Plaza","city":"Snellville","reit":"Ventas","geo_score":0.0,"id":"aed06xev9dxl","geo_precision":"unmatched","state":"GA","year acquired":"2008"},"type":"Feature","geometry":null},{"properties":{"property name":"Property 4","city":"Alpharetta","reit":"Health Care REIT","geo_score":0.0,"id":"aed06x8gx9zs","geo_precision":"unmatched","state":"GA","year acquired":"2011"},"type":"Feature","geometry":null},{"properties":{"property name":"Property 5","city":"Alpharetta","reit":"Health Care REIT","geo_score":0.0,"id":"aed06x42diey","geo_precision":"unmatched","state":"GA","year acquired":"2011"},"type":"Feature","geometry":null},{"properties":{"property name":"Property 6","city":"Alpharetta","reit":"Health Care REIT","geo_score":0.0,"id":"aed06xfesxez","geo_precision":"unmatched","state":"GA","year acquired":"2011"},"type":"Feature","geometry":null},{"properties":{"property name":"Property 7","city":"Alpharetta","reit":"Health Care REIT","geo_score":0.0,"id":"aed06x1ymx6j","geo_precision":"unmatched","state":"GA","year acquired":"n/a"},"type":"Feature","geometry":null},{"properties":{"property name":"Property 8","city":"Alpharetta","reit":"Health Care REIT","geo_score":0.0,"id":"aed06x57jsin","geo_precision":"unmatched","state":"GA","year acquired":"2011"},"type":"Feature","geometry":null},{"properties":{"property name":"Property 10","city":"Atlanta","reit":"Health Care REIT","geo_score":0.0,"id":"aed06x5i04uc","geo_precision":"unmatched","state":"GA","year acquired":"2006"},"type":"Feature","geometry":null},{"properties":{"property name":"Property 11","city":"Atlanta","reit":"Health Care REIT","geo_score":0.0,"id":"aed06x0cqrze","geo_precision":"unmatched","state":"GA","year acquired":"2012"},"type":"Feature","geometry":null},{"properties":{"property name":"Property 12","city":"Atlanta","reit":"Health Care REIT","geo_score":0.0,"id":"aed06x9lktvk","geo_precision":"unmatched","state":"GA","year acquired":"2012"},"type":"Feature","geometry":null},{"properties":{"property name":"Property 54","city":"Fayetteville","reit":"Health Care REIT","geo_score":0.0,"id":"aed06xdaohqn","geo_precision":"unmatched","state":"GA","year acquired":"2006"},"type":"Feature","geometry":null},{"properties":{"property name":"Property 125","city":"Morrow","reit":"Health Care REIT","geo_score":0.857,"id":"aed06x1kpov2","geo_precision":"zip","state":"GA","year acquired":"2007"},"type":"Feature","geometry":{"type":"Point","coordinates":[11.7,1.5666667]}},{"properties":{"property name":"1058","city":"McCaysville","reit":"HCP","geo_score":0.0,"id":"aed06x7g8uq4","geo_precision":"unmatched","state":"GA","year acquired":"2006"},"type":"Feature","geometry":null},{"properties":{"property name":"Property 109","city":"Meridian","reit":"Health Care REIT","geo_score":0.857,"id":"aed06x4ez5md","geo_precision":"zip","state":"ID","year acquired":"2006"},"type":"Feature","geometry":{"type":"Point","coordinates":[120.4319,-5.524]}},{"properties":{"property name":"Buffalo Grove Acute Care","city":"Buffalor Grove","reit":"Ventas","geo_score":0.0,"id":"aed06x8orvkq","geo_precision":"unmatched","state":"IL","year acquired":"2011"},"type":"Feature","geometry":null},{"properties":{"property name":"Physicians Plaza East","city":"Decatur","reit":"Ventas","geo_score":0.0,"id":"aed06xdx4mpa","geo_precision":"unmatched","state":"IL","year acquired":"2010"},"type":"Feature","geometry":null},{"properties":{"property name":"Physicians Plaza West","city":"Decatur","reit":"Ventas","geo_score":0.0,"id":"aed06xcljlll","geo_precision":"unmatched","state":"IL","year acquired":"2010"},"type":"Feature","geometry":null},{"properties":{"property name":"Physicians and Dental Building","city":"Decatur","reit":"Ventas","geo_score":0.0,"id":"aed06xfic8eg","geo_precision":"unmatched","state":"IL","year acquired":"2010"},"type":"Feature","geometry":null},{"properties":{"property name":"Monroe Medical Center","city":"Decatur","reit":"Ventas","geo_score":0.0,"id":"aed06x6hb9iy","geo_precision":"unmatched","state":"IL","year acquired":"2010"},"type":"Feature","geometry":null},{"properties":{"property name":"Kenwood Medical Center","city":"Decatur","reit":"Ventas","geo_score":0.0,"id":"aed06x6cg09o","geo_precision":"unmatched","state":"IL","year acquired":"2010"},"type":"Feature","geometry":null},{"properties":{"property name":"304 W Hay Building","city":"Decatur","reit":"Ventas","geo_score":0.0,"id":"aed06x3o1x1d","geo_precision":"unmatched","state":"IL","year acquired":"2010"},"type":"Feature","geometry":null},{"properties":{"property name":"302 W Hay Building","city":"Decatur","reit":"Ventas","geo_score":0.0,"id":"aed06x0vjn97","geo_precision":"unmatched","state":"IL","year acquired":"2010"},"type":"Feature","geometry":null},{"properties":{"property name":"ENTA","city":"Decatur","reit":"Ventas","geo_score":0.0,"id":"aed06x3tz4hg","geo_precision":"unmatched","state":"IL","year acquired":"2010"},"type":"Feature","geometry":null},{"properties":{"property name":"301 W Hay Building","city":"Decatur","reit":"Ventas","geo_score":0.0,"id":"aed06x6tkh8y","geo_precision":"unmatched","state":"IL","year acquired":"2010"},"type":"Feature","geometry":null},{"properties":{"property name":"South Shore Medical Building","city":"Decatur","reit":"Ventas","geo_score":0.0,"id":"aed06xckd0t9","geo_precision":"unmatched","state":"IL","year acquired":"2010"},"type":"Feature","geometry":null},{"properties":{"property name":"SIU Family Practice","city":"Decatur","reit":"Ventas","geo_score":0.0,"id":"aed06x0u091s","geo_precision":"unmatched","state":"IL","year acquired":"2010"},"type":"Feature","geometry":null},{"properties":{"property name":"Corporate Health Services","city":"Decatur","reit":"Ventas","geo_score":0.0,"id":"aed06x46vqi6","geo_precision":"unmatched","state":"IL","year acquired":"2010"},"type":"Feature","geometry":null},{"properties":{"property name":"Rock Springs Medical","city":"Decatur","reit":"Ventas","geo_score":0.0,"id":"aed06xcajwdu","geo_precision":"unmatched","state":"IL","year acquired":"2010"},"type":"Feature","geometry":null},{"properties":{"property name":"575 W Hay Building","city":"Decatur","reit":"Ventas","geo_score":0.0,"id":"aed06x5boxbk","geo_precision":"unmatched","state":"IL","year acquired":"2010"},"type":"Feature","geometry":null},{"properties":{"property name":"Eberle Medical Office Building ( Eberle","city":"Elk Grove Village","reit":"Ventas","geo_score":0.0,"id":"aed06x3mgc1d","geo_precision":"unmatched","state":"IL","year acquired":"2009"},"type":"Feature","geometry":null},{"properties":{"property name":"Grayslake MOB","city":"Grayslake","reit":"Ventas","geo_score":0.0,"id":"aed06xfihmkf","geo_precision":"unmatched","state":"IL","year acquired":"2011"},"type":"Feature","geometry":null},{"properties":{"property name":"1425 Hunt Club Road MOB","city":"Gurnee","reit":"Ventas","geo_score":0.857,"id":"aed06x7t16ak","geo_precision":"zip","state":"IL","year acquired":"2011"},"type":"Feature","geometry":{"type":"Point","coordinates":[35.2333333,33.05]}},{"properties":{"property name":"1445 Hunt Club Drive","city":"Gurnee","reit":"Ventas","geo_score":0.857,"id":"aed06xdv41lr","geo_precision":"zip","state":"IL","year acquired":"2011"},"type":"Feature","geometry":{"type":"Point","coordinates":[35.2333333,33.05]}},{"properties":{"property name":"Gurnee Imaging Center","city":"Gurnee","reit":"Ventas","geo_score":0.857,"id":"aed06xaxyy75","geo_precision":"zip","state":"IL","year acquired":"2011"},"type":"Feature","geometry":{"type":"Point","coordinates":[35.2333333,33.05]}},{"properties":{"property name":"Gurnee Center Club","city":"Gurnee","reit":"Ventas","geo_score":0.857,"id":"aed06xca99i0","geo_precision":"zip","state":"IL","year acquired":"2011"},"type":"Feature","geometry":{"type":"Point","coordinates":[35.2333333,33.05]}},{"properties":{"property name":"Gurnee Acute Care","city":"Gurnee","reit":"Ventas","geo_score":0.857,"id":"aed06xblud0i","geo_precision":"zip","state":"IL","year acquired":"2011"},"type":"Feature","geometry":{"type":"Point","coordinates":[35.2333333,33.05]}},{"properties":{"property name":"Doctors Office Building III ( DOB III )","city":"Hoffman Estates","reit":"Ventas","geo_score":0.0,"id":"aed06xea551s","geo_precision":"unmatched","state":"IL","year acquired":"2009"},"type":"Feature","geometry":null},{"properties":{"property name":"755 Milwaukee MOB","city":"Libertyville","reit":"Ventas","geo_score":0.0,"id":"aed06x6r1619","geo_precision":"unmatched","state":"IL","year acquired":"2011"},"type":"Feature","geometry":null},{"properties":{"property name":"890 Professional MOB","city":"Libertyville","reit":"Ventas","geo_score":0.0,"id":"aed06x284nzw","geo_precision":"unmatched","state":"IL","year acquired":"2011"},"type":"Feature","geometry":null},{"properties":{"property name":"Libertyville Center Club","city":"Libertyville","reit":"Ventas","geo_score":0.0,"id":"aed06x9na2i1","geo_precision":"unmatched","state":"IL","year acquired":"2011"},"type":"Feature","geometry":null},{"properties":{"property name":"Round Lake ACC","city":"Round Lake","reit":"Ventas","geo_score":0.0,"id":"aed06x3k6q5i","geo_precision":"unmatched","state":"IL","year acquired":"2011"},"type":"Feature","geometry":null},{"properties":{"property name":"Vernon Hills Acute Care Center","city":"Vernon Hills","reit":"Ventas","geo_score":0.857,"id":"aed06xa5h7ck","geo_precision":"zip","state":"IL","year acquired":"2011"},"type":"Feature","geometry":{"type":"Point","coordinates":[34.6833333,31.5833333]}},{"properties":{"property name":"Property 127","city":"Mount Vernon","reit":"Health Care REIT","geo_score":0.857,"id":"aed06x3s5cdr","geo_precision":"zip","state":"IL","year acquired":"2011"},"type":"Feature","geometry":{"type":"Point","coordinates":[34.7833333,32.0666667]}},{"properties":{"property name":"1065","city":"Marion","reit":"HCP","geo_score":0.857,"id":"aed06x8m4o51","geo_precision":"zip","state":"IL","year acquired":"2006"},"type":"Feature","geometry":{"type":"Point","coordinates":[35.4402778,32.9888889]}},{"properties":{"property name":"Wilbur S. Roby Building","city":"Anderson","reit":"Ventas","geo_score":0.857,"id":"aed06wzuc7fg","geo_precision":"zip","state":"IN","year acquired":"2010"},"type":"Feature","geometry":{"type":"Point","coordinates":[92.7166667,12.7666667]}},{"properties":{"property name":"Ambulatory Services Building","city":"Anderson","reit":"Ventas","geo_score":0.857,"id":"aed06x6zo76x","geo_precision":"zip","state":"IN","year acquired":"2010"},"type":"Feature","geometry":{"type":"Point","coordinates":[92.7166667,12.7666667]}},{"properties":{"property name":"St. John s Medical Arts Building","city":"Anderson","reit":"Ventas","geo_score":0.857,"id":"aed06x583mkj","geo_precision":"zip","state":"IN","year acquired":"2010"},"type":"Feature","geometry":{"type":"Point","coordinates":[92.7166667,12.7666667]}},{"properties":{"property name":"Carmel I","city":"Carmel","reit":"Ventas","geo_score":0.857,"id":"aed06x65pgq3","geo_precision":"zip","state":"IN","year acquired":"2012"},"type":"Feature","geometry":{"type":"Point","coordinates":[74.925,32.9819444]}},{"properties":{"property name":"Carmel II","city":"Carmel","reit":"Ventas","geo_score":0.857,"id":"aed06x42kcxg","geo_precision":"zip","state":"IN","year acquired":"2012"},"type":"Feature","geometry":{"type":"Point","coordinates":[74.925,32.9819444]}},{"properties":{"property name":"Carmel III","city":"Carmel","reit":"Ventas","geo_score":0.857,"id":"aed06wzhmz15","geo_precision":"zip","state":"IN","year acquired":"2012"},"type":"Feature","geometry":{"type":"Point","coordinates":[74.925,32.9819444]}},{"properties":{"property name":"Elkhart","city":"Elkhart","reit":"Ventas","geo_score":0.0,"id":"aed06xdye2ps","geo_precision":"unmatched","state":"IN","year acquired":"2011"},"type":"Feature","geometry":null},{"properties":{"property name":"Harcourt Professional Office Building","city":"Indianapolis","reit":"Ventas","geo_score":0.0,"id":"aed06xc921hb","geo_precision":"unmatched","state":"IN","year acquired":"2012"},"type":"Feature","geometry":null},{"properties":{"property name":"Cardiac Professional Office Building","city":"Indianapolis","reit":"Ventas","geo_score":0.0,"id":"aed06x58tefw","geo_precision":"unmatched","state":"IN","year acquired":"2012"},"type":"Feature","geometry":null},{"properties":{"property name":"Oncology Medical Office Building","city":"Indianapolis","reit":"Ventas","geo_score":0.0,"id":"aed06x3241jd","geo_precision":"unmatched","state":"IN","year acquired":"2012"},"type":"Feature","geometry":null},{"properties":{"property name":"Methodist Professional Center I","city":"Indianapolis","reit":"Ventas","geo_score":0.0,"id":"aed06xcc89fm","geo_precision":"unmatched","state":"IN","year acquired":"2012"},"type":"Feature","geometry":null},{"properties":{"property name":"LaPorte","city":"LaPorte","reit":"Ventas","geo_score":0.0,"id":"aed06x9mlvwv","geo_precision":"unmatched","state":"IN","year acquired":"2011"},"type":"Feature","geometry":null},{"properties":{"property name":"Mishawaka","city":"Mishawaka","reit":"Ventas","geo_score":0.0,"id":"aed06x83os0e","geo_precision":"unmatched","state":"IN","year acquired":"2011"},"type":"Feature","geometry":null},{"properties":{"property name":"South Bend","city":"South Bend","reit":"Ventas","geo_score":0.857,"id":"aed06x0om7xz","geo_precision":"zip","state":"IN","year acquired":"2011"},"type":"Feature","geometry":{"type":"Point","coordinates":[75.8333333,25.5]}},{"properties":{"property name":"Property 34","city":"Carmel","reit":"Health Care REIT","geo_score":0.857,"id":"aed06x0zllnb","geo_precision":"zip","state":"IN","year acquired":"2011"},"type":"Feature","geometry":{"type":"Point","coordinates":[74.925,32.9819444]}},{"properties":{"property name":"Property 35","city":"Carmel","reit":"Health Care REIT","geo_score":0.857,"id":"aed06x62ytj6","geo_precision":"zip","state":"IN","year acquired":"2011"},"type":"Feature","geometry":{"type":"Point","coordinates":[74.925,32.9819444]}},{"properties":{"property name":"Property 55","city":"Fort Wayne","reit":"Health Care REIT","geo_score":0.857,"id":"aed06x7qb449","geo_precision":"zip","state":"IN","year acquired":"2012"},"type":"Feature","geometry":{"type":"Point","coordinates":[74.0666667,27.1333333]}},{"properties":{"property name":"Property 56","city":"Fort Wayne","reit":"Health Care REIT","geo_score":0.857,"id":"aed06xbgmfpv","geo_precision":"zip","state":"IN","year acquired":"2006"},"type":"Feature","geometry":{"type":"Point","coordinates":[74.0666667,27.1333333]}},{"properties":{"property name":"Property 73","city":"Greenwood","reit":"Health Care REIT","geo_score":0.857,"id":"aed06x3wp3ho","geo_precision":"zip","state":"IN","year acquired":"2012"},"type":"Feature","geometry":{"type":"Point","coordinates":[75.9666667,24.4833333]}},{"properties":{"property name":"Property 114","city":"Merrillville","reit":"Health Care REIT","geo_score":0.0,"id":"aed06xevcn1n","geo_precision":"unmatched","state":"IN","year acquired":"2008"},"type":"Feature","geometry":null},{"properties":{"property name":"Property 115","city":"Merrillville","reit":"Health Care REIT","geo_score":0.0,"id":"aed06xd439gl","geo_precision":"unmatched","state":"IN","year acquired":"2007"},"type":"Feature","geometry":null},{"properties":{"property name":"1057","city":"Newburgh","reit":"HCP","geo_score":0.857,"id":"aed06wzwv91q","geo_precision":"zip","state":"IN","year acquired":"2006"},"type":"Feature","geometry":{"type":"Point","coordinates":[77.4166667,34.75]}},{"properties":{"property name":"Property 98","city":"Lenexa","reit":"Health Care REIT","geo_score":0.0,"id":"aed06x4de4ai","geo_precision":"unmatched","state":"KS","year acquired":"2010"},"type":"Feature","geometry":null},{"properties":{"property name":"Property 110","city":"Merriam","reit":"Health Care REIT","geo_score":0.0,"id":"aed06xfho66k","geo_precision":"unmatched","state":"KS","year acquired":"2011"},"type":"Feature","geometry":null},{"properties":{"property name":"Property 111","city":"Merriam","reit":"Health Care REIT","geo_score":0.0,"id":"aed06x7evduh","geo_precision":"unmatched","state":"KS","year acquired":"2011"},"type":"Feature","geometry":null},{"properties":{"property name":"Property 112","city":"Merriam","reit":"Health Care REIT","geo_score":0.0,"id":"aed06x0fl97s","geo_precision":"unmatched","state":"KS","year acquired":"2011"},"type":"Feature","geometry":null},{"properties":{"property name":"Property 113","city":"Merriam","reit":"Health Care REIT","geo_score":0.0,"id":"aed06x2whzy8","geo_precision":"unmatched","state":"KS","year acquired":"2011"},"type":"Feature","geometry":null},{"properties":{"property name":"2039","city":"Kansas City","reit":"HCP","geo_score":0.0,"id":"aed06x4czc0t","geo_precision":"unmatched","state":"KS","year acquired":"2012"},"type":"Feature","geometry":null},{"properties":{"property name":"2043","city":"Overland Park","reit":"HCP","geo_score":0.0,"id":"aed06xdpdgoc","geo_precision":"unmatched","state":"KS","year acquired":"2012"},"type":"Feature","geometry":null},{"properties":{"property name":"483","city":"Wichita","reit":"HCP","geo_score":0.0,"id":"aed06x0n1gnu","geo_precision":"unmatched","state":"KS","year acquired":"2001"},"type":"Feature","geometry":null},{"properties":{"property name":"OLBH Same Day Surgery Center MOB","city":"Ashland","reit":"Ventas","geo_score":0.0,"id":"aed06x557y7s","geo_precision":"unmatched","state":"KY","year acquired":"2012"},"type":"Feature","geometry":null},{"properties":{"property name":"St. Elizabeth Covington","city":"Covington","reit":"Ventas","geo_score":0.0,"id":"aed06x6dzx6z","geo_precision":"unmatched","state":"KY","year acquired":"2012"},"type":"Feature","geometry":null},{"properties":{"property name":"St. Elizabeth Florence MOB","city":"Florence","reit":"Ventas","geo_score":0.0,"id":"aed06xcl3h5p","geo_precision":"unmatched","state":"KY","year acquired":"2012"},"type":"Feature","geometry":null},{"properties":{"property name":"Property 27","city":"Bowling Green","reit":"Health Care REIT","geo_score":0.0,"id":"aed06xav008b","geo_precision":"unmatched","state":"KY","year acquired":"2008"},"type":"Feature","geometry":null},{"properties":{"property name":"1064","city":"Lexington","reit":"HCP","geo_score":0.0,"id":"aed06x7twjuo","geo_precision":"unmatched","state":"KY","year acquired":"2006"},"type":"Feature","geometry":null},{"properties":{"property name":"735","city":"Louisville","reit":"HCP","geo_score":0.0,"id":"aed06x5m9qup","geo_precision":"unmatched","state":"KY","year acquired":"2005"},"type":"Feature","geometry":null},{"properties":{"property name":"737","city":"Louisville","reit":"HCP","geo_score":0.0,"id":"aed06x4ofvrg","geo_precision":"unmatched","state":"KY","year acquired":"2005"},"type":"Feature","geometry":null},{"properties":{"property name":"738","city":"Louisville","reit":"HCP","geo_score":0.0,"id":"aed06x1gvfo8","geo_precision":"unmatched","state":"KY","year acquired":"2005"},"type":"Feature","geometry":null},{"properties":{"property name":"739","city":"Louisville","reit":"HCP","geo_score":0.0,"id":"aed06x39mxoh","geo_precision":"unmatched","state":"KY","year acquired":"2005"},"type":"Feature","geometry":null},{"properties":{"property name":"740","city":"Louisville","reit":"HCP","geo_score":0.0,"id":"aed06xeesqpw","geo_precision":"unmatched","state":"KY","year acquired":"2005"},"type":"Feature","geometry":null},{"properties":{"property name":"1944","city":"Louisville","reit":"HCP","geo_score":0.0,"id":"aed06x055i1w","geo_precision":"unmatched","state":"KY","year acquired":"2010"},"type":"Feature","geometry":null},{"properties":{"property name":"1945","city":"Louisville","reit":"HCP","geo_score":0.0,"id":"aed06wzm5ukx","geo_precision":"unmatched","state":"KY","year acquired":"2010"},"type":"Feature","geometry":null},{"properties":{"property name":"1946","city":"Louisville","reit":"HCP","geo_score":0.0,"id":"aed06xb3c7x8","geo_precision":"unmatched","state":"KY","year acquired":"2010"},"type":"Feature","geometry":null},{"properties":{"property name":"Lakeview MOB","city":"Covington","reit":"Ventas","geo_score":0.0,"id":"aed06x0162l7","geo_precision":"unmatched","state":"LA","year acquired":"2011"},"type":"Feature","geometry":null},{"properties":{"property name":"Medical Arts Courtyard","city":"Lafayette","reit":"Ventas","geo_score":0.0,"id":"aed06xc9jtje","geo_precision":"unmatched","state":"LA","year acquired":"2011"},"type":"Feature","geometry":null},{"properties":{"property name":"SW Louisiana POB","city":"Lafayette","reit":"Ventas","geo_score":0.0,"id":"aed06xf705v5","geo_precision":"unmatched","state":"LA","year acquired":"2011"},"type":"Feature","geometry":null},{"properties":{"property name":"Lakeview Surgery Center","city":"Mandeville","reit":"Ventas","geo_score":0.0,"id":"aed06x3cl7gn","geo_precision":"unmatched","state":"LA","year acquired":"2011"},"type":"Feature","geometry":null},{"properties":{"property name":"East Jefferson Medical Plaza","city":"Metairie","reit":"Ventas","geo_score":0.0,"id":"aed06wzuhoep","geo_precision":"unmatched","state":"LA","year acquired":"2012"},"type":"Feature","geometry":null},{"properties":{"property name":"East Jefferson MOB","city":"Metairie","reit":"Ventas","geo_score":0.0,"id":"aed06x94j4f2","geo_precision":"unmatched","state":"LA","year acquired":"2012"},"type":"Feature","geometry":null},{"properties":{"property name":"Lakeside POB I","city":"Metairie","reit":"Ventas","geo_score":0.0,"id":"aed06xanulfq","geo_precision":"unmatched","state":"LA","year acquired":"2011"},"type":"Feature","geometry":null},{"properties":{"property name":"Lakeside POB II","city":"Metairie","reit":"Ventas","geo_score":0.0,"id":"aed06xds8d1h","geo_precision":"unmatched","state":"LA","year acquired":"2011"},"type":"Feature","geometry":null},{"properties":{"property name":"Property 88","city":"Lafayette","reit":"Health Care REIT","geo_score":0.0,"id":"aed06x279xuf","geo_precision":"unmatched","state":"LA","year acquired":"2006"},"type":"Feature","geometry":null},{"properties":{"property name":"Property 165","city":"Ruston","reit":"Health Care REIT","geo_score":0.0,"id":"aed06x9myfcc","geo_precision":"unmatched","state":"LA","year acquired":"2011"},"type":"Feature","geometry":null},{"properties":{"property name":"Property 18","city":"Bellingham","reit":"Health Care REIT","geo_score":0.0,"id":"aed06xfjr74s","geo_precision":"unmatched","state":"MA","year acquired":"n/a"},"type":"Feature","geometry":null},{"properties":{"property name":"1324","city":"Haverhill","reit":"HCP","geo_score":0.0,"id":"aed06xduwaaf","geo_precision":"unmatched","state":"MA","year acquired":"2007"},"type":"Feature","geometry":null},{"properties":{"property name":"RTS Berlin","city":"Berlin","reit":"Ventas","geo_score":0.0,"id":"aed06x4oiiv0","geo_precision":"unmatched","state":"MD","year acquired":"2011"},"type":"Feature","geometry":null},{"properties":{"property name":"Charles O. Fisher Medical Building","city":"Westminster","reit":"Ventas","geo_score":0.0,"id":"aed06x3z6lfo","geo_precision":"unmatched","state":"MD","year acquired":"2009"},"type":"Feature","geometry":null},{"properties":{"property name":"Property 39","city":"Columbia","reit":"Health Care REIT","geo_score":0.0,"id":"aed06xft8rdc","geo_precision":"unmatched","state":"MD","year acquired":"2012"},"type":"Feature","geometry":null},{"properties":{"property name":"1213","city":"Ellicott City","reit":"HCP","geo_score":0.857,"id":"aed06x48vmg1","geo_precision":"zip","state":"MD","year acquired":"2006"},"type":"Feature","geometry":{"type":"Point","coordinates":[28.4816667,46.1352778]}},{"properties":{"property name":"361","city":"GlenBurnie","reit":"HCP","geo_score":0.0,"id":"aed06xel5yuj","geo_precision":"unmatched","state":"MD","year acquired":"1999"},"type":"Feature","geometry":null},{"properties":{"property name":"1052","city":"Towson","reit":"HCP","geo_score":0.857,"id":"aed06x21yhvr","geo_precision":"zip","state":"MD","year acquired":"2006"},"type":"Feature","geometry":{"type":"Point","coordinates":[28.2188889,46.3669444]}},{"properties":{"property name":"Property 154","city":"Portland","reit":"Health Care REIT","geo_score":0.0,"id":"aed06x61vvzo","geo_precision":"unmatched","state":"ME","year acquired":"2011"},"type":"Feature","geometry":null},{"properties":{"property name":"Medical Specialties Building","city":"Kalamazoo","reit":"Ventas","geo_score":0.0,"id":"aed06x1zsyen","geo_precision":"unmatched","state":"MI","year acquired":"2010"},"type":"Feature","geometry":null},{"properties":{"property name":"North Professional Building","city":"Kalamazoo","reit":"Ventas","geo_score":0.0,"id":"aed06x8n2dbc","geo_precision":"unmatched","state":"MI","year acquired":"2010"},"type":"Feature","geometry":null},{"properties":{"property name":"Medical Commons Building","city":"Kalamazoo","reit":"Ventas","geo_score":0.0,"id":"aed06x1ur84n","geo_precision":"unmatched","state":"MI","year acquired":"2010"},"type":"Feature","geometry":null},{"properties":{"property name":"Borgess Navigation Center","city":"Kalamazoo","reit":"Ventas","geo_score":0.0,"id":"aed06x4k5hc4","geo_precision":"unmatched","state":"MI","year acquired":"2010"},"type":"Feature","geometry":null},{"properties":{"property name":"Borgess Visiting Nurses","city":"Kalamazoo","reit":"Ventas","geo_score":0.0,"id":"aed06x0mg0jr","geo_precision":"unmatched","state":"MI","year acquired":"2010"},"type":"Feature","geometry":null},{"properties":{"property name":"Borgess Health &amp; Fitness Center","city":"Kalamazoo","reit":"Ventas","geo_score":0.0,"id":"aed06x01sbo6","geo_precision":"unmatched","state":"MI","year acquired":"2010"},"type":"Feature","geometry":null},{"properties":{"property name":"Heart Center Building","city":"Kalamazoo","reit":"Ventas","geo_score":0.0,"id":"aed06x1t73wl","geo_precision":"unmatched","state":"MI","year acquired":"2010"},"type":"Feature","geometry":null},{"properties":{"property name":"RTS Madison Heights","city":"Madison Heights","reit":"Ventas","geo_score":0.0,"id":"aed06x8csmib","geo_precision":"unmatched","state":"MI","year acquired":"2011"},"type":"Feature","geometry":null},{"properties":{"property name":"RTS Monroe","city":"Monroe","reit":"Ventas","geo_score":0.0,"id":"aed06xayrz37","geo_precision":"unmatched","state":"MI","year acquired":"2011"},"type":"Feature","geometry":null},{"properties":{"property name":"Pro Med Center Plainwell","city":"Plainwell","reit":"Ventas","geo_score":0.0,"id":"aed06xb2h51r","geo_precision":"unmatched","state":"MI","year acquired":"2010"},"type":"Feature","geometry":null},{"properties":{"property name":"Pro Med Center Richland","city":"Richland","reit":"Ventas","geo_score":0.0,"id":"aed06x5ev2h5","geo_precision":"unmatched","state":"MI","year acquired":"2010"},"type":"Feature","geometry":null},{"properties":{"property name":"Cogdell Duluth MOB","city":"Duluth","reit":"Ventas","geo_score":0.0,"id":"aed06x89ol4u","geo_precision":"unmatched","state":"MN","year acquired":"2012"},"type":"Feature","geometry":null},{"properties":{"property name":"HealthPartners Medical &amp; Dental Clinics","city":"Sartell","reit":"Ventas","geo_score":0.857,"id":"aed06xdyhupa","geo_precision":"zip","state":"MN","year acquired":"2012"},"type":"Feature","geometry":{"type":"Point","coordinates":[115.35,46.8333333]}},{"properties":{"property name":"Property 49","city":"Edina","reit":"Health Care REIT","geo_score":0.0,"id":"aed06x4lm8hl","geo_precision":"unmatched","state":"MN","year acquired":"2010"},"type":"Feature","geometry":null},{"properties":{"property name":"Property 123","city":"Monticello","reit":"Health Care REIT","geo_score":0.0,"id":"aed06x4j945c","geo_precision":"unmatched","state":"MN","year acquired":"2012"},"type":"Feature","geometry":null},{"properties":{"property name":"Property 176","city":"Shakopee","reit":"Health Care REIT","geo_score":0.0,"id":"aed06x2llwi5","geo_precision":"unmatched","state":"MN","year acquired":"2010"},"type":"Feature","geometry":null},{"properties":{"property name":"Property 177","city":"Shakopee","reit":"Health Care REIT","geo_score":0.0,"id":"aed06x8qwdfb","geo_precision":"unmatched","state":"MN","year acquired":"2010"},"type":"Feature","geometry":null},{"properties":{"property name":"Property 183","city":"St. Paul","reit":"Health Care REIT","geo_score":0.0,"id":"aed06x1jbz8p","geo_precision":"unmatched","state":"MN","year acquired":"2011"},"type":"Feature","geometry":null},{"properties":{"property name":"240","city":"Minneapolis","reit":"HCP","geo_score":0.0,"id":"aed06x64b9nb","geo_precision":"unmatched","state":"MN","year acquired":"1997"},"type":"Feature","geometry":null},{"properties":{"property name":"300","city":"Minneapolis","reit":"HCP","geo_score":0.0,"id":"aed06x3f7nqr","geo_precision":"unmatched","state":"MN","year acquired":"1997"},"type":"Feature","geometry":null},{"properties":{"property name":"Arnold Urgent Care","city":"Armold","reit":"Ventas","geo_score":0.0,"id":"aed06xelkpxg","geo_precision":"unmatched","state":"MO","year acquired":"2011"},"type":"Feature","geometry":null},{"properties":{"property name":"DePaul Health Center North","city":"Bridgeton","reit":"Ventas","geo_score":0.0,"id":"aed06wzjv4e3","geo_precision":"unmatched","state":"MO","year acquired":"2012"},"type":"Feature","geometry":null},{"properties":{"property name":"DePaul Health Center South","city":"Bridgeton","reit":"Ventas","geo_score":0.0,"id":"aed06x2frigy","geo_precision":"unmatched","state":"MO","year acquired":"2012"},"type":"Feature","geometry":null},{"properties":{"property name":"Fenton Urgent Care Center","city":"Fenton","reit":"Ventas","geo_score":0.0,"id":"aed06xb4vkyw","geo_precision":"unmatched","state":"MO","year acquired":"2011"},"type":"Feature","geometry":null},{"properties":{"property name":"Broadway Medical Office Building","city":"Kansas City","reit":"Ventas","geo_score":0.0,"id":"aed06xagk5rn","geo_precision":"unmatched","state":"MO","year acquired":"2007"},"type":"Feature","geometry":null},{"properties":{"property name":"St. Joseph Medical Building","city":"Kansas City","reit":"Ventas","geo_score":0.0,"id":"aed06x8a3bs2","geo_precision":"unmatched","state":"MO","year acquired":"2012"},"type":"Feature","geometry":null},{"properties":{"property name":"St. Joseph Medical Mall","city":"Kansas City","reit":"Ventas","geo_score":0.0,"id":"aed06x37t5jr","geo_precision":"unmatched","state":"MO","year acquired":"2012"},"type":"Feature","geometry":null},{"properties":{"property name":"Carondelet Medical Building","city":"Kansas City","reit":"Ventas","geo_score":0.0,"id":"aed06xc4qzbl","geo_precision":"unmatched","state":"MO","year acquired":"2012"},"type":"Feature","geometry":null},{"properties":{"property name":"St. Joseph Hospital West Medical Office","city":"Lake St. Louis","reit":"Ventas","geo_score":0.0,"id":"aed06x6qvp8x","geo_precision":"unmatched","state":"MO","year acquired":"2012"},"type":"Feature","geometry":null},{"properties":{"property name":"St. Joseph O Fallon Medical Office Building","city":"O Fallon","reit":"Ventas","geo_score":0.0,"id":"aed06xej8kk3","geo_precision":"unmatched","state":"MO","year acquired":"2012"},"type":"Feature","geometry":null},{"properties":{"property name":"St. Mary s Health Center MOB B","city":"Richmond Heights","reit":"Ventas","geo_score":0.0,"id":"aed06x3cqs26","geo_precision":"unmatched","state":"MO","year acquired":"2012"},"type":"Feature","geometry":null},{"properties":{"property name":"St. Mary s Health Center MOB C","city":"Richmond Heights","reit":"Ventas","geo_score":0.0,"id":"aed06x79dxe2","geo_precision":"unmatched","state":"MO","year acquired":"2012"},"type":"Feature","geometry":null},{"properties":{"property name":"St. Mary s Health Center MOB D","city":"Richmond Heights","reit":"Ventas","geo_score":0.0,"id":"aed06x0a4g5v","geo_precision":"unmatched","state":"MO","year acquired":"2012"},"type":"Feature","geometry":null},{"properties":{"property name":"Physicians Office Center","city":"St Louis","reit":"Ventas","geo_score":0.0,"id":"aed06x00axpo","geo_precision":"unmatched","state":"MO","year acquired":"2011"},"type":"Feature","geometry":null},{"properties":{"property name":"St. Joseph Health Center Medical Building","city":"St. Charles","reit":"Ventas","geo_score":0.0,"id":"aed06x18h4v6","geo_precision":"unmatched","state":"MO","year acquired":"2012"},"type":"Feature","geometry":null},{"properties":{"property name":"St. Joseph Health Center Medical Building","city":"St. Charles","reit":"Ventas","geo_score":0.0,"id":"aed06x3jsswa","geo_precision":"unmatched","state":"MO","year acquired":"2012"},"type":"Feature","geometry":null},{"properties":{"property name":"12700 Southford Road Medical Plaza","city":"St. Louis","reit":"Ventas","geo_score":0.0,"id":"aed06x9wqcvv","geo_precision":"unmatched","state":"MO","year acquired":"2011"},"type":"Feature","geometry":null},{"properties":{"property name":"St Anthony s MOB A","city":"St. Louis","reit":"Ventas","geo_score":0.0,"id":"aed06xasjmkh","geo_precision":"unmatched","state":"MO","year acquired":"2011"},"type":"Feature","geometry":null},{"properties":{"property name":"St Anthony s MOB B","city":"St. Louis","reit":"Ventas","geo_score":0.0,"id":"aed06x5wpxbr","geo_precision":"unmatched","state":"MO","year acquired":"2011"},"type":"Feature","geometry":null},{"properties":{"property name":"Lemay Urgent Care Center","city":"St. Louis","reit":"Ventas","geo_score":0.0,"id":"aed06x9ykqd8","geo_precision":"unmatched","state":"MO","year acquired":"2011"},"type":"Feature","geometry":null},{"properties":{"property name":"St. Joseph Endoscopy Center","city":"St. Peters","reit":"Ventas","geo_score":0.0,"id":"aed06x07xapy","geo_precision":"unmatched","state":"MO","year acquired":"2012"},"type":"Feature","geometry":null},{"properties":{"property name":"Property 31","city":"Bridgeton","reit":"Health Care REIT","geo_score":0.0,"id":"aed06xb25fif","geo_precision":"unmatched","state":"MO","year acquired":"2011"},"type":"Feature","geometry":null},{"properties":{"property name":"Property 32","city":"Bridgeton","reit":"Health Care REIT","geo_score":0.0,"id":"aed06xb19acf","geo_precision":"unmatched","state":"MO","year acquired":"2010"},"type":"Feature","geometry":null},{"properties":{"property name":"Property 38","city":"Clarkson Valley","reit":"Health Care REIT","geo_score":0.0,"id":"aed06x4hoifd","geo_precision":"unmatched","state":"MO","year acquired":"2009"},"type":"Feature","geometry":null},{"properties":{"property name":"Property 89","city":"Lake St Louis","reit":"Health Care REIT","geo_score":0.0,"id":"aed06xes1ooc","geo_precision":"unmatched","state":"MO","year acquired":"2010"},"type":"Feature","geometry":null},{"properties":{"property name":"Property 161","city":"Rolla","reit":"Health Care REIT","geo_score":0.0,"id":"aed06x2spxsf","geo_precision":"unmatched","state":"MO","year acquired":"2011"},"type":"Feature","geometry":null},{"properties":{"property name":"Property 182","city":"St. Louis","reit":"Health Care REIT","geo_score":0.0,"id":"aed06x5mqtl6","geo_precision":"unmatched","state":"MO","year acquired":"2007"},"type":"Feature","geometry":null},{"properties":{"property name":"2032","city":"Independence","reit":"HCP","geo_score":0.0,"id":"aed06xccm2dp","geo_precision":"unmatched","state":"MO","year acquired":"2012"},"type":"Feature","geometry":null},{"properties":{"property name":"University Physicians - Grants Ferry","city":"Flowood","reit":"Ventas","geo_score":0.0,"id":"aed06x7j6kfz","geo_precision":"unmatched","state":"MS","year acquired":"2012"},"type":"Feature","geometry":null},{"properties":{"property name":"1078","city":"Flowood","reit":"HCP","geo_score":0.0,"id":"aed06xfvn78d","geo_precision":"unmatched","state":"MS","year acquired":"2006"},"type":"Feature","geometry":null},{"properties":{"property name":"1059","city":"Jackson","reit":"HCP","geo_score":0.0,"id":"aed06x2mm96f","geo_precision":"unmatched","state":"MS","year acquired":"2006"},"type":"Feature","geometry":null},{"properties":{"property name":"1060","city":"Jackson","reit":"HCP","geo_score":0.0,"id":"aed06x4s5bin","geo_precision":"unmatched","state":"MS","year acquired":"2006"},"type":"Feature","geometry":null},{"properties":{"property name":"Barclay Downs","city":"Charlotte","reit":"Ventas","geo_score":0.0,"id":"aed06x1kkee4","geo_precision":"unmatched","state":"NC","year acquired":"2012"},"type":"Feature","geometry":null},{"properties":{"property name":"Randolph","city":"Charlotte","reit":"Ventas","geo_score":0.0,"id":"aed06x9iitf3","geo_precision":"unmatched","state":"NC","year acquired":"2012"},"type":"Feature","geometry":null},{"properties":{"property name":"Mallard Crossing I","city":"Charlotte","reit":"Ventas","geo_score":0.0,"id":"aed06xbnoxy4","geo_precision":"unmatched","state":"NC","year acquired":"2012"},"type":"Feature","geometry":null},{"properties":{"property name":"Medical Arts Building","city":"Concord","reit":"Ventas","geo_score":0.0,"id":"aed06x8a2dmc","geo_precision":"unmatched","state":"NC","year acquired":"2012"},"type":"Feature","geometry":null},{"properties":{"property name":"Gateway Medical Office Building","city":"Concord","reit":"Ventas","geo_score":0.0,"id":"aed06x18hyra","geo_precision":"unmatched","state":"NC","year acquired":"2012"},"type":"Feature","geometry":null},{"properties":{"property name":"Copperfield Medical Mall","city":"Concord","reit":"Ventas","geo_score":0.0,"id":"aed06xbb615o","geo_precision":"unmatched","state":"NC","year acquired":"2012"},"type":"Feature","geometry":null},{"properties":{"property name":"Weddington Internal &amp; Pediatric Medicine","city":"Concord","reit":"Ventas","geo_score":0.0,"id":"aed06xb2chfh","geo_precision":"unmatched","state":"NC","year acquired":"2012"},"type":"Feature","geometry":null},{"properties":{"property name":"Gaston Professional Center","city":"Gastonia","reit":"Ventas","geo_score":0.0,"id":"aed06wzqrnpv","geo_precision":"unmatched","state":"NC","year acquired":"2012"},"type":"Feature","geometry":null},{"properties":{"property name":"Harrisburg Family Physicians","city":"Harrisburg","reit":"Ventas","geo_score":0.0,"id":"aed06x5ojkej","geo_precision":"unmatched","state":"NC","year acquired":"2012"},"type":"Feature","geometry":null},{"properties":{"property name":"Harrisburg Medical Mall","city":"Harrisburg","reit":"Ventas","geo_score":0.0,"id":"aed06x04eag4","geo_precision":"unmatched","state":"NC","year acquired":"2012"},"type":"Feature","geometry":null},{"properties":{"property name":"Northcross","city":"Huntersville","reit":"Ventas","geo_score":0.0,"id":"aed06xb8bvk4","geo_precision":"unmatched","state":"NC","year acquired":"2012"},"type":"Feature","geometry":null},{"properties":{"property name":"REX Knightdale MOB &amp; Wellness Center","city":"Knightdale","reit":"Ventas","geo_score":0.0,"id":"aed06xc2570p","geo_precision":"unmatched","state":"NC","year acquired":"2012"},"type":"Feature","geometry":null},{"properties":{"property name":"Mulberry Medical Park","city":"Lenoir","reit":"Ventas","geo_score":0.0,"id":"aed06x1e0865","geo_precision":"unmatched","state":"NC","year acquired":"2012"},"type":"Feature","geometry":null},{"properties":{"property name":"Lincoln/Lakemont Family Practice","city":"Lincolnton","reit":"Ventas","geo_score":0.0,"id":"aed06x9c2k3t","geo_precision":"unmatched","state":"NC","year acquired":"2012"},"type":"Feature","geometry":null},{"properties":{"property name":"Alamance Regional Mebane Outpatient Ctr.","city":"Mebane","reit":"Ventas","geo_score":0.857,"id":"aed06xepo4vv","geo_precision":"zip","state":"NC","year acquired":"2012"},"type":"Feature","geometry":{"type":"Point","coordinates":[165.6,-21.3666667]}},{"properties":{"property name":"Midland Medical Park","city":"Midland","reit":"Ventas","geo_score":0.0,"id":"aed06xf0o9df","geo_precision":"unmatched","state":"NC","year acquired":"2012"},"type":"Feature","geometry":null},{"properties":{"property name":"East Rocky Mount Kidney Center","city":"Rocky Mount","reit":"Ventas","geo_score":0.857,"id":"aed06xefd8jq","geo_precision":"zip","state":"NC","year acquired":"2012"},"type":"Feature","geometry":{"type":"Point","coordinates":[166.5666667,-22.1833333]}},{"properties":{"property name":"Rocky Mount Kidney Center","city":"Rocky Mount","reit":"Ventas","geo_score":0.857,"id":"aed06x8b2wbg","geo_precision":"zip","state":"NC","year acquired":"2012"},"type":"Feature","geometry":{"type":"Point","coordinates":[166.5666667,-22.1833333]}},{"properties":{"property name":"Rocky Mount Medical Park","city":"Rocky Mount","reit":"Ventas","geo_score":0.857,"id":"aed06x2rssng","geo_precision":"zip","state":"NC","year acquired":"2012"},"type":"Feature","geometry":{"type":"Point","coordinates":[166.5666667,-22.1833333]}},{"properties":{"property name":"English Road Medical Center","city":"Rocky Mount","reit":"Ventas","geo_score":0.857,"id":"aed06xbqavdw","geo_precision":"zip","state":"NC","year acquired":"2012"},"type":"Feature","geometry":{"type":"Point","coordinates":[166.5666667,-22.1833333]}},{"properties":{"property name":"Rowan Outpatient Surgery Center","city":"Salisbury","reit":"Ventas","geo_score":0.0,"id":"aed06x7zapkf","geo_precision":"unmatched","state":"NC","year acquired":"2012"},"type":"Feature","geometry":null},{"properties":{"property name":"Property 75","city":"High Point","reit":"Health Care REIT","geo_score":0.0,"id":"aed06x3jvosd","geo_precision":"unmatched","state":"NC","year acquired":"2012"},"type":"Feature","geometry":null},{"properties":{"property name":"Property 148","city":"Pineville","reit":"Health Care REIT","geo_score":0.0,"id":"aed06x5vhpwv","geo_precision":"unmatched","state":"NC","year acquired":"2006"},"type":"Feature","geometry":null},{"properties":{"property name":"Property 155","city":"Raleigh","reit":"Health Care REIT","geo_score":0.0,"id":"aed06xdmpu2s","geo_precision":"unmatched","state":"NC","year acquired":"2011"},"type":"Feature","geometry":null},{"properties":{"property name":"Property 16","city":"Bellevue","reit":"Health Care REIT","geo_score":0.857,"id":"aed06x1pco38","geo_precision":"zip","state":"NE","year acquired":"2010"},"type":"Feature","geometry":{"type":"Point","coordinates":[4.139586,14.7820505]}},{"properties":{"property name":"Property 17","city":"Bellevue","reit":"Health Care REIT","geo_score":0.857,"id":"aed06xfmgl1c","geo_precision":"zip","state":"NE","year acquired":"2008"},"type":"Feature","geometry":{"type":"Point","coordinates":[4.139586,14.7820505]}},{"properties":{"property name":"Property 99","city":"Lincoln","reit":"Health Care REIT","geo_score":0.857,"id":"aed06x4b9z80","geo_precision":"zip","state":"NE","year acquired":"2010"},"type":"Feature","geometry":{"type":"Point","coordinates":[1.2033,13.6944]}},{"properties":{"property name":"1068","city":"Omaha","reit":"HCP","geo_score":0.0,"id":"aed06x86aug3","geo_precision":"unmatched","state":"NE","year acquired":"2006"},"type":"Feature","geometry":null},{"properties":{"property name":"Property 106","city":"Marlton","reit":"Health Care REIT","geo_score":0.0,"id":"aed06xcr8l2v","geo_precision":"unmatched","state":"NJ","year acquired":"2008"},"type":"Feature","geometry":null},{"properties":{"property name":"Property 124","city":"Moorestown","reit":"Health Care REIT","geo_score":0.0,"id":"aed06x77kcvb","geo_precision":"unmatched","state":"NJ","year acquired":"2011"},"type":"Feature","geometry":null},{"properties":{"property name":"Property 175","city":"Sewell","reit":"Health Care REIT","geo_score":0.0,"id":"aed06xcsmeyy","geo_precision":"unmatched","state":"NJ","year acquired":"2007"},"type":"Feature","geometry":null},{"properties":{"property name":"Property 179","city":"Somerville","reit":"Health Care REIT","geo_score":0.0,"id":"aed06x3lxlh7","geo_precision":"unmatched","state":"NJ","year acquired":"2008"},"type":"Feature","geometry":null},{"properties":{"property name":"Property 199","city":"Voorhees","reit":"Health Care REIT","geo_score":0.0,"id":"aed06x37sfpn","geo_precision":"unmatched","state":"NJ","year acquired":"2006"},"type":"Feature","geometry":null},{"properties":{"property name":"Property 200","city":"Voorhees","reit":"Health Care REIT","geo_score":0.0,"id":"aed06x3953mp","geo_precision":"unmatched","state":"NJ","year acquired":"2010"},"type":"Feature","geometry":null},{"properties":{"property name":"Property 162","city":"Roswell","reit":"Health Care REIT","geo_score":0.0,"id":"aed06xcoczlc","geo_precision":"unmatched","state":"NM","year acquired":"2011"},"type":"Feature","geometry":null},{"properties":{"property name":"Property 163","city":"Roswell","reit":"Health Care REIT","geo_score":0.0,"id":"aed06x9e1bb6","geo_precision":"unmatched","state":"NM","year acquired":"2011"},"type":"Feature","geometry":null},{"properties":{"property name":"Property 164","city":"Roswell","reit":"Health Care REIT","geo_score":0.0,"id":"aed06x79vfhi","geo_precision":"unmatched","state":"NM","year acquired":"2011"},"type":"Feature","geometry":null},{"properties":{"property name":"729","city":"Albuquerque","reit":"HCP","geo_score":0.0,"id":"aed06x529qr6","geo_precision":"unmatched","state":"NM","year acquired":"2005"},"type":"Feature","geometry":null},{"properties":{"property name":"Del E Webb Medical Plaza","city":"Henderson","reit":"Ventas","geo_score":0.0,"id":"aed06x8ymmxn","geo_precision":"unmatched","state":"NV","year acquired":"2011"},"type":"Feature","geometry":null},{"properties":{"property name":"The Terrace at South Meadows","city":"Reno","reit":"Ventas","geo_score":0.0,"id":"aed06xev52hw","geo_precision":"unmatched","state":"NV","year acquired":"2011"},"type":"Feature","geometry":null},{"properties":{"property name":"Property 93","city":"Las Vegas","reit":"Health Care REIT","geo_score":0.0,"id":"aed06x9np7kr","geo_precision":"unmatched","state":"NV","year acquired":"2006"},"type":"Feature","geometry":null},{"properties":{"property name":"Property 94","city":"Las Vegas","reit":"Health Care REIT","geo_score":0.0,"id":"aed06xegztc7","geo_precision":"unmatched","state":"NV","year acquired":"2007"},"type":"Feature","geometry":null},{"properties":{"property name":"Property 95","city":"Las Vegas","reit":"Health Care REIT","geo_score":0.0,"id":"aed06x1k3sc2","geo_precision":"unmatched","state":"NV","year acquired":"n/a"},"type":"Feature","geometry":null},{"properties":{"property name":"Property 96","city":"Las Vegas","reit":"Health Care REIT","geo_score":0.0,"id":"aed06x1mj0y0","geo_precision":"unmatched","state":"NV","year acquired":"2011"},"type":"Feature","geometry":null},{"properties":{"property name":"Property 97","city":"Las Vegas","reit":"Health Care REIT","geo_score":0.0,"id":"aed06xbtcnwp","geo_precision":"unmatched","state":"NV","year acquired":"2006"},"type":"Feature","geometry":null},{"properties":{"property name":"Property 157","city":"Reno","reit":"Health Care REIT","geo_score":0.0,"id":"aed06wzibdb9","geo_precision":"unmatched","state":"NV","year acquired":"2006"},"type":"Feature","geometry":null},{"properties":{"property name":"348","city":"Elko","reit":"HCP","geo_score":0.0,"id":"aed06x41outb","geo_precision":"unmatched","state":"NV","year acquired":"1999"},"type":"Feature","geometry":null},{"properties":{"property name":"571","city":"Las Vegas","reit":"HCP","geo_score":0.0,"id":"aed06xf44i7f","geo_precision":"unmatched","state":"NV","year acquired":"2003"},"type":"Feature","geometry":null},{"properties":{"property name":"660","city":"Las Vegas","reit":"HCP","geo_score":0.0,"id":"aed06x30bze5","geo_precision":"unmatched","state":"NV","year acquired":"2000"},"type":"Feature","geometry":null},{"properties":{"property name":"661","city":"Las Vegas","reit":"HCP","geo_score":0.0,"id":"aed06x9ugq17","geo_precision":"unmatched","state":"NV","year acquired":"2000"},"type":"Feature","geometry":null},{"properties":{"property name":"662","city":"Las Vegas","reit":"HCP","geo_score":0.0,"id":"aed06x1v8e6z","geo_precision":"unmatched","state":"NV","year acquired":"2000"},"type":"Feature","geometry":null},{"properties":{"property name":"663","city":"Las Vegas","reit":"HCP","geo_score":0.0,"id":"aed06x88guzh","geo_precision":"unmatched","state":"NV","year acquired":"2000"},"type":"Feature","geometry":null},{"properties":{"property name":"664","city":"Las Vegas","reit":"HCP","geo_score":0.0,"id":"aed06xbhw6lm","geo_precision":"unmatched","state":"NV","year acquired":"2000"},"type":"Feature","geometry":null},{"properties":{"property name":"691","city":"Las Vegas","reit":"HCP","geo_score":0.0,"id":"aed06x95anm8","geo_precision":"unmatched","state":"NV","year acquired":"2004"},"type":"Feature","geometry":null},{"properties":{"property name":"2037","city":"Mesquite","reit":"HCP","geo_score":0.0,"id":"aed06x7wq2k8","geo_precision":"unmatched","state":"NV","year acquired":"2012"},"type":"Feature","geometry":null},{"properties":{"property name":"Central NY Medical Center","city":"Syracuse","reit":"Ventas","geo_score":0.0,"id":"aed06x7crgva","geo_precision":"unmatched","state":"NY","year acquired":"2012"},"type":"Feature","geometry":null},{"properties":{"property name":"Property 118","city":"Middletown","reit":"Health Care REIT","geo_score":0.0,"id":"aed06xdfm0l2","geo_precision":"unmatched","state":"NY","year acquired":"2006"},"type":"Feature","geometry":null},{"properties":{"property name":"Property 134","city":"Niagara Falls","reit":"Health Care REIT","geo_score":0.0,"id":"aed06x4yzl1l","geo_precision":"unmatched","state":"NY","year acquired":"2007"},"type":"Feature","geometry":null},{"properties":{"property name":"Property 135","city":"Niagara Falls","reit":"Health Care REIT","geo_score":0.0,"id":"aed06x0ctb8t","geo_precision":"unmatched","state":"NY","year acquired":"2007"},"type":"Feature","geometry":null},{"properties":{"property name":"Property 185","city":"Suffern","reit":"Health Care REIT","geo_score":0.0,"id":"aed06x0vea0j","geo_precision":"unmatched","state":"NY","year acquired":"2011"},"type":"Feature","geometry":null},{"properties":{"property name":"Property 207","city":"West Seneca","reit":"Health Care REIT","geo_score":0.0,"id":"aed06x0bz1u2","geo_precision":"unmatched","state":"NY","year acquired":"2007"},"type":"Feature","geometry":null},{"properties":{"property name":"Cogdell Cleveland Rehab LP","city":"Beachwood","reit":"Ventas","geo_score":0.0,"id":"aed06x6mlm6j","geo_precision":"unmatched","state":"OH","year acquired":"2012"},"type":"Feature","geometry":null},{"properties":{"property name":"Anderson Medical Arts Building I","city":"Cincinnati","reit":"Ventas","geo_score":0.0,"id":"aed06x96tonb","geo_precision":"unmatched","state":"OH","year acquired":"2007"},"type":"Feature","geometry":null},{"properties":{"property name":"Anderson Medical Arts Building II","city":"Cincinnati","reit":"Ventas","geo_score":0.0,"id":"aed06xbr5wk0","geo_precision":"unmatched","state":"OH","year acquired":"2007"},"type":"Feature","geometry":null},{"properties":{"property name":"745 W State Street","city":"Columbus","reit":"Ventas","geo_score":0.0,"id":"aed06wzlmh7x","geo_precision":"unmatched","state":"OH","year acquired":"2011"},"type":"Feature","geometry":null},{"properties":{"property name":"Riverside North Medical Office Building","city":"Columbus","reit":"Ventas","geo_score":0.0,"id":"aed06xehg16e","geo_precision":"unmatched","state":"OH","year acquired":"2012"},"type":"Feature","geometry":null},{"properties":{"property name":"Riverside South Medical Office Building","city":"Columbus","reit":"Ventas","geo_score":0.0,"id":"aed06x77hs7s","geo_precision":"unmatched","state":"OH","year acquired":"2012"},"type":"Feature","geometry":null},{"properties":{"property name":"340 East Town Medical Office Building","city":"Columbus","reit":"Ventas","geo_score":0.0,"id":"aed06x1mi5qq","geo_precision":"unmatched","state":"OH","year acquired":"2012"},"type":"Feature","geometry":null},{"properties":{"property name":"393 East Town Medical Office Building","city":"Columbus","reit":"Ventas","geo_score":0.0,"id":"aed06xbddmqu","geo_precision":"unmatched","state":"OH","year acquired":"2012"},"type":"Feature","geometry":null},{"properties":{"property name":"141 South Sixth Medical Office Building","city":"Columbus","reit":"Ventas","geo_score":0.0,"id":"aed06x97un8n","geo_precision":"unmatched","state":"OH","year acquired":"2012"},"type":"Feature","geometry":null},{"properties":{"property name":"Doctors West Medical Office Building","city":"Columbus","reit":"Ventas","geo_score":0.0,"id":"aed06x7rnjfi","geo_precision":"unmatched","state":"OH","year acquired":"2012"},"type":"Feature","geometry":null},{"properties":{"property name":"Eastside Health Center","city":"Columbus","reit":"Ventas","geo_score":0.0,"id":"aed06x3tvqn7","geo_precision":"unmatched","state":"OH","year acquired":"2012"},"type":"Feature","geometry":null},{"properties":{"property name":"Heart Center Medical Office Building","city":"Columbus","reit":"Ventas","geo_score":0.0,"id":"aed06xb5y61c","geo_precision":"unmatched","state":"OH","year acquired":"2012"},"type":"Feature","geometry":null},{"properties":{"property name":"Wilkins Medical Office Building","city":"Columbus","reit":"Ventas","geo_score":0.0,"id":"aed06xco7p6k","geo_precision":"unmatched","state":"OH","year acquired":"2012"},"type":"Feature","geometry":null},{"properties":{"property name":"Grady Medical Office Building","city":"Delaware","reit":"Ventas","geo_score":0.0,"id":"aed06xf6ca7e","geo_precision":"unmatched","state":"OH","year acquired":"2012"},"type":"Feature","geometry":null},{"properties":{"property name":"Dublin Northwest Medical Office Building","city":"Dublin","reit":"Ventas","geo_score":0.0,"id":"aed06xbrgfha","geo_precision":"unmatched","state":"OH","year acquired":"2012"},"type":"Feature","geometry":null},{"properties":{"property name":"Preserve III Medical Office Building","city":"Dublin","reit":"Ventas","geo_score":0.0,"id":"aed06xeghi4c","geo_precision":"unmatched","state":"OH","year acquired":"2012"},"type":"Feature","geometry":null},{"properties":{"property name":"East Main Medical Office Building","city":"Whitehall","reit":"Ventas","geo_score":0.0,"id":"aed06x02btcv","geo_precision":"unmatched","state":"OH","year acquired":"2012"},"type":"Feature","geometry":null},{"properties":{"property name":"Zanesville Surgery Center","city":"Zanesville","reit":"Ventas","geo_score":0.0,"id":"aed06xckw0gi","geo_precision":"unmatched","state":"OH","year acquired":"2011"},"type":"Feature","geometry":null},{"properties":{"property name":"Dialysis Center","city":"Zanesville","reit":"Ventas","geo_score":0.0,"id":"aed06x159sm7","geo_precision":"unmatched","state":"OH","year acquired":"2011"},"type":"Feature","geometry":null},{"properties":{"property name":"Genesis Children s Center","city":"Zanesville","reit":"Ventas","geo_score":0.0,"id":"aed06xcusvwm","geo_precision":"unmatched","state":"OH","year acquired":"2011"},"type":"Feature","geometry":null},{"properties":{"property name":"Medical Arts Building I","city":"Zanesville","reit":"Ventas","geo_score":0.0,"id":"aed06xa5o82q","geo_precision":"unmatched","state":"OH","year acquired":"2011"},"type":"Feature","geometry":null},{"properties":{"property name":"Medical Arts Building II","city":"Zanesville","reit":"Ventas","geo_score":0.0,"id":"aed06x3wi090","geo_precision":"unmatched","state":"OH","year acquired":"2011"},"type":"Feature","geometry":null},{"properties":{"property name":"Medical Arts Building III","city":"Zanesville","reit":"Ventas","geo_score":0.0,"id":"aed06x940726","geo_precision":"unmatched","state":"OH","year acquired":"2011"},"type":"Feature","geometry":null},{"properties":{"property name":"Primecare Building","city":"Zanesville","reit":"Ventas","geo_score":0.0,"id":"aed06wzr982m","geo_precision":"unmatched","state":"OH","year acquired":"2011"},"type":"Feature","geometry":null},{"properties":{"property name":"Outpatient Rehabilitation Building","city":"Zanesville","reit":"Ventas","geo_score":0.0,"id":"aed06x9twvn3","geo_precision":"unmatched","state":"OH","year acquired":"2011"},"type":"Feature","geometry":null},{"properties":{"property name":"Radiation Oncology Building","city":"Zanesville","reit":"Ventas","geo_score":0.0,"id":"aed06x3izxl3","geo_precision":"unmatched","state":"OH","year acquired":"2011"},"type":"Feature","geometry":null},{"properties":{"property name":"Healthplex","city":"Zanesville","reit":"Ventas","geo_score":0.0,"id":"aed06x3er5m9","geo_precision":"unmatched","state":"OH","year acquired":"2011"},"type":"Feature","geometry":null},{"properties":{"property name":"Physicians Pavilion","city":"Zanesville","reit":"Ventas","geo_score":0.0,"id":"aed06x0n6nls","geo_precision":"unmatched","state":"OH","year acquired":"2011"},"type":"Feature","geometry":null},{"properties":{"property name":"Zanesville Northside Pharmacy","city":"Zanesville","reit":"Ventas","geo_score":0.0,"id":"aed06x8ctj76","geo_precision":"unmatched","state":"OH","year acquired":"2011"},"type":"Feature","geometry":null},{"properties":{"property name":"Bethesda Campus MOB III","city":"Zanesville","reit":"Ventas","geo_score":0.0,"id":"aed06xcxny30","geo_precision":"unmatched","state":"OH","year acquired":"2011"},"type":"Feature","geometry":null},{"properties":{"property name":"Property 1","city":"Akron","reit":"Health Care REIT","geo_score":0.0,"id":"aed06x1i50wd","geo_precision":"unmatched","state":"OH","year acquired":"2012"},"type":"Feature","geometry":null},{"properties":{"property name":"Property 2","city":"Akron","reit":"Health Care REIT","geo_score":0.0,"id":"aed06xc9d49z","geo_precision":"unmatched","state":"OH","year acquired":"2009"},"type":"Feature","geometry":null},{"properties":{"property name":"Property 22","city":"Boardman","reit":"Health Care REIT","geo_score":0.0,"id":"aed06x1m9zmq","geo_precision":"unmatched","state":"OH","year acquired":"2010"},"type":"Feature","geometry":null},{"properties":{"property name":"Property 23","city":"Boardman","reit":"Health Care REIT","geo_score":0.0,"id":"aed06x9unepm","geo_precision":"unmatched","state":"OH","year acquired":"2008"},"type":"Feature","geometry":null},{"properties":{"property name":"Property 40","city":"Columbus","reit":"Health Care REIT","geo_score":0.0,"id":"aed06xf52u2c","geo_precision":"unmatched","state":"OH","year acquired":"2012"},"type":"Feature","geometry":null},{"properties":{"property name":"Property 45","city":"Dayton","reit":"Health Care REIT","geo_score":0.0,"id":"aed06x0o6qd6","geo_precision":"unmatched","state":"OH","year acquired":"2011"},"type":"Feature","geometry":null},{"properties":{"property name":"Property 82","city":"Hudson","reit":"Health Care REIT","geo_score":0.0,"id":"aed06x1muycv","geo_precision":"unmatched","state":"OH","year acquired":"2012"},"type":"Feature","geometry":null},{"properties":{"property name":"Property 136","city":"Orange Village","reit":"Health Care REIT","geo_score":0.0,"id":"aed06x0c2ts8","geo_precision":"unmatched","state":"OH","year acquired":"2007"},"type":"Feature","geometry":null},{"properties":{"property name":"Property 208","city":"Westerville","reit":"Health Care REIT","geo_score":0.0,"id":"aed06x4tf04b","geo_precision":"unmatched","state":"OH","year acquired":"2012"},"type":"Feature","geometry":null},{"properties":{"property name":"1285","city":"Cleveland","reit":"HCP","geo_score":0.0,"id":"aed06x9wnmb7","geo_precision":"unmatched","state":"OH","year acquired":"2006"},"type":"Feature","geometry":null},{"properties":{"property name":"400","city":"Harrison","reit":"HCP","geo_score":0.0,"id":"aed06x1tkfrz","geo_precision":"unmatched","state":"OH","year acquired":"1999"},"type":"Feature","geometry":null},{"properties":{"property name":"Property 37","city":"Claremore","reit":"Health Care REIT","geo_score":0.0,"id":"aed06x3h56h0","geo_precision":"unmatched","state":"OK","year acquired":"2007"},"type":"Feature","geometry":null},{"properties":{"property name":"Property 196","city":"Tulsa","reit":"Health Care REIT","geo_score":0.0,"id":"aed06x4xqwvf","geo_precision":"unmatched","state":"OK","year acquired":"2006"},"type":"Feature","geometry":null},{"properties":{"property name":"1054","city":"Durant","reit":"HCP","geo_score":0.0,"id":"aed06xch2jn6","geo_precision":"unmatched","state":"OK","year acquired":"2006"},"type":"Feature","geometry":null},{"properties":{"property name":"817","city":"Owasso","reit":"HCP","geo_score":0.0,"id":"aed06x1kdo8u","geo_precision":"unmatched","state":"OK","year acquired":"2005"},"type":"Feature","geometry":null},{"properties":{"property name":"Tuality 7th Avenue Medical Plaza","city":"Hillsboro","reit":"Ventas","geo_score":0.0,"id":"aed06xbpynhn","geo_precision":"unmatched","state":"OR","year acquired":"2011"},"type":"Feature","geometry":null},{"properties":{"property name":"404","city":"Roseburg","reit":"HCP","geo_score":0.0,"id":"aed06xfaj3si","geo_precision":"unmatched","state":"OR","year acquired":"1999"},"type":"Feature","geometry":null},{"properties":{"property name":"DCMH Medical Office Building","city":"Drexel Hill","reit":"Ventas","geo_score":0.857,"id":"aed06xcpkg3e","geo_precision":"zip","state":"PA","year acquired":"2004"},"type":"Feature","geometry":{"type":"Point","coordinates":[-79.7333333,9.0333333]}},{"properties":{"property name":"Penn State University Outpatient Center","city":"Hershey","reit":"Ventas","geo_score":0.0,"id":"aed06x8oqwg1","geo_precision":"unmatched","state":"PA","year acquired":"2010"},"type":"Feature","geometry":null},{"properties":{"property name":"Lancaster Rehabilitation Hospital","city":"Lancaster","reit":"Ventas","geo_score":0.857,"id":"aed06xf03469","geo_precision":"zip","state":"PA","year acquired":"2012"},"type":"Feature","geometry":{"type":"Point","coordinates":[-79.7833333,9.1166667]}},{"properties":{"property name":"Lancaster ASC MOB","city":"Lancaster","reit":"Ventas","geo_score":0.857,"id":"aed06xcx9va8","geo_precision":"zip","state":"PA","year acquired":"2012"},"type":"Feature","geometry":{"type":"Point","coordinates":[-79.7833333,9.1166667]}},{"properties":{"property name":"St. Joseph Medical Office Building","city":"Reading","reit":"Ventas","geo_score":0.0,"id":"aed06x9tb1oh","geo_precision":"unmatched","state":"PA","year acquired":"2010"},"type":"Feature","geometry":null},{"properties":{"property name":"Professional Office Building I","city":"Upland","reit":"Ventas","geo_score":0.0,"id":"aed06xavn3uo","geo_precision":"unmatched","state":"PA","year acquired":"2004"},"type":"Feature","geometry":null},{"properties":{"property name":"Doylestown Health &amp; Wellness Center","city":"Warrington","reit":"Ventas","geo_score":0.0,"id":"aed06x0he8cm","geo_precision":"unmatched","state":"PA","year acquired":"2012"},"type":"Feature","geometry":null},{"properties":{"property name":"Property 107","city":"Mechanicsburg","reit":"Health Care REIT","geo_score":0.0,"id":"aed06x2st183","geo_precision":"unmatched","state":"PA","year acquired":"2011"},"type":"Feature","geometry":null},{"properties":{"property name":"Beaufort Medical Plaza","city":"Beaufort","reit":"Ventas","geo_score":0.0,"id":"aed06x4031g5","geo_precision":"unmatched","state":"SC","year acquired":"2012"},"type":"Feature","geometry":null},{"properties":{"property name":"Roper Medical Office Building","city":"Charleston","reit":"Ventas","geo_score":0.0,"id":"aed06x45u2pp","geo_precision":"unmatched","state":"SC","year acquired":"2012"},"type":"Feature","geometry":null},{"properties":{"property name":"St. Francis Medical Plaza (Charleston)","city":"Charleston","reit":"Ventas","geo_score":0.0,"id":"aed06x2ucm64","geo_precision":"unmatched","state":"SC","year acquired":"2012"},"type":"Feature","geometry":null},{"properties":{"property name":"Providence MOB I","city":"Columbia","reit":"Ventas","geo_score":0.0,"id":"aed06xdc4pyk","geo_precision":"unmatched","state":"SC","year acquired":"2012"},"type":"Feature","geometry":null},{"properties":{"property name":"Providence MOB II","city":"Columbia","reit":"Ventas","geo_score":0.0,"id":"aed06x09zrwn","geo_precision":"unmatched","state":"SC","year acquired":"2012"},"type":"Feature","geometry":null},{"properties":{"property name":"Providence MOB III","city":"Columbia","reit":"Ventas","geo_score":0.0,"id":"aed06wzwd774","geo_precision":"unmatched","state":"SC","year acquired":"2012"},"type":"Feature","geometry":null},{"properties":{"property name":"One Medical Park","city":"Columbia","reit":"Ventas","geo_score":0.0,"id":"aed06xa0lcf7","geo_precision":"unmatched","state":"SC","year acquired":"2012"},"type":"Feature","geometry":null},{"properties":{"property name":"Three Medical Park","city":"Columbia","reit":"Ventas","geo_score":0.0,"id":"aed06x8lsmls","geo_precision":"unmatched","state":"SC","year acquired":"2012"},"type":"Feature","geometry":null},{"properties":{"property name":"Palmetto Health Parkridge","city":"Columbia","reit":"Ventas","geo_score":0.0,"id":"aed06x5c0j21","geo_precision":"unmatched","state":"SC","year acquired":"2012"},"type":"Feature","geometry":null},{"properties":{"property name":"St. Francis Millennium Medical Office","city":"Greenville","reit":"Ventas","geo_score":0.0,"id":"aed06x31n8br","geo_precision":"unmatched","state":"SC","year acquired":"2009"},"type":"Feature","geometry":null},{"properties":{"property name":"200 Andrews","city":"Greenville","reit":"Ventas","geo_score":0.0,"id":"aed06x6uinhz","geo_precision":"unmatched","state":"SC","year acquired":"2012"},"type":"Feature","geometry":null},{"properties":{"property name":"St. Francis CMOB","city":"Greenville","reit":"Ventas","geo_score":0.0,"id":"aed06xdkietk","geo_precision":"unmatched","state":"SC","year acquired":"2012"},"type":"Feature","geometry":null},{"properties":{"property name":"St. Francis Outpatient Surgery Center","city":"Greenville","reit":"Ventas","geo_score":0.0,"id":"aed06xdwoyov","geo_precision":"unmatched","state":"SC","year acquired":"2012"},"type":"Feature","geometry":null},{"properties":{"property name":"St. Francis Professional Medical Center","city":"Greenville","reit":"Ventas","geo_score":0.0,"id":"aed06x23tq1d","geo_precision":"unmatched","state":"SC","year acquired":"2012"},"type":"Feature","geometry":null},{"properties":{"property name":"St. Francis Women s","city":"Greenville","reit":"Ventas","geo_score":0.0,"id":"aed06x1v43cs","geo_precision":"unmatched","state":"SC","year acquired":"2012"},"type":"Feature","geometry":null},{"properties":{"property name":"St. Francis Medical Plaza (Greenville)","city":"Greenville","reit":"Ventas","geo_score":0.0,"id":"aed06xbq7mlg","geo_precision":"unmatched","state":"SC","year acquired":"2012"},"type":"Feature","geometry":null},{"properties":{"property name":"Irmo Professional MOB","city":"Irmo","reit":"Ventas","geo_score":0.0,"id":"aed06x1ar7vu","geo_precision":"unmatched","state":"SC","year acquired":"2011"},"type":"Feature","geometry":null},{"properties":{"property name":"River Hills Medical Plaza","city":"Little River","reit":"Ventas","geo_score":0.857,"id":"aed06x36jptg","geo_precision":"zip","state":"SC","year acquired":"2012"},"type":"Feature","geometry":{"type":"Point","coordinates":[55.4666667,-4.6]}},{"properties":{"property name":"Mount Pleasant Medical Office Longpoint","city":"Mount Pleasant","reit":"Ventas","geo_score":0.0,"id":"aed06x0bhcdm","geo_precision":"unmatched","state":"SC","year acquired":"2012"},"type":"Feature","geometry":null},{"properties":{"property name":"Carolina Forest Medical Plaza","city":"Myrtle Beach","reit":"Ventas","geo_score":0.0,"id":"aed06x4b0mq6","geo_precision":"unmatched","state":"SC","year acquired":"2012"},"type":"Feature","geometry":null},{"properties":{"property name":"Medical Arts Center of Orangeburg","city":"Orangeburg","reit":"Ventas","geo_score":0.0,"id":"aed06x0kjevk","geo_precision":"unmatched","state":"SC","year acquired":"2012"},"type":"Feature","geometry":null},{"properties":{"property name":"Mary Black Westside Medical Office Bldg","city":"Spartanburg","reit":"Ventas","geo_score":0.0,"id":"aed06x1tkatj","geo_precision":"unmatched","state":"SC","year acquired":"2012"},"type":"Feature","geometry":null},{"properties":{"property name":"Colleton Medical Arts","city":"Walterboro","reit":"Ventas","geo_score":0.0,"id":"aed06x71vm5n","geo_precision":"unmatched","state":"SC","year acquired":"2011"},"type":"Feature","geometry":null},{"properties":{"property name":"Health Park Medical Office Building","city":"Chattanooga","reit":"Ventas","geo_score":0.857,"id":"aed06xciyzf6","geo_precision":"zip","state":"TN","year acquired":"2012"},"type":"Feature","geometry":{"type":"Point","coordinates":[8.7847222,33.7575]}},{"properties":{"property name":"Peerless Crossing Medical Center","city":"Cleveland","reit":"Ventas","geo_score":0.0,"id":"aed06x4nzwpr","geo_precision":"unmatched","state":"TN","year acquired":"2012"},"type":"Feature","geometry":null},{"properties":{"property name":"Medical Center Physicians Tower","city":"Jackson","reit":"Ventas","geo_score":0.0,"id":"aed06xck3630","geo_precision":"unmatched","state":"TN","year acquired":"2012"},"type":"Feature","geometry":null},{"properties":{"property name":"Grandview MOB","city":"Jasper","reit":"Ventas","geo_score":0.0,"id":"aed06wzgt8o4","geo_precision":"unmatched","state":"TN","year acquired":"2011"},"type":"Feature","geometry":null},{"properties":{"property name":"Property 13","city":"Bartlett","reit":"Health Care REIT","geo_score":0.857,"id":"aed06xf9qf1r","geo_precision":"zip","state":"TN","year acquired":"2007"},"type":"Feature","geometry":{"type":"Point","coordinates":[10.7833333,35.35]}},{"properties":{"property name":"Property 58","city":"Franklin","reit":"Health Care REIT","geo_score":0.0,"id":"aed06wzrva25","geo_precision":"unmatched","state":"TN","year acquired":"2007"},"type":"Feature","geometry":null},{"properties":{"property name":"Property 64","city":"Gallatin","reit":"Health Care REIT","geo_score":0.857,"id":"aed06xdqf1tq","geo_precision":"zip","state":"TN","year acquired":"2010"},"type":"Feature","geometry":{"type":"Point","coordinates":[8.8780556,37.4980556]}},{"properties":{"property name":"Property 65","city":"Germantown","reit":"Health Care REIT","geo_score":0.0,"id":"aed06xfd9pby","geo_precision":"unmatched","state":"TN","year acquired":"2006"},"type":"Feature","geometry":null},{"properties":{"property name":"Property 72","city":"Greeneville","reit":"Health Care REIT","geo_score":0.0,"id":"aed06wzh3xu3","geo_precision":"unmatched","state":"TN","year acquired":"2010"},"type":"Feature","geometry":null},{"properties":{"property name":"Property 126","city":"Mount Juliet","reit":"Health Care REIT","geo_score":0.857,"id":"aed06x6rzj6r","geo_precision":"zip","state":"TN","year acquired":"2007"},"type":"Feature","geometry":{"type":"Point","coordinates":[9.5666667,36.3666667]}},{"properties":{"property name":"Property 131","city":"Nashville","reit":"Health Care REIT","geo_score":0.0,"id":"aed06x44j27c","geo_precision":"unmatched","state":"TN","year acquired":"n/a"},"type":"Feature","geometry":null},{"properties":{"property name":"Property 132","city":"Nashville","reit":"Health Care REIT","geo_score":0.0,"id":"aed06xb4r9rv","geo_precision":"unmatched","state":"TN","year acquired":"2006"},"type":"Feature","geometry":null},{"properties":{"property name":"252","city":"Clarksville","reit":"HCP","geo_score":0.0,"id":"aed06x5l054y","geo_precision":"unmatched","state":"TN","year acquired":"1998"},"type":"Feature","geometry":null},{"properties":{"property name":"624","city":"Hendersonville","reit":"HCP","geo_score":0.0,"id":"aed06x1hw29p","geo_precision":"unmatched","state":"TN","year acquired":"2000"},"type":"Feature","geometry":null},{"properties":{"property name":"559","city":"Hermitage","reit":"HCP","geo_score":0.0,"id":"aed06xa3v5tu","geo_precision":"unmatched","state":"TN","year acquired":"2003"},"type":"Feature","geometry":null},{"properties":{"property name":"561","city":"Hermitage","reit":"HCP","geo_score":0.0,"id":"aed06xduw0fe","geo_precision":"unmatched","state":"TN","year acquired":"2003"},"type":"Feature","geometry":null},{"properties":{"property name":"562","city":"Hermitage","reit":"HCP","geo_score":0.0,"id":"aed06x3qttmc","geo_precision":"unmatched","state":"TN","year acquired":"2003"},"type":"Feature","geometry":null},{"properties":{"property name":"154","city":"Knoxville","reit":"HCP","geo_score":0.0,"id":"aed06x44z1kq","geo_precision":"unmatched","state":"TN","year acquired":"1994"},"type":"Feature","geometry":null},{"properties":{"property name":"409","city":"Murfreesboro","reit":"HCP","geo_score":0.0,"id":"aed06x4jysf8","geo_precision":"unmatched","state":"TN","year acquired":"1999"},"type":"Feature","geometry":null},{"properties":{"property name":"625","city":"Nashville","reit":"HCP","geo_score":0.0,"id":"aed06x2mqddr","geo_precision":"unmatched","state":"TN","year acquired":"2000"},"type":"Feature","geometry":null},{"properties":{"property name":"626","city":"Nashville","reit":"HCP","geo_score":0.0,"id":"aed06xbx8gkt","geo_precision":"unmatched","state":"TN","year acquired":"2000"},"type":"Feature","geometry":null},{"properties":{"property name":"627","city":"Nashville","reit":"HCP","geo_score":0.0,"id":"aed06x53rnlk","geo_precision":"unmatched","state":"TN","year acquired":"2000"},"type":"Feature","geometry":null},{"properties":{"property name":"628","city":"Nashville","reit":"HCP","geo_score":0.0,"id":"aed06x6umwkg","geo_precision":"unmatched","state":"TN","year acquired":"2000"},"type":"Feature","geometry":null},{"properties":{"property name":"630","city":"Nashville","reit":"HCP","geo_score":0.0,"id":"aed06wzm0uu2","geo_precision":"unmatched","state":"TN","year acquired":"2000"},"type":"Feature","geometry":null},{"properties":{"property name":"631","city":"Nashville","reit":"HCP","geo_score":0.0,"id":"aed06x5yp6gi","geo_precision":"unmatched","state":"TN","year acquired":"2000"},"type":"Feature","geometry":null},{"properties":{"property name":"632","city":"Nashville","reit":"HCP","geo_score":0.0,"id":"aed06x2b913y","geo_precision":"unmatched","state":"TN","year acquired":"2000"},"type":"Feature","geometry":null},{"properties":{"property name":"633","city":"Nashville","reit":"HCP","geo_score":0.0,"id":"aed06x1nixpt","geo_precision":"unmatched","state":"TN","year acquired":"2000"},"type":"Feature","geometry":null},{"properties":{"property name":"634","city":"Nashville","reit":"HCP","geo_score":0.0,"id":"aed06xclwe05","geo_precision":"unmatched","state":"TN","year acquired":"2000"},"type":"Feature","geometry":null},{"properties":{"property name":"636","city":"Nashville","reit":"HCP","geo_score":0.0,"id":"aed06x9ny623","geo_precision":"unmatched","state":"TN","year acquired":"2000"},"type":"Feature","geometry":null},{"properties":{"property name":"Abilene Medical Commons I","city":"Abilene","reit":"Ventas","geo_score":0.0,"id":"aed06xefiwpe","geo_precision":"unmatched","state":"TX","year acquired":"2004"},"type":"Feature","geometry":null},{"properties":{"property name":"Seton Medical Park Tower","city":"Austin","reit":"Ventas","geo_score":0.0,"id":"aed06x14sk3x","geo_precision":"unmatched","state":"TX","year acquired":"2012"},"type":"Feature","geometry":null},{"properties":{"property name":"Seton Northwest Health Plaza","city":"Austin","reit":"Ventas","geo_score":0.0,"id":"aed06x8o3c3h","geo_precision":"unmatched","state":"TX","year acquired":"2012"},"type":"Feature","geometry":null},{"properties":{"property name":"Seton Southwest Health Plaza","city":"Austin","reit":"Ventas","geo_score":0.0,"id":"aed06x541r52","geo_precision":"unmatched","state":"TX","year acquired":"2012"},"type":"Feature","geometry":null},{"properties":{"property name":"Seton Southwest Health Plaza II","city":"Austin","reit":"Ventas","geo_score":0.0,"id":"aed06x3pq1is","geo_precision":"unmatched","state":"TX","year acquired":"2012"},"type":"Feature","geometry":null},{"properties":{"property name":"East Houston MOB, LLC","city":"Houston","reit":"Ventas","geo_score":0.0,"id":"aed06xdrjoau","geo_precision":"unmatched","state":"TX","year acquired":"2011"},"type":"Feature","geometry":null},{"properties":{"property name":"East Houston Medical Plaza","city":"Houston","reit":"Ventas","geo_score":0.0,"id":"aed06xe27e7e","geo_precision":"unmatched","state":"TX","year acquired":"2011"},"type":"Feature","geometry":null},{"properties":{"property name":"Mansfield MOB","city":"Mansfield","reit":"Ventas","geo_score":0.0,"id":"aed06x79fu4z","geo_precision":"unmatched","state":"TX","year acquired":"2011"},"type":"Feature","geometry":null},{"properties":{"property name":"Bayshore Surgery Center MOB","city":"Pasadena","reit":"Ventas","geo_score":0.0,"id":"aed06x9i0at5","geo_precision":"unmatched","state":"TX","year acquired":"2005"},"type":"Feature","geometry":null},{"properties":{"property name":"Bayshore Rehabilitation Center MOB","city":"Pasadena","reit":"Ventas","geo_score":0.0,"id":"aed06xdu9ebx","geo_precision":"unmatched","state":"TX","year acquired":"2005"},"type":"Feature","geometry":null},{"properties":{"property name":"Seton Williamson Medical Plaza","city":"Round Rock","reit":"Ventas","geo_score":0.0,"id":"aed06x6vqlm6","geo_precision":"unmatched","state":"TX","year acquired":"2010"},"type":"Feature","geometry":null},{"properties":{"property name":"251 Medical Center","city":"Webster","reit":"Ventas","geo_score":0.0,"id":"aed06x0ir1rk","geo_precision":"unmatched","state":"TX","year acquired":"2011"},"type":"Feature","geometry":null},{"properties":{"property name":"253 Medical Center","city":"Webster","reit":"Ventas","geo_score":0.0,"id":"aed06x73znne","geo_precision":"unmatched","state":"TX","year acquired":"2011"},"type":"Feature","geometry":null},{"properties":{"property name":"Property 3","city":"Allen","reit":"Health Care REIT","geo_score":0.0,"id":"aed06xbm0fzc","geo_precision":"unmatched","state":"TX","year acquired":"2012"},"type":"Feature","geometry":null},{"properties":{"property name":"Property 14","city":"Bellaire","reit":"Health Care REIT","geo_score":0.0,"id":"aed06x8w51iw","geo_precision":"unmatched","state":"TX","year acquired":"2006"},"type":"Feature","geometry":null},{"properties":{"property name":"Property 15","city":"Bellaire","reit":"Health Care REIT","geo_score":0.0,"id":"aed06xdeenpy","geo_precision":"unmatched","state":"TX","year acquired":"2006"},"type":"Feature","geometry":null},{"properties":{"property name":"Property 26","city":"Boerne","reit":"Health Care REIT","geo_score":0.0,"id":"aed06x3anuim","geo_precision":"unmatched","state":"TX","year acquired":"2011"},"type":"Feature","geometry":null},{"properties":{"property name":"Property 33","city":"Burleson","reit":"Health Care REIT","geo_score":0.0,"id":"aed06x08ig7p","geo_precision":"unmatched","state":"TX","year acquired":"2011"},"type":"Feature","geometry":null},{"properties":{"property name":"Property 43","city":"Dallas","reit":"Health Care REIT","geo_score":0.0,"id":"aed06x2pjcsd","geo_precision":"unmatched","state":"TX","year acquired":"2006"},"type":"Feature","geometry":null},{"properties":{"property name":"Property 44","city":"Dallas","reit":"Health Care REIT","geo_score":0.0,"id":"aed06x5vb3at","geo_precision":"unmatched","state":"TX","year acquired":"2012"},"type":"Feature","geometry":null},{"properties":{"property name":"Property 48","city":"Denton","reit":"Health Care REIT","geo_score":0.0,"id":"aed06wzosvch","geo_precision":"unmatched","state":"TX","year acquired":"2007"},"type":"Feature","geometry":null},{"properties":{"property name":"Property 50","city":"El Paso","reit":"Health Care REIT","geo_score":0.0,"id":"aed06x7wplyr","geo_precision":"unmatched","state":"TX","year acquired":"2006"},"type":"Feature","geometry":null},{"properties":{"property name":"Property 51","city":"El Paso","reit":"Health Care REIT","geo_score":0.0,"id":"aed06xf8ks9d","geo_precision":"unmatched","state":"TX","year acquired":"2008"},"type":"Feature","geometry":null},{"properties":{"property name":"Property 52","city":"El Paso","reit":"Health Care REIT","geo_score":0.0,"id":"aed06x37ur1p","geo_precision":"unmatched","state":"TX","year acquired":"2008"},"type":"Feature","geometry":null},{"properties":{"property name":"Property 57","city":"Fort Worth","reit":"Health Care REIT","geo_score":0.0,"id":"aed06xews5fx","geo_precision":"unmatched","state":"TX","year acquired":"2010"},"type":"Feature","geometry":null},{"properties":{"property name":"Property 61","city":"Frisco","reit":"Health Care REIT","geo_score":0.0,"id":"aed06wziw7t0","geo_precision":"unmatched","state":"TX","year acquired":"2007"},"type":"Feature","geometry":null},{"properties":{"property name":"Property 62","city":"Frisco","reit":"Health Care REIT","geo_score":0.0,"id":"aed06x5orfl6","geo_precision":"unmatched","state":"TX","year acquired":"2007"},"type":"Feature","geometry":null},{"properties":{"property name":"Property 63","city":"Frisco","reit":"Health Care REIT","geo_score":0.0,"id":"aed06x63gyc2","geo_precision":"unmatched","state":"TX","year acquired":"2012"},"type":"Feature","geometry":null},{"properties":{"property name":"Property 67","city":"Grand Prairie","reit":"Health Care REIT","geo_score":0.0,"id":"aed06x86w8dr","geo_precision":"unmatched","state":"TX","year acquired":"2012"},"type":"Feature","geometry":null},{"properties":{"property name":"Property 74","city":"Harker Heights","reit":"Health Care REIT","geo_score":0.0,"id":"aed06xcutixn","geo_precision":"unmatched","state":"TX","year acquired":"2011"},"type":"Feature","geometry":null},{"properties":{"property name":"Property 76","city":"Houston","reit":"Health Care REIT","geo_score":0.0,"id":"aed06x3ayji1","geo_precision":"unmatched","state":"TX","year acquired":"n/a"},"type":"Feature","geometry":null},{"properties":{"property name":"Property 77","city":"Houston","reit":"Health Care REIT","geo_score":0.0,"id":"aed06x2lpw7l","geo_precision":"unmatched","state":"TX","year acquired":"2012"},"type":"Feature","geometry":null},{"properties":{"property name":"Property 78","city":"Houston","reit":"Health Care REIT","geo_score":0.0,"id":"aed06x2pg41s","geo_precision":"unmatched","state":"TX","year acquired":"2012"},"type":"Feature","geometry":null},{"properties":{"property name":"Property 79","city":"Houston","reit":"Health Care REIT","geo_score":0.0,"id":"aed06x9kpa8b","geo_precision":"unmatched","state":"TX","year acquired":"2012"},"type":"Feature","geometry":null},{"properties":{"property name":"Property 80","city":"Houston","reit":"Health Care REIT","geo_score":0.0,"id":"aed06xexzhp9","geo_precision":"unmatched","state":"TX","year acquired":"2012"},"type":"Feature","geometry":null},{"properties":{"property name":"Property 81","city":"Houston","reit":"Health Care REIT","geo_score":0.0,"id":"aed06x9vjf35","geo_precision":"unmatched","state":"TX","year acquired":"2012"},"type":"Feature","geometry":null},{"properties":{"property name":"Property 85","city":"Katy","reit":"Health Care REIT","geo_score":0.0,"id":"aed06wzry2qa","geo_precision":"unmatched","state":"TX","year acquired":"2012"},"type":"Feature","geometry":null},{"properties":{"property name":"Property 87","city":"Killeen","reit":"Health Care REIT","geo_score":0.0,"id":"aed06x9qc9y0","geo_precision":"unmatched","state":"TX","year acquired":"2010"},"type":"Feature","geometry":null},{"properties":{"property name":"Property 90","city":"Lakeway","reit":"Health Care REIT","geo_score":0.0,"id":"aed06xb2zkwd","geo_precision":"unmatched","state":"TX","year acquired":"n/a"},"type":"Feature","geometry":null},{"properties":{"property name":"Property 117","city":"Mesquite","reit":"Health Care REIT","geo_score":0.0,"id":"aed06x5lbux0","geo_precision":"unmatched","state":"TX","year acquired":"2012"},"type":"Feature","geometry":null},{"properties":{"property name":"Property 144","city":"Pearland","reit":"Health Care REIT","geo_score":0.0,"id":"aed06x75tetw","geo_precision":"unmatched","state":"TX","year acquired":"2006"},"type":"Feature","geometry":null},{"properties":{"property name":"Property 145","city":"Pearland","reit":"Health Care REIT","geo_score":0.0,"id":"aed06x2j0osq","geo_precision":"unmatched","state":"TX","year acquired":"2006"},"type":"Feature","geometry":null},{"properties":{"property name":"Property 149","city":"Plano","reit":"Health Care REIT","geo_score":0.0,"id":"aed06x1h9zmq","geo_precision":"unmatched","state":"TX","year acquired":"2008"},"type":"Feature","geometry":null},{"properties":{"property name":"Property 150","city":"Plano","reit":"Health Care REIT","geo_score":0.0,"id":"aed06xctcwfc","geo_precision":"unmatched","state":"TX","year acquired":"2012"},"type":"Feature","geometry":null},{"properties":{"property name":"Property 159","city":"Rockwall","reit":"Health Care REIT","geo_score":0.0,"id":"aed06xfo6irz","geo_precision":"unmatched","state":"TX","year acquired":"2012"},"type":"Feature","geometry":null},{"properties":{"property name":"Property 167","city":"San Antonio","reit":"Health Care REIT","geo_score":0.0,"id":"aed06x9hryjd","geo_precision":"unmatched","state":"TX","year acquired":"2006"},"type":"Feature","geometry":null},{"properties":{"property name":"Property 168","city":"San Antonio","reit":"Health Care REIT","geo_score":0.0,"id":"aed06xd7ra8m","geo_precision":"unmatched","state":"TX","year acquired":"2012"},"type":"Feature","geometry":null},{"properties":{"property name":"Property 169","city":"San Antonio","reit":"Health Care REIT","geo_score":0.0,"id":"aed06x4ailei","geo_precision":"unmatched","state":"TX","year acquired":"2007"},"type":"Feature","geometry":null},{"properties":{"property name":"Property 180","city":"Southlake","reit":"Health Care REIT","geo_score":0.0,"id":"aed06xd9vke5","geo_precision":"unmatched","state":"TX","year acquired":"2012"},"type":"Feature","geometry":null},{"properties":{"property name":"Property 181","city":"Southlake","reit":"Health Care REIT","geo_score":0.0,"id":"aed06xbck8tv","geo_precision":"unmatched","state":"TX","year acquired":"2012"},"type":"Feature","geometry":null},{"properties":{"property name":"Property 187","city":"Sugar Land","reit":"Health Care REIT","geo_score":0.0,"id":"aed06x7atj0t","geo_precision":"unmatched","state":"TX","year acquired":"2012"},"type":"Feature","geometry":null},{"properties":{"property name":"Property 193","city":"Temple","reit":"Health Care REIT","geo_score":0.0,"id":"aed06x9b9gii","geo_precision":"unmatched","state":"TX","year acquired":"2011"},"type":"Feature","geometry":null},{"properties":{"property name":"Property 194","city":"Tomball","reit":"Health Care REIT","geo_score":0.0,"id":"aed06xfhocze","geo_precision":"unmatched","state":"TX","year acquired":"2006"},"type":"Feature","geometry":null},{"properties":{"property name":"Property 201","city":"Webster","reit":"Health Care REIT","geo_score":0.0,"id":"aed06xeqhesw","geo_precision":"unmatched","state":"TX","year acquired":"2006"},"type":"Feature","geometry":null},{"properties":{"property name":"573","city":"Arlington","reit":"HCP","geo_score":0.0,"id":"aed06x9l2uub","geo_precision":"unmatched","state":"TX","year acquired":"2003"},"type":"Feature","geometry":null},{"properties":{"property name":"576","city":"Conroe","reit":"HCP","geo_score":0.0,"id":"aed06x7i6jui","geo_precision":"unmatched","state":"TX","year acquired":"2000"},"type":"Feature","geometry":null},{"properties":{"property name":"577","city":"Conroe","reit":"HCP","geo_score":0.0,"id":"aed06x0wsksk","geo_precision":"unmatched","state":"TX","year acquired":"2000"},"type":"Feature","geometry":null},{"properties":{"property name":"578","city":"Conroe","reit":"HCP","geo_score":0.0,"id":"aed06xba9fil","geo_precision":"unmatched","state":"TX","year acquired":"2000"},"type":"Feature","geometry":null},{"properties":{"property name":"579","city":"Conroe","reit":"HCP","geo_score":0.0,"id":"aed06xd4a0rz","geo_precision":"unmatched","state":"TX","year acquired":"2000"},"type":"Feature","geometry":null},{"properties":{"property name":"581","city":"Corpus Christi","reit":"HCP","geo_score":0.0,"id":"aed06x271wic","geo_precision":"unmatched","state":"TX","year acquired":"2000"},"type":"Feature","geometry":null},{"properties":{"property name":"600","city":"Corpus Christi","reit":"HCP","geo_score":0.0,"id":"aed06xfiqq38","geo_precision":"unmatched","state":"TX","year acquired":"2000"},"type":"Feature","geometry":null},{"properties":{"property name":"601","city":"Corpus Christi","reit":"HCP","geo_score":0.0,"id":"aed06xavp501","geo_precision":"unmatched","state":"TX","year acquired":"2000"},"type":"Feature","geometry":null},{"properties":{"property name":"582","city":"Dallas","reit":"HCP","geo_score":0.0,"id":"aed06xejscn3","geo_precision":"unmatched","state":"TX","year acquired":"2000"},"type":"Feature","geometry":null},{"properties":{"property name":"1314","city":"Dallas","reit":"HCP","geo_score":0.0,"id":"aed06wzw811r","geo_precision":"unmatched","state":"TX","year acquired":"2006"},"type":"Feature","geometry":null},{"properties":{"property name":"583","city":"Fort Worth","reit":"HCP","geo_score":0.0,"id":"aed06x2zrs8l","geo_precision":"unmatched","state":"TX","year acquired":"2000"},"type":"Feature","geometry":null},{"properties":{"property name":"805","city":"Fort Worth","reit":"HCP","geo_score":0.0,"id":"aed06x3vipwh","geo_precision":"unmatched","state":"TX","year acquired":"2005"},"type":"Feature","geometry":null},{"properties":{"property name":"806","city":"Fort Worth","reit":"HCP","geo_score":0.0,"id":"aed06x2d0dkf","geo_precision":"unmatched","state":"TX","year acquired":"2005"},"type":"Feature","geometry":null},{"properties":{"property name":"1061","city":"Granbury","reit":"HCP","geo_score":0.0,"id":"aed06x0ef2hl","geo_precision":"unmatched","state":"TX","year acquired":"2006"},"type":"Feature","geometry":null},{"properties":{"property name":"430","city":"Houston","reit":"HCP","geo_score":0.0,"id":"aed06xbjw7j4","geo_precision":"unmatched","state":"TX","year acquired":"1999"},"type":"Feature","geometry":null},{"properties":{"property name":"446","city":"Houston","reit":"HCP","geo_score":0.0,"id":"aed06x8b3sqf","geo_precision":"unmatched","state":"TX","year acquired":"1999"},"type":"Feature","geometry":null},{"properties":{"property name":"586","city":"Houston","reit":"HCP","geo_score":0.0,"id":"aed06x75vwpl","geo_precision":"unmatched","state":"TX","year acquired":"2000"},"type":"Feature","geometry":null},{"properties":{"property name":"589","city":"Houston","reit":"HCP","geo_score":0.0,"id":"aed06x67bvlg","geo_precision":"unmatched","state":"TX","year acquired":"2000"},"type":"Feature","geometry":null},{"properties":{"property name":"670","city":"Houston","reit":"HCP","geo_score":0.0,"id":"aed06xdhlzhr","geo_precision":"unmatched","state":"TX","year acquired":"2000"},"type":"Feature","geometry":null},{"properties":{"property name":"702","city":"Houston","reit":"HCP","geo_score":0.0,"id":"aed06x1vm7yq","geo_precision":"unmatched","state":"TX","year acquired":"2004"},"type":"Feature","geometry":null},{"properties":{"property name":"1044","city":"Houston","reit":"HCP","geo_score":0.0,"id":"aed06xa9j5cy","geo_precision":"unmatched","state":"TX","year acquired":"2006"},"type":"Feature","geometry":null},{"properties":{"property name":"590","city":"Irving","reit":"HCP","geo_score":0.0,"id":"aed06xcflx9a","geo_precision":"unmatched","state":"TX","year acquired":"2000"},"type":"Feature","geometry":null},{"properties":{"property name":"700","city":"Irving","reit":"HCP","geo_score":0.0,"id":"aed06xfqhe3r","geo_precision":"unmatched","state":"TX","year acquired":"2004"},"type":"Feature","geometry":null},{"properties":{"property name":"1202","city":"Irving","reit":"HCP","geo_score":0.0,"id":"aed06xdpunb5","geo_precision":"unmatched","state":"TX","year acquired":"2006"},"type":"Feature","geometry":null},{"properties":{"property name":"1207","city":"Irving","reit":"HCP","geo_score":0.0,"id":"aed06xebc8s5","geo_precision":"unmatched","state":"TX","year acquired":"2006"},"type":"Feature","geometry":null},{"properties":{"property name":"1062","city":"Lancaster","reit":"HCP","geo_score":0.0,"id":"aed06x1g0u0q","geo_precision":"unmatched","state":"TX","year acquired":"2006"},"type":"Feature","geometry":null},{"properties":{"property name":"591","city":"Lewisville","reit":"HCP","geo_score":0.0,"id":"aed06xeydp0d","geo_precision":"unmatched","state":"TX","year acquired":"2000"},"type":"Feature","geometry":null},{"properties":{"property name":"144","city":"Longview","reit":"HCP","geo_score":0.0,"id":"aed06xfdoye7","geo_precision":"unmatched","state":"TX","year acquired":"1992"},"type":"Feature","geometry":null},{"properties":{"property name":"143","city":"Lufkin","reit":"HCP","geo_score":0.0,"id":"aed06wzedjwf","geo_precision":"unmatched","state":"TX","year acquired":"1992"},"type":"Feature","geometry":null},{"properties":{"property name":"568","city":"McKinney","reit":"HCP","geo_score":0.0,"id":"aed06x4vx1bx","geo_precision":"unmatched","state":"TX","year acquired":"2003"},"type":"Feature","geometry":null},{"properties":{"property name":"569","city":"McKinney","reit":"HCP","geo_score":0.0,"id":"aed06x2yliwy","geo_precision":"unmatched","state":"TX","year acquired":"2003"},"type":"Feature","geometry":null},{"properties":{"property name":"596","city":"Nassau Bay","reit":"HCP","geo_score":0.0,"id":"aed06xekz77o","geo_precision":"unmatched","state":"TX","year acquired":"2000"},"type":"Feature","geometry":null},{"properties":{"property name":"1079","city":"North Richland Hills","reit":"HCP","geo_score":0.0,"id":"aed06x03n3xk","geo_precision":"unmatched","state":"TX","year acquired":"2006"},"type":"Feature","geometry":null},{"properties":{"property name":"2048","city":"North Richland Hills","reit":"HCP","geo_score":0.0,"id":"aed06xbxfqg0","geo_precision":"unmatched","state":"TX","year acquired":"2012"},"type":"Feature","geometry":null},{"properties":{"property name":"142","city":"Pampa","reit":"HCP","geo_score":0.0,"id":"aed06xe1ht40","geo_precision":"unmatched","state":"TX","year acquired":"1992"},"type":"Feature","geometry":null},{"properties":{"property name":"1048","city":"Pearland","reit":"HCP","geo_score":0.0,"id":"aed06x14xqff","geo_precision":"unmatched","state":"TX","year acquired":"2006"},"type":"Feature","geometry":null},{"properties":{"property name":"447","city":"Plano","reit":"HCP","geo_score":0.0,"id":"aed06wzlpq86","geo_precision":"unmatched","state":"TX","year acquired":"1999"},"type":"Feature","geometry":null},{"properties":{"property name":"597","city":"Plano","reit":"HCP","geo_score":0.0,"id":"aed06x4owgjw","geo_precision":"unmatched","state":"TX","year acquired":"2000"},"type":"Feature","geometry":null},{"properties":{"property name":"672","city":"Plano","reit":"HCP","geo_score":0.0,"id":"aed06xe0tqw1","geo_precision":"unmatched","state":"TX","year acquired":"2002"},"type":"Feature","geometry":null},{"properties":{"property name":"1284","city":"Plano","reit":"HCP","geo_score":0.0,"id":"aed06xasqylf","geo_precision":"unmatched","state":"TX","year acquired":"2006"},"type":"Feature","geometry":null},{"properties":{"property name":"1286","city":"Plano","reit":"HCP","geo_score":0.0,"id":"aed06x7bjpqy","geo_precision":"unmatched","state":"TX","year acquired":"2006"},"type":"Feature","geometry":null},{"properties":{"property name":"815","city":"San Antonio","reit":"HCP","geo_score":0.0,"id":"aed06xcb1e3l","geo_precision":"unmatched","state":"TX","year acquired":"2006"},"type":"Feature","geometry":null},{"properties":{"property name":"816","city":"San Antonio","reit":"HCP","geo_score":0.0,"id":"aed06xa62acw","geo_precision":"unmatched","state":"TX","year acquired":"2006"},"type":"Feature","geometry":null},{"properties":{"property name":"1591","city":"San Antonio","reit":"HCP","geo_score":0.0,"id":"aed06x4ilk0m","geo_precision":"unmatched","state":"TX","year acquired":"2010"},"type":"Feature","geometry":null},{"properties":{"property name":"1977","city":"San Antonio","reit":"HCP","geo_score":0.0,"id":"aed06x5xaaui","geo_precision":"unmatched","state":"TX","year acquired":"2011"},"type":"Feature","geometry":null},{"properties":{"property name":"598","city":"Sugarland","reit":"HCP","geo_score":0.0,"id":"aed06x0uscr4","geo_precision":"unmatched","state":"TX","year acquired":"2000"},"type":"Feature","geometry":null},{"properties":{"property name":"1081","city":"Texarkana","reit":"HCP","geo_score":0.0,"id":"aed06x6rm0l5","geo_precision":"unmatched","state":"TX","year acquired":"2006"},"type":"Feature","geometry":null},{"properties":{"property name":"599","city":"Texas City","reit":"HCP","geo_score":0.0,"id":"aed06xcam5d8","geo_precision":"unmatched","state":"TX","year acquired":"2000"},"type":"Feature","geometry":null},{"properties":{"property name":"152","city":"Victoria","reit":"HCP","geo_score":0.0,"id":"aed06x0j9i66","geo_precision":"unmatched","state":"TX","year acquired":"1994"},"type":"Feature","geometry":null},{"properties":{"property name":"1592","city":"Bountiful","reit":"HCP","geo_score":0.0,"id":"aed06x3ar2ci","geo_precision":"unmatched","state":"UT","year acquired":"2010"},"type":"Feature","geometry":null},{"properties":{"property name":"169","city":"Bountiful","reit":"HCP","geo_score":0.0,"id":"aed06x8bl6ff","geo_precision":"unmatched","state":"UT","year acquired":"1995"},"type":"Feature","geometry":null},{"properties":{"property name":"346","city":"Castle Dale","reit":"HCP","geo_score":0.0,"id":"aed06xc87pdq","geo_precision":"unmatched","state":"UT","year acquired":"1998"},"type":"Feature","geometry":null},{"properties":{"property name":"347","city":"Centerville","reit":"HCP","geo_score":0.0,"id":"aed06x9davf9","geo_precision":"unmatched","state":"UT","year acquired":"1999"},"type":"Feature","geometry":null},{"properties":{"property name":"2035","city":"Draper","reit":"HCP","geo_score":0.0,"id":"aed06xdmx50s","geo_precision":"unmatched","state":"UT","year acquired":"2012"},"type":"Feature","geometry":null},{"properties":{"property name":"350","city":"Grantsville","reit":"HCP","geo_score":0.0,"id":"aed06x1brji0","geo_precision":"unmatched","state":"UT","year acquired":"1999"},"type":"Feature","geometry":null},{"properties":{"property name":"469","city":"Kaysville","reit":"HCP","geo_score":0.0,"id":"aed06xe35bf0","geo_precision":"unmatched","state":"UT","year acquired":"2001"},"type":"Feature","geometry":null},{"properties":{"property name":"456","city":"Layton","reit":"HCP","geo_score":0.0,"id":"aed06x932n91","geo_precision":"unmatched","state":"UT","year acquired":"2001"},"type":"Feature","geometry":null},{"properties":{"property name":"2042","city":"Layton","reit":"HCP","geo_score":0.0,"id":"aed06wzg63uj","geo_precision":"unmatched","state":"UT","year acquired":"2012"},"type":"Feature","geometry":null},{"properties":{"property name":"359","city":"Ogden","reit":"HCP","geo_score":0.0,"id":"aed06x3q56dj","geo_precision":"unmatched","state":"UT","year acquired":"1999"},"type":"Feature","geometry":null},{"properties":{"property name":"1283","city":"Ogden","reit":"HCP","geo_score":0.0,"id":"aed06x5wjbzk","geo_precision":"unmatched","state":"UT","year acquired":"2006"},"type":"Feature","geometry":null},{"properties":{"property name":"357","city":"Orem","reit":"HCP","geo_score":0.0,"id":"aed06x3s5pcg","geo_precision":"unmatched","state":"UT","year acquired":"1999"},"type":"Feature","geometry":null},{"properties":{"property name":"371","city":"Providence","reit":"HCP","geo_score":0.0,"id":"aed06wzds2pk","geo_precision":"unmatched","state":"UT","year acquired":"1999"},"type":"Feature","geometry":null},{"properties":{"property name":"353","city":"Salt Lake City","reit":"HCP","geo_score":0.0,"id":"aed06x6apzpe","geo_precision":"unmatched","state":"UT","year acquired":"1999"},"type":"Feature","geometry":null},{"properties":{"property name":"354","city":"Salt Lake City","reit":"HCP","geo_score":0.0,"id":"aed06x5ondkj","geo_precision":"unmatched","state":"UT","year acquired":"1999"},"type":"Feature","geometry":null},{"properties":{"property name":"355","city":"Salt Lake City","reit":"HCP","geo_score":0.0,"id":"aed06x23njh2","geo_precision":"unmatched","state":"UT","year acquired":"1999"},"type":"Feature","geometry":null},{"properties":{"property name":"467","city":"Salt Lake City","reit":"HCP","geo_score":0.0,"id":"aed06wznwgtj","geo_precision":"unmatched","state":"UT","year acquired":"2001"},"type":"Feature","geometry":null},{"properties":{"property name":"566","city":"Salt Lake City","reit":"HCP","geo_score":0.0,"id":"aed06x50im4m","geo_precision":"unmatched","state":"UT","year acquired":"2003"},"type":"Feature","geometry":null},{"properties":{"property name":"2041","city":"Salt Lake City","reit":"HCP","geo_score":0.0,"id":"aed06xc50i03","geo_precision":"unmatched","state":"UT","year acquired":"2012"},"type":"Feature","geometry":null},{"properties":{"property name":"2033","city":"Sandy","reit":"HCP","geo_score":0.0,"id":"aed06xdpwzqy","geo_precision":"unmatched","state":"UT","year acquired":"2012"},"type":"Feature","geometry":null},{"properties":{"property name":"358","city":"Springville","reit":"HCP","geo_score":0.0,"id":"aed06x3s3gmz","geo_precision":"unmatched","state":"UT","year acquired":"1999"},"type":"Feature","geometry":null},{"properties":{"property name":"482","city":"Stansbury","reit":"HCP","geo_score":0.0,"id":"aed06wzosact","geo_precision":"unmatched","state":"UT","year acquired":"2001"},"type":"Feature","geometry":null},{"properties":{"property name":"351","city":"Washington Terrace","reit":"HCP","geo_score":0.0,"id":"aed06x7z5j11","geo_precision":"unmatched","state":"UT","year acquired":"1999"},"type":"Feature","geometry":null},{"properties":{"property name":"352","city":"Washington Terrace","reit":"HCP","geo_score":0.0,"id":"aed06x1b53vz","geo_precision":"unmatched","state":"UT","year acquired":"1999"},"type":"Feature","geometry":null},{"properties":{"property name":"2034","city":"West Jordan","reit":"HCP","geo_score":0.0,"id":"aed06xdy38ce","geo_precision":"unmatched","state":"UT","year acquired":"2012"},"type":"Feature","geometry":null},{"properties":{"property name":"2036","city":"West Jordan","reit":"HCP","geo_score":0.0,"id":"aed06x34decb","geo_precision":"unmatched","state":"UT","year acquired":"2012"},"type":"Feature","geometry":null},{"properties":{"property name":"495","city":"West Valley City","reit":"HCP","geo_score":0.0,"id":"aed06xddhqfn","geo_precision":"unmatched","state":"UT","year acquired":"2002"},"type":"Feature","geometry":null},{"properties":{"property name":"349","city":"West Valley City","reit":"HCP","geo_score":0.0,"id":"aed06x5m557v","geo_precision":"unmatched","state":"UT","year acquired":"1999"},"type":"Feature","geometry":null},{"properties":{"property name":"J. Hal Smith Building POB","city":"Christianburg","reit":"Ventas","geo_score":0.0,"id":"aed06x7v5fkc","geo_precision":"unmatched","state":"VA","year acquired":"2011"},"type":"Feature","geometry":null},{"properties":{"property name":"MRMC MOB I","city":"Mechanicsville","reit":"Ventas","geo_score":0.0,"id":"aed06xda8h9u","geo_precision":"unmatched","state":"VA","year acquired":"2012"},"type":"Feature","geometry":null},{"properties":{"property name":"Henrico MOB","city":"Richmond","reit":"Ventas","geo_score":0.0,"id":"aed06x5ly1ie","geo_precision":"unmatched","state":"VA","year acquired":"2011"},"type":"Feature","geometry":null},{"properties":{"property name":"St. Mary s MOB North (Floors 6 &amp; 7)","city":"Richmond","reit":"Ventas","geo_score":0.0,"id":"aed06xcmtmgc","geo_precision":"unmatched","state":"VA","year acquired":"2012"},"type":"Feature","geometry":null},{"properties":{"property name":"Property 158","city":"Richmond","reit":"Health Care REIT","geo_score":0.0,"id":"aed06x7iu9cj","geo_precision":"unmatched","state":"VA","year acquired":"2012"},"type":"Feature","geometry":null},{"properties":{"property name":"Property 184","city":"Stafford","reit":"Health Care REIT","geo_score":0.0,"id":"aed06xccl0m2","geo_precision":"unmatched","state":"VA","year acquired":"2008"},"type":"Feature","geometry":null},{"properties":{"property name":"Property 186","city":"Suffolk","reit":"Health Care REIT","geo_score":0.0,"id":"aed06x05v3b2","geo_precision":"unmatched","state":"VA","year acquired":"2010"},"type":"Feature","geometry":null},{"properties":{"property name":"Property 198","city":"Virginia Beach","reit":"Health Care REIT","geo_score":0.0,"id":"aed06xdqimb6","geo_precision":"unmatched","state":"VA","year acquired":"2011"},"type":"Feature","geometry":null},{"properties":{"property name":"1208","city":"Fairfax","reit":"HCP","geo_score":0.0,"id":"aed06xfv6c0f","geo_precision":"unmatched","state":"VA","year acquired":"2006"},"type":"Feature","geometry":null},{"properties":{"property name":"572","city":"Reston","reit":"HCP","geo_score":0.0,"id":"aed06x3khymm","geo_precision":"unmatched","state":"VA","year acquired":"2003"},"type":"Feature","geometry":null},{"properties":{"property name":"Bonney Lake Medical Office Building","city":"Bonney Lake","reit":"Ventas","geo_score":0.0,"id":"aed06x85g9qx","geo_precision":"unmatched","state":"WA","year acquired":"2012"},"type":"Feature","geometry":null},{"properties":{"property name":"Good Samaritan Medical Office Building","city":"Puyallup","reit":"Ventas","geo_score":0.0,"id":"aed06xbayd8q","geo_precision":"unmatched","state":"WA","year acquired":"2012"},"type":"Feature","geometry":null},{"properties":{"property name":"Holy Family Hospital Central MOB","city":"Spokane","reit":"Ventas","geo_score":0.0,"id":"aed06xdvm964","geo_precision":"unmatched","state":"WA","year acquired":"2012"},"type":"Feature","geometry":null},{"properties":{"property name":"Physician s Pavilion","city":"Vancouver","reit":"Ventas","geo_score":0.0,"id":"aed06x5o9ucr","geo_precision":"unmatched","state":"WA","year acquired":"2011"},"type":"Feature","geometry":null},{"properties":{"property name":"Administration Building","city":"Vancouver","reit":"Ventas","geo_score":0.0,"id":"aed06x2ldahn","geo_precision":"unmatched","state":"WA","year acquired":"2011"},"type":"Feature","geometry":null},{"properties":{"property name":"Medical Center Physician s Building","city":"Vancouver","reit":"Ventas","geo_score":0.0,"id":"aed06xbba3ca","geo_precision":"unmatched","state":"WA","year acquired":"2011"},"type":"Feature","geometry":null},{"properties":{"property name":"Memorial MOB","city":"Vancouver","reit":"Ventas","geo_score":0.0,"id":"aed06x4yk9ec","geo_precision":"unmatched","state":"WA","year acquired":"2011"},"type":"Feature","geometry":null},{"properties":{"property name":"Salmon Creek MOB","city":"Vancouver","reit":"Ventas","geo_score":0.0,"id":"aed06x0dfhjm","geo_precision":"unmatched","state":"WA","year acquired":"2011"},"type":"Feature","geometry":null},{"properties":{"property name":"Fisher s Landing MOB","city":"Vancouver","reit":"Ventas","geo_score":0.0,"id":"aed06xd7fs8l","geo_precision":"unmatched","state":"WA","year acquired":"2011"},"type":"Feature","geometry":null},{"properties":{"property name":"Healthy Steps Clinic","city":"Vancouver","reit":"Ventas","geo_score":0.0,"id":"aed06x1tzy34","geo_precision":"unmatched","state":"WA","year acquired":"2011"},"type":"Feature","geometry":null},{"properties":{"property name":"Columbia Medical Plaza","city":"Vancouver","reit":"Ventas","geo_score":0.0,"id":"aed06x3ci9yu","geo_precision":"unmatched","state":"WA","year acquired":"2011"},"type":"Feature","geometry":null},{"properties":{"property name":"Property 53","city":"Everett","reit":"Health Care REIT","geo_score":0.0,"id":"aed06xe6oynd","geo_precision":"unmatched","state":"WA","year acquired":"2010"},"type":"Feature","geometry":null},{"properties":{"property name":"Property 92","city":"Lakewood","reit":"Health Care REIT","geo_score":0.0,"id":"aed06x3na2b6","geo_precision":"unmatched","state":"WA","year acquired":"2012"},"type":"Feature","geometry":null},{"properties":{"property name":"Property 156","city":"Redmond","reit":"Health Care REIT","geo_score":0.0,"id":"aed06xd9tw71","geo_precision":"unmatched","state":"WA","year acquired":"2010"},"type":"Feature","geometry":null},{"properties":{"property name":"Property 174","city":"Seattle","reit":"Health Care REIT","geo_score":0.0,"id":"aed06xdx3kix","geo_precision":"unmatched","state":"WA","year acquired":"2010"},"type":"Feature","geometry":null},{"properties":{"property name":"448","city":"Renton","reit":"HCP","geo_score":0.0,"id":"aed06x42jr8t","geo_precision":"unmatched","state":"WA","year acquired":"1999"},"type":"Feature","geometry":null},{"properties":{"property name":"781","city":"Seattle","reit":"HCP","geo_score":0.0,"id":"aed06xcdeumg","geo_precision":"unmatched","state":"WA","year acquired":"2004"},"type":"Feature","geometry":null},{"properties":{"property name":"782","city":"Seattle","reit":"HCP","geo_score":0.0,"id":"aed06xd7to2v","geo_precision":"unmatched","state":"WA","year acquired":"2004"},"type":"Feature","geometry":null},{"properties":{"property name":"783","city":"Seattle","reit":"HCP","geo_score":0.0,"id":"aed06wzwk81c","geo_precision":"unmatched","state":"WA","year acquired":"2004"},"type":"Feature","geometry":null},{"properties":{"property name":"785","city":"Seattle","reit":"HCP","geo_score":0.0,"id":"aed06x3burrv","geo_precision":"unmatched","state":"WA","year acquired":"2004"},"type":"Feature","geometry":null},{"properties":{"property name":"1385","city":"Seattle","reit":"HCP","geo_score":0.0,"id":"aed06xfuat4t","geo_precision":"unmatched","state":"WA","year acquired":"2007"},"type":"Feature","geometry":null},{"properties":{"property name":"Appleton Heart Institute","city":"Appleton","reit":"Ventas","geo_score":0.0,"id":"aed06x8z81xf","geo_precision":"unmatched","state":"WI","year acquired":"2010"},"type":"Feature","geometry":null},{"properties":{"property name":"Appleton Medical Offices West","city":"Appleton","reit":"Ventas","geo_score":0.0,"id":"aed06x34unf5","geo_precision":"unmatched","state":"WI","year acquired":"2010"},"type":"Feature","geometry":null},{"properties":{"property name":"Appleton Medical Offices South","city":"Appleton","reit":"Ventas","geo_score":0.0,"id":"aed06xewrgj6","geo_precision":"unmatched","state":"WI","year acquired":"2010"},"type":"Feature","geometry":null},{"properties":{"property name":"Brookfield Clinic","city":"Brookfield","reit":"Ventas","geo_score":0.0,"id":"aed06x77ma8v","geo_precision":"unmatched","state":"WI","year acquired":"2011"},"type":"Feature","geometry":null},{"properties":{"property name":"Hartland Clinic","city":"Hartland","reit":"Ventas","geo_score":0.0,"id":"aed06xc22hqt","geo_precision":"unmatched","state":"WI","year acquired":"2011"},"type":"Feature","geometry":null},{"properties":{"property name":"Theda Clark Medical Center Office Pavilion","city":"Neenah","reit":"Ventas","geo_score":0.0,"id":"aed06xdzucph","geo_precision":"unmatched","state":"WI","year acquired":"2010"},"type":"Feature","geometry":null},{"properties":{"property name":"Aylward Medical Building Condo Floors","city":"Neenah","reit":"Ventas","geo_score":0.0,"id":"aed06x7tl85g","geo_precision":"unmatched","state":"WI","year acquired":"2010"},"type":"Feature","geometry":null},{"properties":{"property name":"New Berlin Clinic","city":"New Berlin","reit":"Ventas","geo_score":0.0,"id":"aed06x5s0bdy","geo_precision":"unmatched","state":"WI","year acquired":"2011"},"type":"Feature","geometry":null},{"properties":{"property name":"WestWood Health &amp; Fitness","city":"Pewaukee","reit":"Ventas","geo_score":0.0,"id":"aed06x76sy51","geo_precision":"unmatched","state":"WI","year acquired":"2011"},"type":"Feature","geometry":null},{"properties":{"property name":"Watertown Clinic","city":"Watertown","reit":"Ventas","geo_score":0.0,"id":"aed06x8yrdgj","geo_precision":"unmatched","state":"WI","year acquired":"2011"},"type":"Feature","geometry":null},{"properties":{"property name":"Southside Clinic","city":"Waukesha","reit":"Ventas","geo_score":0.0,"id":"aed06x10ptc9","geo_precision":"unmatched","state":"WI","year acquired":"2011"},"type":"Feature","geometry":null},{"properties":{"property name":"Rehabilitation Hospital","city":"Waukesha","reit":"Ventas","geo_score":0.0,"id":"aed06x510peg","geo_precision":"unmatched","state":"WI","year acquired":"2011"},"type":"Feature","geometry":null},{"properties":{"property name":"Property 36","city":"Cedar Grove","reit":"Health Care REIT","geo_score":0.0,"id":"aed06xdzwbks","geo_precision":"unmatched","state":"WI","year acquired":"2010"},"type":"Feature","geometry":null},{"properties":{"property name":"Property 59","city":"Franklin","reit":"Health Care REIT","geo_score":0.0,"id":"aed06x4o1fix","geo_precision":"unmatched","state":"WI","year acquired":"2010"},"type":"Feature","geometry":null},{"properties":{"property name":"Property 69","city":"Green Bay","reit":"Health Care REIT","geo_score":0.0,"id":"aed06x9tywu7","geo_precision":"unmatched","state":"WI","year acquired":"2010"},"type":"Feature","geometry":null},{"properties":{"property name":"Property 70","city":"Green Bay","reit":"Health Care REIT","geo_score":0.0,"id":"aed06wzg84su","geo_precision":"unmatched","state":"WI","year acquired":"2010"},"type":"Feature","geometry":null},{"properties":{"property name":"Property 71","city":"Green Bay","reit":"Health Care REIT","geo_score":0.0,"id":"aed06x8qvzkk","geo_precision":"unmatched","state":"WI","year acquired":"2010"},"type":"Feature","geometry":null},{"properties":{"property name":"Property 86","city":"Kenosha","reit":"Health Care REIT","geo_score":0.0,"id":"aed06x33u1p8","geo_precision":"unmatched","state":"WI","year acquired":"2010"},"type":"Feature","geometry":null},{"properties":{"property name":"Property 105","city":"Marinette","reit":"Health Care REIT","geo_score":0.0,"id":"aed06x7xjox6","geo_precision":"unmatched","state":"WI","year acquired":"2010"},"type":"Feature","geometry":null},{"properties":{"property name":"Property 119","city":"Milwaukee","reit":"Health Care REIT","geo_score":0.0,"id":"aed06x2nakxc","geo_precision":"unmatched","state":"WI","year acquired":"2010"},"type":"Feature","geometry":null},{"properties":{"property name":"Property 120","city":"Milwaukee","reit":"Health Care REIT","geo_score":0.0,"id":"aed06x8f4q4j","geo_precision":"unmatched","state":"WI","year acquired":"2010"},"type":"Feature","geometry":null},{"properties":{"property name":"Property 121","city":"Milwaukee","reit":"Health Care REIT","geo_score":0.0,"id":"aed06wzuq285","geo_precision":"unmatched","state":"WI","year acquired":"2010"},"type":"Feature","geometry":null},{"properties":{"property name":"Property 122","city":"Milwaukee","reit":"Health Care REIT","geo_score":0.0,"id":"aed06x2hf51b","geo_precision":"unmatched","state":"WI","year acquired":"2010"},"type":"Feature","geometry":null},{"properties":{"property name":"Property 130","city":"Muskego","reit":"Health Care REIT","geo_score":0.0,"id":"aed06x4p1i99","geo_precision":"unmatched","state":"WI","year acquired":"2010"},"type":"Feature","geometry":null},{"properties":{"property name":"Property 133","city":"New Berlin","reit":"Health Care REIT","geo_score":0.0,"id":"aed06xaqu3mj","geo_precision":"unmatched","state":"WI","year acquired":"2010"},"type":"Feature","geometry":null},{"properties":{"property name":"Property 138","city":"Oshkosh","reit":"Health Care REIT","geo_score":0.0,"id":"aed06x33ka7h","geo_precision":"unmatched","state":"WI","year acquired":"2010"},"type":"Feature","geometry":null},{"properties":{"property name":"Property 139","city":"Oshkosh","reit":"Health Care REIT","geo_score":0.0,"id":"aed06x04vosb","geo_precision":"unmatched","state":"WI","year acquired":"2010"},"type":"Feature","geometry":null},{"properties":{"property name":"Property 146","city":"Pewaukee","reit":"Health Care REIT","geo_score":0.0,"id":"aed06x406iii","geo_precision":"unmatched","state":"WI","year acquired":"2007"},"type":"Feature","geometry":null},{"properties":{"property name":"Property 153","city":"Plymouth","reit":"Health Care REIT","geo_score":0.0,"id":"aed06x8lawmm","geo_precision":"unmatched","state":"WI","year acquired":"2010"},"type":"Feature","geometry":null},{"properties":{"property name":"Property 178","city":"Sheboygan","reit":"Health Care REIT","geo_score":0.0,"id":"aed06x5nlh5l","geo_precision":"unmatched","state":"WI","year acquired":"2010"},"type":"Feature","geometry":null},{"properties":{"property name":"Property 188","city":"Summit","reit":"Health Care REIT","geo_score":0.0,"id":"aed06x8kfb8j","geo_precision":"unmatched","state":"WI","year acquired":"2008"},"type":"Feature","geometry":null},{"properties":{"property name":"Property 204","city":"West Allis","reit":"Health Care REIT","geo_score":0.0,"id":"aed06x1c2yy0","geo_precision":"unmatched","state":"WI","year acquired":"2010"},"type":"Feature","geometry":null},{"properties":{"property name":"Casper WY MOB","city":"Casper","reit":"Ventas","geo_score":0.0,"id":"aed06x9akvut","geo_precision":"unmatched","state":"WY","year acquired":"2008"},"type":"Feature","geometry":null},{"properties":{"property name":"2038","city":"Evanston","reit":"HCP","geo_score":0.0,"id":"aed06xawi783","geo_precision":"unmatched","state":"WY","year acquired":"2012"},"type":"Feature","geometry":null}],"is_temporal":false,"author":{"url":null,"metadata":null,"contact_name":null,"contact_address":null,"source":null,"contact_phone":null},"source":null,"pagination":{"sort":null,"start":0,"total":693,"limit":1000000},"state":"complete","tags":"","published":"2014-08-16T23:39:46-04:00","id":357762}