{"type":"FeatureCollection","data_type":"Dataset","url_type":null,"permissions":[{"permissions":{"download":true,"view":true},"group_id":"everyone"}],"classification":null,"title":"Tennessee cities","count":345,"stream_id":360133,"contributor":{"url":"http://geocommons.com/users/49315","name":"dgang@tennessean.com"},"data_attributes":null,"calculation_params":null,"icon_link":null,"link":"http://geocommons.com/overlays/360133.json","extent":[-90.049,34.989,-81.8048,36.632],"geometry_types":["point"],"unique_name":null,"name":"Tennessee cities","feature_count":345,"description":"The U.S. Census Bureau on Thursday released new population estimates for cities and towns. This map ranks Tennessee cities by percent growth from 2011 to 2012.","next_feature":null,"is_raster":false,"short_classification":"Y","stats":{"% change":{"max":0.0876,"variance":0.000114334338894506,"mean":0.00254463768115942,"stdev":0.0106927236424826,"min":-0.0189,"median":0.0016},"popestimate2010":{"max":647612,"variance":2562467751.65213,"mean":10915.0695652174,"stdev":50620.8233008129,"min":88,"median":1861},"latitude":{"max":36.6319879,"variance":0.228207958116547,"mean":35.8155014449565,"stdev":0.477711165995256,"min":34.98897213,"median":35.8681484},"popestimate2011":{"max":651348,"variance":2609961035.00929,"mean":11011.2,"stdev":51087.7777458493,"min":88,"median":1864},"11-12 change":{"max":12323,"variance":635759.280198856,"mean":124.272463768116,"stdev":797.345144964749,"min":-163,"median":1},"popestimate2012":{"max":655155,"variance":2678636511.70345,"mean":11135.4724637681,"stdev":51755.5457096479,"min":88,"median":1861},"estimatesbase2010":{"max":646889,"variance":2553584944.87272,"mean":10894.4898550725,"stdev":50533.0084684528,"min":88,"median":1856},"percent change":{"max":8.76,"variance":1.14334338894507,"mean":0.254463768115942,"stdev":1.06927236424826,"min":-1.89,"median":0.16},"longitude":{"max":-81.80483375,"variance":4.44269194085447,"mean":-86.5320877986377,"stdev":2.10776942307608,"min":-90.04897995,"median":-86.63749667},"census2010pop":{"max":646889,"variance":2543482849.23622,"mean":10858.5536231884,"stdev":50432.954000695,"min":81,"median":1856}},"features":[{"properties":{"name":"Collegedale city","city":"Collegedale","popestimate2010":8234,"% change":0.0876,"popestimate2011":8403,"latitude":35.05313242,"popestimate2012":9139,"11-12 change":736,"county":"Hamilton County","estimatesbase2010":8196,"percent change":8.76,"stname":"Tennessee","census2010pop":8282,"longitude":-85.05022289,"id":"aei3owpkgo24","address":"Collegedale, TN"},"type":"Feature","geometry":{"type":"Point","coordinates":[-85.05022289,35.05313242]}},{"properties":{"name":"Thompson's Station town","city":"Thompson's Station","popestimate2010":2206,"% change":0.0492,"popestimate2011":2255,"latitude":35.80201254,"popestimate2012":2366,"11-12 change":111,"county":"Williamson County","estimatesbase2010":2194,"percent change":4.92,"stname":"Tennessee","census2010pop":2194,"longitude":-86.91138829,"id":"aei3owz2hrzp","address":"Thompson's Station, TN"},"type":"Feature","geometry":{"type":"Point","coordinates":[-86.91138829,35.80201254]}},{"properties":{"name":"Clarksville city","city":"Clarksville","popestimate2010":133727,"% change":0.0443,"popestimate2011":136478,"latitude":36.52977536,"popestimate2012":142519,"11-12 change":6041,"county":"Montgomery County","estimatesbase2010":132957,"percent change":4.43,"stname":"Tennessee","census2010pop":132929,"longitude":-87.35945178,"id":"aei3ox1rfmwu","address":"Clarksville, TN"},"type":"Feature","geometry":{"type":"Point","coordinates":[-87.35945178,36.52977536]}},{"properties":{"name":"Mount Juliet city","city":"Mount Juliet","popestimate2010":24962,"% change":0.0397,"popestimate2011":25845,"latitude":36.20005681,"popestimate2012":26870,"11-12 change":1025,"county":"Wilson County","estimatesbase2010":24760,"percent change":3.97,"stname":"Tennessee","census2010pop":23671,"longitude":-86.51860328,"id":"aei3ox1ep2be","address":"Mount Juliet, TN"},"type":"Feature","geometry":{"type":"Point","coordinates":[-86.51860328,36.20005681]}},{"properties":{"name":"Decherd city","city":"Decherd","popestimate2010":2355,"% change":0.035,"popestimate2011":2344,"latitude":35.20980664,"popestimate2012":2426,"11-12 change":82,"county":"Franklin County","estimatesbase2010":2362,"percent change":3.5,"stname":"Tennessee","census2010pop":2361,"longitude":-86.079428,"id":"aei3ox49r10k","address":"Decherd, TN"},"type":"Feature","geometry":{"type":"Point","coordinates":[-86.079428,35.20980664]}},{"properties":{"name":"Spring Hill city","city":"Spring Hill","popestimate2010":29232,"% change":0.0343,"popestimate2011":30108,"latitude":35.75118216,"popestimate2012":31140,"11-12 change":1032,"county":"Williamson County, Maury County","estimatesbase2010":29036,"percent change":3.43,"stname":"Tennessee","census2010pop":29036,"longitude":-86.93000209,"id":"aei3owuijf2m","address":"Spring Hill, TN"},"type":"Feature","geometry":{"type":"Point","coordinates":[-86.93000209,35.75118216]}},{"properties":{"name":"Fayetteville city","city":"Fayetteville","popestimate2010":6831,"% change":0.0315,"popestimate2011":6856,"latitude":35.15203074,"popestimate2012":7072,"11-12 change":216,"county":"Lincoln County","estimatesbase2010":6817,"percent change":3.15,"stname":"Tennessee","census2010pop":6827,"longitude":-86.57054761,"id":"aei3ows27zkm","address":"Fayetteville, TN"},"type":"Feature","geometry":{"type":"Point","coordinates":[-86.57054761,35.15203074]}},{"properties":{"name":"Franklin city","city":"Franklin","popestimate2010":62864,"% change":0.0299,"popestimate2011":64353,"latitude":35.92506732,"popestimate2012":66280,"11-12 change":1927,"county":"Williamson County","estimatesbase2010":62608,"percent change":2.99,"stname":"Tennessee","census2010pop":62487,"longitude":-86.86888677,"id":"aei3owz75kta","address":"Franklin, TN"},"type":"Feature","geometry":{"type":"Point","coordinates":[-86.86888677,35.92506732]}},{"properties":{"name":"Sevierville city","city":"Sevierville","popestimate2010":14834,"% change":0.0293,"popestimate2011":15169,"latitude":35.8681484,"popestimate2012":15613,"11-12 change":444,"county":"Sevier County","estimatesbase2010":14788,"percent change":2.93,"stname":"Tennessee","census2010pop":14807,"longitude":-83.56183351,"id":"aei3owt5xxoe","address":"Sevierville, TN"},"type":"Feature","geometry":{"type":"Point","coordinates":[-83.56183351,35.8681484]}},{"properties":{"name":"Lafayette city","city":"Lafayette","popestimate2010":4501,"% change":0.0251,"popestimate2011":4576,"latitude":36.5211653,"popestimate2012":4691,"11-12 change":115,"county":"Macon County","estimatesbase2010":4491,"percent change":2.51,"stname":"Tennessee","census2010pop":4474,"longitude":-86.02636885,"id":"aei3owoh6z67","address":"Lafayette, TN"},"type":"Feature","geometry":{"type":"Point","coordinates":[-86.02636885,36.5211653]}},{"properties":{"name":"Brentwood city","city":"Brentwood","popestimate2010":37209,"% change":0.0244,"popestimate2011":38083,"latitude":36.0331209,"popestimate2012":39012,"11-12 change":929,"county":"Williamson County","estimatesbase2010":37060,"percent change":2.44,"stname":"Tennessee","census2010pop":37060,"longitude":-86.78277711,"id":"aei3owp23jus","address":"Brentwood, TN"},"type":"Feature","geometry":{"type":"Point","coordinates":[-86.78277711,36.0331209]}},{"properties":{"name":"Baneberry city","city":"Baneberry","popestimate2010":482,"% change":0.0206,"popestimate2011":486,"latitude":36.04583577,"popestimate2012":496,"11-12 change":10,"county":"Jefferson County","estimatesbase2010":482,"percent change":2.06,"stname":"Tennessee","census2010pop":482,"longitude":-83.27582876,"id":"aei3ox0nip4w","address":"Baneberry, TN"},"type":"Feature","geometry":{"type":"Point","coordinates":[-83.27582876,36.04583577]}},{"properties":{"name":"Nashville-Davidson metropolitan government (balance)","city":"Nashville","popestimate2010":604824,"% change":0.0201,"popestimate2011":612173,"latitude":36.16666805,"popestimate2012":624496,"11-12 change":12323,"county":"Davidson County","estimatesbase2010":603527,"percent change":2.01,"stname":"Tennessee","census2010pop":601222,"longitude":-86.78332872,"id":"aei3ox0wj61y","address":"Nashville, TN"},"type":"Feature","geometry":{"type":"Point","coordinates":[-86.78332872,36.16666805]}},{"properties":{"name":"Spencer town","city":"Spencer","popestimate2010":1602,"% change":0.0201,"popestimate2011":1593,"latitude":35.7472935,"popestimate2012":1625,"11-12 change":32,"county":"Van Buren County","estimatesbase2010":1604,"percent change":2.01,"stname":"Tennessee","census2010pop":1601,"longitude":-85.46664042,"id":"aei3owzh41gx","address":"Spencer, TN"},"type":"Feature","geometry":{"type":"Point","coordinates":[-85.46664042,35.7472935]}},{"properties":{"name":"Murfreesboro city","city":"Murfreesboro","popestimate2010":109530,"% change":0.0197,"popestimate2011":111831,"latitude":35.84562392,"popestimate2012":114038,"11-12 change":2207,"county":"Rutherford County","estimatesbase2010":109048,"percent change":1.97,"stname":"Tennessee","census2010pop":108755,"longitude":-86.39026721,"id":"aei3owz9wf5l","address":"Murfreesboro, TN"},"type":"Feature","geometry":{"type":"Point","coordinates":[-86.39026721,35.84562392]}},{"properties":{"name":"Pittman Center town","city":"Pittman Center","popestimate2010":506,"% change":0.0193,"popestimate2011":518,"latitude":35.759263,"popestimate2012":528,"11-12 change":10,"county":"Sevier County","estimatesbase2010":503,"percent change":1.93,"stname":"Tennessee","census2010pop":502,"longitude":-83.39598849,"id":"aei3ox3a0zxx","address":"Pittman Center, TN"},"type":"Feature","geometry":{"type":"Point","coordinates":[-83.39598849,35.759263]}},{"properties":{"name":"Oakland town","city":"Oakland","popestimate2010":6644,"% change":0.0192,"popestimate2011":6761,"latitude":35.22897971,"popestimate2012":6891,"11-12 change":130,"county":"Fayette County","estimatesbase2010":6626,"percent change":1.92,"stname":"Tennessee","census2010pop":6623,"longitude":-89.51507414,"id":"aei3ox1jnzu1","address":"Oakland, TN"},"type":"Feature","geometry":{"type":"Point","coordinates":[-89.51507414,35.22897971]}},{"properties":{"name":"Gallatin city","city":"Gallatin","popestimate2010":30556,"% change":0.0186,"popestimate2011":31026,"latitude":36.38838554,"popestimate2012":31603,"11-12 change":577,"county":"Sumner County","estimatesbase2010":30382,"percent change":1.86,"stname":"Tennessee","census2010pop":30278,"longitude":-86.44665645,"id":"aei3ows5l990","address":"Gallatin, TN"},"type":"Feature","geometry":{"type":"Point","coordinates":[-86.44665645,36.38838554]}},{"properties":{"name":"Oakdale town","city":"Oakdale","popestimate2010":212,"% change":0.0185,"popestimate2011":216,"latitude":35.98563307,"popestimate2012":220,"11-12 change":4,"county":"Morgan County","estimatesbase2010":212,"percent change":1.85,"stname":"Tennessee","census2010pop":212,"longitude":-84.55326557,"id":"aei3owzf4com","address":"Oakdale, TN"},"type":"Feature","geometry":{"type":"Point","coordinates":[-84.55326557,35.98563307]}},{"properties":{"name":"Lebanon city","city":"Lebanon","popestimate2010":26277,"% change":0.0181,"popestimate2011":27217,"latitude":36.20811191,"popestimate2012":27710,"11-12 change":493,"county":"Wilson County","estimatesbase2010":26146,"percent change":1.81,"stname":"Tennessee","census2010pop":26190,"longitude":-86.29110064,"id":"aei3owt2zfzs","address":"Lebanon, TN"},"type":"Feature","geometry":{"type":"Point","coordinates":[-86.29110064,36.20811191]}},{"properties":{"name":"Smyrna town","city":"Smyrna","popestimate2010":40146,"% change":0.0177,"popestimate2011":40981,"latitude":35.98284611,"popestimate2012":41705,"11-12 change":724,"county":"Rutherford County","estimatesbase2010":39974,"percent change":1.77,"stname":"Tennessee","census2010pop":39974,"longitude":-86.51859999,"id":"aei3owyhpxqo","address":"Smyrna, TN"},"type":"Feature","geometry":{"type":"Point","coordinates":[-86.51859999,35.98284611]}},{"properties":{"name":"Walden town","city":"Walden","popestimate2010":1906,"% change":0.0176,"popestimate2011":1937,"latitude":35.16479372,"popestimate2012":1971,"11-12 change":34,"county":"Hamilton County","estimatesbase2010":1898,"percent change":1.76,"stname":"Tennessee","census2010pop":1898,"longitude":-85.30134733,"id":"aei3owzlashk","address":"Walden, TN"},"type":"Feature","geometry":{"type":"Point","coordinates":[-85.30134733,35.16479372]}},{"properties":{"name":"Camden city","city":"Camden","popestimate2010":3579,"% change":0.0174,"popestimate2011":3558,"latitude":36.05895253,"popestimate2012":3620,"11-12 change":62,"county":"Benton County","estimatesbase2010":3582,"percent change":1.74,"stname":"Tennessee","census2010pop":3582,"longitude":-88.09781134,"id":"aei3owqhy3n5","address":"Camden, TN"},"type":"Feature","geometry":{"type":"Point","coordinates":[-88.09781134,36.05895253]}},{"properties":{"name":"Lenoir City city","city":"Lenoir City","popestimate2010":8680,"% change":0.017,"popestimate2011":8730,"latitude":35.79730113,"popestimate2012":8878,"11-12 change":148,"county":"Loudon County","estimatesbase2010":8642,"percent change":1.7,"stname":"Tennessee","census2010pop":8642,"longitude":-84.25602726,"id":"aei3ows5cdz1","address":"Lenoir City, TN"},"type":"Feature","geometry":{"type":"Point","coordinates":[-84.25602726,35.79730113]}},{"properties":{"name":"Piperton city","city":"Piperton","popestimate2010":1450,"% change":0.0164,"popestimate2011":1462,"latitude":35.04509352,"popestimate2012":1486,"11-12 change":24,"county":"Fayette County","estimatesbase2010":1445,"percent change":1.64,"stname":"Tennessee","census2010pop":1445,"longitude":-89.62174371,"id":"aei3owxcam18","address":"Piperton, TN"},"type":"Feature","geometry":{"type":"Point","coordinates":[-89.62174371,35.04509352]}},{"properties":{"name":"Goodlettsville city","city":"Goodlettsville","popestimate2010":15960,"% change":0.0161,"popestimate2011":16155,"latitude":36.32310898,"popestimate2012":16415,"11-12 change":260,"county":"Davidson County, Sumner County","estimatesbase2010":15921,"percent change":1.61,"stname":"Tennessee","census2010pop":15921,"longitude":-86.71332795,"id":"aei3owz04swq","address":"Goodlettsville, TN"},"type":"Feature","geometry":{"type":"Point","coordinates":[-86.71332795,36.32310898]}},{"properties":{"name":"Medina city","city":"Medina","popestimate2010":3600,"% change":0.0156,"popestimate2011":3778,"latitude":35.80284618,"popestimate2012":3837,"11-12 change":59,"county":"Gibson County","estimatesbase2010":3566,"percent change":1.56,"stname":"Tennessee","census2010pop":3479,"longitude":-88.77478053,"id":"aei3owtyfbwm","address":"Medina, TN"},"type":"Feature","geometry":{"type":"Point","coordinates":[-88.77478053,35.80284618]}},{"properties":{"name":"Forest Hills city","city":"Forest Hills","popestimate2010":4820,"% change":0.0154,"popestimate2011":4858,"latitude":36.06839576,"popestimate2012":4933,"11-12 change":75,"county":"Davidson County","estimatesbase2010":4812,"percent change":1.54,"stname":"Tennessee","census2010pop":4812,"longitude":-86.84416423,"id":"aei3ox1pt9mt","address":"Forest Hills, TN"},"type":"Feature","geometry":{"type":"Point","coordinates":[-86.84416423,36.06839576]}},{"properties":{"name":"Bartlett city","city":"Bartlett","popestimate2010":54721,"% change":0.0152,"popestimate2011":55106,"latitude":35.20453612,"popestimate2012":55945,"11-12 change":839,"county":"Shelby County","estimatesbase2010":54614,"percent change":1.52,"stname":"Tennessee","census2010pop":54613,"longitude":-89.87397346,"id":"aei3owv2cs2g","address":"Bartlett, TN"},"type":"Feature","geometry":{"type":"Point","coordinates":[-89.87397346,35.20453612]}},{"properties":{"name":"Philadelphia city","city":"Philadelphia","popestimate2010":658,"% change":0.0152,"popestimate2011":659,"latitude":35.681143,"popestimate2012":669,"11-12 change":10,"county":"Loudon County","estimatesbase2010":656,"percent change":1.52,"stname":"Tennessee","census2010pop":656,"longitude":-84.403925,"id":"aei3owyij7yk","address":"Philadelphia, TN"},"type":"Feature","geometry":{"type":"Point","coordinates":[-84.403925,35.681143]}},{"properties":{"name":"Ridgeside city","city":"Ridgeside","popestimate2010":391,"% change":0.0152,"popestimate2011":396,"latitude":35.03585431,"popestimate2012":402,"11-12 change":6,"county":"Hamilton County","estimatesbase2010":390,"percent change":1.52,"stname":"Tennessee","census2010pop":390,"longitude":-85.24694086,"id":"aei3owwfa5ux","address":"Ridgeside, TN"},"type":"Feature","geometry":{"type":"Point","coordinates":[-85.24694086,35.03585431]}},{"properties":{"name":"Oak Hill city","city":"Oak Hill","popestimate2010":4535,"% change":0.0149,"popestimate2011":4573,"latitude":36.08783956,"popestimate2012":4641,"11-12 change":68,"county":"Davidson County","estimatesbase2010":4529,"percent change":1.49,"stname":"Tennessee","census2010pop":4529,"longitude":-86.7830525,"id":"aei3owrzy35s","address":"Oak Hill, TN"},"type":"Feature","geometry":{"type":"Point","coordinates":[-86.7830525,36.08783956]}},{"properties":{"name":"Nolensville town","city":"Nolensville","popestimate2010":5896,"% change":0.0143,"popestimate2011":6010,"latitude":35.95228722,"popestimate2012":6096,"11-12 change":86,"county":"Williamson County","estimatesbase2010":5869,"percent change":1.43,"stname":"Tennessee","census2010pop":5861,"longitude":-86.66943893,"id":"aei3owv1kww2","address":"Nolensville, TN"},"type":"Feature","geometry":{"type":"Point","coordinates":[-86.66943893,35.95228722]}},{"properties":{"name":"Atoka town","city":"Atoka","popestimate2010":8526,"% change":0.0141,"popestimate2011":8624,"latitude":35.44119782,"popestimate2012":8746,"11-12 change":122,"county":"Tipton County","estimatesbase2010":8379,"percent change":1.41,"stname":"Tennessee","census2010pop":8387,"longitude":-89.77813682,"id":"aei3owpzfg8g","address":"Atoka, TN"},"type":"Feature","geometry":{"type":"Point","coordinates":[-89.77813682,35.44119782]}},{"properties":{"name":"Hendersonville city","city":"Hendersonville","popestimate2010":51504,"% change":0.0138,"popestimate2011":52359,"latitude":36.30477467,"popestimate2012":53080,"11-12 change":721,"county":"Sumner County","estimatesbase2010":51328,"percent change":1.38,"stname":"Tennessee","census2010pop":51372,"longitude":-86.61999173,"id":"aei3owtlq0r0","address":"Hendersonville, TN"},"type":"Feature","geometry":{"type":"Point","coordinates":[-86.61999173,36.30477467]}},{"properties":{"name":"La Vergne city","city":"La Vergne","popestimate2010":32706,"% change":0.0137,"popestimate2011":33321,"latitude":36.0156213,"popestimate2012":33777,"11-12 change":456,"county":"Rutherford County","estimatesbase2010":32588,"percent change":1.37,"stname":"Tennessee","census2010pop":32588,"longitude":-86.58193686,"id":"aei3owqbl6i1","address":"La Vergne, TN"},"type":"Feature","geometry":{"type":"Point","coordinates":[-86.58193686,36.0156213]}},{"properties":{"name":"Farragut town","city":"Farragut","popestimate2010":20707,"% change":0.0134,"popestimate2011":20846,"latitude":35.87785937,"popestimate2012":21126,"11-12 change":280,"county":"Knox County","estimatesbase2010":20676,"percent change":1.34,"stname":"Tennessee","census2010pop":20676,"longitude":-84.17113315,"id":"aei3owoo2gdj","address":"Farragut, TN"},"type":"Feature","geometry":{"type":"Point","coordinates":[-84.17113315,35.87785937]}},{"properties":{"name":"Belle Meade city","city":"Belle Meade","popestimate2010":2916,"% change":0.0133,"popestimate2011":2939,"latitude":36.09589328,"popestimate2012":2978,"11-12 change":39,"county":"Davidson County","estimatesbase2010":2912,"percent change":1.33,"stname":"Tennessee","census2010pop":2912,"longitude":-86.85694041,"id":"aei3owuwl3mm","address":"Belle Meade, TN"},"type":"Feature","geometry":{"type":"Point","coordinates":[-86.85694041,36.09589328]}},{"properties":{"name":"Berry Hill city","city":"Berry Hill","popestimate2010":538,"% change":0.0129,"popestimate2011":541,"latitude":36.11700654,"popestimate2012":548,"11-12 change":7,"county":"Davidson County","estimatesbase2010":537,"percent change":1.29,"stname":"Tennessee","census2010pop":537,"longitude":-86.7663853,"id":"aei3owvldixk","address":"Berry Hill, TN"},"type":"Feature","geometry":{"type":"Point","coordinates":[-86.7663853,36.11700654]}},{"properties":{"name":"Portland city","city":"Portland","popestimate2010":11534,"% change":0.0129,"popestimate2011":11689,"latitude":36.58171265,"popestimate2012":11840,"11-12 change":151,"county":"Sumner County","estimatesbase2010":11486,"percent change":1.29,"stname":"Tennessee","census2010pop":11480,"longitude":-86.5163821,"id":"aei3ox2p7qx8","address":"Portland, TN"},"type":"Feature","geometry":{"type":"Point","coordinates":[-86.5163821,36.58171265]}},{"properties":{"name":"Dunlap city","city":"Dunlap","popestimate2010":4819,"% change":0.0129,"popestimate2011":4895,"latitude":35.37145919,"popestimate2012":4958,"11-12 change":63,"county":"Sequatchie County","estimatesbase2010":4815,"percent change":1.29,"stname":"Tennessee","census2010pop":4815,"longitude":-85.39051942,"id":"aei3ox3v8tlx","address":"Dunlap, TN"},"type":"Feature","geometry":{"type":"Point","coordinates":[-85.39051942,35.37145919]}},{"properties":{"name":"White Bluff town","city":"White Bluff","popestimate2010":3211,"% change":0.0123,"popestimate2011":3251,"latitude":36.10756188,"popestimate2012":3291,"11-12 change":40,"county":"Dickson County","estimatesbase2010":3206,"percent change":1.23,"stname":"Tennessee","census2010pop":3206,"longitude":-87.22083815,"id":"aei3owuslpb2","address":"White Bluff, TN"},"type":"Feature","geometry":{"type":"Point","coordinates":[-87.22083815,36.10756188]}},{"properties":{"name":"Greenback city","city":"Greenback","popestimate2010":1068,"% change":0.0121,"popestimate2011":1071,"latitude":35.66119291,"popestimate2012":1084,"11-12 change":13,"county":"Loudon County","estimatesbase2010":1064,"percent change":1.21,"stname":"Tennessee","census2010pop":1064,"longitude":-84.17213421,"id":"aei3ox27unui","address":"Greenback, TN"},"type":"Feature","geometry":{"type":"Point","coordinates":[-84.17213421,35.66119291]}},{"properties":{"name":"Pleasant View city","city":"Pleasant View","popestimate2010":4137,"% change":0.0121,"popestimate2011":4140,"latitude":36.39421885,"popestimate2012":4190,"11-12 change":50,"county":"Cheatham County","estimatesbase2010":4149,"percent change":1.21,"stname":"Tennessee","census2010pop":4149,"longitude":-87.03666751,"id":"aei3owt761df","address":"Pleasant View, TN"},"type":"Feature","geometry":{"type":"Point","coordinates":[-87.03666751,36.39421885]}},{"properties":{"name":"Loudon town","city":"Loudon","popestimate2010":5403,"% change":0.0119,"popestimate2011":5565,"latitude":35.73285532,"popestimate2012":5631,"11-12 change":66,"county":"Loudon County","estimatesbase2010":5381,"percent change":1.19,"stname":"Tennessee","census2010pop":5381,"longitude":-84.33381022,"id":"aei3owz2wang","address":"Loudon, TN"},"type":"Feature","geometry":{"type":"Point","coordinates":[-84.33381022,35.73285532]}},{"properties":{"name":"Tennessee Ridge town","city":"Tennessee Ridge","popestimate2010":1370,"% change":0.0118,"popestimate2011":1353,"latitude":36.31200143,"popestimate2012":1369,"11-12 change":16,"county":"Houston County, Stewart County","estimatesbase2010":1368,"percent change":1.18,"stname":"Tennessee","census2010pop":1368,"longitude":-87.77335389,"id":"aei3owsm8nla","address":"Tennessee Ridge, TN"},"type":"Feature","geometry":{"type":"Point","coordinates":[-87.77335389,36.31200143]}},{"properties":{"name":"Alcoa city","city":"Alcoa","popestimate2010":8466,"% change":0.0114,"popestimate2011":8473,"latitude":35.78952962,"popestimate2012":8570,"11-12 change":97,"county":"Blount County","estimatesbase2010":8451,"percent change":1.14,"stname":"Tennessee","census2010pop":8449,"longitude":-83.97378888,"id":"aei3owswfbyx","address":"Alcoa, TN"},"type":"Feature","geometry":{"type":"Point","coordinates":[-83.97378888,35.78952962]}},{"properties":{"name":"White House city","city":"White House","popestimate2010":10317,"% change":0.0112,"popestimate2011":10470,"latitude":36.47032534,"popestimate2012":10587,"11-12 change":117,"county":"Sumner County, Robertson County","estimatesbase2010":10273,"percent change":1.12,"stname":"Tennessee","census2010pop":10255,"longitude":-86.65138419,"id":"aei3owwamsjk","address":"White House, TN"},"type":"Feature","geometry":{"type":"Point","coordinates":[-86.65138419,36.47032534]}},{"properties":{"name":"Cleveland city","city":"Cleveland","popestimate2010":41359,"% change":0.0107,"popestimate2011":41936,"latitude":35.15951959,"popestimate2012":42386,"11-12 change":450,"county":"Bradley County","estimatesbase2010":41285,"percent change":1.07,"stname":"Tennessee","census2010pop":41285,"longitude":-84.87660665,"id":"aei3owvl4xsi","address":"Cleveland, TN"},"type":"Feature","geometry":{"type":"Point","coordinates":[-84.87660665,35.15951959]}},{"properties":{"name":"Charleston city","city":"Charleston","popestimate2010":652,"% change":0.0107,"popestimate2011":654,"latitude":35.28729845,"popestimate2012":661,"11-12 change":7,"county":"Bradley County","estimatesbase2010":651,"percent change":1.07,"stname":"Tennessee","census2010pop":651,"longitude":-84.75827042,"id":"aei3owpjcy5v","address":"Charleston, TN"},"type":"Feature","geometry":{"type":"Point","coordinates":[-84.75827042,35.28729845]}},{"properties":{"name":"Collierville town","city":"Collierville","popestimate2010":45679,"% change":0.0105,"popestimate2011":45979,"latitude":35.04203818,"popestimate2012":46462,"11-12 change":483,"county":"Shelby County","estimatesbase2010":45604,"percent change":1.05,"stname":"Tennessee","census2010pop":43965,"longitude":-89.6645262,"id":"aei3owttzbh4","address":"Collierville, TN"},"type":"Feature","geometry":{"type":"Point","coordinates":[-89.6645262,35.04203818]}},{"properties":{"name":"Rossville town","city":"Rossville","popestimate2010":667,"% change":0.0105,"popestimate2011":669,"latitude":35.0484261,"popestimate2012":676,"11-12 change":7,"county":"Fayette County","estimatesbase2010":664,"percent change":1.05,"stname":"Tennessee","census2010pop":664,"longitude":-89.54257614,"id":"aei3owtla08h","address":"Rossville, TN"},"type":"Feature","geometry":{"type":"Point","coordinates":[-89.54257614,35.0484261]}},{"properties":{"name":"Mitchellville city","city":"Mitchellville","popestimate2010":190,"% change":0.0104,"popestimate2011":192,"latitude":36.6319879,"popestimate2012":194,"11-12 change":2,"county":"Sumner County","estimatesbase2010":190,"percent change":1.04,"stname":"Tennessee","census2010pop":189,"longitude":-86.5408274,"id":"aei3ox2hf997","address":"Mitchellville, TN"},"type":"Feature","geometry":{"type":"Point","coordinates":[-86.5408274,36.6319879]}},{"properties":{"name":"Jonesborough town","city":"Jonesborough","popestimate2010":5065,"% change":0.0102,"popestimate2011":5086,"latitude":36.29427607,"popestimate2012":5138,"11-12 change":52,"county":"Washington County","estimatesbase2010":5042,"percent change":1.02,"stname":"Tennessee","census2010pop":5051,"longitude":-82.47347622,"id":"aei3ox2k8lp9","address":"Jonesborough, TN"},"type":"Feature","geometry":{"type":"Point","coordinates":[-82.47347622,36.29427607]}},{"properties":{"name":"Cookeville city","city":"Cookeville","popestimate2010":30523,"% change":0.0102,"popestimate2011":30697,"latitude":36.16283934,"popestimate2012":31010,"11-12 change":313,"county":"Putnam County","estimatesbase2010":30435,"percent change":1.02,"stname":"Tennessee","census2010pop":30435,"longitude":-85.5016412,"id":"aei3owpad2na","address":"Cookeville, TN"},"type":"Feature","geometry":{"type":"Point","coordinates":[-85.5016412,36.16283934]}},{"properties":{"name":"Woodbury town","city":"Woodbury","popestimate2010":2680,"% change":0.0101,"popestimate2011":2675,"latitude":35.82756757,"popestimate2012":2702,"11-12 change":27,"county":"Cannon County","estimatesbase2010":2680,"percent change":1.01,"stname":"Tennessee","census2010pop":2680,"longitude":-86.07165611,"id":"aei3owrwc9wz","address":"Woodbury, TN"},"type":"Feature","geometry":{"type":"Point","coordinates":[-86.07165611,35.82756757]}},{"properties":{"name":"Signal Mountain town","city":"Signal Mountain","popestimate2010":7565,"% change":0.0098,"popestimate2011":7629,"latitude":35.122577,"popestimate2012":7704,"11-12 change":75,"county":"Hamilton County","estimatesbase2010":7554,"percent change":0.98,"stname":"Tennessee","census2010pop":7554,"longitude":-85.34384804,"id":"aei3owqr8oqp","address":"Signal Mountain, TN"},"type":"Feature","geometry":{"type":"Point","coordinates":[-85.34384804,35.122577]}},{"properties":{"name":"Fairview city","city":"Fairview","popestimate2010":7799,"% change":0.0097,"popestimate2011":7916,"latitude":35.9820122,"popestimate2012":7993,"11-12 change":77,"county":"Williamson County","estimatesbase2010":7720,"percent change":0.97,"stname":"Tennessee","census2010pop":7720,"longitude":-87.12139345,"id":"aei3owt3wp6n","address":"Fairview, TN"},"type":"Feature","geometry":{"type":"Point","coordinates":[-87.12139345,35.9820122]}},{"properties":{"name":"Dayton city","city":"Dayton","popestimate2010":7201,"% change":0.0097,"popestimate2011":7243,"latitude":35.49396361,"popestimate2012":7313,"11-12 change":70,"county":"Rhea County","estimatesbase2010":7191,"percent change":0.97,"stname":"Tennessee","census2010pop":7191,"longitude":-85.01245222,"id":"aei3owt0jnqq","address":"Dayton, TN"},"type":"Feature","geometry":{"type":"Point","coordinates":[-85.01245222,35.49396361]}},{"properties":{"name":"Chattanooga city","city":"Chattanooga","popestimate2010":168298,"% change":0.0096,"popestimate2011":169653,"latitude":35.04563176,"popestimate2012":171279,"11-12 change":1626,"county":"Hamilton County","estimatesbase2010":167971,"percent change":0.96,"stname":"Tennessee","census2010pop":167674,"longitude":-85.30967865,"id":"aei3ox4sibaa","address":"Chattanooga, TN"},"type":"Feature","geometry":{"type":"Point","coordinates":[-85.30967865,35.04563176]}},{"properties":{"name":"Johnson City city","city":"Johnson City","popestimate2010":63344,"% change":0.0094,"popestimate2011":63930,"latitude":36.31344096,"popestimate2012":64528,"11-12 change":598,"county":"Washington County, Carter County, Sullivan County","estimatesbase2010":63166,"percent change":0.94,"stname":"Tennessee","census2010pop":63152,"longitude":-82.35347135,"id":"aei3ox1wodpo","address":"Johnson City, TN"},"type":"Feature","geometry":{"type":"Point","coordinates":[-82.35347135,36.31344096]}},{"properties":{"name":"Erin city","city":"Erin","popestimate2010":1326,"% change":0.0091,"popestimate2011":1312,"latitude":36.31838889,"popestimate2012":1324,"11-12 change":12,"county":"Houston County","estimatesbase2010":1324,"percent change":0.91,"stname":"Tennessee","census2010pop":1324,"longitude":-87.69473683,"id":"aei3owy0ncvz","address":"Erin, TN"},"type":"Feature","geometry":{"type":"Point","coordinates":[-87.69473683,36.31838889]}},{"properties":{"name":"Gatlinburg city","city":"Gatlinburg","popestimate2010":3968,"% change":0.0087,"popestimate2011":4012,"latitude":35.71426266,"popestimate2012":4047,"11-12 change":35,"county":"Sevier County","estimatesbase2010":3944,"percent change":0.87,"stname":"Tennessee","census2010pop":3944,"longitude":-83.51016137,"id":"aei3owp7yzxh","address":"Gatlinburg, TN"},"type":"Feature","geometry":{"type":"Point","coordinates":[-83.51016137,35.71426266]}},{"properties":{"name":"Lakesite city","city":"Lakesite","popestimate2010":1829,"% change":0.0087,"popestimate2011":1845,"latitude":35.20868259,"popestimate2012":1861,"11-12 change":16,"county":"Hamilton County","estimatesbase2010":1826,"percent change":0.87,"stname":"Tennessee","census2010pop":1826,"longitude":-85.12689739,"id":"aei3owvv3tzw","address":"Lakesite, TN"},"type":"Feature","geometry":{"type":"Point","coordinates":[-85.12689739,35.20868259]}},{"properties":{"name":"Adamsville town","city":"Adamsville","popestimate2010":2208,"% change":0.0086,"popestimate2011":2209,"latitude":35.2359154,"popestimate2012":2228,"11-12 change":19,"county":"McNairy County, Hardin County","estimatesbase2010":2207,"percent change":0.86,"stname":"Tennessee","census2010pop":2207,"longitude":-88.39059431,"id":"aei3owtzhwlh","address":"Adamsville, TN"},"type":"Feature","geometry":{"type":"Point","coordinates":[-88.39059431,35.2359154]}},{"properties":{"name":"Brighton town","city":"Brighton","popestimate2010":2890,"% change":0.0086,"popestimate2011":2917,"latitude":35.48397369,"popestimate2012":2942,"11-12 change":25,"county":"Tipton County","estimatesbase2010":2883,"percent change":0.86,"stname":"Tennessee","census2010pop":2735,"longitude":-89.72507786,"id":"aei3owqoywg2","address":"Brighton, TN"},"type":"Feature","geometry":{"type":"Point","coordinates":[-89.72507786,35.48397369]}},{"properties":{"name":"Pigeon Forge city","city":"Pigeon Forge","popestimate2010":5884,"% change":0.0083,"popestimate2011":5939,"latitude":35.78842773,"popestimate2012":5988,"11-12 change":49,"county":"Sevier County","estimatesbase2010":5872,"percent change":0.83,"stname":"Tennessee","census2010pop":5875,"longitude":-83.55433204,"id":"aei3owtmmjhi","address":"Pigeon Forge, TN"},"type":"Feature","geometry":{"type":"Point","coordinates":[-83.55433204,35.78842773]}},{"properties":{"name":"Eagleville city","city":"Eagleville","popestimate2010":603,"% change":0.0082,"popestimate2011":611,"latitude":35.74173607,"popestimate2012":616,"11-12 change":5,"county":"Rutherford County","estimatesbase2010":602,"percent change":0.82,"stname":"Tennessee","census2010pop":604,"longitude":-86.64971754,"id":"aei3ox0cw4zo","address":"Eagleville, TN"},"type":"Feature","geometry":{"type":"Point","coordinates":[-86.64971754,35.74173607]}},{"properties":{"name":"Jasper town","city":"Jasper","popestimate2010":3258,"% change":0.008,"popestimate2011":3246,"latitude":35.07424816,"popestimate2012":3272,"11-12 change":26,"county":"Marion County","estimatesbase2010":3257,"percent change":0.8,"stname":"Tennessee","census2010pop":3279,"longitude":-85.62607662,"id":"aei3owsjtkv2","address":"Jasper, TN"},"type":"Feature","geometry":{"type":"Point","coordinates":[-85.62607662,35.07424816]}},{"properties":{"name":"Orme town","city":"Orme","popestimate2010":126,"% change":0.008,"popestimate2011":125,"latitude":35.01202792,"popestimate2012":126,"11-12 change":1,"county":"Marion County","estimatesbase2010":126,"percent change":0.8,"stname":"Tennessee","census2010pop":126,"longitude":-85.8046922,"id":"aei3owu4z6u6","address":"Orme, TN"},"type":"Feature","geometry":{"type":"Point","coordinates":[-85.8046922,35.01202792]}},{"properties":{"name":"Soddy-Daisy city","city":"Soddy-Daisy","popestimate2010":12738,"% change":0.0077,"popestimate2011":12838,"latitude":35.23590502,"popestimate2012":12937,"11-12 change":99,"county":"Hamilton County","estimatesbase2010":12714,"percent change":0.77,"stname":"Tennessee","census2010pop":12714,"longitude":-85.19078679,"id":"aei3owx862ay","address":"Soddy-Daisy, TN"},"type":"Feature","geometry":{"type":"Point","coordinates":[-85.19078679,35.23590502]}},{"properties":{"name":"Knoxville city","city":"Knoxville","popestimate2010":179093,"% change":0.0077,"popestimate2011":180813,"latitude":35.96064069,"popestimate2012":182200,"11-12 change":1387,"county":"Knox County","estimatesbase2010":178874,"percent change":0.77,"stname":"Tennessee","census2010pop":178874,"longitude":-83.9207387,"id":"aei3owr9af18","address":"Knoxville, TN"},"type":"Feature","geometry":{"type":"Point","coordinates":[-83.9207387,35.96064069]}},{"properties":{"name":"Milledgeville town","city":"Milledgeville","popestimate2010":265,"% change":0.0076,"popestimate2011":263,"latitude":35.37285644,"popestimate2012":265,"11-12 change":2,"county":"McNairy County, Chester County, Hardin County","estimatesbase2010":265,"percent change":0.76,"stname":"Tennessee","census2010pop":265,"longitude":-88.36753891,"id":"aei3owywg337","address":"Milledgeville, TN"},"type":"Feature","geometry":{"type":"Point","coordinates":[-88.36753891,35.37285644]}},{"properties":{"name":"Lookout Mountain town","city":"Lookout Mountain","popestimate2010":1835,"% change":0.0076,"popestimate2011":1844,"latitude":34.99424376,"popestimate2012":1858,"11-12 change":14,"county":"Hamilton County","estimatesbase2010":1832,"percent change":0.76,"stname":"Tennessee","census2010pop":1832,"longitude":-85.34940027,"id":"aei3owy3rsi5","address":"Lookout Mountain, TN"},"type":"Feature","geometry":{"type":"Point","coordinates":[-85.34940027,34.99424376]}},{"properties":{"name":"Jefferson City city","city":"Jefferson City","popestimate2010":8097,"% change":0.0075,"popestimate2011":8123,"latitude":36.12231318,"popestimate2012":8184,"11-12 change":61,"county":"Jefferson County","estimatesbase2010":8093,"percent change":0.75,"stname":"Tennessee","census2010pop":8047,"longitude":-83.49239289,"id":"aei3ox1kvt38","address":"Jefferson City, TN"},"type":"Feature","geometry":{"type":"Point","coordinates":[-83.49239289,36.12231318]}},{"properties":{"name":"Friendship city","city":"Friendship","popestimate2010":667,"% change":0.0075,"popestimate2011":666,"latitude":35.90896291,"popestimate2012":671,"11-12 change":5,"county":"Crockett County","estimatesbase2010":668,"percent change":0.75,"stname":"Tennessee","census2010pop":668,"longitude":-89.24534417,"id":"aei3ows545i1","address":"Friendship, TN"},"type":"Feature","geometry":{"type":"Point","coordinates":[-89.24534417,35.90896291]}},{"properties":{"name":"Maury City town","city":"Maury City","popestimate2010":673,"% change":0.0074,"popestimate2011":672,"latitude":35.81480028,"popestimate2012":677,"11-12 change":5,"county":"Crockett County","estimatesbase2010":674,"percent change":0.74,"stname":"Tennessee","census2010pop":674,"longitude":-89.22562361,"id":"aei3ox1ktnll","address":"Maury City, TN"},"type":"Feature","geometry":{"type":"Point","coordinates":[-89.22562361,35.81480028]}},{"properties":{"name":"Crossville city","city":"Crossville","popestimate2010":10866,"% change":0.0074,"popestimate2011":11033,"latitude":35.94895756,"popestimate2012":11115,"11-12 change":82,"county":"Cumberland County","estimatesbase2010":10815,"percent change":0.74,"stname":"Tennessee","census2010pop":10795,"longitude":-85.02690066,"id":"aei3owv4cyzk","address":"Crossville, TN"},"type":"Feature","geometry":{"type":"Point","coordinates":[-85.02690066,35.94895756]}},{"properties":{"name":"Dandridge town","city":"Dandridge","popestimate2010":2811,"% change":0.0074,"popestimate2011":2828,"latitude":36.01537048,"popestimate2012":2849,"11-12 change":21,"county":"Jefferson County","estimatesbase2010":2812,"percent change":0.74,"stname":"Tennessee","census2010pop":2812,"longitude":-83.4148875,"id":"aei3owxia4p8","address":"Dandridge, TN"},"type":"Feature","geometry":{"type":"Point","coordinates":[-83.4148875,36.01537048]}},{"properties":{"name":"East Ridge city","city":"East Ridge","popestimate2010":21008,"% change":0.0072,"popestimate2011":21138,"latitude":34.9970277,"popestimate2012":21291,"11-12 change":153,"county":"Hamilton County","estimatesbase2010":20979,"percent change":0.72,"stname":"Tennessee","census2010pop":20979,"longitude":-85.22901961,"id":"aei3owt6p9hr","address":"East Ridge, TN"},"type":"Feature","geometry":{"type":"Point","coordinates":[-85.22901961,34.9970277]}},{"properties":{"name":"Lakeland city","city":"Lakeland","popestimate2010":12447,"% change":0.0071,"popestimate2011":12533,"latitude":35.23064427,"popestimate2012":12622,"11-12 change":89,"county":"Shelby County","estimatesbase2010":12430,"percent change":0.71,"stname":"Tennessee","census2010pop":12430,"longitude":-89.74035915,"id":"aei3owu6en6i","address":"Lakeland, TN"},"type":"Feature","geometry":{"type":"Point","coordinates":[-89.74035915,35.23064427]}},{"properties":{"name":"Normandy town","city":"Normandy","popestimate2010":141,"% change":0.0071,"popestimate2011":141,"latitude":35.45202156,"popestimate2012":142,"11-12 change":1,"county":"Bedford County","estimatesbase2010":141,"percent change":0.71,"stname":"Tennessee","census2010pop":141,"longitude":-86.25998812,"id":"aei3ox3o3q12","address":"Normandy, TN"},"type":"Feature","geometry":{"type":"Point","coordinates":[-86.25998812,35.45202156]}},{"properties":{"name":"Germantown city","city":"Germantown","popestimate2010":38898,"% change":0.0071,"popestimate2011":39169,"latitude":35.08676238,"popestimate2012":39446,"11-12 change":277,"county":"Shelby County","estimatesbase2010":38844,"percent change":0.71,"stname":"Tennessee","census2010pop":38844,"longitude":-89.81008199,"id":"aei3oww9yrga","address":"Germantown, TN"},"type":"Feature","geometry":{"type":"Point","coordinates":[-89.81008199,35.08676238]}},{"properties":{"name":"Bells city","city":"Bells","popestimate2010":2434,"% change":0.007,"popestimate2011":2430,"latitude":35.71118757,"popestimate2012":2447,"11-12 change":17,"county":"Crockett County","estimatesbase2010":2437,"percent change":0.7,"stname":"Tennessee","census2010pop":2437,"longitude":-89.08756091,"id":"aei3oww6bmug","address":"Bells, TN"},"type":"Feature","geometry":{"type":"Point","coordinates":[-89.08756091,35.71118757]}},{"properties":{"name":"Finger city","city":"Finger","popestimate2010":298,"% change":0.0068,"popestimate2011":296,"latitude":35.35841675,"popestimate2012":298,"11-12 change":2,"county":"McNairy County","estimatesbase2010":298,"percent change":0.68,"stname":"Tennessee","census2010pop":298,"longitude":-88.59893766,"id":"aei3owtph2vx","address":"Finger, TN"},"type":"Feature","geometry":{"type":"Point","coordinates":[-88.59893766,35.35841675]}},{"properties":{"name":"Westmoreland town","city":"Westmoreland","popestimate2010":2211,"% change":0.0067,"popestimate2011":2228,"latitude":36.56199048,"popestimate2012":2243,"11-12 change":15,"county":"Sumner County","estimatesbase2010":2206,"percent change":0.67,"stname":"Tennessee","census2010pop":2206,"longitude":-86.24804354,"id":"aei3ox3g5o0j","address":"Westmoreland, TN"},"type":"Feature","geometry":{"type":"Point","coordinates":[-86.24804354,36.56199048]}},{"properties":{"name":"Arlington town","city":"Arlington","popestimate2010":11533,"% change":0.0067,"popestimate2011":11608,"latitude":35.29619833,"popestimate2012":11686,"11-12 change":78,"county":"Shelby County","estimatesbase2010":11517,"percent change":0.67,"stname":"Tennessee","census2010pop":11517,"longitude":-89.66146634,"id":"aei3ox2q9ds1","address":"Arlington, TN"},"type":"Feature","geometry":{"type":"Point","coordinates":[-89.66146634,35.29619833]}},{"properties":{"name":"Munford city","city":"Munford","popestimate2010":5953,"% change":0.0067,"popestimate2011":5975,"latitude":35.44925054,"popestimate2012":6015,"11-12 change":40,"county":"Tipton County","estimatesbase2010":5961,"percent change":0.67,"stname":"Tennessee","census2010pop":5927,"longitude":-89.81508167,"id":"aei3ox1f40yz","address":"Munford, TN"},"type":"Feature","geometry":{"type":"Point","coordinates":[-89.81508167,35.44925054]}},{"properties":{"name":"Whitwell city","city":"Whitwell","popestimate2010":1697,"% change":0.0065,"popestimate2011":1690,"latitude":35.20146485,"popestimate2012":1701,"11-12 change":11,"county":"Marion County","estimatesbase2010":1698,"percent change":0.65,"stname":"Tennessee","census2010pop":1699,"longitude":-85.51913203,"id":"aei3owvb4p09","address":"Whitwell, TN"},"type":"Feature","geometry":{"type":"Point","coordinates":[-85.51913203,35.20146485]}},{"properties":{"name":"Red Bank city","city":"Red Bank","popestimate2010":11675,"% change":0.0065,"popestimate2011":11741,"latitude":35.11229812,"popestimate2012":11817,"11-12 change":76,"county":"Hamilton County","estimatesbase2010":11658,"percent change":0.65,"stname":"Tennessee","census2010pop":11651,"longitude":-85.29412421,"id":"aei3ox02d3zk","address":"Red Bank, TN"},"type":"Feature","geometry":{"type":"Point","coordinates":[-85.29412421,35.11229812]}},{"properties":{"name":"Millersville city","city":"Millersville","popestimate2010":6460,"% change":0.0064,"popestimate2011":6520,"latitude":36.37116189,"popestimate2012":6562,"11-12 change":42,"county":"Sumner County, Robertson County","estimatesbase2010":6440,"percent change":0.64,"stname":"Tennessee","census2010pop":6440,"longitude":-86.7099942,"id":"aei3owqmq24b","address":"Millersville, TN"},"type":"Feature","geometry":{"type":"Point","coordinates":[-86.7099942,36.37116189]}},{"properties":{"name":"Liberty town","city":"Liberty","popestimate2010":310,"% change":0.0064,"popestimate2011":311,"latitude":36.00673209,"popestimate2012":313,"11-12 change":2,"county":"DeKalb County","estimatesbase2010":310,"percent change":0.64,"stname":"Tennessee","census2010pop":310,"longitude":-85.96776552,"id":"aei3ox2c946u","address":"Liberty, TN"},"type":"Feature","geometry":{"type":"Point","coordinates":[-85.96776552,36.00673209]}},{"properties":{"name":"Dover city","city":"Dover","popestimate2010":1419,"% change":0.0064,"popestimate2011":1411,"latitude":36.48783328,"popestimate2012":1420,"11-12 change":9,"county":"Stewart County","estimatesbase2010":1417,"percent change":0.64,"stname":"Tennessee","census2010pop":1417,"longitude":-87.83835397,"id":"aei3owp0gtdr","address":"Dover, TN"},"type":"Feature","geometry":{"type":"Point","coordinates":[-87.83835397,36.48783328]}},{"properties":{"name":"Bluff City city","city":"Bluff City","popestimate2010":1743,"% change":0.0063,"popestimate2011":1736,"latitude":36.47427522,"popestimate2012":1747,"11-12 change":11,"county":"Sullivan County","estimatesbase2010":1733,"percent change":0.63,"stname":"Tennessee","census2010pop":1733,"longitude":-82.26096697,"id":"aei3owxfalwm","address":"Bluff City, TN"},"type":"Feature","geometry":{"type":"Point","coordinates":[-82.26096697,36.47427522]}},{"properties":{"name":"Ramer city","city":"Ramer","popestimate2010":319,"% change":0.0063,"popestimate2011":317,"latitude":35.06953349,"popestimate2012":319,"11-12 change":2,"county":"McNairy County","estimatesbase2010":319,"percent change":0.63,"stname":"Tennessee","census2010pop":319,"longitude":-88.62227195,"id":"aei3owrmx7kw","address":"Ramer, TN"},"type":"Feature","geometry":{"type":"Point","coordinates":[-88.62227195,35.06953349]}},{"properties":{"name":"Gilt Edge city","city":"Gilt Edge","popestimate2010":476,"% change":0.0063,"popestimate2011":476,"latitude":35.55119237,"popestimate2012":479,"11-12 change":3,"county":"Tipton County","estimatesbase2010":477,"percent change":0.63,"stname":"Tennessee","census2010pop":477,"longitude":-89.82452254,"id":"aei3ox1d6rof","address":"Gilt Edge, TN"},"type":"Feature","geometry":{"type":"Point","coordinates":[-89.82452254,35.55119237]}},{"properties":{"name":"Jackson city","city":"Jackson","popestimate2010":66949,"% change":0.0061,"popestimate2011":66859,"latitude":35.61452027,"popestimate2012":67265,"11-12 change":406,"county":"Madison County","estimatesbase2010":66929,"percent change":0.61,"stname":"Tennessee","census2010pop":65211,"longitude":-88.81394241,"id":"aei3owwrg8we","address":"Jackson, TN"},"type":"Feature","geometry":{"type":"Point","coordinates":[-88.81394241,35.61452027]}},{"properties":{"name":"Newbern town","city":"Newbern","popestimate2010":3313,"% change":0.006,"popestimate2011":3307,"latitude":36.11285055,"popestimate2012":3327,"11-12 change":20,"county":"Dyer County","estimatesbase2010":3313,"percent change":0.6,"stname":"Tennessee","census2010pop":3313,"longitude":-89.26173314,"id":"aei3owzkzkv8","address":"Newbern, TN"},"type":"Feature","geometry":{"type":"Point","coordinates":[-89.26173314,36.11285055]}},{"properties":{"name":"Memphis city","city":"Memphis","popestimate2010":647612,"% change":0.0058,"popestimate2011":651348,"latitude":35.14953468,"popestimate2012":655155,"11-12 change":3807,"county":"Shelby County","estimatesbase2010":646889,"percent change":0.58,"stname":"Tennessee","census2010pop":646889,"longitude":-90.04897995,"id":"aei3owpv7kc3","address":"Memphis, TN"},"type":"Feature","geometry":{"type":"Point","coordinates":[-90.04897995,35.14953468]}},{"properties":{"name":"Greenbrier town","city":"Greenbrier","popestimate2010":6454,"% change":0.0058,"popestimate2011":6515,"latitude":36.42754797,"popestimate2012":6553,"11-12 change":38,"county":"Robertson County","estimatesbase2010":6433,"percent change":0.58,"stname":"Tennessee","census2010pop":6433,"longitude":-86.80471538,"id":"aei3owqfhvwa","address":"Greenbrier, TN"},"type":"Feature","geometry":{"type":"Point","coordinates":[-86.80471538,36.42754797]}},{"properties":{"name":"Eastview town","city":"Eastview","popestimate2010":703,"% change":0.0057,"popestimate2011":700,"latitude":35.07564245,"popestimate2012":704,"11-12 change":4,"county":"McNairy County","estimatesbase2010":704,"percent change":0.57,"stname":"Tennessee","census2010pop":705,"longitude":-88.54532262,"id":"aei3owpxbt6q","address":"Eastview, TN"},"type":"Feature","geometry":{"type":"Point","coordinates":[-88.54532262,35.07564245]}},{"properties":{"name":"Smithville city","city":"Smithville","popestimate2010":4532,"% change":0.0057,"popestimate2011":4551,"latitude":35.96062156,"popestimate2012":4577,"11-12 change":26,"county":"DeKalb County","estimatesbase2010":4530,"percent change":0.57,"stname":"Tennessee","census2010pop":4530,"longitude":-85.81415007,"id":"aei3owusgmky","address":"Smithville, TN"},"type":"Feature","geometry":{"type":"Point","coordinates":[-85.81415007,35.96062156]}},{"properties":{"name":"Medon city","city":"Medon","popestimate2010":178,"% change":0.0056,"popestimate2011":177,"latitude":35.45730158,"popestimate2012":178,"11-12 change":1,"county":"Madison County","estimatesbase2010":178,"percent change":0.56,"stname":"Tennessee","census2010pop":178,"longitude":-88.86866852,"id":"aei3owzn5s31","address":"Medon, TN"},"type":"Feature","geometry":{"type":"Point","coordinates":[-88.86866852,35.45730158]}},{"properties":{"name":"Tellico Plains town","city":"Tellico Plains","popestimate2010":881,"% change":0.0056,"popestimate2011":885,"latitude":35.36285616,"popestimate2012":890,"11-12 change":5,"county":"Monroe County","estimatesbase2010":880,"percent change":0.56,"stname":"Tennessee","census2010pop":880,"longitude":-84.29408577,"id":"aei3ox322sbh","address":"Tellico Plains, TN"},"type":"Feature","geometry":{"type":"Point","coordinates":[-84.29408577,35.36285616]}},{"properties":{"name":"Bethel Springs town","city":"Bethel Springs","popestimate2010":717,"% change":0.0056,"popestimate2011":712,"latitude":35.23369625,"popestimate2012":716,"11-12 change":4,"county":"McNairy County","estimatesbase2010":718,"percent change":0.56,"stname":"Tennessee","census2010pop":718,"longitude":-88.60643691,"id":"aei3ox20ekou","address":"Bethel Springs, TN"},"type":"Feature","geometry":{"type":"Point","coordinates":[-88.60643691,35.23369625]}},{"properties":{"name":"Dickson city","city":"Dickson","popestimate2010":14675,"% change":0.0056,"popestimate2011":14775,"latitude":36.07700789,"popestimate2012":14858,"11-12 change":83,"county":"Dickson County","estimatesbase2010":14658,"percent change":0.56,"stname":"Tennessee","census2010pop":14538,"longitude":-87.38778677,"id":"aei3owwoszke","address":"Dickson, TN"},"type":"Feature","geometry":{"type":"Point","coordinates":[-87.38778677,36.07700789]}},{"properties":{"name":"Dowelltown town","city":"Dowelltown","popestimate2010":355,"% change":0.0056,"popestimate2011":357,"latitude":36.01506237,"popestimate2012":359,"11-12 change":2,"county":"DeKalb County","estimatesbase2010":355,"percent change":0.56,"stname":"Tennessee","census2010pop":355,"longitude":-85.94359456,"id":"aei3owx6iedr","address":"Dowelltown, TN"},"type":"Feature","geometry":{"type":"Point","coordinates":[-85.94359456,36.01506237]}},{"properties":{"name":"Slayden town","city":"Slayden","popestimate2010":178,"% change":0.0056,"popestimate2011":179,"latitude":36.29477721,"popestimate2012":180,"11-12 change":1,"county":"Dickson County","estimatesbase2010":178,"percent change":0.56,"stname":"Tennessee","census2010pop":178,"longitude":-87.4702853,"id":"aei3owt7jhuc","address":"Slayden, TN"},"type":"Feature","geometry":{"type":"Point","coordinates":[-87.4702853,36.29477721]}},{"properties":{"name":"Spring City town","city":"Spring City","popestimate2010":1981,"% change":0.0055,"popestimate2011":1984,"latitude":35.69201856,"popestimate2012":1995,"11-12 change":11,"county":"Rhea County","estimatesbase2010":1981,"percent change":0.55,"stname":"Tennessee","census2010pop":1981,"longitude":-84.86077792,"id":"aei3ows4y37u","address":"Spring City, TN"},"type":"Feature","geometry":{"type":"Point","coordinates":[-84.86077792,35.69201856]}},{"properties":{"name":"Kingston Springs town","city":"Kingston Springs","popestimate2010":2752,"% change":0.0055,"popestimate2011":2748,"latitude":36.1020068,"popestimate2012":2763,"11-12 change":15,"county":"Cheatham County","estimatesbase2010":2756,"percent change":0.55,"stname":"Tennessee","census2010pop":2756,"longitude":-87.11500492,"id":"aei3ox0gubvq","address":"Kingston Springs, TN"},"type":"Feature","geometry":{"type":"Point","coordinates":[-87.11500492,36.1020068]}},{"properties":{"name":"Powells Crossroads town","city":"Powell's Crossroads","popestimate2010":1321,"% change":0.0053,"popestimate2011":1314,"latitude":35.18951956,"popestimate2012":1321,"11-12 change":7,"county":"Marion County","estimatesbase2010":1322,"percent change":0.53,"stname":"Tennessee","census2010pop":1322,"longitude":-85.48579282,"id":"aei3owvs41tg","address":"Powell's Crossroads, TN"},"type":"Feature","geometry":{"type":"Point","coordinates":[-85.48579282,35.18951956]}},{"properties":{"name":"Pegram town","city":"Pegram","popestimate2010":2086,"% change":0.0053,"popestimate2011":2077,"latitude":36.10061582,"popestimate2012":2088,"11-12 change":11,"county":"Cheatham County","estimatesbase2010":2093,"percent change":0.53,"stname":"Tennessee","census2010pop":2093,"longitude":-87.05111215,"id":"aei3owwfv2tf","address":"Pegram, TN"},"type":"Feature","geometry":{"type":"Point","coordinates":[-87.05111215,36.10061582]}},{"properties":{"name":"Three Way city","city":"Three Way","popestimate2010":1710,"% change":0.0053,"popestimate2011":1706,"latitude":35.77590567,"popestimate2012":1715,"11-12 change":9,"county":"Madison County","estimatesbase2010":1709,"percent change":0.53,"stname":"Tennessee","census2010pop":1709,"longitude":-88.85949989,"id":"aei3owzg8z3m","address":"Three Way, TN"},"type":"Feature","geometry":{"type":"Point","coordinates":[-88.85949989,35.77590567]}},{"properties":{"name":"South Pittsburg city","city":"South Pittsburg","popestimate2010":3105,"% change":0.0052,"popestimate2011":3084,"latitude":35.012304,"popestimate2012":3100,"11-12 change":16,"county":"Marion County","estimatesbase2010":3106,"percent change":0.52,"stname":"Tennessee","census2010pop":2992,"longitude":-85.70441212,"id":"aei3owvh5czk","address":"South Pittsburg, TN"},"type":"Feature","geometry":{"type":"Point","coordinates":[-85.70441212,35.012304]}},{"properties":{"name":"Michie town","city":"Michie","popestimate2010":591,"% change":0.0051,"popestimate2011":588,"latitude":35.05619816,"popestimate2012":591,"11-12 change":3,"county":"McNairy County","estimatesbase2010":591,"percent change":0.51,"stname":"Tennessee","census2010pop":591,"longitude":-88.43532194,"id":"aei3owoekx7k","address":"Michie, TN"},"type":"Feature","geometry":{"type":"Point","coordinates":[-88.43532194,35.05619816]}},{"properties":{"name":"Vanleer town","city":"Vanleer","popestimate2010":395,"% change":0.005,"popestimate2011":397,"latitude":36.23505816,"popestimate2012":399,"11-12 change":2,"county":"Dickson County","estimatesbase2010":395,"percent change":0.5,"stname":"Tennessee","census2010pop":395,"longitude":-87.44389545,"id":"aei3owz09jkv","address":"Vanleer, TN"},"type":"Feature","geometry":{"type":"Point","coordinates":[-87.44389545,36.23505816]}},{"properties":{"name":"Savannah city","city":"Savannah","popestimate2010":6984,"% change":0.005,"popestimate2011":6951,"latitude":35.2248043,"popestimate2012":6986,"11-12 change":35,"county":"Hardin County","estimatesbase2010":6982,"percent change":0.5,"stname":"Tennessee","census2010pop":6982,"longitude":-88.24920116,"id":"aei3owyee918","address":"Savannah, TN"},"type":"Feature","geometry":{"type":"Point","coordinates":[-88.24920116,35.2248043]}},{"properties":{"name":"Sweetwater city","city":"Sweetwater","popestimate2010":5799,"% change":0.005,"popestimate2011":5823,"latitude":35.60146668,"popestimate2012":5852,"11-12 change":29,"county":"Monroe County, McMinn County","estimatesbase2010":5790,"percent change":0.5,"stname":"Tennessee","census2010pop":5764,"longitude":-84.4610379,"id":"aei3ox48sbqg","address":"Sweetwater, TN"},"type":"Feature","geometry":{"type":"Point","coordinates":[-84.4610379,35.60146668]}},{"properties":{"name":"White Pine town","city":"White Pine","popestimate2010":2202,"% change":0.005,"popestimate2011":2210,"latitude":36.10861606,"popestimate2012":2221,"11-12 change":11,"county":"Jefferson County","estimatesbase2010":2196,"percent change":0.5,"stname":"Tennessee","census2010pop":2196,"longitude":-83.29194019,"id":"aei3ox0z872i","address":"White Pine, TN"},"type":"Feature","geometry":{"type":"Point","coordinates":[-83.29194019,36.10861606]}},{"properties":{"name":"Maryville city","city":"Maryville","popestimate2010":27630,"% change":0.0049,"popestimate2011":27777,"latitude":35.75647601,"popestimate2012":27914,"11-12 change":137,"county":"Blount County","estimatesbase2010":27601,"percent change":0.49,"stname":"Tennessee","census2010pop":27465,"longitude":-83.9704588,"id":"aei3ox08qgl8","address":"Maryville, TN"},"type":"Feature","geometry":{"type":"Point","coordinates":[-83.9704588,35.75647601]}},{"properties":{"name":"Columbia city","city":"Columbia","popestimate2010":34749,"% change":0.0048,"popestimate2011":34734,"latitude":35.61507658,"popestimate2012":34901,"11-12 change":167,"county":"Maury County","estimatesbase2010":34681,"percent change":0.48,"stname":"Tennessee","census2010pop":34681,"longitude":-87.03527972,"id":"aei3owr9a1zb","address":"Columbia, TN"},"type":"Feature","geometry":{"type":"Point","coordinates":[-87.03527972,35.61507658]}},{"properties":{"name":"Burlison town","city":"Burlison","popestimate2010":418,"% change":0.0048,"popestimate2011":419,"latitude":35.55702611,"popestimate2012":421,"11-12 change":2,"county":"Tipton County","estimatesbase2010":419,"percent change":0.48,"stname":"Tennessee","census2010pop":425,"longitude":-89.77896938,"id":"aei3owyjg342","address":"Burlison, TN"},"type":"Feature","geometry":{"type":"Point","coordinates":[-89.77896938,35.55702611]}},{"properties":{"name":"Manchester city","city":"Manchester","popestimate2010":10122,"% change":0.0047,"popestimate2011":10176,"latitude":35.48174509,"popestimate2012":10224,"11-12 change":48,"county":"Coffee County","estimatesbase2010":10102,"percent change":0.47,"stname":"Tennessee","census2010pop":10102,"longitude":-86.0885978,"id":"aei3owyybiqq","address":"Manchester, TN"},"type":"Feature","geometry":{"type":"Point","coordinates":[-86.0885978,35.48174509]}},{"properties":{"name":"Madisonville city","city":"Madisonville","popestimate2010":4588,"% change":0.0047,"popestimate2011":4712,"latitude":35.51980038,"popestimate2012":4734,"11-12 change":22,"county":"Monroe County","estimatesbase2010":4577,"percent change":0.47,"stname":"Tennessee","census2010pop":4577,"longitude":-84.36353235,"id":"aei3owv5xhmz","address":"Madisonville, TN"},"type":"Feature","geometry":{"type":"Point","coordinates":[-84.36353235,35.51980038]}},{"properties":{"name":"Graysville town","city":"Graysville","popestimate2010":1505,"% change":0.0047,"popestimate2011":1503,"latitude":35.44701402,"popestimate2012":1510,"11-12 change":7,"county":"Rhea County","estimatesbase2010":1504,"percent change":0.47,"stname":"Tennessee","census2010pop":1502,"longitude":-85.08439781,"id":"aei3owxvmn2s","address":"Graysville, TN"},"type":"Feature","geometry":{"type":"Point","coordinates":[-85.08439781,35.44701402]}},{"properties":{"name":"New Market town","city":"New Market","popestimate2010":1334,"% change":0.0044,"popestimate2011":1349,"latitude":36.10398074,"popestimate2012":1355,"11-12 change":6,"county":"Jefferson County","estimatesbase2010":1334,"percent change":0.44,"stname":"Tennessee","census2010pop":1334,"longitude":-83.55267202,"id":"aei3owxk2mmq","address":"New Market, TN"},"type":"Feature","geometry":{"type":"Point","coordinates":[-83.55267202,36.10398074]}},{"properties":{"name":"Mount Pleasant city","city":"Mount Pleasant","popestimate2010":4567,"% change":0.0044,"popestimate2011":4559,"latitude":35.5342463,"popestimate2012":4579,"11-12 change":20,"county":"Maury County","estimatesbase2010":4561,"percent change":0.44,"stname":"Tennessee","census2010pop":4561,"longitude":-87.20695365,"id":"aei3ox3b3eku","address":"Mount Pleasant, TN"},"type":"Feature","geometry":{"type":"Point","coordinates":[-87.20695365,35.5342463]}},{"properties":{"name":"Guys town","city":"Guys","popestimate2010":466,"% change":0.0043,"popestimate2011":464,"latitude":35.03480927,"popestimate2012":466,"11-12 change":2,"county":"McNairy County","estimatesbase2010":466,"percent change":0.43,"stname":"Tennessee","census2010pop":466,"longitude":-88.5586555,"id":"aei3owttzi3o","address":"Guys, TN"},"type":"Feature","geometry":{"type":"Point","coordinates":[-88.5586555,35.03480927]}},{"properties":{"name":"Alamo town","city":"Alamo","popestimate2010":2458,"% change":0.0041,"popestimate2011":2450,"latitude":35.78479826,"popestimate2012":2460,"11-12 change":10,"county":"Crockett County","estimatesbase2010":2461,"percent change":0.41,"stname":"Tennessee","census2010pop":2461,"longitude":-89.11728396,"id":"aei3owt97cjf","address":"Alamo, TN"},"type":"Feature","geometry":{"type":"Point","coordinates":[-89.11728396,35.78479826]}},{"properties":{"name":"Bell Buckle town","city":"Bell Buckle","popestimate2010":500,"% change":0.004,"popestimate2011":500,"latitude":35.59174203,"popestimate2012":502,"11-12 change":2,"county":"Bedford County","estimatesbase2010":500,"percent change":0.4,"stname":"Tennessee","census2010pop":500,"longitude":-86.35415579,"id":"aei3owpxwz9d","address":"Bell Buckle, TN"},"type":"Feature","geometry":{"type":"Point","coordinates":[-86.35415579,35.59174203]}},{"properties":{"name":"Parrottsville town","city":"Parrottsville","popestimate2010":263,"% change":0.0038,"popestimate2011":262,"latitude":36.0092687,"popestimate2012":263,"11-12 change":1,"county":"Cocke County","estimatesbase2010":263,"percent change":0.38,"stname":"Tennessee","census2010pop":263,"longitude":-83.09237634,"id":"aei3owxqdgc9","address":"Parrottsville, TN"},"type":"Feature","geometry":{"type":"Point","coordinates":[-83.09237634,36.0092687]}},{"properties":{"name":"Auburntown town","city":"Auburntown","popestimate2010":269,"% change":0.0037,"popestimate2011":268,"latitude":35.94756809,"popestimate2012":269,"11-12 change":1,"county":"Cannon County","estimatesbase2010":269,"percent change":0.37,"stname":"Tennessee","census2010pop":269,"longitude":-86.09721041,"id":"aei3owz7x3x7","address":"Auburntown, TN"},"type":"Feature","geometry":{"type":"Point","coordinates":[-86.09721041,35.94756809]}},{"properties":{"name":"New Hope city","city":"New Hope","popestimate2010":1082,"% change":0.0037,"popestimate2011":1073,"latitude":35.00508258,"popestimate2012":1077,"11-12 change":4,"county":"Marion County","estimatesbase2010":1082,"percent change":0.37,"stname":"Tennessee","census2010pop":1082,"longitude":-85.65830014,"id":"aei3ox396gak","address":"New Hope, TN"},"type":"Feature","geometry":{"type":"Point","coordinates":[-85.65830014,35.00508258]}},{"properties":{"name":"Shelbyville city","city":"Shelbyville","popestimate2010":20388,"% change":0.0037,"popestimate2011":20522,"latitude":35.48340973,"popestimate2012":20598,"11-12 change":76,"county":"Bedford County","estimatesbase2010":20334,"percent change":0.37,"stname":"Tennessee","census2010pop":20335,"longitude":-86.46027092,"id":"aei3ox0ng7zb","address":"Shelbyville, TN"},"type":"Feature","geometry":{"type":"Point","coordinates":[-86.46027092,35.48340973]}},{"properties":{"name":"Ashland City town","city":"Ashland City","popestimate2010":4636,"% change":0.0037,"popestimate2011":4620,"latitude":36.27422366,"popestimate2012":4637,"11-12 change":17,"county":"Cheatham County","estimatesbase2010":4541,"percent change":0.37,"stname":"Tennessee","census2010pop":4541,"longitude":-87.06416664,"id":"aei3owu0vz2q","address":"Ashland City, TN"},"type":"Feature","geometry":{"type":"Point","coordinates":[-87.06416664,36.27422366]}},{"properties":{"name":"Covington city","city":"Covington","popestimate2010":9025,"% change":0.0037,"popestimate2011":9030,"latitude":35.56425157,"popestimate2012":9063,"11-12 change":33,"county":"Tipton County","estimatesbase2010":9038,"percent change":0.37,"stname":"Tennessee","census2010pop":9038,"longitude":-89.64646639,"id":"aei3owrvegyx","address":"Covington, TN"},"type":"Feature","geometry":{"type":"Point","coordinates":[-89.64646639,35.56425157]}},{"properties":{"name":"Tullahoma city","city":"Tullahoma","popestimate2010":18638,"% change":0.0036,"popestimate2011":18671,"latitude":35.36202464,"popestimate2012":18739,"11-12 change":68,"county":"Coffee County, Franklin County","estimatesbase2010":18655,"percent change":0.36,"stname":"Tennessee","census2010pop":18655,"longitude":-86.20943068,"id":"aei3ox49amf8","address":"Tullahoma, TN"},"type":"Feature","geometry":{"type":"Point","coordinates":[-86.20943068,35.36202464]}},{"properties":{"name":"Ridgetop city","city":"Ridgetop","popestimate2010":1896,"% change":0.0036,"popestimate2011":1923,"latitude":36.39505073,"popestimate2012":1930,"11-12 change":7,"county":"Robertson County, Davidson County","estimatesbase2010":1894,"percent change":0.36,"stname":"Tennessee","census2010pop":1874,"longitude":-86.77943782,"id":"aei3owpizuiv","address":"Ridgetop, TN"},"type":"Feature","geometry":{"type":"Point","coordinates":[-86.77943782,36.39505073]}},{"properties":{"name":"Stantonville town","city":"Stantonville","popestimate2010":283,"% change":0.0035,"popestimate2011":282,"latitude":35.15842134,"popestimate2012":283,"11-12 change":1,"county":"McNairy County","estimatesbase2010":283,"percent change":0.35,"stname":"Tennessee","census2010pop":283,"longitude":-88.42587231,"id":"aei3owtcbc34","address":"Stantonville, TN"},"type":"Feature","geometry":{"type":"Point","coordinates":[-88.42587231,35.15842134]}},{"properties":{"name":"Oliver Springs town","city":"Oliver Springs","popestimate2010":3230,"% change":0.0034,"popestimate2011":3234,"latitude":36.04452601,"popestimate2012":3245,"11-12 change":11,"county":"Anderson County, Morgan County, Roane County","estimatesbase2010":3231,"percent change":0.34,"stname":"Tennessee","census2010pop":3231,"longitude":-84.34437103,"id":"aei3owyg7q5r","address":"Oliver Springs, TN"},"type":"Feature","geometry":{"type":"Point","coordinates":[-84.34437103,36.04452601]}},{"properties":{"name":"Watertown city","city":"Watertown","popestimate2010":1481,"% change":0.0034,"popestimate2011":1483,"latitude":36.10033821,"popestimate2012":1488,"11-12 change":5,"county":"Wilson County","estimatesbase2010":1477,"percent change":0.34,"stname":"Tennessee","census2010pop":1477,"longitude":-86.13193302,"id":"aei3owsq6od2","address":"Watertown, TN"},"type":"Feature","geometry":{"type":"Point","coordinates":[-86.13193302,36.10033821]}},{"properties":{"name":"Selmer town","city":"Selmer","popestimate2010":4397,"% change":0.0033,"popestimate2011":4492,"latitude":35.1700878,"popestimate2012":4507,"11-12 change":15,"county":"McNairy County","estimatesbase2010":4400,"percent change":0.33,"stname":"Tennessee","census2010pop":4396,"longitude":-88.59226806,"id":"aei3owr9863m","address":"Selmer, TN"},"type":"Feature","geometry":{"type":"Point","coordinates":[-88.59226806,35.1700878]}},{"properties":{"name":"Charlotte town","city":"Charlotte","popestimate2010":1236,"% change":0.0032,"popestimate2011":1240,"latitude":36.17728124,"popestimate2012":1244,"11-12 change":4,"county":"Dickson County","estimatesbase2010":1235,"percent change":0.32,"stname":"Tennessee","census2010pop":1235,"longitude":-87.33972721,"id":"aei3ox1rnnqs","address":"Charlotte, TN"},"type":"Feature","geometry":{"type":"Point","coordinates":[-87.33972721,36.17728124]}},{"properties":{"name":"Garland town","city":"Garland","popestimate2010":310,"% change":0.0032,"popestimate2011":310,"latitude":35.58841402,"popestimate2012":311,"11-12 change":1,"county":"Tipton County","estimatesbase2010":310,"percent change":0.32,"stname":"Tennessee","census2010pop":310,"longitude":-89.7525777,"id":"aei3owrkbvzl","address":"Garland, TN"},"type":"Feature","geometry":{"type":"Point","coordinates":[-89.7525777,35.58841402]}},{"properties":{"name":"Adams city","city":"Adams","popestimate2010":634,"% change":0.0031,"popestimate2011":635,"latitude":36.58227083,"popestimate2012":637,"11-12 change":2,"county":"Robertson County","estimatesbase2010":633,"percent change":0.31,"stname":"Tennessee","census2010pop":633,"longitude":-87.06555305,"id":"aei3owro9yiy","address":"Adams, TN"},"type":"Feature","geometry":{"type":"Point","coordinates":[-87.06555305,36.58227083]}},{"properties":{"name":"Alexandria town","city":"Alexandria","popestimate2010":966,"% change":0.0031,"popestimate2011":970,"latitude":36.07756165,"popestimate2012":973,"11-12 change":3,"county":"DeKalb County","estimatesbase2010":966,"percent change":0.31,"stname":"Tennessee","census2010pop":966,"longitude":-86.03332168,"id":"aei3ox1ygqj7","address":"Alexandria, TN"},"type":"Feature","geometry":{"type":"Point","coordinates":[-86.03332168,36.07756165]}},{"properties":{"name":"Baxter town","city":"Baxter","popestimate2010":1368,"% change":0.0029,"popestimate2011":1380,"latitude":36.15367656,"popestimate2012":1384,"11-12 change":4,"county":"Putnam County","estimatesbase2010":1365,"percent change":0.29,"stname":"Tennessee","census2010pop":1365,"longitude":-85.64359017,"id":"aei3owq55jc0","address":"Baxter, TN"},"type":"Feature","geometry":{"type":"Point","coordinates":[-85.64359017,36.15367656]}},{"properties":{"name":"Louisville city","city":"Louisville","popestimate2010":2440,"% change":0.0029,"popestimate2011":2449,"latitude":35.82175116,"popestimate2012":2456,"11-12 change":7,"county":"Blount County","estimatesbase2010":2439,"percent change":0.29,"stname":"Tennessee","census2010pop":2439,"longitude":-84.04796184,"id":"aei3owolyu7a","address":"Louisville, TN"},"type":"Feature","geometry":{"type":"Point","coordinates":[-84.04796184,35.82175116]}},{"properties":{"name":"Kimball town","city":"Kimball","popestimate2010":1416,"% change":0.0028,"popestimate2011":1404,"latitude":35.04785712,"popestimate2012":1408,"11-12 change":4,"county":"Marion County","estimatesbase2010":1417,"percent change":0.28,"stname":"Tennessee","census2010pop":1395,"longitude":-85.67191351,"id":"aei3owwrqq0p","address":"Kimball, TN"},"type":"Feature","geometry":{"type":"Point","coordinates":[-85.67191351,35.04785712]}},{"properties":{"name":"Crump city","city":"Crump","popestimate2010":1428,"% change":0.0028,"popestimate2011":1416,"latitude":35.22174822,"popestimate2012":1420,"11-12 change":4,"county":"Hardin County","estimatesbase2010":1428,"percent change":0.28,"stname":"Tennessee","census2010pop":1428,"longitude":-88.31808994,"id":"aei3ox1sny2c","address":"Crump, TN"},"type":"Feature","geometry":{"type":"Point","coordinates":[-88.31808994,35.22174822]}},{"properties":{"name":"Vonore town","city":"Vonore","popestimate2010":1475,"% change":0.0027,"popestimate2011":1478,"latitude":35.59007957,"popestimate2012":1482,"11-12 change":4,"county":"Monroe County","estimatesbase2010":1473,"percent change":0.27,"stname":"Tennessee","census2010pop":1474,"longitude":-84.24186076,"id":"aei3owzggtay","address":"Vonore, TN"},"type":"Feature","geometry":{"type":"Point","coordinates":[-84.24186076,35.59007957]}},{"properties":{"name":"Millington city","city":"Millington","popestimate2010":10449,"% change":0.0027,"popestimate2011":10459,"latitude":35.34147792,"popestimate2012":10487,"11-12 change":28,"county":"Shelby County","estimatesbase2010":10442,"percent change":0.27,"stname":"Tennessee","census2010pop":10176,"longitude":-89.89730766,"id":"aei3ox1ps7o4","address":"Millington, TN"},"type":"Feature","geometry":{"type":"Point","coordinates":[-89.89730766,35.34147792]}},{"properties":{"name":"Crab Orchard city","city":"Crab Orchard","popestimate2010":754,"% change":0.0026,"popestimate2011":758,"latitude":35.90923948,"popestimate2012":760,"11-12 change":2,"county":"Cumberland County","estimatesbase2010":752,"percent change":0.26,"stname":"Tennessee","census2010pop":752,"longitude":-84.87800464,"id":"aei3ows1u4s8","address":"Crab Orchard, TN"},"type":"Feature","geometry":{"type":"Point","coordinates":[-84.87800464,35.90923948]}},{"properties":{"name":"Sardis town","city":"Sardis","popestimate2010":378,"% change":0.0026,"popestimate2011":380,"latitude":35.44229901,"popestimate2012":381,"11-12 change":1,"county":"Henderson County","estimatesbase2010":378,"percent change":0.26,"stname":"Tennessee","census2010pop":381,"longitude":-88.29364899,"id":"aei3owot1fd3","address":"Sardis, TN"},"type":"Feature","geometry":{"type":"Point","coordinates":[-88.29364899,35.44229901]}},{"properties":{"name":"Norris city","city":"Norris","popestimate2010":1640,"% change":0.0024,"popestimate2011":1638,"latitude":36.19563537,"popestimate2012":1642,"11-12 change":4,"county":"Anderson County","estimatesbase2010":1640,"percent change":0.24,"stname":"Tennessee","census2010pop":1491,"longitude":-84.06797136,"id":"aei3ox4ta85p","address":"Norris, TN"},"type":"Feature","geometry":{"type":"Point","coordinates":[-84.06797136,36.19563537]}},{"properties":{"name":"Oneida town","city":"Oneida","popestimate2010":3749,"% change":0.0024,"popestimate2011":3733,"latitude":36.49813827,"popestimate2012":3742,"11-12 change":9,"county":"Scott County","estimatesbase2010":3746,"percent change":0.24,"stname":"Tennessee","census2010pop":3752,"longitude":-84.51271383,"id":"aei3ows2kdu5","address":"Oneida, TN"},"type":"Feature","geometry":{"type":"Point","coordinates":[-84.51271383,36.49813827]}},{"properties":{"name":"Orlinda city","city":"Orlinda","popestimate2010":860,"% change":0.0023,"popestimate2011":865,"latitude":36.60087867,"popestimate2012":867,"11-12 change":2,"county":"Robertson County","estimatesbase2010":859,"percent change":0.23,"stname":"Tennessee","census2010pop":859,"longitude":-86.71666115,"id":"aei3owtuyt5p","address":"Orlinda, TN"},"type":"Feature","geometry":{"type":"Point","coordinates":[-86.71666115,36.60087867]}},{"properties":{"name":"Clinton city","city":"Clinton","popestimate2010":9844,"% change":0.0022,"popestimate2011":9850,"latitude":36.10341617,"popestimate2012":9872,"11-12 change":22,"county":"Anderson County","estimatesbase2010":9841,"percent change":0.22,"stname":"Tennessee","census2010pop":9841,"longitude":-84.13186106,"id":"aei3owpounab","address":"Clinton, TN"},"type":"Feature","geometry":{"type":"Point","coordinates":[-84.13186106,36.10341617]}},{"properties":{"name":"Friendsville city","city":"Friendsville","popestimate2010":914,"% change":0.0022,"popestimate2011":915,"latitude":35.76036187,"popestimate2012":917,"11-12 change":2,"county":"Blount County","estimatesbase2010":913,"percent change":0.22,"stname":"Tennessee","census2010pop":913,"longitude":-84.13574329,"id":"aei3ox40xb3k","address":"Friendsville, TN"},"type":"Feature","geometry":{"type":"Point","coordinates":[-84.13574329,35.76036187]}},{"properties":{"name":"Newport city","city":"Newport","popestimate2010":6937,"% change":0.0022,"popestimate2011":6903,"latitude":35.96704357,"popestimate2012":6918,"11-12 change":15,"county":"Cocke County","estimatesbase2010":6945,"percent change":0.22,"stname":"Tennessee","census2010pop":6945,"longitude":-83.18765579,"id":"aei3ox1b9t21","address":"Newport, TN"},"type":"Feature","geometry":{"type":"Point","coordinates":[-83.18765579,35.96704357]}},{"properties":{"name":"Ethridge town","city":"Ethridge","popestimate2010":466,"% change":0.0021,"popestimate2011":467,"latitude":35.32369063,"popestimate2012":468,"11-12 change":1,"county":"Lawrence County","estimatesbase2010":465,"percent change":0.21,"stname":"Tennessee","census2010pop":465,"longitude":-87.30362576,"id":"aei3owrx7jkp","address":"Ethridge, TN"},"type":"Feature","geometry":{"type":"Point","coordinates":[-87.30362576,35.32369063]}},{"properties":{"name":"Gadsden town","city":"Gadsden","popestimate2010":469,"% change":0.0021,"popestimate2011":467,"latitude":35.77590471,"popestimate2012":468,"11-12 change":1,"county":"Crockett County","estimatesbase2010":470,"percent change":0.21,"stname":"Tennessee","census2010pop":470,"longitude":-88.99006256,"id":"aei3owrm9cnd","address":"Gadsden, TN"},"type":"Feature","geometry":{"type":"Point","coordinates":[-88.99006256,35.77590471]}},{"properties":{"name":"Humboldt city","city":"Humboldt","popestimate2010":8441,"% change":0.0021,"popestimate2011":8436,"latitude":35.81979245,"popestimate2012":8454,"11-12 change":18,"county":"Gibson County","estimatesbase2010":8452,"percent change":0.21,"stname":"Tennessee","census2010pop":8452,"longitude":-88.9158915,"id":"aei3owtz9bhv","address":"Humboldt, TN"},"type":"Feature","geometry":{"type":"Point","coordinates":[-88.9158915,35.81979245]}},{"properties":{"name":"Beersheba Springs town","city":"Beersheba Springs","popestimate2010":477,"% change":0.0021,"popestimate2011":475,"latitude":35.46673908,"popestimate2012":476,"11-12 change":1,"county":"Grundy County","estimatesbase2010":477,"percent change":0.21,"stname":"Tennessee","census2010pop":477,"longitude":-85.65413999,"id":"aei3owtk5cph","address":"Beersheba Springs, TN"},"type":"Feature","geometry":{"type":"Point","coordinates":[-85.65413999,35.46673908]}},{"properties":{"name":"Celina city","city":"Celina","popestimate2010":1493,"% change":0.002,"popestimate2011":1491,"latitude":36.55006406,"popestimate2012":1494,"11-12 change":3,"county":"Clay County","estimatesbase2010":1495,"percent change":0.2,"stname":"Tennessee","census2010pop":1495,"longitude":-85.50524438,"id":"aei3ox44pag4","address":"Celina, TN"},"type":"Feature","geometry":{"type":"Point","coordinates":[-85.50524438,36.55006406]}},{"properties":{"name":"Saltillo town","city":"Saltillo","popestimate2010":525,"% change":0.0019,"popestimate2011":520,"latitude":35.37785657,"popestimate2012":521,"11-12 change":1,"county":"Hardin County","estimatesbase2010":525,"percent change":0.19,"stname":"Tennessee","census2010pop":303,"longitude":-88.20947885,"id":"aei3owyb7dt5","address":"Saltillo, TN"},"type":"Feature","geometry":{"type":"Point","coordinates":[-88.20947885,35.37785657]}},{"properties":{"name":"Mason town","city":"Mason","popestimate2010":1610,"% change":0.0019,"popestimate2011":1608,"latitude":35.41175314,"popestimate2012":1611,"11-12 change":3,"county":"Tipton County","estimatesbase2010":1612,"percent change":0.19,"stname":"Tennessee","census2010pop":1609,"longitude":-89.5328518,"id":"aei3owzbbfpd","address":"Mason, TN"},"type":"Feature","geometry":{"type":"Point","coordinates":[-89.5328518,35.41175314]}},{"properties":{"name":"Doyle town","city":"Doyle","popestimate2010":537,"% change":0.0019,"popestimate2011":540,"latitude":35.85312639,"popestimate2012":541,"11-12 change":1,"county":"White County","estimatesbase2010":537,"percent change":0.19,"stname":"Tennessee","census2010pop":537,"longitude":-85.5124751,"id":"aei3owznv02o","address":"Doyle, TN"},"type":"Feature","geometry":{"type":"Point","coordinates":[-85.5124751,35.85312639]}},{"properties":{"name":"Pleasant Hill town","city":"Pleasant Hill","popestimate2010":564,"% change":0.0018,"popestimate2011":566,"latitude":35.97645911,"popestimate2012":567,"11-12 change":1,"county":"Cumberland County","estimatesbase2010":563,"percent change":0.18,"stname":"Tennessee","census2010pop":563,"longitude":-85.19385077,"id":"aei3owxybvwy","address":"Pleasant Hill, TN"},"type":"Feature","geometry":{"type":"Point","coordinates":[-85.19385077,35.97645911]}},{"properties":{"name":"Loretto city","city":"Loretto","popestimate2010":1720,"% change":0.0017,"popestimate2011":1722,"latitude":35.07786355,"popestimate2012":1725,"11-12 change":3,"county":"Lawrence County","estimatesbase2010":1714,"percent change":0.17,"stname":"Tennessee","census2010pop":1714,"longitude":-87.43974212,"id":"aei3oww3gi7w","address":"Loretto, TN"},"type":"Feature","geometry":{"type":"Point","coordinates":[-87.43974212,35.07786355]}},{"properties":{"name":"Henderson city","city":"Henderson","popestimate2010":6329,"% change":0.0017,"popestimate2011":6368,"latitude":35.43924435,"popestimate2012":6379,"11-12 change":11,"county":"Chester County","estimatesbase2010":6309,"percent change":0.17,"stname":"Tennessee","census2010pop":6309,"longitude":-88.64143736,"id":"aei3owx4equq","address":"Henderson, TN"},"type":"Feature","geometry":{"type":"Point","coordinates":[-88.64143736,35.43924435]}},{"properties":{"name":"Lexington city","city":"Lexington","popestimate2010":7636,"% change":0.0017,"popestimate2011":7778,"latitude":35.65090298,"popestimate2012":7791,"11-12 change":13,"county":"Henderson County","estimatesbase2010":7639,"percent change":0.17,"stname":"Tennessee","census2010pop":7652,"longitude":-88.39337567,"id":"aei3owq4gx7b","address":"Lexington, TN"},"type":"Feature","geometry":{"type":"Point","coordinates":[-88.39337567,35.65090298]}},{"properties":{"name":"Gates town","city":"Gates","popestimate2010":645,"% change":0.0016,"popestimate2011":643,"latitude":35.83841109,"popestimate2012":644,"11-12 change":1,"county":"Lauderdale County","estimatesbase2010":647,"percent change":0.16,"stname":"Tennessee","census2010pop":647,"longitude":-89.40618117,"id":"aei3owzhtg8n","address":"Gates, TN"},"type":"Feature","geometry":{"type":"Point","coordinates":[-89.40618117,35.83841109]}},{"properties":{"name":"Palmer town","city":"Palmer","popestimate2010":673,"% change":0.0015,"popestimate2011":669,"latitude":35.35118701,"popestimate2012":670,"11-12 change":1,"county":"Grundy County","estimatesbase2010":672,"percent change":0.15,"stname":"Tennessee","census2010pop":672,"longitude":-85.56774381,"id":"aei3owtz0qsw","address":"Palmer, TN"},"type":"Feature","geometry":{"type":"Point","coordinates":[-85.56774381,35.35118701]}},{"properties":{"name":"Algood city","city":"Algood","popestimate2010":3506,"% change":0.0014,"popestimate2011":3509,"latitude":36.19589565,"popestimate2012":3514,"11-12 change":5,"county":"Putnam County","estimatesbase2010":3495,"percent change":0.14,"stname":"Tennessee","census2010pop":3495,"longitude":-85.44858119,"id":"aei3owu4pxjx","address":"Algood, TN"},"type":"Feature","geometry":{"type":"Point","coordinates":[-85.44858119,36.19589565]}},{"properties":{"name":"Sparta city","city":"Sparta","popestimate2010":4926,"% change":0.0014,"popestimate2011":5040,"latitude":35.92590114,"popestimate2012":5047,"11-12 change":7,"county":"White County","estimatesbase2010":4925,"percent change":0.14,"stname":"Tennessee","census2010pop":4925,"longitude":-85.46414151,"id":"aei3owrn379k","address":"Sparta, TN"},"type":"Feature","geometry":{"type":"Point","coordinates":[-85.46414151,35.92590114]}},{"properties":{"name":"St. Joseph city","city":"St. Joseph","popestimate2010":785,"% change":0.0013,"popestimate2011":786,"latitude":35.03500273,"popestimate2012":787,"11-12 change":1,"county":"Lawrence County","estimatesbase2010":782,"percent change":0.13,"stname":"Tennessee","census2010pop":782,"longitude":-87.5022213,"id":"aei3owzmq853","address":"St. Joseph, TN"},"type":"Feature","geometry":{"type":"Point","coordinates":[-87.5022213,35.03500273]}},{"properties":{"name":"Livingston town","city":"Livingston","popestimate2010":4059,"% change":0.0012,"popestimate2011":4071,"latitude":36.3833967,"popestimate2012":4076,"11-12 change":5,"county":"Overton County","estimatesbase2010":4058,"percent change":0.12,"stname":"Tennessee","census2010pop":4058,"longitude":-85.32301923,"id":"aei3owwi5s0f","address":"Livingston, TN"},"type":"Feature","geometry":{"type":"Point","coordinates":[-85.32301923,36.3833967]}},{"properties":{"name":"Coalmont city","city":"Coalmont","popestimate2010":842,"% change":0.0012,"popestimate2011":838,"latitude":35.33757998,"popestimate2012":839,"11-12 change":1,"county":"Grundy County","estimatesbase2010":841,"percent change":0.12,"stname":"Tennessee","census2010pop":841,"longitude":-85.7041374,"id":"aei3owp6gnei","address":"Coalmont, TN"},"type":"Feature","geometry":{"type":"Point","coordinates":[-85.7041374,35.33757998]}},{"properties":{"name":"Cross Plains city","city":"Cross Plains","popestimate2010":1716,"% change":0.0012,"popestimate2011":1720,"latitude":36.54865836,"popestimate2012":1722,"11-12 change":2,"county":"Robertson County","estimatesbase2010":1714,"percent change":0.12,"stname":"Tennessee","census2010pop":1714,"longitude":-86.69610332,"id":"aei3owuk89ej","address":"Cross Plains, TN"},"type":"Feature","geometry":{"type":"Point","coordinates":[-86.69610332,36.54865836]}},{"properties":{"name":"Lake City city","city":"Lake City","popestimate2010":1781,"% change":0.0011,"popestimate2011":1776,"latitude":36.21785837,"popestimate2012":1778,"11-12 change":2,"county":"Anderson County, Campbell County","estimatesbase2010":1781,"percent change":0.11,"stname":"Tennessee","census2010pop":1781,"longitude":-84.15464082,"id":"aei3ox1972ku","address":"Lake City, TN"},"type":"Feature","geometry":{"type":"Point","coordinates":[-84.15464082,36.21785837]}},{"properties":{"name":"Lobelville city","city":"Lobelville","popestimate2010":899,"% change":0.0011,"popestimate2011":888,"latitude":35.77201051,"popestimate2012":889,"11-12 change":1,"county":"Perry County","estimatesbase2010":897,"percent change":0.11,"stname":"Tennessee","census2010pop":897,"longitude":-87.78390851,"id":"aei3ox0uwy3z","address":"Lobelville, TN"},"type":"Feature","geometry":{"type":"Point","coordinates":[-87.78390851,35.77201051]}},{"properties":{"name":"Athens city","city":"Athens","popestimate2010":13445,"% change":0.0011,"popestimate2011":13474,"latitude":35.44285245,"popestimate2012":13489,"11-12 change":15,"county":"McMinn County","estimatesbase2010":13458,"percent change":0.11,"stname":"Tennessee","census2010pop":13458,"longitude":-84.59298512,"id":"aei3owqw67kv","address":"Athens, TN"},"type":"Feature","geometry":{"type":"Point","coordinates":[-84.59298512,35.44285245]}},{"properties":{"name":"Linden town","city":"Linden","popestimate2010":909,"% change":0.0011,"popestimate2011":901,"latitude":35.61729659,"popestimate2012":902,"11-12 change":1,"county":"Perry County","estimatesbase2010":908,"percent change":0.11,"stname":"Tennessee","census2010pop":908,"longitude":-87.83946797,"id":"aei3owpe51t2","address":"Linden, TN"},"type":"Feature","geometry":{"type":"Point","coordinates":[-87.83946797,35.61729659]}},{"properties":{"name":"Winfield town","city":"Winfield","popestimate2010":968,"% change":0.001,"popestimate2011":965,"latitude":36.55591453,"popestimate2012":966,"11-12 change":1,"county":"Scott County","estimatesbase2010":967,"percent change":0.1,"stname":"Tennessee","census2010pop":967,"longitude":-84.45160069,"id":"aei3ox2flh49","address":"Winfield, TN"},"type":"Feature","geometry":{"type":"Point","coordinates":[-84.45160069,36.55591453]}},{"properties":{"name":"Altamont town","city":"Altamont","popestimate2010":1049,"% change":0.001,"popestimate2011":1042,"latitude":35.42951966,"popestimate2012":1043,"11-12 change":1,"county":"Grundy County","estimatesbase2010":1048,"percent change":0.1,"stname":"Tennessee","census2010pop":1045,"longitude":-85.72302776,"id":"aei3ox0cy4z2","address":"Altamont, TN"},"type":"Feature","geometry":{"type":"Point","coordinates":[-85.72302776,35.42951966]}},{"properties":{"name":"Lewisburg city","city":"Lewisburg","popestimate2010":11116,"% change":0.0009,"popestimate2011":11200,"latitude":35.44924362,"popestimate2012":11210,"11-12 change":10,"county":"Marshall County","estimatesbase2010":11100,"percent change":0.09,"stname":"Tennessee","census2010pop":11100,"longitude":-86.78888431,"id":"aei3owv3ccxh","address":"Lewisburg, TN"},"type":"Feature","geometry":{"type":"Point","coordinates":[-86.78888431,35.44924362]}},{"properties":{"name":"Paris city","city":"Paris","popestimate2010":10161,"% change":0.0009,"popestimate2011":10157,"latitude":36.30200612,"popestimate2012":10166,"11-12 change":9,"county":"Henry County","estimatesbase2010":10156,"percent change":0.09,"stname":"Tennessee","census2010pop":10156,"longitude":-88.32670957,"id":"aei3ox1lj40m","address":"Paris, TN"},"type":"Feature","geometry":{"type":"Point","coordinates":[-88.32670957,36.30200612]}},{"properties":{"name":"Oak Ridge city","city":"Oak Ridge","popestimate2010":29323,"% change":0.0009,"popestimate2011":29295,"latitude":36.01035617,"popestimate2012":29320,"11-12 change":25,"county":"Anderson County, Roane County","estimatesbase2010":29330,"percent change":0.09,"stname":"Tennessee","census2010pop":29330,"longitude":-84.26964039,"id":"aei3owvu40fx","address":"Oak Ridge, TN"},"type":"Feature","geometry":{"type":"Point","coordinates":[-84.26964039,36.01035617]}},{"properties":{"name":"Burns town","city":"Burns","popestimate2010":1465,"% change":0.0007,"popestimate2011":1467,"latitude":36.05339734,"popestimate2012":1468,"11-12 change":1,"county":"Dickson County","estimatesbase2010":1464,"percent change":0.07,"stname":"Tennessee","census2010pop":1468,"longitude":-87.31250601,"id":"aei3owxiey1g","address":"Burns, TN"},"type":"Feature","geometry":{"type":"Point","coordinates":[-87.31250601,36.05339734]}},{"properties":{"name":"Springfield city","city":"Springfield","popestimate2010":16503,"% change":0.0006,"popestimate2011":16564,"latitude":36.50921329,"popestimate2012":16574,"11-12 change":10,"county":"Robertson County","estimatesbase2010":16472,"percent change":0.06,"stname":"Tennessee","census2010pop":16440,"longitude":-86.88499444,"id":"aei3owttdn8h","address":"Springfield, TN"},"type":"Feature","geometry":{"type":"Point","coordinates":[-86.88499444,36.50921329]}},{"properties":{"name":"Lawrenceburg city","city":"Lawrenceburg","popestimate2010":10440,"% change":0.0005,"popestimate2011":10439,"latitude":35.24230568,"popestimate2012":10444,"11-12 change":5,"county":"Lawrence County","estimatesbase2010":10407,"percent change":0.05,"stname":"Tennessee","census2010pop":10428,"longitude":-87.33473863,"id":"aei3owzscdra","address":"Lawrenceburg, TN"},"type":"Feature","geometry":{"type":"Point","coordinates":[-87.33473863,35.24230568]}},{"properties":{"name":"Mount Carmel town","city":"Mount Carmel","popestimate2010":5431,"% change":0.0002,"popestimate2011":5423,"latitude":36.54537821,"popestimate2012":5424,"11-12 change":1,"county":"Hawkins County","estimatesbase2010":5429,"percent change":0.02,"stname":"Tennessee","census2010pop":5429,"longitude":-82.66098973,"id":"aei3ox4kr5rx","address":"Mount Carmel, TN"},"type":"Feature","geometry":{"type":"Point","coordinates":[-82.66098973,36.54537821]}},{"properties":{"name":"Atwood town","city":"Atwood","popestimate2010":936,"% change":0.0,"popestimate2011":931,"latitude":35.97312371,"popestimate2012":931,"11-12 change":0,"county":"Carroll County","estimatesbase2010":938,"percent change":0.0,"stname":"Tennessee","census2010pop":938,"longitude":-88.67811245,"id":"aei3owtz6ufn","address":"Atwood, TN"},"type":"Feature","geometry":{"type":"Point","coordinates":[-88.67811245,35.97312371]}},{"properties":{"name":"Braden town","city":"Braden","popestimate2010":282,"% change":0.0,"popestimate2011":280,"latitude":35.37953324,"popestimate2012":280,"11-12 change":0,"county":"Fayette County","estimatesbase2010":282,"percent change":0.0,"stname":"Tennessee","census2010pop":282,"longitude":-89.56813013,"id":"aei3ox22gycw","address":"Braden, TN"},"type":"Feature","geometry":{"type":"Point","coordinates":[-89.56813013,35.37953324]}},{"properties":{"name":"Calhoun town","city":"Calhoun","popestimate2010":490,"% change":0.0,"popestimate2011":492,"latitude":35.29646426,"popestimate2012":492,"11-12 change":0,"county":"McMinn County","estimatesbase2010":490,"percent change":0.0,"stname":"Tennessee","census2010pop":490,"longitude":-84.74799499,"id":"aei3ox3p4ixg","address":"Calhoun, TN"},"type":"Feature","geometry":{"type":"Point","coordinates":[-84.74799499,35.29646426]}},{"properties":{"name":"Cedar Hill city","city":"Cedar Hill","popestimate2010":314,"% change":0.0,"popestimate2011":315,"latitude":36.55143373,"popestimate2012":315,"11-12 change":0,"county":"Robertson County","estimatesbase2010":314,"percent change":0.0,"stname":"Tennessee","census2010pop":314,"longitude":-86.99916459,"id":"aei3owzr0l4x","address":"Cedar Hill, TN"},"type":"Feature","geometry":{"type":"Point","coordinates":[-86.99916459,36.55143373]}},{"properties":{"name":"Clarksburg town","city":"Clarksburg","popestimate2010":392,"% change":0.0,"popestimate2011":390,"latitude":35.87173379,"popestimate2012":390,"11-12 change":0,"county":"Carroll County","estimatesbase2010":393,"percent change":0.0,"stname":"Tennessee","census2010pop":393,"longitude":-88.39309986,"id":"aei3owoeorwi","address":"Clarksburg, TN"},"type":"Feature","geometry":{"type":"Point","coordinates":[-88.39309986,35.87173379]}},{"properties":{"name":"Cottage Grove town","city":"Cottage Grove","popestimate2010":88,"% change":0.0,"popestimate2011":88,"latitude":36.37922592,"popestimate2012":88,"11-12 change":0,"county":"Henry County","estimatesbase2010":88,"percent change":0.0,"stname":"Tennessee","census2010pop":88,"longitude":-88.47921324,"id":"aei3owzcjky4","address":"Cottage Grove, TN"},"type":"Feature","geometry":{"type":"Point","coordinates":[-88.47921324,36.37922592]}},{"properties":{"name":"Cumberland City town","city":"Cumberland City","popestimate2010":311,"% change":0.0,"popestimate2011":307,"latitude":36.39338949,"popestimate2012":307,"11-12 change":0,"county":"Stewart County","estimatesbase2010":311,"percent change":0.0,"stname":"Tennessee","census2010pop":311,"longitude":-87.63640223,"id":"aei3owsqlhh5","address":"Cumberland City, TN"},"type":"Feature","geometry":{"type":"Point","coordinates":[-87.63640223,36.39338949]}},{"properties":{"name":"Decatur town","city":"Decatur","popestimate2010":1597,"% change":0.0,"popestimate2011":1577,"latitude":35.51479573,"popestimate2012":1577,"11-12 change":0,"county":"Meigs County","estimatesbase2010":1598,"percent change":0.0,"stname":"Tennessee","census2010pop":1598,"longitude":-84.79022201,"id":"aei3ox4d6x7l","address":"Decatur, TN"},"type":"Feature","geometry":{"type":"Point","coordinates":[-84.79022201,35.51479573]}},{"properties":{"name":"Enville town","city":"Enville","popestimate2010":189,"% change":0.0,"popestimate2011":189,"latitude":35.38479996,"popestimate2012":189,"11-12 change":0,"county":"Chester County, McNairy County","estimatesbase2010":189,"percent change":0.0,"stname":"Tennessee","census2010pop":189,"longitude":-88.42754313,"id":"aei3ox4jc6dy","address":"Enville, TN"},"type":"Feature","geometry":{"type":"Point","coordinates":[-88.42754313,35.38479996]}},{"properties":{"name":"Gainesboro town","city":"Gainesboro","popestimate2010":962,"% change":0.0,"popestimate2011":950,"latitude":36.35561573,"popestimate2012":950,"11-12 change":0,"county":"Jackson County","estimatesbase2010":962,"percent change":0.0,"stname":"Tennessee","census2010pop":962,"longitude":-85.65886431,"id":"aei3owq8abt6","address":"Gainesboro, TN"},"type":"Feature","geometry":{"type":"Point","coordinates":[-85.65886431,36.35561573]}},{"properties":{"name":"Huntsville town","city":"Huntsville","popestimate2010":1249,"% change":0.0,"popestimate2011":1244,"latitude":36.40980533,"popestimate2012":1244,"11-12 change":0,"county":"Scott County","estimatesbase2010":1248,"percent change":0.0,"stname":"Tennessee","census2010pop":1248,"longitude":-84.4904922,"id":"aei3owvdik9c","address":"Huntsville, TN"},"type":"Feature","geometry":{"type":"Point","coordinates":[-84.4904922,36.40980533]}},{"properties":{"name":"La Grange town","city":"LaGrange","popestimate2010":133,"% change":0.0,"popestimate2011":134,"latitude":35.13641798,"popestimate2012":134,"11-12 change":0,"county":"Fayette County","estimatesbase2010":133,"percent change":0.0,"stname":"Tennessee","census2010pop":133,"longitude":-89.30267253,"id":"aei3ox1u4yv0","address":"LaGrange, TN"},"type":"Feature","geometry":{"type":"Point","coordinates":[-89.30267253,35.13641798]}},{"properties":{"name":"Parker's Crossroads city","city":"Parker's Crossroads","popestimate2010":330,"% change":0.0,"popestimate2011":332,"latitude":35.78166745,"popestimate2012":332,"11-12 change":0,"county":"Henderson County","estimatesbase2010":330,"percent change":0.0,"stname":"Tennessee","census2010pop":330,"longitude":-88.38944078,"id":"aei3owy5zt4e","address":"Parker's Crossroads, TN"},"type":"Feature","geometry":{"type":"Point","coordinates":[-88.38944078,35.78166745]}},{"properties":{"name":"Puryear city","city":"Puryear","popestimate2010":671,"% change":0.0,"popestimate2011":672,"latitude":36.44422656,"popestimate2012":672,"11-12 change":0,"county":"Henry County","estimatesbase2010":671,"percent change":0.0,"stname":"Tennessee","census2010pop":671,"longitude":-88.3344863,"id":"aei3owz71n65","address":"Puryear, TN"},"type":"Feature","geometry":{"type":"Point","coordinates":[-88.3344863,36.44422656]}},{"properties":{"name":"Rockford city","city":"Rockford","popestimate2010":856,"% change":0.0,"popestimate2011":857,"latitude":35.82758758,"popestimate2012":857,"11-12 change":0,"county":"Blount County","estimatesbase2010":856,"percent change":0.0,"stname":"Tennessee","census2010pop":856,"longitude":-83.94073647,"id":"aei3owwvyp0y","address":"Rockford, TN"},"type":"Feature","geometry":{"type":"Point","coordinates":[-83.94073647,35.82758758]}},{"properties":{"name":"Rutledge town","city":"Rutledge","popestimate2010":1127,"% change":0.0,"popestimate2011":1129,"latitude":36.28092102,"popestimate2012":1129,"11-12 change":0,"county":"Grainger County","estimatesbase2010":1124,"percent change":0.0,"stname":"Tennessee","census2010pop":1122,"longitude":-83.51489965,"id":"aei3ox4qigoe","address":"Rutledge, TN"},"type":"Feature","geometry":{"type":"Point","coordinates":[-83.51489965,36.28092102]}},{"properties":{"name":"Scotts Hill town","city":"Scotts Hill","popestimate2010":982,"% change":0.0,"popestimate2011":987,"latitude":35.51507533,"popestimate2012":987,"11-12 change":0,"county":"Henderson County, Decatur County","estimatesbase2010":984,"percent change":0.0,"stname":"Tennessee","census2010pop":984,"longitude":-88.24531285,"id":"aei3owowrxex","address":"Scotts Hill, TN"},"type":"Feature","geometry":{"type":"Point","coordinates":[-88.24531285,35.51507533]}},{"properties":{"name":"Sunbright city","city":"Sunbright","popestimate2010":552,"% change":0.0,"popestimate2011":551,"latitude":36.24341157,"popestimate2012":551,"11-12 change":0,"county":"Morgan County","estimatesbase2010":552,"percent change":0.0,"stname":"Tennessee","census2010pop":552,"longitude":-84.66994078,"id":"aei3owoh4a2m","address":"Sunbright, TN"},"type":"Feature","geometry":{"type":"Point","coordinates":[-84.66994078,36.24341157]}},{"properties":{"name":"Townsend city","city":"Townsend","popestimate2010":450,"% change":0.0,"popestimate2011":450,"latitude":35.67536678,"popestimate2012":450,"11-12 change":0,"county":"Blount County","estimatesbase2010":448,"percent change":0.0,"stname":"Tennessee","census2010pop":448,"longitude":-83.75572531,"id":"aei3owz341x6","address":"Townsend, TN"},"type":"Feature","geometry":{"type":"Point","coordinates":[-83.75572531,35.67536678]}},{"properties":{"name":"Trezevant town","city":"Trezevant","popestimate2010":857,"% change":0.0,"popestimate2011":853,"latitude":36.01145503,"popestimate2012":853,"11-12 change":0,"county":"Carroll County","estimatesbase2010":859,"percent change":0.0,"stname":"Tennessee","census2010pop":859,"longitude":-88.62283094,"id":"aei3owyt23xa","address":"Trezevant, TN"},"type":"Feature","geometry":{"type":"Point","coordinates":[-88.62283094,36.01145503]}},{"properties":{"name":"Viola town","city":"Viola","popestimate2010":131,"% change":0.0,"popestimate2011":131,"latitude":35.53840921,"popestimate2012":131,"11-12 change":0,"county":"Warren County","estimatesbase2010":131,"percent change":0.0,"stname":"Tennessee","census2010pop":131,"longitude":-85.85914835,"id":"aei3ox48s81p","address":"Viola, TN"},"type":"Feature","geometry":{"type":"Point","coordinates":[-85.85914835,35.53840921]}},{"properties":{"name":"Wartrace town","city":"Wartrace","popestimate2010":650,"% change":0.0,"popestimate2011":649,"latitude":35.52729667,"popestimate2012":649,"11-12 change":0,"county":"Bedford County","estimatesbase2010":651,"percent change":0.0,"stname":"Tennessee","census2010pop":651,"longitude":-86.33360061,"id":"aei3owt6ksn2","address":"Wartrace, TN"},"type":"Feature","geometry":{"type":"Point","coordinates":[-86.33360061,35.52729667]}},{"properties":{"name":"Huntingdon town","city":"Huntingdon","popestimate2010":3998,"% change":-0.0003,"popestimate2011":3976,"latitude":36.00061842,"popestimate2012":3975,"11-12 change":-1,"county":"Carroll County","estimatesbase2010":3985,"percent change":-0.03,"stname":"Tennessee","census2010pop":3985,"longitude":-88.4281048,"id":"aei3owpxnjiv","address":"Huntingdon, TN"},"type":"Feature","geometry":{"type":"Point","coordinates":[-88.4281048,36.00061842]}},{"properties":{"name":"Monterey town","city":"Monterey","popestimate2010":2852,"% change":-0.0004,"popestimate2011":2836,"latitude":36.14756861,"popestimate2012":2835,"11-12 change":-1,"county":"Putnam County","estimatesbase2010":2850,"percent change":-0.04,"stname":"Tennessee","census2010pop":2850,"longitude":-85.26830009,"id":"aei3owzgq1v6","address":"Monterey, TN"},"type":"Feature","geometry":{"type":"Point","coordinates":[-85.26830009,36.14756861]}},{"properties":{"name":"Coopertown town","city":"Coopertown","popestimate2010":4286,"% change":-0.0005,"popestimate2011":4306,"latitude":36.43755096,"popestimate2012":4304,"11-12 change":-2,"county":"Robertson County","estimatesbase2010":4278,"percent change":-0.05,"stname":"Tennessee","census2010pop":4278,"longitude":-86.96721915,"id":"aei3owwbhe0c","address":"Coopertown, TN"},"type":"Feature","geometry":{"type":"Point","coordinates":[-86.96721915,36.43755096]}},{"properties":{"name":"Dyersburg city","city":"Dyersburg","popestimate2010":17133,"% change":-0.0005,"popestimate2011":17051,"latitude":36.03451663,"popestimate2012":17043,"11-12 change":-8,"county":"Dyer County","estimatesbase2010":17145,"percent change":-0.05,"stname":"Tennessee","census2010pop":17145,"longitude":-89.38562439,"id":"aei3owopbir0","address":"Dyersburg, TN"},"type":"Feature","geometry":{"type":"Point","coordinates":[-89.38562439,36.03451663]}},{"properties":{"name":"Gruetli-Laager city","city":"Gruetli-Laager","popestimate2010":1815,"% change":-0.0006,"popestimate2011":1805,"latitude":35.37229823,"popestimate2012":1804,"11-12 change":-1,"county":"Grundy County","estimatesbase2010":1814,"percent change":-0.06,"stname":"Tennessee","census2010pop":1813,"longitude":-85.61802271,"id":"aei3ox2qieif","address":"Gruetli-Laager, TN"},"type":"Feature","geometry":{"type":"Point","coordinates":[-85.61802271,35.37229823]}},{"properties":{"name":"Surgoinsville town","city":"Surgoinsville","popestimate2010":1801,"% change":-0.0006,"popestimate2011":1791,"latitude":36.47093001,"popestimate2012":1790,"11-12 change":-1,"county":"Hawkins County","estimatesbase2010":1801,"percent change":-0.06,"stname":"Tennessee","census2010pop":1801,"longitude":-82.85182867,"id":"aei3owqlhujj","address":"Surgoinsville, TN"},"type":"Feature","geometry":{"type":"Point","coordinates":[-82.85182867,36.47093001]}},{"properties":{"name":"Etowah city","city":"Etowah","popestimate2010":3485,"% change":-0.0006,"popestimate2011":3490,"latitude":35.32340965,"popestimate2012":3488,"11-12 change":-2,"county":"McMinn County","estimatesbase2010":3490,"percent change":-0.06,"stname":"Tennessee","census2010pop":3490,"longitude":-84.5249268,"id":"aei3owxswg1o","address":"Etowah, TN"},"type":"Feature","geometry":{"type":"Point","coordinates":[-84.5249268,35.32340965]}},{"properties":{"name":"Church Hill city","city":"Church Hill","popestimate2010":6743,"% change":-0.0006,"popestimate2011":6735,"latitude":36.52232499,"popestimate2012":6731,"11-12 change":-4,"county":"Hawkins County","estimatesbase2010":6737,"percent change":-0.06,"stname":"Tennessee","census2010pop":6737,"longitude":-82.71349,"id":"aei3owsm32on","address":"Church Hill, TN"},"type":"Feature","geometry":{"type":"Point","coordinates":[-82.71349,36.52232499]}},{"properties":{"name":"Ripley city","city":"Ripley","popestimate2010":8421,"% change":-0.0006,"popestimate2011":8390,"latitude":35.74535907,"popestimate2012":8385,"11-12 change":-5,"county":"Lauderdale County","estimatesbase2010":8445,"percent change":-0.06,"stname":"Tennessee","census2010pop":8445,"longitude":-89.52979337,"id":"aei3owsq4tuv","address":"Ripley, TN"},"type":"Feature","geometry":{"type":"Point","coordinates":[-89.52979337,35.74535907]}},{"properties":{"name":"Tracy City town","city":"Tracy City","popestimate2010":1482,"% change":-0.0007,"popestimate2011":1476,"latitude":35.2603575,"popestimate2012":1475,"11-12 change":-1,"county":"Grundy County","estimatesbase2010":1481,"percent change":-0.07,"stname":"Tennessee","census2010pop":1481,"longitude":-85.73607921,"id":"aei3owso0gxc","address":"Tracy City, TN"},"type":"Feature","geometry":{"type":"Point","coordinates":[-85.73607921,35.2603575]}},{"properties":{"name":"Morristown city","city":"Morristown","popestimate2010":29175,"% change":-0.0008,"popestimate2011":29292,"latitude":36.21398592,"popestimate2012":29269,"11-12 change":-23,"county":"Hamblen County","estimatesbase2010":29150,"percent change":-0.08,"stname":"Tennessee","census2010pop":29137,"longitude":-83.29488744,"id":"aei3owxheiwh","address":"Morristown, TN"},"type":"Feature","geometry":{"type":"Point","coordinates":[-83.29488744,36.21398592]}},{"properties":{"name":"Kingsport city","city":"Kingsport","popestimate2010":51517,"% change":-0.0008,"popestimate2011":51543,"latitude":36.54843824,"popestimate2012":51501,"11-12 change":-42,"county":"Sullivan County, Hawkins County","estimatesbase2010":51519,"percent change":-0.08,"stname":"Tennessee","census2010pop":48205,"longitude":-82.56181712,"id":"aei3owrik9mr","address":"Kingsport, TN"},"type":"Feature","geometry":{"type":"Point","coordinates":[-82.56181712,36.54843824]}},{"properties":{"name":"Monteagle town","city":"Monteagle","popestimate2010":1185,"% change":-0.0009,"popestimate2011":1176,"latitude":35.24008359,"popestimate2012":1175,"11-12 change":-1,"county":"Grundy County, Marion County","estimatesbase2010":1185,"percent change":-0.09,"stname":"Tennessee","census2010pop":1192,"longitude":-85.8396972,"id":"aei3owxa2zht","address":"Monteagle, TN"},"type":"Feature","geometry":{"type":"Point","coordinates":[-85.8396972,35.24008359]}},{"properties":{"name":"Collinwood city","city":"Collinwood","popestimate2010":980,"% change":-0.001,"popestimate2011":992,"latitude":35.17425228,"popestimate2012":991,"11-12 change":-1,"county":"Wayne County","estimatesbase2010":982,"percent change":-0.1,"stname":"Tennessee","census2010pop":982,"longitude":-87.73780241,"id":"aei3owp5n3w7","address":"Collinwood, TN"},"type":"Feature","geometry":{"type":"Point","coordinates":[-87.73780241,35.17425228]}},{"properties":{"name":"Henning town","city":"Henning","popestimate2010":943,"% change":-0.0011,"popestimate2011":938,"latitude":35.67286099,"popestimate2012":937,"11-12 change":-1,"county":"Lauderdale County","estimatesbase2010":945,"percent change":-0.11,"stname":"Tennessee","census2010pop":945,"longitude":-89.57340474,"id":"aei3owxegrri","address":"Henning, TN"},"type":"Feature","geometry":{"type":"Point","coordinates":[-89.57340474,35.67286099]}},{"properties":{"name":"Clifton city","city":"Clifton","popestimate2010":2693,"% change":-0.0011,"popestimate2011":2699,"latitude":35.38702358,"popestimate2012":2696,"11-12 change":-3,"county":"Wayne County","estimatesbase2010":2694,"percent change":-0.11,"stname":"Tennessee","census2010pop":2694,"longitude":-87.99530442,"id":"aei3ox322lf2","address":"Clifton, TN"},"type":"Feature","geometry":{"type":"Point","coordinates":[-87.99530442,35.38702358]}},{"properties":{"name":"Decaturville town","city":"Decaturville","popestimate2010":866,"% change":-0.0012,"popestimate2011":864,"latitude":35.58424111,"popestimate2012":863,"11-12 change":-1,"county":"Decatur County","estimatesbase2010":867,"percent change":-0.12,"stname":"Tennessee","census2010pop":867,"longitude":-88.11947575,"id":"aei3owvgm6b7","address":"Decaturville, TN"},"type":"Feature","geometry":{"type":"Point","coordinates":[-88.11947575,35.58424111]}},{"properties":{"name":"Englewood town","city":"Englewood","popestimate2010":1530,"% change":-0.0013,"popestimate2011":1534,"latitude":35.42452308,"popestimate2012":1532,"11-12 change":-2,"county":"McMinn County","estimatesbase2010":1532,"percent change":-0.13,"stname":"Tennessee","census2010pop":1532,"longitude":-84.48742405,"id":"aei3owv8zyfp","address":"Englewood, TN"},"type":"Feature","geometry":{"type":"Point","coordinates":[-84.48742405,35.42452308]}},{"properties":{"name":"Niota city","city":"Niota","popestimate2010":717,"% change":-0.0014,"popestimate2011":719,"latitude":35.51340834,"popestimate2012":718,"11-12 change":-1,"county":"McMinn County","estimatesbase2010":718,"percent change":-0.14,"stname":"Tennessee","census2010pop":719,"longitude":-84.54520699,"id":"aei3owuuc6ga","address":"Niota, TN"},"type":"Feature","geometry":{"type":"Point","coordinates":[-84.54520699,35.51340834]}},{"properties":{"name":"Sneedville town","city":"Sneedville","popestimate2010":1391,"% change":-0.0015,"popestimate2011":1369,"latitude":36.52981459,"popestimate2012":1367,"11-12 change":-2,"county":"Hancock County","estimatesbase2010":1390,"percent change":-0.15,"stname":"Tennessee","census2010pop":1387,"longitude":-83.21739574,"id":"aei3owym5qvh","address":"Sneedville, TN"},"type":"Feature","geometry":{"type":"Point","coordinates":[-83.21739574,36.52981459]}},{"properties":{"name":"McKenzie city","city":"McKenzie","popestimate2010":5315,"% change":-0.0015,"popestimate2011":5391,"latitude":36.13256617,"popestimate2012":5383,"11-12 change":-8,"county":"Carroll County, Henry County, Weakley County","estimatesbase2010":5310,"percent change":-0.15,"stname":"Tennessee","census2010pop":5310,"longitude":-88.51866352,"id":"aei3ox114pwb","address":"McKenzie, TN"},"type":"Feature","geometry":{"type":"Point","coordinates":[-88.51866352,36.13256617]}},{"properties":{"name":"Rogersville town","city":"Rogersville","popestimate2010":4422,"% change":-0.0016,"popestimate2011":4404,"latitude":36.40732183,"popestimate2012":4397,"11-12 change":-7,"county":"Hawkins County","estimatesbase2010":4424,"percent change":-0.16,"stname":"Tennessee","census2010pop":4420,"longitude":-83.00543891,"id":"aei3owp45aqw","address":"Rogersville, TN"},"type":"Feature","geometry":{"type":"Point","coordinates":[-83.00543891,36.40732183]}},{"properties":{"name":"Red Boiling Springs city","city":"Red Boiling Springs","popestimate2010":1112,"% change":-0.0018,"popestimate2011":1119,"latitude":36.53339088,"popestimate2012":1117,"11-12 change":-2,"county":"Macon County","estimatesbase2010":1112,"percent change":-0.18,"stname":"Tennessee","census2010pop":1112,"longitude":-85.84997751,"id":"aei3owzxlw45","address":"Red Boiling Springs, TN"},"type":"Feature","geometry":{"type":"Point","coordinates":[-85.84997751,36.53339088]}},{"properties":{"name":"Halls town","city":"Halls","popestimate2010":2247,"% change":-0.0018,"popestimate2011":2233,"latitude":35.87563013,"popestimate2012":2229,"11-12 change":-4,"county":"Lauderdale County","estimatesbase2010":2255,"percent change":-0.18,"stname":"Tennessee","census2010pop":2255,"longitude":-89.39618273,"id":"aei3owqdm22x","address":"Halls, TN"},"type":"Feature","geometry":{"type":"Point","coordinates":[-89.39618273,35.87563013]}},{"properties":{"name":"Elizabethton city","city":"Elizabethton","popestimate2010":14157,"% change":-0.0018,"popestimate2011":14230,"latitude":36.3487197,"popestimate2012":14204,"11-12 change":-26,"county":"Carter County","estimatesbase2010":14179,"percent change":-0.18,"stname":"Tennessee","census2010pop":14176,"longitude":-82.21068428,"id":"aei3owwblxil","address":"Elizabethton, TN"},"type":"Feature","geometry":{"type":"Point","coordinates":[-82.21068428,36.3487197]}},{"properties":{"name":"McMinnville city","city":"McMinnville","popestimate2010":13607,"% change":-0.002,"popestimate2011":13625,"latitude":35.68659352,"popestimate2012":13598,"11-12 change":-27,"county":"Warren County","estimatesbase2010":13605,"percent change":-0.2,"stname":"Tennessee","census2010pop":13605,"longitude":-85.7801446,"id":"aei3owp9q118","address":"McMinnville, TN"},"type":"Feature","geometry":{"type":"Point","coordinates":[-85.7801446,35.68659352]}},{"properties":{"name":"Chapel Hill town","city":"Chapel Hill","popestimate2010":1447,"% change":-0.0021,"popestimate2011":1452,"latitude":35.6264628,"popestimate2012":1449,"11-12 change":-3,"county":"Marshall County","estimatesbase2010":1445,"percent change":-0.21,"stname":"Tennessee","census2010pop":1445,"longitude":-86.69332853,"id":"aei3owyootc7","address":"Chapel Hill, TN"},"type":"Feature","geometry":{"type":"Point","coordinates":[-86.69332853,35.6264628]}},{"properties":{"name":"Blaine city","city":"Blaine","popestimate2010":1861,"% change":-0.0021,"popestimate2011":1864,"latitude":36.15425285,"popestimate2012":1860,"11-12 change":-4,"county":"Grainger County","estimatesbase2010":1856,"percent change":-0.21,"stname":"Tennessee","census2010pop":1856,"longitude":-83.7040659,"id":"aei3owp9mrdu","address":"Blaine, TN"},"type":"Feature","geometry":{"type":"Point","coordinates":[-83.7040659,36.15425285]}},{"properties":{"name":"Henry town","city":"Henry","popestimate2010":464,"% change":-0.0022,"popestimate2011":464,"latitude":36.20395013,"popestimate2012":463,"11-12 change":-1,"county":"Henry County","estimatesbase2010":464,"percent change":-0.22,"stname":"Tennessee","census2010pop":464,"longitude":-88.41977032,"id":"aei3ows341q6","address":"Henry, TN"},"type":"Feature","geometry":{"type":"Point","coordinates":[-88.41977032,36.20395013]}},{"properties":{"name":"Wartburg city","city":"Wartburg","popestimate2010":917,"% change":-0.0022,"popestimate2011":915,"latitude":36.1047981,"popestimate2012":913,"11-12 change":-2,"county":"Morgan County","estimatesbase2010":918,"percent change":-0.22,"stname":"Tennessee","census2010pop":918,"longitude":-84.59716081,"id":"aei3ox0dbuct","address":"Wartburg, TN"},"type":"Feature","geometry":{"type":"Point","coordinates":[-84.59716081,36.1047981]}},{"properties":{"name":"South Carthage town","city":"South Carthage","popestimate2010":1319,"% change":-0.0023,"popestimate2011":1316,"latitude":36.24200227,"popestimate2012":1313,"11-12 change":-3,"county":"Smith County","estimatesbase2010":1322,"percent change":-0.23,"stname":"Tennessee","census2010pop":1322,"longitude":-85.95193158,"id":"aei3ox1ktbwt","address":"South Carthage, TN"},"type":"Feature","geometry":{"type":"Point","coordinates":[-85.95193158,36.24200227]}},{"properties":{"name":"Cornersville town","city":"Cornersville","popestimate2010":1194,"% change":-0.0025,"popestimate2011":1197,"latitude":35.36146762,"popestimate2012":1194,"11-12 change":-3,"county":"Marshall County","estimatesbase2010":1194,"percent change":-0.25,"stname":"Tennessee","census2010pop":1194,"longitude":-86.8397192,"id":"aei3owvepgy4","address":"Cornersville, TN"},"type":"Feature","geometry":{"type":"Point","coordinates":[-86.8397192,35.36146762]}},{"properties":{"name":"Williston city","city":"Williston","popestimate2010":395,"% change":-0.0025,"popestimate2011":393,"latitude":35.1575879,"popestimate2012":392,"11-12 change":-1,"county":"Fayette County","estimatesbase2010":395,"percent change":-0.25,"stname":"Tennessee","census2010pop":395,"longitude":-89.36840373,"id":"aei3owrw58rv","address":"Williston, TN"},"type":"Feature","geometry":{"type":"Point","coordinates":[-89.36840373,35.1575879]}},{"properties":{"name":"Unicoi town","city":"Unicoi","popestimate2010":3625,"% change":-0.0027,"popestimate2011":3650,"latitude":36.19539028,"popestimate2012":3640,"11-12 change":-10,"county":"Unicoi County","estimatesbase2010":3632,"percent change":-0.27,"stname":"Tennessee","census2010pop":3632,"longitude":-82.34957846,"id":"aei3ox32cx2c","address":"Unicoi, TN"},"type":"Feature","geometry":{"type":"Point","coordinates":[-82.34957846,36.19539028]}},{"properties":{"name":"Bristol city","city":"Bristol","popestimate2010":26719,"% change":-0.0028,"popestimate2011":26750,"latitude":36.59510636,"popestimate2012":26675,"11-12 change":-75,"county":"Sullivan County","estimatesbase2010":26711,"percent change":-0.28,"stname":"Tennessee","census2010pop":26702,"longitude":-82.1887409,"id":"aei3owtlyz6t","address":"Bristol, TN"},"type":"Feature","geometry":{"type":"Point","coordinates":[-82.1887409,36.59510636]}},{"properties":{"name":"Hollow Rock town","city":"Hollow Rock","popestimate2010":716,"% change":-0.0028,"popestimate2011":711,"latitude":36.0381168,"popestimate2012":709,"11-12 change":-2,"county":"Carroll County","estimatesbase2010":718,"percent change":-0.28,"stname":"Tennessee","census2010pop":718,"longitude":-88.27365211,"id":"aei3ox4nwaza","address":"Hollow Rock, TN"},"type":"Feature","geometry":{"type":"Point","coordinates":[-88.27365211,36.0381168]}},{"properties":{"name":"McLemoresville town","city":"McLemoresville","popestimate2010":351,"% change":-0.0029,"popestimate2011":350,"latitude":35.98728882,"popestimate2012":349,"11-12 change":-1,"county":"Carroll County","estimatesbase2010":352,"percent change":-0.29,"stname":"Tennessee","census2010pop":352,"longitude":-88.57449514,"id":"aei3owojd5ld","address":"McLemoresville, TN"},"type":"Feature","geometry":{"type":"Point","coordinates":[-88.57449514,35.98728882]}},{"properties":{"name":"Waynesboro city","city":"Waynesboro","popestimate2010":2443,"% change":-0.0029,"popestimate2011":2444,"latitude":35.31952364,"popestimate2012":2437,"11-12 change":-7,"county":"Wayne County","estimatesbase2010":2449,"percent change":-0.29,"stname":"Tennessee","census2010pop":2449,"longitude":-87.76224322,"id":"aei3ox1qicdg","address":"Waynesboro, TN"},"type":"Feature","geometry":{"type":"Point","coordinates":[-87.76224322,35.31952364]}},{"properties":{"name":"Mosheim town","city":"Mosheim","popestimate2010":2360,"% change":-0.003,"popestimate2011":2369,"latitude":36.18954565,"popestimate2012":2362,"11-12 change":-7,"county":"Greene County","estimatesbase2010":2362,"percent change":-0.3,"stname":"Tennessee","census2010pop":2362,"longitude":-82.95848787,"id":"aei3owpfpcl9","address":"Mosheim, TN"},"type":"Feature","geometry":{"type":"Point","coordinates":[-82.95848787,36.18954565]}},{"properties":{"name":"Erwin town","city":"Erwin","popestimate2010":6079,"% change":-0.003,"popestimate2011":6066,"latitude":36.14510956,"popestimate2012":6048,"11-12 change":-18,"county":"Unicoi County","estimatesbase2010":6097,"percent change":-0.3,"stname":"Tennessee","census2010pop":6097,"longitude":-82.41680345,"id":"aei3owp1djax","address":"Erwin, TN"},"type":"Feature","geometry":{"type":"Point","coordinates":[-82.41680345,36.14510956]}},{"properties":{"name":"Tusculum city","city":"Tusculum","popestimate2010":2661,"% change":-0.003,"popestimate2011":2681,"latitude":36.17510467,"popestimate2012":2673,"11-12 change":-8,"county":"Greene County","estimatesbase2010":2663,"percent change":-0.3,"stname":"Tennessee","census2010pop":2663,"longitude":-82.75875781,"id":"aei3ox4p7abg","address":"Tusculum, TN"},"type":"Feature","geometry":{"type":"Point","coordinates":[-82.75875781,36.17510467]}},{"properties":{"name":"Pikeville city","city":"Pikeville","popestimate2010":1607,"% change":-0.0031,"popestimate2011":1606,"latitude":35.60562358,"popestimate2012":1601,"11-12 change":-5,"county":"Bledsoe County","estimatesbase2010":1608,"percent change":-0.31,"stname":"Tennessee","census2010pop":1608,"longitude":-85.18884582,"id":"aei3owx0jdbn","address":"Pikeville, TN"},"type":"Feature","geometry":{"type":"Point","coordinates":[-85.18884582,35.60562358]}},{"properties":{"name":"Trimble town","city":"Trimble","popestimate2010":637,"% change":-0.0032,"popestimate2011":634,"latitude":36.20312542,"popestimate2012":632,"11-12 change":-2,"county":"Dyer County, Obion County","estimatesbase2010":637,"percent change":-0.32,"stname":"Tennessee","census2010pop":637,"longitude":-89.19089767,"id":"aei3owy9hsao","address":"Trimble, TN"},"type":"Feature","geometry":{"type":"Point","coordinates":[-89.19089767,36.20312542]}},{"properties":{"name":"Hartsville/Trousdale County","city":"Hartsville","popestimate2010":7861,"% change":-0.0032,"popestimate2011":7820,"latitude":36.39111016,"popestimate2012":7795,"11-12 change":-25,"county":"Trousdale County","estimatesbase2010":7870,"percent change":-0.32,"stname":"Tennessee","census2010pop":7870,"longitude":-86.16609931,"id":"aei3ox1qb4pj","address":"Hartsville, TN"},"type":"Feature","geometry":{"type":"Point","coordinates":[-86.16609931,36.39111016]}},{"properties":{"name":"Parsons city","city":"Parsons","popestimate2010":2368,"% change":-0.0034,"popestimate2011":2357,"latitude":35.64979313,"popestimate2012":2349,"11-12 change":-8,"county":"Decatur County","estimatesbase2010":2373,"percent change":-0.34,"stname":"Tennessee","census2010pop":2373,"longitude":-88.12670022,"id":"aei3owrf9j7j","address":"Parsons, TN"},"type":"Feature","geometry":{"type":"Point","coordinates":[-88.12670022,35.64979313]}},{"properties":{"name":"Bruceton town","city":"Bruceton","popestimate2010":1475,"% change":-0.0034,"popestimate2011":1464,"latitude":36.03811701,"popestimate2012":1459,"11-12 change":-5,"county":"Carroll County","estimatesbase2010":1478,"percent change":-0.34,"stname":"Tennessee","census2010pop":1478,"longitude":-88.24448291,"id":"aei3owumrfj3","address":"Bruceton, TN"},"type":"Feature","geometry":{"type":"Point","coordinates":[-88.24448291,36.03811701]}},{"properties":{"name":"Caryville town","city":"Caryville","popestimate2010":2291,"% change":-0.0035,"popestimate2011":2283,"latitude":36.29897181,"popestimate2012":2275,"11-12 change":-8,"county":"Campbell County","estimatesbase2010":2297,"percent change":-0.35,"stname":"Tennessee","census2010pop":2297,"longitude":-84.22326062,"id":"aei3owvsax24","address":"Caryville, TN"},"type":"Feature","geometry":{"type":"Point","coordinates":[-84.22326062,36.29897181]}},{"properties":{"name":"Moscow city","city":"Moscow","popestimate2010":555,"% change":-0.0036,"popestimate2011":551,"latitude":35.06203814,"popestimate2012":549,"11-12 change":-2,"county":"Fayette County","estimatesbase2010":556,"percent change":-0.36,"stname":"Tennessee","census2010pop":556,"longitude":-89.40396215,"id":"aei3owqpjyh2","address":"Moscow, TN"},"type":"Feature","geometry":{"type":"Point","coordinates":[-89.40396215,35.06203814]}},{"properties":{"name":"Petersburg town","city":"Petersburg","popestimate2010":545,"% change":-0.0037,"popestimate2011":546,"latitude":35.31979944,"popestimate2012":544,"11-12 change":-2,"county":"Lincoln County, Marshall County","estimatesbase2010":544,"percent change":-0.37,"stname":"Tennessee","census2010pop":544,"longitude":-86.63749667,"id":"aei3owq7v81e","address":"Petersburg, TN"},"type":"Feature","geometry":{"type":"Point","coordinates":[-86.63749667,35.31979944]}},{"properties":{"name":"Bean Station city","city":"Bean Station","popestimate2010":2980,"% change":-0.0037,"popestimate2011":2985,"latitude":36.34370592,"popestimate2012":2974,"11-12 change":-11,"county":"Grainger County","estimatesbase2010":2973,"percent change":-0.37,"stname":"Tennessee","census2010pop":2826,"longitude":-83.28405776,"id":"aei3owr7634d","address":"Bean Station, TN"},"type":"Feature","geometry":{"type":"Point","coordinates":[-83.28405776,36.34370592]}},{"properties":{"name":"Whiteville town","city":"Whiteville","popestimate2010":4632,"% change":-0.0039,"popestimate2011":4611,"latitude":35.32647502,"popestimate2012":4593,"11-12 change":-18,"county":"Hardeman County","estimatesbase2010":4638,"percent change":-0.39,"stname":"Tennessee","census2010pop":4638,"longitude":-89.14950531,"id":"aei3owr0fa55","address":"Whiteville, TN"},"type":"Feature","geometry":{"type":"Point","coordinates":[-89.14950531,35.32647502]}},{"properties":{"name":"Bulls Gap town","city":"Bulls Gap","popestimate2010":738,"% change":-0.0041,"popestimate2011":734,"latitude":36.25704374,"popestimate2012":731,"11-12 change":-3,"county":"Hawkins County","estimatesbase2010":738,"percent change":-0.41,"stname":"Tennessee","census2010pop":738,"longitude":-83.08599649,"id":"aei3owuwz3kd","address":"Bulls Gap, TN"},"type":"Feature","geometry":{"type":"Point","coordinates":[-83.08599649,36.25704374]}},{"properties":{"name":"Centertown town","city":"Centertown","popestimate2010":243,"% change":-0.0041,"popestimate2011":244,"latitude":35.72507426,"popestimate2012":243,"11-12 change":-1,"county":"Warren County","estimatesbase2010":243,"percent change":-0.41,"stname":"Tennessee","census2010pop":243,"longitude":-85.92053733,"id":"aei3owr4qzum","address":"Centertown, TN"},"type":"Feature","geometry":{"type":"Point","coordinates":[-85.92053733,35.72507426]}},{"properties":{"name":"Somerville town","city":"Somerville","popestimate2010":3092,"% change":-0.0041,"popestimate2011":3142,"latitude":35.24370107,"popestimate2012":3129,"11-12 change":-13,"county":"Fayette County","estimatesbase2010":3094,"percent change":-0.41,"stname":"Tennessee","census2010pop":3094,"longitude":-89.35006882,"id":"aei3owwtbmx4","address":"Somerville, TN"},"type":"Feature","geometry":{"type":"Point","coordinates":[-89.35006882,35.24370107]}},{"properties":{"name":"Gordonsville town","city":"Gordonsville","popestimate2010":1211,"% change":-0.0041,"popestimate2011":1206,"latitude":36.17256081,"popestimate2012":1201,"11-12 change":-5,"county":"Smith County","estimatesbase2010":1213,"percent change":-0.41,"stname":"Tennessee","census2010pop":1213,"longitude":-85.92970621,"id":"aei3owudd366","address":"Gordonsville, TN"},"type":"Feature","geometry":{"type":"Point","coordinates":[-85.92970621,36.17256081]}},{"properties":{"name":"Martin city","city":"Martin","popestimate2010":11473,"% change":-0.0042,"popestimate2011":11469,"latitude":36.34339806,"popestimate2012":11421,"11-12 change":-48,"county":"Weakley County","estimatesbase2010":11473,"percent change":-0.42,"stname":"Tennessee","census2010pop":11473,"longitude":-88.85033637,"id":"aei3owyijkkt","address":"Martin, TN"},"type":"Feature","geometry":{"type":"Point","coordinates":[-88.85033637,36.34339806]}},{"properties":{"name":"Morrison town","city":"Morrison","popestimate2010":694,"% change":-0.0043,"popestimate2011":693,"latitude":35.60285549,"popestimate2012":690,"11-12 change":-3,"county":"Warren County","estimatesbase2010":694,"percent change":-0.43,"stname":"Tennessee","census2010pop":694,"longitude":-85.91970211,"id":"aei3owogdvbb","address":"Morrison, TN"},"type":"Feature","geometry":{"type":"Point","coordinates":[-85.91970211,35.60285549]}},{"properties":{"name":"Watauga city","city":"Watauga","popestimate2010":457,"% change":-0.0044,"popestimate2011":455,"latitude":36.3706658,"popestimate2012":453,"11-12 change":-2,"county":"Carter County","estimatesbase2010":458,"percent change":-0.44,"stname":"Tennessee","census2010pop":458,"longitude":-82.29680185,"id":"aei3ox369w46","address":"Watauga, TN"},"type":"Feature","geometry":{"type":"Point","coordinates":[-82.29680185,36.3706658]}},{"properties":{"name":"Greeneville town","city":"Greeneville","popestimate2010":15050,"% change":-0.0046,"popestimate2011":15093,"latitude":36.16315918,"popestimate2012":15024,"11-12 change":-69,"county":"Greene County","estimatesbase2010":15062,"percent change":-0.46,"stname":"Tennessee","census2010pop":15062,"longitude":-82.83098432,"id":"aei3owqh52uh","address":"Greeneville, TN"},"type":"Feature","geometry":{"type":"Point","coordinates":[-82.83098432,36.16315918]}},{"properties":{"name":"Baileyton town","city":"Baileyton","popestimate2010":431,"% change":-0.0046,"popestimate2011":432,"latitude":36.33426726,"popestimate2012":430,"11-12 change":-2,"county":"Greene County","estimatesbase2010":431,"percent change":-0.46,"stname":"Tennessee","census2010pop":431,"longitude":-82.83682247,"id":"aei3owtire73","address":"Baileyton, TN"},"type":"Feature","geometry":{"type":"Point","coordinates":[-82.83682247,36.33426726]}},{"properties":{"name":"Allardt city","city":"Allardt","popestimate2010":633,"% change":-0.0047,"popestimate2011":637,"latitude":36.38090475,"popestimate2012":634,"11-12 change":-3,"county":"Fentress County","estimatesbase2010":634,"percent change":-0.47,"stname":"Tennessee","census2010pop":634,"longitude":-84.88439099,"id":"aei3owwlu9cq","address":"Allardt, TN"},"type":"Feature","geometry":{"type":"Point","coordinates":[-84.88439099,36.38090475]}},{"properties":{"name":"Jamestown city","city":"Jamestown","popestimate2010":1956,"% change":-0.0051,"popestimate2011":1963,"latitude":36.42757468,"popestimate2012":1953,"11-12 change":-10,"county":"Fentress County","estimatesbase2010":1959,"percent change":-0.51,"stname":"Tennessee","census2010pop":1959,"longitude":-84.93188807,"id":"aei3owsf6b0s","address":"Jamestown, TN"},"type":"Feature","geometry":{"type":"Point","coordinates":[-84.93188807,36.42757468]}},{"properties":{"name":"Carthage town","city":"Carthage","popestimate2010":2302,"% change":-0.0052,"popestimate2011":2291,"latitude":36.2522784,"popestimate2012":2279,"11-12 change":-12,"county":"Smith County","estimatesbase2010":2306,"percent change":-0.52,"stname":"Tennessee","census2010pop":2306,"longitude":-85.95165151,"id":"aei3owotnfys","address":"Carthage, TN"},"type":"Feature","geometry":{"type":"Point","coordinates":[-85.95165151,36.2522784]}},{"properties":{"name":"Greenfield city","city":"Greenfield","popestimate2010":2179,"% change":-0.0055,"popestimate2011":2170,"latitude":36.15340055,"popestimate2012":2158,"11-12 change":-12,"county":"Weakley County","estimatesbase2010":2182,"percent change":-0.55,"stname":"Tennessee","census2010pop":2182,"longitude":-88.80061279,"id":"aei3owx6w70t","address":"Greenfield, TN"},"type":"Feature","geometry":{"type":"Point","coordinates":[-88.80061279,36.15340055]}},{"properties":{"name":"Winchester city","city":"Winchester","popestimate2010":8514,"% change":-0.0055,"popestimate2011":8483,"latitude":35.18591764,"popestimate2012":8436,"11-12 change":-47,"county":"Franklin County","estimatesbase2010":8535,"percent change":-0.55,"stname":"Tennessee","census2010pop":8530,"longitude":-86.11220404,"id":"aei3owq4lzwo","address":"Winchester, TN"},"type":"Feature","geometry":{"type":"Point","coordinates":[-86.11220404,35.18591764]}},{"properties":{"name":"Mountain City town","city":"Mountain City","popestimate2010":2535,"% change":-0.0055,"popestimate2011":2526,"latitude":36.47456644,"popestimate2012":2512,"11-12 change":-14,"county":"Johnson County","estimatesbase2010":2531,"percent change":-0.55,"stname":"Tennessee","census2010pop":2531,"longitude":-81.80483375,"id":"aei3owxm9zhf","address":"Mountain City, TN"},"type":"Feature","geometry":{"type":"Point","coordinates":[-81.80483375,36.47456644]}},{"properties":{"name":"Luttrell town","city":"Luttrell","popestimate2010":1072,"% change":-0.0055,"popestimate2011":1082,"latitude":36.19952987,"popestimate2012":1076,"11-12 change":-6,"county":"Union County","estimatesbase2010":1074,"percent change":-0.55,"stname":"Tennessee","census2010pop":1074,"longitude":-83.74184858,"id":"aei3ox2hrorn","address":"Luttrell, TN"},"type":"Feature","geometry":{"type":"Point","coordinates":[-83.74184858,36.19952987]}},{"properties":{"name":"Estill Springs town","city":"Estill Springs","popestimate2010":2049,"% change":-0.0059,"popestimate2011":2037,"latitude":35.27063806,"popestimate2012":2025,"11-12 change":-12,"county":"Franklin County","estimatesbase2010":2055,"percent change":-0.59,"stname":"Tennessee","census2010pop":2055,"longitude":-86.12803865,"id":"aei3ox1ziyc2","address":"Estill Springs, TN"},"type":"Feature","geometry":{"type":"Point","coordinates":[-86.12803865,35.27063806]}},{"properties":{"name":"Gallaway city","city":"Gallaway","popestimate2010":679,"% change":-0.0059,"popestimate2011":675,"latitude":35.32592276,"popestimate2012":671,"11-12 change":-4,"county":"Fayette County","estimatesbase2010":680,"percent change":-0.59,"stname":"Tennessee","census2010pop":680,"longitude":-89.61618846,"id":"aei3owrvv1cv","address":"Gallaway, TN"},"type":"Feature","geometry":{"type":"Point","coordinates":[-89.61618846,35.32592276]}},{"properties":{"name":"Harriman city","city":"Harriman","popestimate2010":6338,"% change":-0.0062,"popestimate2011":6303,"latitude":35.93396554,"popestimate2012":6264,"11-12 change":-39,"county":"Roane County","estimatesbase2010":6350,"percent change":-0.62,"stname":"Tennessee","census2010pop":6350,"longitude":-84.55243271,"id":"aei3owyhgzaj","address":"Harriman, TN"},"type":"Feature","geometry":{"type":"Point","coordinates":[-84.55243271,35.93396554]}},{"properties":{"name":"Cowan city","city":"Cowan","popestimate2010":1734,"% change":-0.0064,"popestimate2011":1723,"latitude":35.16453219,"popestimate2012":1712,"11-12 change":-11,"county":"Franklin County","estimatesbase2010":1737,"percent change":-0.64,"stname":"Tennessee","census2010pop":1737,"longitude":-86.01053756,"id":"aei3owrihbpz","address":"Cowan, TN"},"type":"Feature","geometry":{"type":"Point","coordinates":[-86.01053756,35.16453219]}},{"properties":{"name":"Ardmore city","city":"Ardmore","popestimate2010":1211,"% change":-0.0066,"popestimate2011":1215,"latitude":35.00472493,"popestimate2012":1207,"11-12 change":-8,"county":"Giles County","estimatesbase2010":1213,"percent change":-0.66,"stname":"Tennessee","census2010pop":1213,"longitude":-86.85138444,"id":"aei3oww4yrwb","address":"Ardmore, TN"},"type":"Feature","geometry":{"type":"Point","coordinates":[-86.85138444,35.00472493]}},{"properties":{"name":"Jacksboro town","city":"Jacksboro","popestimate2010":2033,"% change":-0.0069,"popestimate2011":2024,"latitude":36.33008042,"popestimate2012":2010,"11-12 change":-14,"county":"Campbell County","estimatesbase2010":2020,"percent change":-0.69,"stname":"Tennessee","census2010pop":2020,"longitude":-84.18381289,"id":"aei3ox0izeoz","address":"Jacksboro, TN"},"type":"Feature","geometry":{"type":"Point","coordinates":[-84.18381289,36.33008042]}},{"properties":{"name":"Elkton city","city":"Elkton","popestimate2010":576,"% change":-0.007,"popestimate2011":575,"latitude":35.05230729,"popestimate2012":571,"11-12 change":-4,"county":"Giles County","estimatesbase2010":578,"percent change":-0.7,"stname":"Tennessee","census2010pop":578,"longitude":-86.8886109,"id":"aei3owp788el","address":"Elkton, TN"},"type":"Feature","geometry":{"type":"Point","coordinates":[-86.8886109,35.05230729]}},{"properties":{"name":"Milan city","city":"Milan","popestimate2010":7860,"% change":-0.0071,"popestimate2011":7863,"latitude":35.91978913,"popestimate2012":7807,"11-12 change":-56,"county":"Gibson County","estimatesbase2010":7851,"percent change":-0.71,"stname":"Tennessee","census2010pop":7851,"longitude":-88.7589474,"id":"aei3owouh5lz","address":"Milan, TN"},"type":"Feature","geometry":{"type":"Point","coordinates":[-88.7589474,35.91978913]}},{"properties":{"name":"Tiptonville town","city":"Tiptonville","popestimate2010":4460,"% change":-0.0072,"popestimate2011":4441,"latitude":36.37840208,"popestimate2012":4409,"11-12 change":-32,"county":"Lake County","estimatesbase2010":4464,"percent change":-0.72,"stname":"Tennessee","census2010pop":4464,"longitude":-89.4720173,"id":"aei3owr4lcrp","address":"Tiptonville, TN"},"type":"Feature","geometry":{"type":"Point","coordinates":[-89.4720173,36.37840208]}},{"properties":{"name":"Big Sandy town","city":"Big Sandy","popestimate2010":557,"% change":-0.0072,"popestimate2011":555,"latitude":36.23478356,"popestimate2012":551,"11-12 change":-4,"county":"Benton County","estimatesbase2010":557,"percent change":-0.72,"stname":"Tennessee","census2010pop":557,"longitude":-88.08531379,"id":"aei3ox1eqazb","address":"Big Sandy, TN"},"type":"Feature","geometry":{"type":"Point","coordinates":[-88.08531379,36.23478356]}},{"properties":{"name":"Rockwood city","city":"Rockwood","popestimate2010":5552,"% change":-0.0072,"popestimate2011":5534,"latitude":35.865631,"popestimate2012":5494,"11-12 change":-40,"county":"Roane County","estimatesbase2010":5562,"percent change":-0.72,"stname":"Tennessee","census2010pop":5562,"longitude":-84.68493772,"id":"aei3owozmzs5","address":"Rockwood, TN"},"type":"Feature","geometry":{"type":"Point","coordinates":[-84.68493772,35.865631]}},{"properties":{"name":"Jellico city","city":"Jellico","popestimate2010":2353,"% change":-0.0073,"popestimate2011":2337,"latitude":36.58786179,"popestimate2012":2320,"11-12 change":-17,"county":"Campbell County","estimatesbase2010":2358,"percent change":-0.73,"stname":"Tennessee","census2010pop":2355,"longitude":-84.1268734,"id":"aei3owslvktc","address":"Jellico, TN"},"type":"Feature","geometry":{"type":"Point","coordinates":[-84.1268734,36.58786179]}},{"properties":{"name":"Dresden town","city":"Dresden","popestimate2010":3002,"% change":-0.0074,"popestimate2011":2988,"latitude":36.29145421,"popestimate2012":2966,"11-12 change":-22,"county":"Weakley County","estimatesbase2010":3005,"percent change":-0.74,"stname":"Tennessee","census2010pop":3005,"longitude":-88.70811146,"id":"aei3ox43h3im","address":"Dresden, TN"},"type":"Feature","geometry":{"type":"Point","coordinates":[-88.70811146,36.29145421]}},{"properties":{"name":"Byrdstown town","city":"Byrdstown","popestimate2010":801,"% change":-0.0074,"popestimate2011":812,"latitude":36.57451144,"popestimate2012":806,"11-12 change":-6,"county":"Pickett County","estimatesbase2010":802,"percent change":-0.74,"stname":"Tennessee","census2010pop":803,"longitude":-85.12884345,"id":"aei3ox2zvx72","address":"Byrdstown, TN"},"type":"Feature","geometry":{"type":"Point","coordinates":[-85.12884345,36.57451144]}},{"properties":{"name":"Sharon town","city":"Sharon","popestimate2010":943,"% change":-0.0074,"popestimate2011":940,"latitude":36.23340088,"popestimate2012":933,"11-12 change":-7,"county":"Weakley County","estimatesbase2010":944,"percent change":-0.74,"stname":"Tennessee","census2010pop":944,"longitude":-88.82450196,"id":"aei3ox28jqll","address":"Sharon, TN"},"type":"Feature","geometry":{"type":"Point","coordinates":[-88.82450196,36.23340088]}},{"properties":{"name":"Waverly city","city":"Waverly","popestimate2010":4109,"% change":-0.0074,"popestimate2011":4162,"latitude":36.08395025,"popestimate2012":4131,"11-12 change":-31,"county":"Humphreys County","estimatesbase2010":4105,"percent change":-0.74,"stname":"Tennessee","census2010pop":4105,"longitude":-87.79474303,"id":"aei3owysudjj","address":"Waverly, TN"},"type":"Feature","geometry":{"type":"Point","coordinates":[-87.79474303,36.08395025]}},{"properties":{"name":"New Johnsonville city","city":"New Johnsonville","popestimate2010":1961,"% change":-0.0078,"popestimate2011":1929,"latitude":36.02654266,"popestimate2012":1914,"11-12 change":-15,"county":"Humphreys County","estimatesbase2010":1951,"percent change":-0.78,"stname":"Tennessee","census2010pop":1951,"longitude":-87.98392204,"id":"aei3owznjhbm","address":"New Johnsonville, TN"},"type":"Feature","geometry":{"type":"Point","coordinates":[-87.98392204,36.02654266]}},{"properties":{"name":"Kingston city","city":"Kingston","popestimate2010":5960,"% change":-0.0079,"popestimate2011":5924,"latitude":35.88091064,"popestimate2012":5877,"11-12 change":-47,"county":"Roane County","estimatesbase2010":5966,"percent change":-0.79,"stname":"Tennessee","census2010pop":5934,"longitude":-84.50854176,"id":"aei3ows4g26f","address":"Kingston, TN"},"type":"Feature","geometry":{"type":"Point","coordinates":[-84.50854176,35.88091064]}},{"properties":{"name":"Centerville town","city":"Centerville","popestimate2010":3635,"% change":-0.0081,"popestimate2011":3586,"latitude":35.77895995,"popestimate2012":3557,"11-12 change":-29,"county":"Hickman County","estimatesbase2010":3641,"percent change":-0.81,"stname":"Tennessee","census2010pop":3644,"longitude":-87.46695788,"id":"aei3owrdt4nb","address":"Centerville, TN"},"type":"Feature","geometry":{"type":"Point","coordinates":[-87.46695788,35.77895995]}},{"properties":{"name":"McEwen city","city":"McEwen","popestimate2010":1753,"% change":-0.0081,"popestimate2011":1724,"latitude":36.10784103,"popestimate2012":1710,"11-12 change":-14,"county":"Humphreys County","estimatesbase2010":1750,"percent change":-0.81,"stname":"Tennessee","census2010pop":1750,"longitude":-87.6330715,"id":"aei3owy02x6b","address":"McEwen, TN"},"type":"Feature","geometry":{"type":"Point","coordinates":[-87.6330715,36.10784103]}},{"properties":{"name":"Gleason town","city":"Gleason","popestimate2010":1444,"% change":-0.0084,"popestimate2011":1437,"latitude":36.21367313,"popestimate2012":1425,"11-12 change":-12,"county":"Weakley County","estimatesbase2010":1445,"percent change":-0.84,"stname":"Tennessee","census2010pop":1445,"longitude":-88.61254987,"id":"aei3ox00211f","address":"Gleason, TN"},"type":"Feature","geometry":{"type":"Point","coordinates":[-88.61254987,36.21367313]}},{"properties":{"name":"Pulaski city","city":"Pulaski","popestimate2010":7842,"% change":-0.0092,"popestimate2011":7820,"latitude":35.19980296,"popestimate2012":7748,"11-12 change":-72,"county":"Giles County","estimatesbase2010":7870,"percent change":-0.92,"stname":"Tennessee","census2010pop":7870,"longitude":-87.03083942,"id":"aei3owu34ery","address":"Pulaski, TN"},"type":"Feature","geometry":{"type":"Point","coordinates":[-87.03083942,35.19980296]}},{"properties":{"name":"Rives town","city":"Rives","popestimate2010":326,"% change":-0.0092,"popestimate2011":325,"latitude":36.35562115,"popestimate2012":322,"11-12 change":-3,"county":"Obion County","estimatesbase2010":326,"percent change":-0.92,"stname":"Tennessee","census2010pop":326,"longitude":-89.04812075,"id":"aei3ox0s15r8","address":"Rives, TN"},"type":"Feature","geometry":{"type":"Point","coordinates":[-89.04812075,36.35562115]}},{"properties":{"name":"Huntland town","city":"Huntland","popestimate2010":870,"% change":-0.0093,"popestimate2011":863,"latitude":35.05119912,"popestimate2012":855,"11-12 change":-8,"county":"Franklin County","estimatesbase2010":872,"percent change":-0.93,"stname":"Tennessee","census2010pop":872,"longitude":-86.26970595,"id":"aei3ox4fjvmr","address":"Huntland, TN"},"type":"Feature","geometry":{"type":"Point","coordinates":[-86.26970595,35.05119912]}},{"properties":{"name":"Minor Hill city","city":"Minor Hill","popestimate2010":535,"% change":-0.0093,"popestimate2011":535,"latitude":35.05536143,"popestimate2012":530,"11-12 change":-5,"county":"Giles County","estimatesbase2010":537,"percent change":-0.93,"stname":"Tennessee","census2010pop":537,"longitude":-87.15750863,"id":"aei3owuu9lav","address":"Minor Hill, TN"},"type":"Feature","geometry":{"type":"Point","coordinates":[-87.15750863,35.05536143]}},{"properties":{"name":"Hornbeak town","city":"Hornbeak","popestimate2010":424,"% change":-0.0095,"popestimate2011":423,"latitude":36.33118115,"popestimate2012":419,"11-12 change":-4,"county":"Obion County","estimatesbase2010":424,"percent change":-0.95,"stname":"Tennessee","census2010pop":424,"longitude":-89.29645692,"id":"aei3owq10df0","address":"Hornbeak, TN"},"type":"Feature","geometry":{"type":"Point","coordinates":[-89.29645692,36.33118115]}},{"properties":{"name":"Maynardville city","city":"Maynardville","popestimate2010":2414,"% change":-0.0095,"popestimate2011":2413,"latitude":36.2506412,"popestimate2012":2390,"11-12 change":-23,"county":"Union County","estimatesbase2010":2413,"percent change":-0.95,"stname":"Tennessee","census2010pop":2413,"longitude":-83.79740782,"id":"aei3owowya4r","address":"Maynardville, TN"},"type":"Feature","geometry":{"type":"Point","coordinates":[-83.79740782,36.2506412]}},{"properties":{"name":"Bradford town","city":"Bradford","popestimate2010":1047,"% change":-0.0096,"popestimate2011":1044,"latitude":36.07645828,"popestimate2012":1034,"11-12 change":-10,"county":"Gibson County","estimatesbase2010":1048,"percent change":-0.96,"stname":"Tennessee","census2010pop":1048,"longitude":-88.81006041,"id":"aei3owsucdt2","address":"Bradford, TN"},"type":"Feature","geometry":{"type":"Point","coordinates":[-88.81006041,36.07645828]}},{"properties":{"name":"New Tazewell town","city":"New Tazewell","popestimate2010":3029,"% change":-0.0096,"popestimate2011":3017,"latitude":36.44258547,"popestimate2012":2988,"11-12 change":-29,"county":"Claiborne County","estimatesbase2010":3026,"percent change":-0.96,"stname":"Tennessee","census2010pop":3037,"longitude":-83.59962822,"id":"aei3ox24nrta","address":"New Tazewell, TN"},"type":"Feature","geometry":{"type":"Point","coordinates":[-83.59962822,36.44258547]}},{"properties":{"name":"La Follette city","city":"La Follette","popestimate2010":7439,"% change":-0.0098,"popestimate2011":7373,"latitude":36.38288631,"popestimate2012":7301,"11-12 change":-72,"county":"Campbell County","estimatesbase2010":7456,"percent change":-0.98,"stname":"Tennessee","census2010pop":7456,"longitude":-84.11994328,"id":"aei3owqfhqq6","address":"La Follette, TN"},"type":"Feature","geometry":{"type":"Point","coordinates":[-84.11994328,36.38288631]}},{"properties":{"name":"Harrogate city","city":"Harrogate","popestimate2010":4390,"% change":-0.0098,"popestimate2011":4371,"latitude":36.58230897,"popestimate2012":4328,"11-12 change":-43,"county":"Claiborne County","estimatesbase2010":4389,"percent change":-0.98,"stname":"Tennessee","census2010pop":4389,"longitude":-83.65685708,"id":"aei3owpy2tsy","address":"Harrogate, TN"},"type":"Feature","geometry":{"type":"Point","coordinates":[-83.65685708,36.58230897]}},{"properties":{"name":"Dyer city","city":"Dyer","popestimate2010":2339,"% change":-0.0099,"popestimate2011":2333,"latitude":36.06673756,"popestimate2012":2310,"11-12 change":-23,"county":"Gibson County","estimatesbase2010":2341,"percent change":-0.99,"stname":"Tennessee","census2010pop":2341,"longitude":-88.99395007,"id":"aei3owzx7q4i","address":"Dyer, TN"},"type":"Feature","geometry":{"type":"Point","coordinates":[-88.99395007,36.06673756]}},{"properties":{"name":"Tazewell town","city":"Tazewell","popestimate2010":2226,"% change":-0.0099,"popestimate2011":2217,"latitude":36.45425487,"popestimate2012":2195,"11-12 change":-22,"county":"Claiborne County","estimatesbase2010":2223,"percent change":-0.99,"stname":"Tennessee","census2010pop":2218,"longitude":-83.56934848,"id":"aei3ox1v4ju6","address":"Tazewell, TN"},"type":"Feature","geometry":{"type":"Point","coordinates":[-83.56934848,36.45425487]}},{"properties":{"name":"Saulsbury town","city":"Saulsbury","popestimate2010":101,"% change":-0.0101,"popestimate2011":99,"latitude":35.04703812,"popestimate2012":98,"11-12 change":-1,"county":"Hardeman County","estimatesbase2010":101,"percent change":-1.01,"stname":"Tennessee","census2010pop":81,"longitude":-89.08783836,"id":"aei3ox4hw8m3","address":"Saulsbury, TN"},"type":"Feature","geometry":{"type":"Point","coordinates":[-89.08783836,35.04703812]}},{"properties":{"name":"Hornsby town","city":"Hornsby","popestimate2010":299,"% change":-0.0102,"popestimate2011":294,"latitude":35.22758315,"popestimate2012":291,"11-12 change":-3,"county":"Hardeman County","estimatesbase2010":300,"percent change":-1.02,"stname":"Tennessee","census2010pop":303,"longitude":-88.82949722,"id":"aei3ox4pjih7","address":"Hornsby, TN"},"type":"Feature","geometry":{"type":"Point","coordinates":[-88.82949722,35.22758315]}},{"properties":{"name":"Hickory Valley town","city":"Hickory Valley","popestimate2010":99,"% change":-0.0103,"popestimate2011":97,"latitude":35.1536986,"popestimate2012":96,"11-12 change":-1,"county":"Hardeman County","estimatesbase2010":99,"percent change":-1.03,"stname":"Tennessee","census2010pop":99,"longitude":-89.12784265,"id":"aei3ox0241xe","address":"Hickory Valley, TN"},"type":"Feature","geometry":{"type":"Point","coordinates":[-89.12784265,35.1536986]}},{"properties":{"name":"Trenton city","city":"Trenton","popestimate2010":4263,"% change":-0.0103,"popestimate2011":4256,"latitude":35.98062648,"popestimate2012":4212,"11-12 change":-44,"county":"Gibson County","estimatesbase2010":4264,"percent change":-1.03,"stname":"Tennessee","census2010pop":4264,"longitude":-88.94145203,"id":"aei3ox4nf0lc","address":"Trenton, TN"},"type":"Feature","geometry":{"type":"Point","coordinates":[-88.94145203,35.98062648]}},{"properties":{"name":"Lynnville town","city":"Lynnville","popestimate2010":286,"% change":-0.0105,"popestimate2011":286,"latitude":35.3767448,"popestimate2012":283,"11-12 change":-3,"county":"Giles County","estimatesbase2010":287,"percent change":-1.05,"stname":"Tennessee","census2010pop":287,"longitude":-87.00611461,"id":"aei3ox3m6d5c","address":"Lynnville, TN"},"type":"Feature","geometry":{"type":"Point","coordinates":[-87.00611461,35.3767448]}},{"properties":{"name":"Yorkville city","city":"Yorkville","popestimate2010":286,"% change":-0.0105,"popestimate2011":286,"latitude":36.09951712,"popestimate2012":283,"11-12 change":-3,"county":"Gibson County","estimatesbase2010":286,"percent change":-1.05,"stname":"Tennessee","census2010pop":286,"longitude":-89.11895487,"id":"aei3owvjz683","address":"Yorkville, TN"},"type":"Feature","geometry":{"type":"Point","coordinates":[-89.11895487,36.09951712]}},{"properties":{"name":"Woodland Mills city","city":"Woodland Mills","popestimate2010":378,"% change":-0.0106,"popestimate2011":377,"latitude":36.4883992,"popestimate2012":373,"11-12 change":-4,"county":"Obion County","estimatesbase2010":378,"percent change":-1.06,"stname":"Tennessee","census2010pop":378,"longitude":-89.11506152,"id":"aei3owonfnlc","address":"Woodland Mills, TN"},"type":"Feature","geometry":{"type":"Point","coordinates":[-89.11506152,36.4883992]}},{"properties":{"name":"Ducktown city","city":"Ducktown","popestimate2010":474,"% change":-0.0106,"popestimate2011":470,"latitude":35.03591739,"popestimate2012":465,"11-12 change":-5,"county":"Polk County","estimatesbase2010":475,"percent change":-1.06,"stname":"Tennessee","census2010pop":475,"longitude":-84.38269703,"id":"aei3owzgl0dv","address":"Ducktown, TN"},"type":"Feature","geometry":{"type":"Point","coordinates":[-84.38269703,35.03591739]}},{"properties":{"name":"Union City city","city":"Union City","popestimate2010":10914,"% change":-0.0106,"popestimate2011":10898,"latitude":36.42423403,"popestimate2012":10782,"11-12 change":-116,"county":"Obion County","estimatesbase2010":10915,"percent change":-1.06,"stname":"Tennessee","census2010pop":10895,"longitude":-89.05700685,"id":"aei3ox0x3byh","address":"Union City, TN"},"type":"Feature","geometry":{"type":"Point","coordinates":[-89.05700685,36.42423403]}},{"properties":{"name":"Toone town","city":"Toone","popestimate2010":362,"% change":-0.0112,"popestimate2011":358,"latitude":35.3523039,"popestimate2012":354,"11-12 change":-4,"county":"Hardeman County","estimatesbase2010":364,"percent change":-1.12,"stname":"Tennessee","census2010pop":364,"longitude":-88.95255753,"id":"aei3owqwjymt","address":"Toone, TN"},"type":"Feature","geometry":{"type":"Point","coordinates":[-88.95255753,35.3523039]}},{"properties":{"name":"Plainview city","city":"Plainview","popestimate2010":2121,"% change":-0.0113,"popestimate2011":2125,"latitude":36.17639065,"popestimate2012":2101,"11-12 change":-24,"county":"Union County","estimatesbase2010":2125,"percent change":-1.13,"stname":"Tennessee","census2010pop":2125,"longitude":-83.79611038,"id":"aei3ox22o9it","address":"Plainview, TN"},"type":"Feature","geometry":{"type":"Point","coordinates":[-83.79611038,36.17639065]}},{"properties":{"name":"Rutherford town","city":"Rutherford","popestimate2010":1150,"% change":-0.0113,"popestimate2011":1147,"latitude":36.1275674,"popestimate2012":1134,"11-12 change":-13,"county":"Gibson County","estimatesbase2010":1151,"percent change":-1.13,"stname":"Tennessee","census2010pop":1151,"longitude":-88.98589522,"id":"aei3ox2ytthx","address":"Rutherford, TN"},"type":"Feature","geometry":{"type":"Point","coordinates":[-88.98589522,36.1275674]}},{"properties":{"name":"Copperhill city","city":"Copperhill","popestimate2010":353,"% change":-0.0115,"popestimate2011":347,"latitude":34.98897213,"popestimate2012":343,"11-12 change":-4,"county":"Polk County","estimatesbase2010":354,"percent change":-1.15,"stname":"Tennessee","census2010pop":354,"longitude":-84.37075535,"id":"aei3owqiic4j","address":"Copperhill, TN"},"type":"Feature","geometry":{"type":"Point","coordinates":[-84.37075535,34.98897213]}},{"properties":{"name":"Obion town","city":"Obion","popestimate2010":1119,"% change":-0.0117,"popestimate2011":1112,"latitude":36.25895696,"popestimate2012":1099,"11-12 change":-13,"county":"Obion County","estimatesbase2010":1119,"percent change":-1.17,"stname":"Tennessee","census2010pop":1119,"longitude":-89.19173058,"id":"aei3owxulfoh","address":"Obion, TN"},"type":"Feature","geometry":{"type":"Point","coordinates":[-89.19173058,36.25895696]}},{"properties":{"name":"Troy town","city":"Troy","popestimate2010":1371,"% change":-0.0117,"popestimate2011":1365,"latitude":36.33867885,"popestimate2012":1349,"11-12 change":-16,"county":"Obion County","estimatesbase2010":1371,"percent change":-1.17,"stname":"Tennessee","census2010pop":1371,"longitude":-89.1639528,"id":"aei3owrp7id9","address":"Troy, TN"},"type":"Feature","geometry":{"type":"Point","coordinates":[-89.1639528,36.33867885]}},{"properties":{"name":"Cumberland Gap town","city":"Cumberland Gap","popestimate2010":494,"% change":-0.0122,"popestimate2011":490,"latitude":36.59952827,"popestimate2012":484,"11-12 change":-6,"county":"Claiborne County","estimatesbase2010":494,"percent change":-1.22,"stname":"Tennessee","census2010pop":494,"longitude":-83.66852464,"id":"aei3owttlvby","address":"Cumberland Gap, TN"},"type":"Feature","geometry":{"type":"Point","coordinates":[-83.66852464,36.59952827]}},{"properties":{"name":"Lynchburg, Moore County metropolitan government","city":"Lynchburg","popestimate2010":6354,"% change":-0.0123,"popestimate2011":6418,"latitude":35.28313594,"popestimate2012":6339,"11-12 change":-79,"county":"Moore County","estimatesbase2010":6362,"percent change":-1.23,"stname":"Tennessee","census2010pop":6362,"longitude":-86.37415511,"id":"aei3owv2uwlt","address":"Lynchburg, TN"},"type":"Feature","geometry":{"type":"Point","coordinates":[-86.37415511,35.28313594]}},{"properties":{"name":"South Fulton city","city":"South Fulton","popestimate2010":2352,"% change":-0.0124,"popestimate2011":2340,"latitude":36.50089512,"popestimate2012":2311,"11-12 change":-29,"county":"Obion County","estimatesbase2010":2354,"percent change":-1.24,"stname":"Tennessee","census2010pop":2354,"longitude":-88.8753337,"id":"aei3owoh8mes","address":"South Fulton, TN"},"type":"Feature","geometry":{"type":"Point","coordinates":[-88.8753337,36.50089512]}},{"properties":{"name":"Grand Junction city","city":"Grand Junction","popestimate2010":323,"% change":-0.0125,"popestimate2011":319,"latitude":35.04898117,"popestimate2012":315,"11-12 change":-4,"county":"Hardeman County, Fayette County","estimatesbase2010":325,"percent change":-1.25,"stname":"Tennessee","census2010pop":325,"longitude":-89.18700789,"id":"aei3owt7d7wu","address":"Grand Junction, TN"},"type":"Feature","geometry":{"type":"Point","coordinates":[-89.18700789,35.04898117]}},{"properties":{"name":"Kenton town","city":"Kenton","popestimate2010":1280,"% change":-0.0133,"popestimate2011":1275,"latitude":36.2022902,"popestimate2012":1258,"11-12 change":-17,"county":"Gibson County, Obion County","estimatesbase2010":1281,"percent change":-1.33,"stname":"Tennessee","census2010pop":1281,"longitude":-89.01228585,"id":"aei3ox1dazxk","address":"Kenton, TN"},"type":"Feature","geometry":{"type":"Point","coordinates":[-89.01228585,36.2022902]}},{"properties":{"name":"Samburg town","city":"Samburg","popestimate2010":217,"% change":-0.0138,"popestimate2011":217,"latitude":36.3809003,"popestimate2012":214,"11-12 change":-3,"county":"Obion County","estimatesbase2010":217,"percent change":-1.38,"stname":"Tennessee","census2010pop":217,"longitude":-89.3547912,"id":"aei3owr4k1vh","address":"Samburg, TN"},"type":"Feature","geometry":{"type":"Point","coordinates":[-89.3547912,36.3809003]}},{"properties":{"name":"Bolivar city","city":"Bolivar","popestimate2010":5408,"% change":-0.014,"popestimate2011":5350,"latitude":35.25619576,"popestimate2012":5275,"11-12 change":-75,"county":"Hardeman County","estimatesbase2010":5434,"percent change":-1.4,"stname":"Tennessee","census2010pop":5417,"longitude":-88.98783833,"id":"aei3ox48mjao","address":"Bolivar, TN"},"type":"Feature","geometry":{"type":"Point","coordinates":[-88.98783833,35.25619576]}},{"properties":{"name":"Ridgely town","city":"Ridgely","popestimate2010":1792,"% change":-0.0141,"popestimate2011":1773,"latitude":36.26340452,"popestimate2012":1748,"11-12 change":-25,"county":"Lake County","estimatesbase2010":1795,"percent change":-1.41,"stname":"Tennessee","census2010pop":1795,"longitude":-89.48785135,"id":"aei3owu7iupq","address":"Ridgely, TN"},"type":"Feature","geometry":{"type":"Point","coordinates":[-89.48785135,36.26340452]}},{"properties":{"name":"Gibson town","city":"Gibson","popestimate2010":395,"% change":-0.0153,"popestimate2011":393,"latitude":35.87534739,"popestimate2012":387,"11-12 change":-6,"county":"Gibson County","estimatesbase2010":396,"percent change":-1.53,"stname":"Tennessee","census2010pop":396,"longitude":-88.84672784,"id":"aei3owzx81xt","address":"Gibson, TN"},"type":"Feature","geometry":{"type":"Point","coordinates":[-88.84672784,35.87534739]}},{"properties":{"name":"Benton town","city":"Benton","popestimate2010":1382,"% change":-0.0154,"popestimate2011":1364,"latitude":35.17424317,"popestimate2012":1343,"11-12 change":-21,"county":"Polk County","estimatesbase2010":1385,"percent change":-1.54,"stname":"Tennessee","census2010pop":1385,"longitude":-84.65354577,"id":"aei3owu4rdkq","address":"Benton, TN"},"type":"Feature","geometry":{"type":"Point","coordinates":[-84.65354577,35.17424317]}},{"properties":{"name":"Stanton town","city":"Stanton","popestimate2010":450,"% change":-0.0157,"popestimate2011":445,"latitude":35.46230457,"popestimate2012":438,"11-12 change":-7,"county":"Haywood County","estimatesbase2010":452,"percent change":-1.57,"stname":"Tennessee","census2010pop":452,"longitude":-89.40201204,"id":"aei3ox03tznb","address":"Stanton, TN"},"type":"Feature","geometry":{"type":"Point","coordinates":[-89.40201204,35.46230457]}},{"properties":{"name":"Brownsville city","city":"Brownsville","popestimate2010":10279,"% change":-0.0161,"popestimate2011":10146,"latitude":35.59397038,"popestimate2012":9983,"11-12 change":-163,"county":"Haywood County","estimatesbase2010":10292,"percent change":-1.61,"stname":"Tennessee","census2010pop":10292,"longitude":-89.26229021,"id":"aei3owvwhkye","address":"Brownsville, TN"},"type":"Feature","geometry":{"type":"Point","coordinates":[-89.26229021,35.59397038]}},{"properties":{"name":"Middleton city","city":"Middleton","popestimate2010":702,"% change":-0.0171,"popestimate2011":702,"latitude":35.06453391,"popestimate2012":690,"11-12 change":-12,"county":"Hardeman County","estimatesbase2010":706,"percent change":-1.71,"stname":"Tennessee","census2010pop":706,"longitude":-88.89089167,"id":"aei3owtdm8im","address":"Middleton, TN"},"type":"Feature","geometry":{"type":"Point","coordinates":[-88.89089167,35.06453391]}},{"properties":{"name":"Silerton town","city":"Silerton","popestimate2010":110,"% change":-0.0183,"popestimate2011":109,"latitude":35.34035886,"popestimate2012":107,"11-12 change":-2,"county":"Hardeman County, Chester County","estimatesbase2010":111,"percent change":-1.83,"stname":"Tennessee","census2010pop":111,"longitude":-88.80616586,"id":"aei3ox2l681b","address":"Silerton, TN"},"type":"Feature","geometry":{"type":"Point","coordinates":[-88.80616586,35.34035886]}},{"properties":{"name":"Hohenwald city","city":"Hohenwald","popestimate2010":3752,"% change":-0.0189,"popestimate2011":3753,"latitude":35.54785169,"popestimate2012":3682,"11-12 change":-71,"county":"Lewis County","estimatesbase2010":3757,"percent change":-1.89,"stname":"Tennessee","census2010pop":3757,"longitude":-87.55196202,"id":"aei3owx8pu6g","address":"Hohenwald, TN"},"type":"Feature","geometry":{"type":"Point","coordinates":[-87.55196202,35.54785169]}}],"is_temporal":false,"author":{"url":"http://www.census.gov","metadata":"","contact_name":"","contact_address":"","source":"U.S. Census Bureau","contact_phone":""},"source":"http://www.census.gov","pagination":{"sort":null,"start":0,"total":345,"limit":1000000},"state":"complete","tags":"","published":"2014-08-16T13:11:07-04:00","id":360133}