{"type":"FeatureCollection","data_type":"Dataset","url_type":null,"permissions":[{"permissions":{"download":true,"view":true},"group_id":"everyone"}],"classification":null,"title":"paobese","count":67,"stream_id":360135,"contributor":{"url":"http://geocommons.com/users/22098","name":"brent.dupay"},"data_attributes":null,"calculation_params":null,"icon_link":null,"link":"http://geocommons.com/overlays/360135.json","extent":[0.0,0.0,0.0,0.0],"geometry_types":null,"unique_name":null,"name":"paobese","feature_count":67,"description":"","next_feature":null,"is_raster":false,"short_classification":"Y","features":[{"properties":{"county2":"Cambria Pennsylvania","county":"Cambria County, Pennsylvania","yr2009":"36.4","change":"11.3","fips code":"42021","id":"aei3smf2kut7","yr2004":"25.1","state":"Pennsylvania"},"type":"Feature","geometry":null},{"properties":{"county2":"Columbia Pennsylvania","county":"Columbia County, Pennsylvania","yr2009":"35.6","change":"9.5","fips code":"42037","id":"aei3smiul2e7","yr2004":"26.1","state":"Pennsylvania"},"type":"Feature","geometry":null},{"properties":{"county2":"Fayette Pennsylvania","county":"Fayette County, Pennsylvania","yr2009":"35.3","change":"4.7","fips code":"42051","id":"aei3sms9cgoe","yr2004":"30.6","state":"Pennsylvania"},"type":"Feature","geometry":null},{"properties":{"county2":"Armstrong Pennsylvania","county":"Armstrong County, Pennsylvania","yr2009":"34.2","change":"6.8","fips code":"42005","id":"aei3smk9d0ek","yr2004":"27.4","state":"Pennsylvania"},"type":"Feature","geometry":null},{"properties":{"county2":"Bradford Pennsylvania","county":"Bradford County, Pennsylvania","yr2009":"34.1","change":"7.6","fips code":"42015","id":"aei3smt1xuht","yr2004":"26.5","state":"Pennsylvania"},"type":"Feature","geometry":null},{"properties":{"county2":"Sullivan Pennsylvania","county":"Sullivan County, Pennsylvania","yr2009":"33.6","change":"6.6","fips code":"42113","id":"aei3smrfyipq","yr2004":"27","state":"Pennsylvania"},"type":"Feature","geometry":null},{"properties":{"county2":"Clarion Pennsylvania","county":"Clarion County, Pennsylvania","yr2009":"32.4","change":"7.4","fips code":"42031","id":"aei3smnsoukn","yr2004":"25","state":"Pennsylvania"},"type":"Feature","geometry":null},{"properties":{"county2":"Blair Pennsylvania","county":"Blair County, Pennsylvania","yr2009":"32.2","change":"6.9","fips code":"42013","id":"aei3smgao8bi","yr2004":"25.3","state":"Pennsylvania"},"type":"Feature","geometry":null},{"properties":{"county2":"Mckean Pennsylvania","county":"Mckean County, Pennsylvania","yr2009":"32.2","change":"6.1","fips code":"42083","id":"aei3smqd29ue","yr2004":"26.1","state":"Pennsylvania"},"type":"Feature","geometry":null},{"properties":{"county2":"Dauphin Pennsylvania","county":"Dauphin County, Pennsylvania","yr2009":"32.2","change":"6","fips code":"42043","id":"aei3smmt09tb","yr2004":"26.2","state":"Pennsylvania"},"type":"Feature","geometry":null},{"properties":{"county2":"Schuylkill Pennsylvania","county":"Schuylkill County, Pennsylvania","yr2009":"32","change":"8.8","fips code":"42107","id":"aei3smptg938","yr2004":"23.2","state":"Pennsylvania"},"type":"Feature","geometry":null},{"properties":{"county2":"York Pennsylvania","county":"York County, Pennsylvania","yr2009":"31.9","change":"6.5","fips code":"42133","id":"aei3smnqi9df","yr2004":"25.4","state":"Pennsylvania"},"type":"Feature","geometry":null},{"properties":{"county2":"Clinton Pennsylvania","county":"Clinton County, Pennsylvania","yr2009":"31.9","change":"5.2","fips code":"42035","id":"aei3sms92gox","yr2004":"26.7","state":"Pennsylvania"},"type":"Feature","geometry":null},{"properties":{"county2":"Northumberland Pennsylvania","county":"Northumberland County, Pennsylvania","yr2009":"31.9","change":"3.2","fips code":"42097","id":"aei3smru6ijh","yr2004":"28.7","state":"Pennsylvania"},"type":"Feature","geometry":null},{"properties":{"county2":"Venango Pennsylvania","county":"Venango County, Pennsylvania","yr2009":"31.8","change":"8.7","fips code":"42121","id":"aei3smou09l5","yr2004":"23.1","state":"Pennsylvania"},"type":"Feature","geometry":null},{"properties":{"county2":"Perry Pennsylvania","county":"Perry County, Pennsylvania","yr2009":"31.8","change":"4.4","fips code":"42099","id":"aei3sms6ml81","yr2004":"27.4","state":"Pennsylvania"},"type":"Feature","geometry":null},{"properties":{"county2":"Elk Pennsylvania","county":"Elk County, Pennsylvania","yr2009":"31.7","change":"5.1","fips code":"42047","id":"aei3smovr7vs","yr2004":"26.6","state":"Pennsylvania"},"type":"Feature","geometry":null},{"properties":{"county2":"Tioga Pennsylvania","county":"Tioga County, Pennsylvania","yr2009":"31.7","change":"4.2","fips code":"42117","id":"aei3smnaa6bu","yr2004":"27.5","state":"Pennsylvania"},"type":"Feature","geometry":null},{"properties":{"county2":"Forest Pennsylvania","county":"Forest County, Pennsylvania","yr2009":"31.6","change":"5","fips code":"42053","id":"aei3smfpkz8q","yr2004":"26.6","state":"Pennsylvania"},"type":"Feature","geometry":null},{"properties":{"county2":"Somerset Pennsylvania","county":"Somerset County, Pennsylvania","yr2009":"31.6","change":"4.7","fips code":"42111","id":"aei3smjtosdj","yr2004":"26.9","state":"Pennsylvania"},"type":"Feature","geometry":null},{"properties":{"county2":"Snyder Pennsylvania","county":"Snyder County, Pennsylvania","yr2009":"31.5","change":"6.1","fips code":"42109","id":"aei3smr5behz","yr2004":"25.4","state":"Pennsylvania"},"type":"Feature","geometry":null},{"properties":{"county2":"Philadelphia Pennsylvania","county":"Philadelphia County, Pennsylvania","yr2009":"31.5","change":"4.4","fips code":"42101","id":"aei3smklorh9","yr2004":"27.1","state":"Pennsylvania"},"type":"Feature","geometry":null},{"properties":{"county2":"Pike Pennsylvania","county":"Pike County, Pennsylvania","yr2009":"31.3","change":"7.4","fips code":"42103","id":"aei3smqetav2","yr2004":"23.9","state":"Pennsylvania"},"type":"Feature","geometry":null},{"properties":{"county2":"Beaver Pennsylvania","county":"Beaver County, Pennsylvania","yr2009":"31.3","change":"6.3","fips code":"42007","id":"aei3sms5capl","yr2004":"25","state":"Pennsylvania"},"type":"Feature","geometry":null},{"properties":{"county2":"Franklin Pennsylvania","county":"Franklin County, Pennsylvania","yr2009":"31.3","change":"5","fips code":"42055","id":"aei3smsvbh67","yr2004":"26.3","state":"Pennsylvania"},"type":"Feature","geometry":null},{"properties":{"county2":"Lebanon Pennsylvania","county":"Lebanon County, Pennsylvania","yr2009":"31","change":"4.7","fips code":"42075","id":"aei3smhck8i2","yr2004":"26.3","state":"Pennsylvania"},"type":"Feature","geometry":null},{"properties":{"county2":"Potter Pennsylvania","county":"Potter County, Pennsylvania","yr2009":"30.8","change":"5.4","fips code":"42105","id":"aei3sml2os8b","yr2004":"25.4","state":"Pennsylvania"},"type":"Feature","geometry":null},{"properties":{"county2":"Wyoming Pennsylvania","county":"Wyoming County, Pennsylvania","yr2009":"30.7","change":"4.7","fips code":"42131","id":"aei3smm58q9a","yr2004":"26","state":"Pennsylvania"},"type":"Feature","geometry":null},{"properties":{"county2":"Juniata Pennsylvania","county":"Juniata County, Pennsylvania","yr2009":"30.7","change":"4.2","fips code":"42067","id":"aei3smluov7a","yr2004":"26.5","state":"Pennsylvania"},"type":"Feature","geometry":null},{"properties":{"county2":"Mifflin Pennsylvania","county":"Mifflin County, Pennsylvania","yr2009":"30.7","change":"3.5","fips code":"42087","id":"aei3smgyrc7m","yr2004":"27.2","state":"Pennsylvania"},"type":"Feature","geometry":null},{"properties":{"county2":"Huntingdon Pennsylvania","county":"Huntingdon County, Pennsylvania","yr2009":"30.7","change":"1.8","fips code":"42061","id":"aei3smguc36x","yr2004":"28.9","state":"Pennsylvania"},"type":"Feature","geometry":null},{"properties":{"county2":"Lycoming Pennsylvania","county":"Lycoming County, Pennsylvania","yr2009":"30.5","change":"4.2","fips code":"42081","id":"aei3smdlnvb4","yr2004":"26.3","state":"Pennsylvania"},"type":"Feature","geometry":null},{"properties":{"county2":"Union Pennsylvania","county":"Union County, Pennsylvania","yr2009":"30.2","change":"2.2","fips code":"42119","id":"aei3smo63rqz","yr2004":"28","state":"Pennsylvania"},"type":"Feature","geometry":null},{"properties":{"county2":"Mercer Pennsylvania","county":"Mercer County, Pennsylvania","yr2009":"30.1","change":"2.7","fips code":"42085","id":"aei3smmcjopt","yr2004":"27.4","state":"Pennsylvania"},"type":"Feature","geometry":null},{"properties":{"county2":"Carbon Pennsylvania","county":"Carbon County, Pennsylvania","yr2009":"30","change":"5.3","fips code":"42025","id":"aei3smh7gse9","yr2004":"24.7","state":"Pennsylvania"},"type":"Feature","geometry":null},{"properties":{"county2":"Northampton Pennsylvania","county":"Northampton County, Pennsylvania","yr2009":"30","change":"4.6","fips code":"42095","id":"aei3smkezwub","yr2004":"25.4","state":"Pennsylvania"},"type":"Feature","geometry":null},{"properties":{"county2":"Fulton Pennsylvania","county":"Fulton County, Pennsylvania","yr2009":"29.9","change":"5.7","fips code":"42057","id":"aei3smjuzjfw","yr2004":"24.2","state":"Pennsylvania"},"type":"Feature","geometry":null},{"properties":{"county2":"Luzerne Pennsylvania","county":"Luzerne County, Pennsylvania","yr2009":"29.9","change":"4.6","fips code":"42079","id":"aei3smfeb9k2","yr2004":"25.3","state":"Pennsylvania"},"type":"Feature","geometry":null},{"properties":{"county2":"Bedford Pennsylvania","county":"Bedford County, Pennsylvania","yr2009":"29.7","change":"2.7","fips code":"42009","id":"aei3smj7a6p3","yr2004":"27","state":"Pennsylvania"},"type":"Feature","geometry":null},{"properties":{"county2":"Jefferson Pennsylvania","county":"Jefferson County, Pennsylvania","yr2009":"29.7","change":"1.9","fips code":"42065","id":"aei3smsf16s8","yr2004":"27.8","state":"Pennsylvania"},"type":"Feature","geometry":null},{"properties":{"county2":"Lancaster Pennsylvania","county":"Lancaster County, Pennsylvania","yr2009":"29.6","change":"5.4","fips code":"42071","id":"aei3smmj5dtd","yr2004":"24.2","state":"Pennsylvania"},"type":"Feature","geometry":null},{"properties":{"county2":"Lawrence Pennsylvania","county":"Lawrence County, Pennsylvania","yr2009":"29.6","change":"4.7","fips code":"42073","id":"aei3smd60rxy","yr2004":"24.9","state":"Pennsylvania"},"type":"Feature","geometry":null},{"properties":{"county2":"Monroe Pennsylvania","county":"Monroe County, Pennsylvania","yr2009":"29.6","change":"3.7","fips code":"42089","id":"aei3smg2trh6","yr2004":"25.9","state":"Pennsylvania"},"type":"Feature","geometry":null},{"properties":{"county2":"Montour Pennsylvania","county":"Montour County, Pennsylvania","yr2009":"29.5","change":"2.8","fips code":"42093","id":"aei3smij7026","yr2004":"26.7","state":"Pennsylvania"},"type":"Feature","geometry":null},{"properties":{"county2":"Indiana Pennsylvania","county":"Indiana County, Pennsylvania","yr2009":"29.4","change":"6.6","fips code":"42063","id":"aei3smntixqd","yr2004":"22.8","state":"Pennsylvania"},"type":"Feature","geometry":null},{"properties":{"county2":"Erie Pennsylvania","county":"Erie County, Pennsylvania","yr2009":"29.4","change":"4.8","fips code":"42049","id":"aei3smsfo8j8","yr2004":"24.6","state":"Pennsylvania"},"type":"Feature","geometry":null},{"properties":{"county2":"Washington Pennsylvania","county":"Washington County, Pennsylvania","yr2009":"29.3","change":"1.1","fips code":"42125","id":"aei3smliwca6","yr2004":"28.2","state":"Pennsylvania"},"type":"Feature","geometry":null},{"properties":{"county2":"Berks Pennsylvania","county":"Berks County, Pennsylvania","yr2009":"29.2","change":"3.6","fips code":"42011","id":"aei3sml19p2t","yr2004":"25.6","state":"Pennsylvania"},"type":"Feature","geometry":null},{"properties":{"county2":"Clearfield Pennsylvania","county":"Clearfield County, Pennsylvania","yr2009":"29.2","change":"0.6","fips code":"42033","id":"aei3smlw5t8g","yr2004":"28.6","state":"Pennsylvania"},"type":"Feature","geometry":null},{"properties":{"county2":"Cameron Pennsylvania","county":"Cameron County, Pennsylvania","yr2009":"29.1","change":"1.3","fips code":"42023","id":"aei3smh6htev","yr2004":"27.8","state":"Pennsylvania"},"type":"Feature","geometry":null},{"properties":{"county2":"Warren Pennsylvania","county":"Warren County, Pennsylvania","yr2009":"28.9","change":"5.1","fips code":"42123","id":"aei3smns4oxs","yr2004":"23.8","state":"Pennsylvania"},"type":"Feature","geometry":null},{"properties":{"county2":"Lehigh Pennsylvania","county":"Lehigh County, Pennsylvania","yr2009":"28.9","change":"4.8","fips code":"42077","id":"aei3smsvk3op","yr2004":"24.1","state":"Pennsylvania"},"type":"Feature","geometry":null},{"properties":{"county2":"Crawford Pennsylvania","county":"Crawford County, Pennsylvania","yr2009":"28.8","change":"3.2","fips code":"42039","id":"aei3smk8ur3d","yr2004":"25.6","state":"Pennsylvania"},"type":"Feature","geometry":null},{"properties":{"county2":"Allegheny Pennsylvania","county":"Allegheny County, Pennsylvania","yr2009":"28.6","change":"6.8","fips code":"42003","id":"aei3smjtfrxp","yr2004":"21.8","state":"Pennsylvania"},"type":"Feature","geometry":null},{"properties":{"county2":"Westmoreland Pennsylvania","county":"Westmoreland County, Pennsylvania","yr2009":"28.3","change":"1.5","fips code":"42129","id":"aei3smt55cd9","yr2004":"26.8","state":"Pennsylvania"},"type":"Feature","geometry":null},{"properties":{"county2":"Greene Pennsylvania","county":"Greene County, Pennsylvania","yr2009":"28.2","change":"-0.4","fips code":"42059","id":"aei3smlo40ka","yr2004":"28.6","state":"Pennsylvania"},"type":"Feature","geometry":null},{"properties":{"county2":"Wayne Pennsylvania","county":"Wayne County, Pennsylvania","yr2009":"27.8","change":"5","fips code":"42127","id":"aei3smd4jdko","yr2004":"22.8","state":"Pennsylvania"},"type":"Feature","geometry":null},{"properties":{"county2":"Cumberland Pennsylvania","county":"Cumberland County, Pennsylvania","yr2009":"27.5","change":"2.9","fips code":"42041","id":"aei3smg3vi5h","yr2004":"24.6","state":"Pennsylvania"},"type":"Feature","geometry":null},{"properties":{"county2":"Susquehanna Pennsylvania","county":"Susquehanna County, Pennsylvania","yr2009":"27.2","change":"2.3","fips code":"42115","id":"aei3smmax6i5","yr2004":"24.9","state":"Pennsylvania"},"type":"Feature","geometry":null},{"properties":{"county2":"Butler Pennsylvania","county":"Butler County, Pennsylvania","yr2009":"26.9","change":"1","fips code":"42019","id":"aei3smklwle0","yr2004":"25.9","state":"Pennsylvania"},"type":"Feature","geometry":null},{"properties":{"county2":"Centre Pennsylvania","county":"Centre County, Pennsylvania","yr2009":"26.6","change":"2.5","fips code":"42027","id":"aei3smonzq12","yr2004":"24.1","state":"Pennsylvania"},"type":"Feature","geometry":null},{"properties":{"county2":"Delaware Pennsylvania","county":"Delaware County, Pennsylvania","yr2009":"26.6","change":"2.3","fips code":"42045","id":"aei3smhzop72","yr2004":"24.3","state":"Pennsylvania"},"type":"Feature","geometry":null},{"properties":{"county2":"Adams Pennsylvania","county":"Adams County, Pennsylvania","yr2009":"26.4","change":"0.2","fips code":"42001","id":"aei3smqdaql7","yr2004":"26.2","state":"Pennsylvania"},"type":"Feature","geometry":null},{"properties":{"county2":"Lackawanna Pennsylvania","county":"Lackawanna County, Pennsylvania","yr2009":"25.7","change":"1.6","fips code":"42069","id":"aei3smk67elo","yr2004":"24.1","state":"Pennsylvania"},"type":"Feature","geometry":null},{"properties":{"county2":"Montgomery Pennsylvania","county":"Montgomery County, Pennsylvania","yr2009":"25.3","change":"5.5","fips code":"42091","id":"aei3smrpx83v","yr2004":"19.8","state":"Pennsylvania"},"type":"Feature","geometry":null},{"properties":{"county2":"Bucks Pennsylvania","county":"Bucks County, Pennsylvania","yr2009":"24.5","change":"3.7","fips code":"42017","id":"aei3smj0mmxx","yr2004":"20.8","state":"Pennsylvania"},"type":"Feature","geometry":null},{"properties":{"county2":"Chester Pennsylvania","county":"Chester County, Pennsylvania","yr2009":"21.2","change":"2.8","fips code":"42029","id":"aei3smegedw4","yr2004":"18.4","state":"Pennsylvania"},"type":"Feature","geometry":null}],"is_temporal":false,"author":{"url":"","metadata":null,"contact_name":null,"contact_address":null,"source":null,"contact_phone":null},"source":"","pagination":{"sort":null,"start":0,"total":67,"limit":1000000},"state":"parsed","tags":"","published":"2014-08-16T13:11:20-04:00","id":360135}