{"type":"FeatureCollection","data_type":"Dataset","url_type":null,"permissions":[{"permissions":{"download":true,"view":true},"group_id":"everyone"}],"classification":null,"title":"Heat Map","count":156,"stream_id":36218,"contributor":{"url":"http://geocommons.com/users/12477","name":"oboemasquerade"},"data_attributes":null,"calculation_params":null,"icon_link":null,"link":"http://geocommons.com/overlays/36218.json","extent":[-96.3531,43.6985,-91.9793,47.9619],"geometry_types":["point"],"unique_name":null,"name":"Heat Map","feature_count":156,"description":"For a heat map","next_feature":null,"is_raster":false,"short_classification":"Y","stats":{"geo_score":{"max":0.857,"mean":0.816775641025641,"variance":0.0231917235318445,"stdev":0.152288290856009,"min":0.0,"median":0.857}},"features":[{"properties":{"city":"Albertville","geo_score":0.857,"country":"United States","id":"a62wree2jman","geo_precision":"city","state":"Minnesota"},"type":"Feature","geometry":{"type":"Point","coordinates":[-93.664342,45.258673]}},{"properties":{"city":"Andover","geo_score":0.857,"country":"United States","id":"a62wre50xowy","geo_precision":"city","state":"Minnesota"},"type":"Feature","geometry":{"type":"Point","coordinates":[-93.272428,45.237661]}},{"properties":{"city":"Apple Valley","geo_score":0.74,"country":"United States","id":"a62wref3nffe","geo_precision":"city","state":"Minnesota"},"type":"Feature","geometry":{"type":"Point","coordinates":[-92.268224,44.063298]}},{"properties":{"city":"Apple Valley","geo_score":0.74,"country":"United States","id":"a62wre8d2u9z","geo_precision":"city","state":"Minnesota"},"type":"Feature","geometry":{"type":"Point","coordinates":[-92.268224,44.063298]}},{"properties":{"city":"Apple Valley","geo_score":0.74,"country":"United States","id":"a62wre65n3wj","geo_precision":"city","state":"Minnesota"},"type":"Feature","geometry":{"type":"Point","coordinates":[-92.268224,44.063298]}},{"properties":{"city":"Apple Valley","geo_score":0.74,"country":"United States","id":"a62wrefyiv0b","geo_precision":"city","state":"Minnesota"},"type":"Feature","geometry":{"type":"Point","coordinates":[-92.268224,44.063298]}},{"properties":{"city":"Bloomington","geo_score":0.857,"country":"United States","id":"a62wreemopbm","geo_precision":"city","state":"Minnesota"},"type":"Feature","geometry":{"type":"Point","coordinates":[-93.29828,44.840798]}},{"properties":{"city":"Bloomington","geo_score":0.857,"country":"United States","id":"a62wreefctw3","geo_precision":"city","state":"Minnesota"},"type":"Feature","geometry":{"type":"Point","coordinates":[-93.29828,44.840798]}},{"properties":{"city":"Bloomington","geo_score":0.857,"country":"United States","id":"a62wreaggfvw","geo_precision":"city","state":"Minnesota"},"type":"Feature","geometry":{"type":"Point","coordinates":[-93.29828,44.840798]}},{"properties":{"city":"Bloomington","geo_score":0.857,"country":"United States","id":"a62wre8ibbzq","geo_precision":"city","state":"Minnesota"},"type":"Feature","geometry":{"type":"Point","coordinates":[-93.29828,44.840798]}},{"properties":{"city":"Bloomington","geo_score":0.857,"country":"United States","id":"a62wrebvyjx0","geo_precision":"city","state":"Minnesota"},"type":"Feature","geometry":{"type":"Point","coordinates":[-93.29828,44.840798]}},{"properties":{"city":"Blue Earth","geo_score":0.73,"country":"United States","id":"a62wre60q1ue","geo_precision":"city","state":"Minnesota"},"type":"Feature","geometry":{"type":"Point","coordinates":[-95.804479,47.335516]}},{"properties":{"city":"Burnsville","geo_score":0.857,"country":"United States","id":"a62wreafbyrs","geo_precision":"city","state":"Minnesota"},"type":"Feature","geometry":{"type":"Point","coordinates":[-93.221535,44.762208]}},{"properties":{"city":"Burnsville","geo_score":0.857,"country":"United States","id":"a62wregqoh9n","geo_precision":"city","state":"Minnesota"},"type":"Feature","geometry":{"type":"Point","coordinates":[-93.221535,44.762208]}},{"properties":{"city":"Chanhassen","geo_score":0.857,"country":"United States","id":"a62wrechjvt3","geo_precision":"city","state":"Minnesota"},"type":"Feature","geometry":{"type":"Point","coordinates":[-93.572584,44.853364]}},{"properties":{"city":"Cleveland","geo_score":0.857,"country":"United States","id":"a62wrecbpgsm","geo_precision":"city","state":"Minnesota"},"type":"Feature","geometry":{"type":"Point","coordinates":[-93.817622,44.298188]}},{"properties":{"city":"Coon Rapids","geo_score":0.857,"country":"United States","id":"a62wrefzknfc","geo_precision":"city","state":"Minnesota"},"type":"Feature","geometry":{"type":"Point","coordinates":[-93.287728,45.119965]}},{"properties":{"city":"Danube","geo_score":0.857,"country":"United States","id":"a62wrefua7nq","geo_precision":"city","state":"Minnesota"},"type":"Feature","geometry":{"type":"Point","coordinates":[-95.09754,44.76007]}},{"properties":{"city":"Delavan","geo_score":0.857,"country":"United States","id":"a62wre9frqrg","geo_precision":"city","state":"Minnesota"},"type":"Feature","geometry":{"type":"Point","coordinates":[-94.007655,43.768062]}},{"properties":{"city":"Eagan","geo_score":0.857,"country":"United States","id":"a62wreh6ks53","geo_precision":"city","state":"Minnesota"},"type":"Feature","geometry":{"type":"Point","coordinates":[-93.166886,44.804132]}},{"properties":{"city":"Eden Prairie","geo_score":0.766,"country":"United States","id":"a62wre6m8psl","geo_precision":"city","state":"Minnesota"},"type":"Feature","geometry":{"type":"Point","coordinates":[-92.884919,44.08802]}},{"properties":{"city":"Eden Prairie","geo_score":0.766,"country":"United States","id":"a62wreebuizq","geo_precision":"city","state":"Minnesota"},"type":"Feature","geometry":{"type":"Point","coordinates":[-92.884919,44.08802]}},{"properties":{"city":"Edina","geo_score":0.8,"country":"United States","id":"a62wreel4pi5","geo_precision":"city","state":"Minnesota"},"type":"Feature","geometry":{"type":"Point","coordinates":[-92.884919,44.08802]}},{"properties":{"city":"Edina","geo_score":0.8,"country":"United States","id":"a62wreh45wzs","geo_precision":"city","state":"Minnesota"},"type":"Feature","geometry":{"type":"Point","coordinates":[-92.884919,44.08802]}},{"properties":{"city":"Edina","geo_score":0.8,"country":"United States","id":"a62wreiz6clm","geo_precision":"city","state":"Minnesota"},"type":"Feature","geometry":{"type":"Point","coordinates":[-92.884919,44.08802]}},{"properties":{"city":"Edina","geo_score":0.8,"country":"United States","id":"a62wre4ilz0d","geo_precision":"city","state":"Minnesota"},"type":"Feature","geometry":{"type":"Point","coordinates":[-92.884919,44.08802]}},{"properties":{"city":"Edina","geo_score":0.8,"country":"United States","id":"a62wredmqbvi","geo_precision":"city","state":"Minnesota"},"type":"Feature","geometry":{"type":"Point","coordinates":[-92.884919,44.08802]}},{"properties":{"city":"Edina","geo_score":0.8,"country":"United States","id":"a62wreixbha3","geo_precision":"city","state":"Minnesota"},"type":"Feature","geometry":{"type":"Point","coordinates":[-92.884919,44.08802]}},{"properties":{"city":"Elk River","geo_score":0.768,"country":"United States","id":"a62wre92eckn","geo_precision":"city","state":"Minnesota"},"type":"Feature","geometry":{"type":"Point","coordinates":[-93.369473,44.588963]}},{"properties":{"city":"Elk River","geo_score":0.768,"country":"United States","id":"a62wree05pkg","geo_precision":"city","state":"Minnesota"},"type":"Feature","geometry":{"type":"Point","coordinates":[-93.369473,44.588963]}},{"properties":{"city":"Excelsior","geo_score":0.857,"country":"United States","id":"a62wreaacmhb","geo_precision":"city","state":"Minnesota"},"type":"Feature","geometry":{"type":"Point","coordinates":[-93.623186,44.912712]}},{"properties":{"city":"Excelsior","geo_score":0.857,"country":"United States","id":"a62wre7vd89f","geo_precision":"city","state":"Minnesota"},"type":"Feature","geometry":{"type":"Point","coordinates":[-93.623186,44.912712]}},{"properties":{"city":"Excelsior","geo_score":0.857,"country":"United States","id":"a62wrefii09e","geo_precision":"city","state":"Minnesota"},"type":"Feature","geometry":{"type":"Point","coordinates":[-93.623186,44.912712]}},{"properties":{"city":"Faribault","geo_score":0.857,"country":"United States","id":"a62wrehvsurk","geo_precision":"city","state":"Minnesota"},"type":"Feature","geometry":{"type":"Point","coordinates":[-93.267456,44.36287]}},{"properties":{"city":"Farmington","geo_score":0.814,"country":"United States","id":"a62wrehkhobn","geo_precision":"city","state":"Minnesota"},"type":"Feature","geometry":{"type":"Point","coordinates":[-94.598059,45.515242]}},{"properties":{"city":"Gaylord","geo_score":0.857,"country":"United States","id":"a62wre8qw479","geo_precision":"city","state":"Minnesota"},"type":"Feature","geometry":{"type":"Point","coordinates":[-94.191699,44.572583]}},{"properties":{"city":"Hopkins","geo_score":0.857,"country":"United States","id":"a62wrebai8bx","geo_precision":"city","state":"Minnesota"},"type":"Feature","geometry":{"type":"Point","coordinates":[-93.43723,44.952763]}},{"properties":{"city":"Independence","geo_score":0.857,"country":"United States","id":"a62wreg0pjne","geo_precision":"city","state":"Minnesota"},"type":"Feature","geometry":{"type":"Point","coordinates":[-93.707463,45.025241]}},{"properties":{"city":"Kilkenny","geo_score":0.857,"country":"United States","id":"a62wrehd8187","geo_precision":"city","state":"Minnesota"},"type":"Feature","geometry":{"type":"Point","coordinates":[-93.574653,44.313417]}},{"properties":{"city":"Lakevile","geo_score":0.841,"country":"United States","id":"a62wre8pmjkm","geo_precision":"city","state":"Minnesota"},"type":"Feature","geometry":{"type":"Point","coordinates":[-93.25812,44.633421]}},{"properties":{"city":"Lakeville","geo_score":0.857,"country":"United States","id":"a62wre5xw84o","geo_precision":"city","state":"Minnesota"},"type":"Feature","geometry":{"type":"Point","coordinates":[-93.25812,44.633421]}},{"properties":{"city":"Lakeville","geo_score":0.857,"country":"United States","id":"a62wredjk89h","geo_precision":"city","state":"Minnesota"},"type":"Feature","geometry":{"type":"Point","coordinates":[-93.25812,44.633421]}},{"properties":{"city":"Lakeville","geo_score":0.857,"country":"United States","id":"a62wre4y405r","geo_precision":"city","state":"Minnesota"},"type":"Feature","geometry":{"type":"Point","coordinates":[-93.25812,44.633421]}},{"properties":{"city":"Lauderdale","geo_score":0.857,"country":"United States","id":"a62wrej5gzgv","geo_precision":"city","state":"Minnesota"},"type":"Feature","geometry":{"type":"Point","coordinates":[-93.205779,44.998577]}},{"properties":{"city":"Le Sueur","geo_score":0.735,"country":"United States","id":"a62wrej1uen1","geo_precision":"city","state":"Minnesota"},"type":"Feature","geometry":{"type":"Point","coordinates":[-96.353106,47.961914]}},{"properties":{"city":"Loretto","geo_score":0.857,"country":"United States","id":"a62wrebtfcu9","geo_precision":"city","state":"Minnesota"},"type":"Feature","geometry":{"type":"Point","coordinates":[-93.657256,45.100098]}},{"properties":{"city":"Luverne","geo_score":0.857,"country":"United States","id":"a62wrei6v8lr","geo_precision":"city","state":"Minnesota"},"type":"Feature","geometry":{"type":"Point","coordinates":[-96.163242,43.698546]}},{"properties":{"city":"Mankato","geo_score":0.857,"country":"United States","id":"a62wre7t0ere","geo_precision":"city","state":"Minnesota"},"type":"Feature","geometry":{"type":"Point","coordinates":[-94.003112,44.061451]}},{"properties":{"city":"Mankato","geo_score":0.857,"country":"United States","id":"a62wref3jpip","geo_precision":"city","state":"Minnesota"},"type":"Feature","geometry":{"type":"Point","coordinates":[-94.003112,44.061451]}},{"properties":{"city":"Mankato","geo_score":0.857,"country":"United States","id":"a62wreccg3fo","geo_precision":"city","state":"Minnesota"},"type":"Feature","geometry":{"type":"Point","coordinates":[-94.003112,44.061451]}},{"properties":{"city":"Mankato","geo_score":0.857,"country":"United States","id":"a62wre9siz7x","geo_precision":"city","state":"Minnesota"},"type":"Feature","geometry":{"type":"Point","coordinates":[-94.003112,44.061451]}},{"properties":{"city":"Mankato","geo_score":0.857,"country":"United States","id":"a62wrejd4skr","geo_precision":"city","state":"Minnesota"},"type":"Feature","geometry":{"type":"Point","coordinates":[-94.003112,44.061451]}},{"properties":{"city":"Mankato","geo_score":0.857,"country":"United States","id":"a62wre5qv6ms","geo_precision":"city","state":"Minnesota"},"type":"Feature","geometry":{"type":"Point","coordinates":[-94.003112,44.061451]}},{"properties":{"city":"Mankato","geo_score":0.857,"country":"United States","id":"a62wre9st9pd","geo_precision":"city","state":"Minnesota"},"type":"Feature","geometry":{"type":"Point","coordinates":[-94.003112,44.061451]}},{"properties":{"city":"Mankato","geo_score":0.857,"country":"United States","id":"a62wre4w0fbw","geo_precision":"city","state":"Minnesota"},"type":"Feature","geometry":{"type":"Point","coordinates":[-94.003112,44.061451]}},{"properties":{"city":"Mankato","geo_score":0.857,"country":"United States","id":"a62wre7320zv","geo_precision":"city","state":"Minnesota"},"type":"Feature","geometry":{"type":"Point","coordinates":[-94.003112,44.061451]}},{"properties":{"city":"Mankato","geo_score":0.857,"country":"United States","id":"a62wre8j7768","geo_precision":"city","state":"Minnesota"},"type":"Feature","geometry":{"type":"Point","coordinates":[-94.003112,44.061451]}},{"properties":{"city":"Mankato","geo_score":0.857,"country":"United States","id":"a62wredqm5b2","geo_precision":"city","state":"Minnesota"},"type":"Feature","geometry":{"type":"Point","coordinates":[-94.003112,44.061451]}},{"properties":{"city":"Mankato","geo_score":0.857,"country":"United States","id":"a62wreifvnqh","geo_precision":"city","state":"Minnesota"},"type":"Feature","geometry":{"type":"Point","coordinates":[-94.003112,44.061451]}},{"properties":{"city":"Mankato","geo_score":0.857,"country":"United States","id":"a62wre53pma6","geo_precision":"city","state":"Minnesota"},"type":"Feature","geometry":{"type":"Point","coordinates":[-94.003112,44.061451]}},{"properties":{"city":"Mankato","geo_score":0.857,"country":"United States","id":"a62wreat8ohe","geo_precision":"city","state":"Minnesota"},"type":"Feature","geometry":{"type":"Point","coordinates":[-94.003112,44.061451]}},{"properties":{"city":"Mankato","geo_score":0.857,"country":"United States","id":"a62wre6j19d6","geo_precision":"city","state":"Minnesota"},"type":"Feature","geometry":{"type":"Point","coordinates":[-94.003112,44.061451]}},{"properties":{"city":"Mankato","geo_score":0.857,"country":"United States","id":"a62wreceoo47","geo_precision":"city","state":"Minnesota"},"type":"Feature","geometry":{"type":"Point","coordinates":[-94.003112,44.061451]}},{"properties":{"city":"Mankato","geo_score":0.857,"country":"United States","id":"a62wrebl0sep","geo_precision":"city","state":"Minnesota"},"type":"Feature","geometry":{"type":"Point","coordinates":[-94.003112,44.061451]}},{"properties":{"city":"Mankato","geo_score":0.857,"country":"United States","id":"a62wre6ozjy9","geo_precision":"city","state":"Minnesota"},"type":"Feature","geometry":{"type":"Point","coordinates":[-94.003112,44.061451]}},{"properties":{"city":"Mankato","geo_score":0.857,"country":"United States","id":"a62wre40gk5e","geo_precision":"city","state":"Minnesota"},"type":"Feature","geometry":{"type":"Point","coordinates":[-94.003112,44.061451]}},{"properties":{"city":"Mankato","geo_score":0.857,"country":"United States","id":"a62wrejdx3wd","geo_precision":"city","state":"Minnesota"},"type":"Feature","geometry":{"type":"Point","coordinates":[-94.003112,44.061451]}},{"properties":{"city":"Mankato","geo_score":0.857,"country":"United States","id":"a62wre70i4es","geo_precision":"city","state":"Minnesota"},"type":"Feature","geometry":{"type":"Point","coordinates":[-94.003112,44.061451]}},{"properties":{"city":"Mankato","geo_score":0.857,"country":"United States","id":"a62wre9279rf","geo_precision":"city","state":"Minnesota"},"type":"Feature","geometry":{"type":"Point","coordinates":[-94.003112,44.061451]}},{"properties":{"city":"Mankato","geo_score":0.857,"country":"United States","id":"a62wrea43iys","geo_precision":"city","state":"Minnesota"},"type":"Feature","geometry":{"type":"Point","coordinates":[-94.003112,44.061451]}},{"properties":{"city":"Mankato","geo_score":0.857,"country":"United States","id":"a62wrefe8pon","geo_precision":"city","state":"Minnesota"},"type":"Feature","geometry":{"type":"Point","coordinates":[-94.003112,44.061451]}},{"properties":{"city":"Mankato","geo_score":0.857,"country":"United States","id":"a62wreigo1ax","geo_precision":"city","state":"Minnesota"},"type":"Feature","geometry":{"type":"Point","coordinates":[-94.003112,44.061451]}},{"properties":{"city":"Mankato","geo_score":0.857,"country":"United States","id":"a62wrefhqc8q","geo_precision":"city","state":"Minnesota"},"type":"Feature","geometry":{"type":"Point","coordinates":[-94.003112,44.061451]}},{"properties":{"city":"Maple Grove","geo_score":0.857,"country":"United States","id":"a62wredqkt1c","geo_precision":"city","state":"Minnesota"},"type":"Feature","geometry":{"type":"Point","coordinates":[-93.455788,45.072464]}},{"properties":{"city":"Maple Grove","geo_score":0.857,"country":"United States","id":"a62wree0wqf0","geo_precision":"city","state":"Minnesota"},"type":"Feature","geometry":{"type":"Point","coordinates":[-93.455788,45.072464]}},{"properties":{"city":"Marshall","geo_score":0.857,"country":"United States","id":"a62wrecb65ko","geo_precision":"city","state":"Minnesota"},"type":"Feature","geometry":{"type":"Point","coordinates":[-95.785872,44.460429]}},{"properties":{"city":"Marshall","geo_score":0.857,"country":"United States","id":"a62wre7bl27j","geo_precision":"city","state":"Minnesota"},"type":"Feature","geometry":{"type":"Point","coordinates":[-95.785872,44.460429]}},{"properties":{"city":"Medina","geo_score":0.857,"country":"United States","id":"a62wrece19sh","geo_precision":"city","state":"Minnesota"},"type":"Feature","geometry":{"type":"Point","coordinates":[-93.582459,45.035241]}},{"properties":{"city":"Minneapolis","geo_score":0.857,"country":"United States","id":"a62wree32spd","geo_precision":"city","state":"Minnesota"},"type":"Feature","geometry":{"type":"Point","coordinates":[-93.263836,44.979965]}},{"properties":{"city":"Minneapolis","geo_score":0.857,"country":"United States","id":"a62wredov7tw","geo_precision":"city","state":"Minnesota"},"type":"Feature","geometry":{"type":"Point","coordinates":[-93.263836,44.979965]}},{"properties":{"city":"Minneapolis","geo_score":0.857,"country":"United States","id":"a62wre4ywvi5","geo_precision":"city","state":"Minnesota"},"type":"Feature","geometry":{"type":"Point","coordinates":[-93.263836,44.979965]}},{"properties":{"city":"Minneapolis","geo_score":0.857,"country":"United States","id":"a62wre7p93bf","geo_precision":"city","state":"Minnesota"},"type":"Feature","geometry":{"type":"Point","coordinates":[-93.263836,44.979965]}},{"properties":{"city":"Minneapolis","geo_score":0.857,"country":"United States","id":"a62wreizxwx9","geo_precision":"city","state":"Minnesota"},"type":"Feature","geometry":{"type":"Point","coordinates":[-93.263836,44.979965]}},{"properties":{"city":"Minneapolis","geo_score":0.857,"country":"United States","id":"a62wre6imaq2","geo_precision":"city","state":"Minnesota"},"type":"Feature","geometry":{"type":"Point","coordinates":[-93.263836,44.979965]}},{"properties":{"city":"Minneapolis","geo_score":0.857,"country":"United States","id":"a62wrehz0w2j","geo_precision":"city","state":"Minnesota"},"type":"Feature","geometry":{"type":"Point","coordinates":[-93.263836,44.979965]}},{"properties":{"city":"Minneapolis","geo_score":0.857,"country":"United States","id":"a62wrec8puwz","geo_precision":"city","state":"Minnesota"},"type":"Feature","geometry":{"type":"Point","coordinates":[-93.263836,44.979965]}},{"properties":{"city":"Minneapolis","geo_score":0.857,"country":"United States","id":"a62wre3bbcbi","geo_precision":"city","state":"Minnesota"},"type":"Feature","geometry":{"type":"Point","coordinates":[-93.263836,44.979965]}},{"properties":{"city":"Minneapolis","geo_score":0.857,"country":"United States","id":"a62wrebonkpe","geo_precision":"city","state":"Minnesota"},"type":"Feature","geometry":{"type":"Point","coordinates":[-93.263836,44.979965]}},{"properties":{"city":"Minneapolis","geo_score":0.857,"country":"United States","id":"a62wre66cx0v","geo_precision":"city","state":"Minnesota"},"type":"Feature","geometry":{"type":"Point","coordinates":[-93.263836,44.979965]}},{"properties":{"city":"Minneapolis","geo_score":0.857,"country":"United States","id":"a62wrejm8rdz","geo_precision":"city","state":"Minnesota"},"type":"Feature","geometry":{"type":"Point","coordinates":[-93.263836,44.979965]}},{"properties":{"city":"Minneapolis","geo_score":0.857,"country":"United States","id":"a62wreelm6pp","geo_precision":"city","state":"Minnesota"},"type":"Feature","geometry":{"type":"Point","coordinates":[-93.263836,44.979965]}},{"properties":{"city":"Minneapolis","geo_score":0.857,"country":"United States","id":"a62wreecb9dx","geo_precision":"city","state":"Minnesota"},"type":"Feature","geometry":{"type":"Point","coordinates":[-93.263836,44.979965]}},{"properties":{"city":"Minneapolis","geo_score":0.857,"country":"United States","id":"a62wre8qc4z2","geo_precision":"city","state":"Minnesota"},"type":"Feature","geometry":{"type":"Point","coordinates":[-93.263836,44.979965]}},{"properties":{"city":"Minneapolis","geo_score":0.857,"country":"United States","id":"a62wrea3apdo","geo_precision":"city","state":"Minnesota"},"type":"Feature","geometry":{"type":"Point","coordinates":[-93.263836,44.979965]}},{"properties":{"city":"Minneapolis","geo_score":0.857,"country":"United States","id":"a62wrejddow8","geo_precision":"city","state":"Minnesota"},"type":"Feature","geometry":{"type":"Point","coordinates":[-93.263836,44.979965]}},{"properties":{"city":"Minneapolis","geo_score":0.857,"country":"United States","id":"a62wrec4aefo","geo_precision":"city","state":"Minnesota"},"type":"Feature","geometry":{"type":"Point","coordinates":[-93.263836,44.979965]}},{"properties":{"city":"Minneapolis","geo_score":0.857,"country":"United States","id":"a62wreb2820h","geo_precision":"city","state":"Minnesota"},"type":"Feature","geometry":{"type":"Point","coordinates":[-93.263836,44.979965]}},{"properties":{"city":"Minneapolis","geo_score":0.857,"country":"United States","id":"a62wrehyysj3","geo_precision":"city","state":"Minnesota"},"type":"Feature","geometry":{"type":"Point","coordinates":[-93.263836,44.979965]}},{"properties":{"city":"Minneapolis","geo_score":0.857,"country":"United States","id":"a62wre3h9os6","geo_precision":"city","state":"Minnesota"},"type":"Feature","geometry":{"type":"Point","coordinates":[-93.263836,44.979965]}},{"properties":{"city":"Minneapolis","geo_score":0.857,"country":"United States","id":"a62wreixn3be","geo_precision":"city","state":"Minnesota"},"type":"Feature","geometry":{"type":"Point","coordinates":[-93.263836,44.979965]}},{"properties":{"city":"Minneapolis","geo_score":0.857,"country":"United States","id":"a62wrefu8buf","geo_precision":"city","state":"Minnesota"},"type":"Feature","geometry":{"type":"Point","coordinates":[-93.263836,44.979965]}},{"properties":{"city":"Minneapolis","geo_score":0.857,"country":"United States","id":"a62wre7r93pv","geo_precision":"city","state":"Minnesota"},"type":"Feature","geometry":{"type":"Point","coordinates":[-93.263836,44.979965]}},{"properties":{"city":"Minneapolis","geo_score":0.857,"country":"United States","id":"a62wrebkko4h","geo_precision":"city","state":"Minnesota"},"type":"Feature","geometry":{"type":"Point","coordinates":[-93.263836,44.979965]}},{"properties":{"city":"Minneapolis","geo_score":0.857,"country":"United States","id":"a62wreip9gwq","geo_precision":"city","state":"Minnesota"},"type":"Feature","geometry":{"type":"Point","coordinates":[-93.263836,44.979965]}},{"properties":{"city":"Minnestrista","geo_score":0.0,"country":"United States","id":"a62wred7duxm","geo_precision":"unmatched","state":"Minnesota"},"type":"Feature","geometry":null},{"properties":{"city":"Minnetonka","geo_score":0.81,"country":"United States","id":"a62wre4snioq","geo_precision":"city","state":"Minnesota"},"type":"Feature","geometry":{"type":"Point","coordinates":[-93.441897,44.941075]}},{"properties":{"city":"Minnetonka","geo_score":0.81,"country":"United States","id":"a62wreac44vy","geo_precision":"city","state":"Minnesota"},"type":"Feature","geometry":{"type":"Point","coordinates":[-93.441897,44.941075]}},{"properties":{"city":"Morristown","geo_score":0.814,"country":"United States","id":"a62wrejgr9xz","geo_precision":"city","state":"Minnesota"},"type":"Feature","geometry":{"type":"Point","coordinates":[-93.541343,44.720796]}},{"properties":{"city":"Mountain Laike","geo_score":0.846,"country":"United States","id":"a62wrebagdbu","geo_precision":"city","state":"Minnesota"},"type":"Feature","geometry":{"type":"Point","coordinates":[-94.924319,43.939276]}},{"properties":{"city":"New Prague","geo_score":0.857,"country":"United States","id":"a62wre9b3k3o","geo_precision":"city","state":"Minnesota"},"type":"Feature","geometry":{"type":"Point","coordinates":[-93.55598,44.536713]}},{"properties":{"city":"New Ulm","geo_score":0.857,"country":"United States","id":"a62wregpu9co","geo_precision":"city","state":"Minnesota"},"type":"Feature","geometry":{"type":"Point","coordinates":[-94.511407,44.259924]}},{"properties":{"city":"New Ulm","geo_score":0.857,"country":"United States","id":"a62wre4evxkj","geo_precision":"city","state":"Minnesota"},"type":"Feature","geometry":{"type":"Point","coordinates":[-94.511407,44.259924]}},{"properties":{"city":"New York","geo_score":0.0,"country":"United States","id":"a62wregemld7","geo_precision":"unmatched","state":"Minnesota"},"type":"Feature","geometry":null},{"properties":{"city":"North Mankato","geo_score":0.857,"country":"United States","id":"a62wre6eonoj","geo_precision":"city","state":"Minnesota"},"type":"Feature","geometry":{"type":"Point","coordinates":[-94.033845,44.1733]}},{"properties":{"city":"North Mankato","geo_score":0.857,"country":"United States","id":"a62wredygtsn","geo_precision":"city","state":"Minnesota"},"type":"Feature","geometry":{"type":"Point","coordinates":[-94.033845,44.1733]}},{"properties":{"city":"North Mankato","geo_score":0.857,"country":"United States","id":"a62wred78e3w","geo_precision":"city","state":"Minnesota"},"type":"Feature","geometry":{"type":"Point","coordinates":[-94.033845,44.1733]}},{"properties":{"city":"North Mankato","geo_score":0.857,"country":"United States","id":"a62wre8mk6az","geo_precision":"city","state":"Minnesota"},"type":"Feature","geometry":{"type":"Point","coordinates":[-94.033845,44.1733]}},{"properties":{"city":"Omaha","geo_score":0.0,"country":"United States","id":"a62wreg82zcl","geo_precision":"unmatched","state":"Minnesota"},"type":"Feature","geometry":null},{"properties":{"city":"Owatonna","geo_score":0.857,"country":"United States","id":"a62wre6ifwr0","geo_precision":"city","state":"Minnesota"},"type":"Feature","geometry":{"type":"Point","coordinates":[-93.223724,44.047613]}},{"properties":{"city":"Owatonna","geo_score":0.857,"country":"United States","id":"a62wreaon4ov","geo_precision":"city","state":"Minnesota"},"type":"Feature","geometry":{"type":"Point","coordinates":[-93.223724,44.047613]}},{"properties":{"city":"Owatonna","geo_score":0.857,"country":"United States","id":"a62wreiycx0v","geo_precision":"city","state":"Minnesota"},"type":"Feature","geometry":{"type":"Point","coordinates":[-93.223724,44.047613]}},{"properties":{"city":"Phoenix","geo_score":0.0,"country":"United States","id":"a62wrefx0oa0","geo_precision":"unmatched","state":"Minnesota"},"type":"Feature","geometry":null},{"properties":{"city":"Plymouth","geo_score":0.857,"country":"United States","id":"a62wreb996di","geo_precision":"city","state":"Minnesota"},"type":"Feature","geometry":{"type":"Point","coordinates":[-93.455509,45.010519]}},{"properties":{"city":"Prior Lake","geo_score":0.857,"country":"United States","id":"a62wre907bkb","geo_precision":"city","state":"Minnesota"},"type":"Feature","geometry":{"type":"Point","coordinates":[-93.464428,44.682763]}},{"properties":{"city":"Randolph","geo_score":0.857,"country":"United States","id":"a62wre5zxs70","geo_precision":"city","state":"Minnesota"},"type":"Feature","geometry":{"type":"Point","coordinates":[-93.02496,44.545066]}},{"properties":{"city":"Mankato","geo_score":0.857,"country":"United States","id":"a62wrefzpyq5","geo_precision":"city","state":"Minnesota"},"type":"Feature","geometry":{"type":"Point","coordinates":[-94.003112,44.061451]}},{"properties":{"city":"Rockville","geo_score":0.857,"country":"United States","id":"a62wreag4o5n","geo_precision":"city","state":"Minnesota"},"type":"Feature","geometry":{"type":"Point","coordinates":[-94.340582,45.468679]}},{"properties":{"city":"Rogers","geo_score":0.857,"country":"United States","id":"a62wreb0s4dg","geo_precision":"city","state":"Minnesota"},"type":"Feature","geometry":{"type":"Point","coordinates":[-93.574586,45.168896]}},{"properties":{"city":"Rosemount","geo_score":0.857,"country":"United States","id":"a62wre89g40b","geo_precision":"city","state":"Minnesota"},"type":"Feature","geometry":{"type":"Point","coordinates":[-93.076163,44.661216]}},{"properties":{"city":"Shakopee","geo_score":0.857,"country":"United States","id":"a62wre6mk89o","geo_precision":"city","state":"Minnesota"},"type":"Feature","geometry":{"type":"Point","coordinates":[-93.474144,44.731113]}},{"properties":{"city":"Sioux Falls","geo_score":0.0,"country":"United States","id":"a62wre8ysv6t","geo_precision":"unmatched","state":"Minnesota"},"type":"Feature","geometry":null},{"properties":{"city":"Spring Lake Park","geo_score":0.796,"country":"United States","id":"a62wregkx0hh","geo_precision":"city","state":"Minnesota"},"type":"Feature","geometry":{"type":"Point","coordinates":[-93.306894,45.630518]}},{"properties":{"city":"Saint Anthony","geo_score":0.857,"country":"United States","id":"a62wrecdnc0t","geo_precision":"city","state":"Minnesota"},"type":"Feature","geometry":{"type":"Point","coordinates":[-93.218002,45.020521]}},{"properties":{"city":"Saint Cloud","geo_score":0.743,"country":"United States","id":"a62wre3rxnx9","geo_precision":"city","state":"Minnesota"},"type":"Feature","geometry":{"type":"Point","coordinates":[-91.979323,43.894685]}},{"properties":{"city":"Saint James","geo_score":0.857,"country":"United States","id":"a62wreaepiis","geo_precision":"city","state":"Minnesota"},"type":"Feature","geometry":{"type":"Point","coordinates":[-94.604116,43.982851]}},{"properties":{"city":"Saint James","geo_score":0.857,"country":"United States","id":"a62wre9syfvy","geo_precision":"city","state":"Minnesota"},"type":"Feature","geometry":{"type":"Point","coordinates":[-94.604116,43.982851]}},{"properties":{"city":"Saint Louis Park","geo_score":0.857,"country":"United States","id":"a62wre5nc1wl","geo_precision":"city","state":"Minnesota"},"type":"Feature","geometry":{"type":"Point","coordinates":[-93.348005,44.948298]}},{"properties":{"city":"Saint Louis Park","geo_score":0.857,"country":"United States","id":"a62wre6m60sw","geo_precision":"city","state":"Minnesota"},"type":"Feature","geometry":{"type":"Point","coordinates":[-93.348005,44.948298]}},{"properties":{"city":"Saint Louis Park","geo_score":0.857,"country":"United States","id":"a62wree6u1oh","geo_precision":"city","state":"Minnesota"},"type":"Feature","geometry":{"type":"Point","coordinates":[-93.348005,44.948298]}},{"properties":{"city":"Saint Paul","geo_score":0.857,"country":"United States","id":"a62wre7bhr8y","geo_precision":"city","state":"Minnesota"},"type":"Feature","geometry":{"type":"Point","coordinates":[-93.093274,44.94441]}},{"properties":{"city":"Saint Paul","geo_score":0.857,"country":"United States","id":"a62wre73ck4m","geo_precision":"city","state":"Minnesota"},"type":"Feature","geometry":{"type":"Point","coordinates":[-93.093274,44.94441]}},{"properties":{"city":"Saint Paul","geo_score":0.857,"country":"United States","id":"a62wreiavzfb","geo_precision":"city","state":"Minnesota"},"type":"Feature","geometry":{"type":"Point","coordinates":[-93.093274,44.94441]}},{"properties":{"city":"Saint Paul","geo_score":0.857,"country":"United States","id":"a62wrehyawp7","geo_precision":"city","state":"Minnesota"},"type":"Feature","geometry":{"type":"Point","coordinates":[-93.093274,44.94441]}},{"properties":{"city":"Saint Paul","geo_score":0.857,"country":"United States","id":"a62wre73ijeq","geo_precision":"city","state":"Minnesota"},"type":"Feature","geometry":{"type":"Point","coordinates":[-93.093274,44.94441]}},{"properties":{"city":"Saint Paul","geo_score":0.857,"country":"United States","id":"a62wrefnc1ak","geo_precision":"city","state":"Minnesota"},"type":"Feature","geometry":{"type":"Point","coordinates":[-93.093274,44.94441]}},{"properties":{"city":"Saint Paul","geo_score":0.857,"country":"United States","id":"a62wrefyxmuc","geo_precision":"city","state":"Minnesota"},"type":"Feature","geometry":{"type":"Point","coordinates":[-93.093274,44.94441]}},{"properties":{"city":"Saint Peter","geo_score":0.798,"country":"United States","id":"a62wre9pei4k","geo_precision":"city","state":"Minnesota"},"type":"Feature","geometry":{"type":"Point","coordinates":[-93.502174,44.594685]}},{"properties":{"city":"Saint Peter","geo_score":0.798,"country":"United States","id":"a62wrec4712v","geo_precision":"city","state":"Minnesota"},"type":"Feature","geometry":{"type":"Point","coordinates":[-93.502174,44.594685]}},{"properties":{"city":"Stillwater","geo_score":0.857,"country":"United States","id":"a62wrebgltu0","geo_precision":"city","state":"Minnesota"},"type":"Feature","geometry":{"type":"Point","coordinates":[-92.84736,45.061416]}},{"properties":{"city":"Varus","geo_score":0.786,"country":"United States","id":"a62wre5ag7ib","geo_precision":"city","state":"Minnesota"},"type":"Feature","geometry":{"type":"Point","coordinates":[-94.702769,47.37662]}},{"properties":{"city":"Waseca","geo_score":0.857,"country":"United States","id":"a62wrebo7t0b","geo_precision":"city","state":"Minnesota"},"type":"Feature","geometry":{"type":"Point","coordinates":[-93.550495,44.065547]}},{"properties":{"city":"Waterville","geo_score":0.857,"country":"United States","id":"a62wre6sgltx","geo_precision":"city","state":"Minnesota"},"type":"Feature","geometry":{"type":"Point","coordinates":[-93.569726,44.324235]}},{"properties":{"city":"Wayzata","geo_score":0.857,"country":"United States","id":"a62wre4fwf74","geo_precision":"city","state":"Minnesota"},"type":"Feature","geometry":{"type":"Point","coordinates":[-93.542233,44.984663]}},{"properties":{"city":"Woodbury","geo_score":0.857,"country":"United States","id":"a62wre657523","geo_precision":"city","state":"Minnesota"},"type":"Feature","geometry":{"type":"Point","coordinates":[-92.95938,44.923855]}},{"properties":{"city":"Wyoming","geo_score":0.857,"country":"United States","id":"a62wrefdny1m","geo_precision":"city","state":"Minnesota"},"type":"Feature","geometry":{"type":"Point","coordinates":[-92.967517,45.336417]}},{"properties":{"city":"Wyoming","geo_score":0.857,"country":"United States","id":"a62wre55de9s","geo_precision":"city","state":"Minnesota"},"type":"Feature","geometry":{"type":"Point","coordinates":[-92.967517,45.336417]}}],"is_temporal":false,"author":{"url":"","metadata":"","contact_name":"Jake","contact_address":"","source":"Excel","contact_phone":""},"source":"","pagination":{"sort":null,"start":0,"total":156,"limit":1000000},"state":"complete","tags":"edina","published":"2010-04-05T16:00:00Z","id":36218}