{"type":"FeatureCollection","data_type":"Dataset","url_type":null,"permissions":[{"permissions":{"download":true,"view":true},"group_id":"everyone"}],"classification":null,"title":"example","count":25,"stream_id":363437,"contributor":{"url":"http://geocommons.com/users/73795","name":"sacman1001"},"data_attributes":null,"calculation_params":null,"icon_link":null,"link":"http://geocommons.com/overlays/363437.json","extent":[-77.1013,38.9786,-77.0884,38.9914],"geometry_types":["point"],"unique_name":null,"name":"example","feature_count":25,"description":"sara example data","next_feature":null,"is_raster":false,"short_classification":"Y","stats":{"icon size":{"max":2.0,"variance":0.145833333333333,"mean":1.4,"stdev":0.381881307912987,"min":1.0,"median":1.5},"latitude":{"max":38.9914192,"variance":1.13262351114334e-05,"mean":38.984470568,"stdev":0.0033654472379512,"min":38.9786263,"median":38.9844349},"longitude":{"max":-77.0883609,"variance":8.97081513940081e-06,"mean":-77.094260524,"stdev":0.00299513190684497,"min":-77.10128,"median":-77.093778}},"features":[{"properties":{"name":"1","city":"Bethesda","latitude":38.9786263,"icon url":"P:\\Research\\Map_Numbers\\Red Numbers\\Red1.png","icon size":1.0,"folder":null,"country":null,"bubble":"16931 Arlington RdBethesda, MD 38.9786263-77.0979406","postal code":null,"show name":"Never","longitude":-77.0979406,"id":"aep8ztmv3j9w","address":"6931 Arlington Rd","state":"MD"},"type":"Feature","geometry":{"type":"Point","coordinates":[-77.0979406,38.9786263]}},{"properties":{"name":"2","city":"Bethesda","latitude":38.9813124,"icon url":"P:\\Research\\Map_Numbers\\Red Numbers\\Red2.png","icon size":1.0,"folder":null,"country":null,"bubble":"24733 Bethesda AveBethesda, MD 38.9813124-77.0943928","postal code":null,"show name":"Never","longitude":-77.0943928,"id":"aep8ztf2kayv","address":"4733 Bethesda Ave","state":"MD"},"type":"Feature","geometry":{"type":"Point","coordinates":[-77.0943928,38.9813124]}},{"properties":{"name":"3","city":"Bethesda","latitude":38.9844908,"icon url":"P:\\Research\\Map_Numbers\\Red Numbers\\Red3.png","icon size":1.0,"folder":null,"country":null,"bubble":"33 Bethesda Metro CenterBethesda, MD 38.9844908-77.0960205","postal code":null,"show name":"Never","longitude":-77.0960205,"id":"aep8ztkh8mz6","address":"3 Bethesda Metro Center","state":"MD"},"type":"Feature","geometry":{"type":"Point","coordinates":[-77.0960205,38.9844908]}},{"properties":{"name":"4","city":"Bethesda","latitude":38.9847143,"icon url":"P:\\Research\\Map_Numbers\\Red Numbers\\Red4.png","icon size":1.0,"folder":null,"country":null,"bubble":"44520 East West HwyBethesda, MD 38.9847143-77.0918681","postal code":null,"show name":"Never","longitude":-77.0918681,"id":"aep8ztcenj31","address":"4520 East West Hwy","state":"MD"},"type":"Feature","geometry":{"type":"Point","coordinates":[-77.0918681,38.9847143]}},{"properties":{"name":"5","city":"Bethesda","latitude":38.984534,"icon url":"P:\\Research\\Map_Numbers\\Red Numbers\\Red5.png","icon size":1.0,"folder":null,"country":null,"bubble":"54600 East West HwyBethesda, MD 38.984534-77.092793","postal code":null,"show name":"Never","longitude":-77.092793,"id":"aep8ztr2zfip","address":"4600 East West Hwy","state":"MD"},"type":"Feature","geometry":{"type":"Point","coordinates":[-77.092793,38.984534]}},{"properties":{"name":"6","city":"Bethesda","latitude":38.9847814,"icon url":"P:\\Research\\Map_Numbers\\Red Numbers\\Red6.png","icon size":1.0,"folder":null,"country":null,"bubble":"64340 East-West HwyBethesda, MD 38.9847814-77.0883609","postal code":null,"show name":"Never","longitude":-77.0883609,"id":"aep8ztepvfru","address":"4340 East-West Hwy","state":"MD"},"type":"Feature","geometry":{"type":"Point","coordinates":[-77.0883609,38.9847814]}},{"properties":{"name":"7","city":"Bethesda","latitude":38.9850268,"icon url":"P:\\Research\\Map_Numbers\\Red Numbers\\Red7.png","icon size":1.0,"folder":null,"country":null,"bubble":"74350 East-West HwyBethesda, MD 38.9850268-77.0891914","postal code":null,"show name":"Never","longitude":-77.0891914,"id":"aep8ztjf4860","address":"4350 East-West Hwy","state":"MD"},"type":"Feature","geometry":{"type":"Point","coordinates":[-77.0891914,38.9850268]}},{"properties":{"name":"8","city":"Bethesda","latitude":38.9819453,"icon url":"P:\\Research\\Map_Numbers\\Red Numbers\\Red8.png","icon size":1.0,"folder":null,"country":null,"bubble":"84910-4930 Elm StBethesda, MD 38.9819453-77.0971334","postal code":null,"show name":"Never","longitude":-77.0971334,"id":"aep8ztemu74b","address":"4910-4930 Elm St","state":"MD"},"type":"Feature","geometry":{"type":"Point","coordinates":[-77.0971334,38.9819453]}},{"properties":{"name":"9","city":"Bethesda","latitude":38.983693,"icon url":"P:\\Research\\Map_Numbers\\Red Numbers\\Red9.png","icon size":1.0,"folder":null,"country":null,"bubble":"94550 Montgomery AveBethesda, MD 38.983693-77.091452","postal code":null,"show name":"Never","longitude":-77.091452,"id":"aep8ztf7jz3s","address":"4550 Montgomery Ave","state":"MD"},"type":"Feature","geometry":{"type":"Point","coordinates":[-77.091452,38.983693]}},{"properties":{"name":"10","city":"Bethesda","latitude":38.98366,"icon url":"P:\\Research\\Map_Numbers\\Red Numbers\\Red10.png","icon size":1.5,"folder":null,"country":null,"bubble":"104630 Montgomery AveBethesda, MD 38.98366-77.092585","postal code":null,"show name":"Never","longitude":-77.092585,"id":"aep8zthrrzzp","address":"4630 Montgomery Ave","state":"MD"},"type":"Feature","geometry":{"type":"Point","coordinates":[-77.092585,38.98366]}},{"properties":{"name":"11","city":"Bethesda","latitude":38.989371,"icon url":"P:\\Research\\Map_Numbers\\Red Numbers\\Red11.png","icon size":1.5,"folder":null,"country":null,"bubble":"117979 Old Georgetown RdBethesda, MD 38.989371-77.10128","postal code":null,"show name":"Never","longitude":-77.10128,"id":"aep8ztmrmgc5","address":"7979 Old Georgetown Rd","state":"MD"},"type":"Feature","geometry":{"type":"Point","coordinates":[-77.10128,38.989371]}},{"properties":{"name":"12","city":"Bethesda","latitude":38.991281,"icon url":"P:\\Research\\Map_Numbers\\Red Numbers\\Red12.png","icon size":1.5,"folder":null,"country":null,"bubble":"124833 Rugby AveBethesda, MD 38.991281-77.09843","postal code":null,"show name":"Never","longitude":-77.09843,"id":"aep8ztho84zd","address":"4833 Rugby Ave","state":"MD"},"type":"Feature","geometry":{"type":"Point","coordinates":[-77.09843,38.991281]}},{"properties":{"name":"13","city":"Bethesda","latitude":38.980429,"icon url":"P:\\Research\\Map_Numbers\\Red Numbers\\Red13.png","icon size":1.5,"folder":null,"country":null,"bubble":"137101 Wisconsin AveBethesda, MD 38.980429-77.091642","postal code":null,"show name":"Never","longitude":-77.091642,"id":"aep8ztsmxo0e","address":"7101 Wisconsin Ave","state":"MD"},"type":"Feature","geometry":{"type":"Point","coordinates":[-77.091642,38.980429]}},{"properties":{"name":"14","city":"Bethesda","latitude":38.981446,"icon url":"P:\\Research\\Map_Numbers\\Red Numbers\\Red14.png","icon size":1.5,"folder":null,"country":null,"bubble":"147200 Wisconsin AveBethesda, MD 38.981446-77.093376","postal code":null,"show name":"Never","longitude":-77.093376,"id":"aep8ztch5xc8","address":"7200 Wisconsin Ave","state":"MD"},"type":"Feature","geometry":{"type":"Point","coordinates":[-77.093376,38.981446]}},{"properties":{"name":"15","city":"Bethesda","latitude":38.981762,"icon url":"P:\\Research\\Map_Numbers\\Red Numbers\\Red15.png","icon size":1.5,"folder":null,"country":null,"bubble":"157201 Wisconsin AveBethesda, MD 38.981762-77.092449","postal code":null,"show name":"Never","longitude":-77.092449,"id":"aep8zto4cwz0","address":"7201 Wisconsin Ave","state":"MD"},"type":"Feature","geometry":{"type":"Point","coordinates":[-77.092449,38.981762]}},{"properties":{"name":"16","city":"Bethesda","latitude":38.9914192,"icon url":"P:\\Research\\Map_Numbers\\Red Numbers\\Red16.png","icon size":1.5,"folder":null,"country":null,"bubble":"167220 Wisconsin AveBethesda, MD 38.981662-77.093242","postal code":null,"show name":"Never","longitude":-77.0971938,"id":"aep8ztouv82e","address":"8120 Woodmont Ave","state":"MD"},"type":"Feature","geometry":{"type":"Point","coordinates":[-77.0971938,38.9914192]}},{"properties":{"name":"17","city":"Bethesda","latitude":38.982458,"icon url":"P:\\Research\\Map_Numbers\\Red Numbers\\Red17.png","icon size":1.5,"folder":null,"country":null,"bubble":"177315 Wisconsin AveBethesda, MD 38.9827359-77.0924038","postal code":null,"show name":"Never","longitude":-77.095269,"id":"aep8ztqy3oot","address":"4800 Hampden Ln","state":"MD"},"type":"Feature","geometry":{"type":"Point","coordinates":[-77.095269,38.982458]}},{"properties":{"name":"18","city":"Bethesda","latitude":38.989131,"icon url":"P:\\Research\\Map_Numbers\\Red Numbers\\Red18.png","icon size":1.5,"folder":null,"country":null,"bubble":"187315 Wisconsin AveBethesda, MD 38.982641-77.092732","postal code":null,"show name":"Never","longitude":-77.097942,"id":"aep8ztemy2kx","address":"7900-7920 Norfolk Ave","state":"MD"},"type":"Feature","geometry":{"type":"Point","coordinates":[-77.097942,38.989131]}},{"properties":{"name":"19","city":"Bethesda","latitude":38.9852405,"icon url":"P:\\Research\\Map_Numbers\\Red Numbers\\Red19.png","icon size":1.5,"folder":null,"country":null,"bubble":"197475 Wisconsin AveBethesda, MD 38.9844349-77.093778","postal code":null,"show name":"Never","longitude":-77.0954985,"id":"aep8ztmkgx41","address":"7500 Old Georgetown Rd","state":"MD"},"type":"Feature","geometry":{"type":"Point","coordinates":[-77.0954985,38.9852405]}},{"properties":{"name":"Current Location","city":"Bethesda","latitude":38.9853254,"icon url":"P:\\Research\\Map_Numbers\\Star Location\\Star.png","icon size":1.0,"folder":null,"country":null,"bubble":"Current Location7501 Wisconsin AveBethesda, MD 38.9853254-77.0939163","postal code":null,"show name":"Never","longitude":-77.0939163,"id":"aep8ztmdy50u","address":"7501 Wisconsin Ave","state":"MD"},"type":"Feature","geometry":{"type":"Point","coordinates":[-77.0939163,38.9853254]}},{"properties":{"name":"B1","city":"Bethesda","latitude":38.981662,"icon url":"N:\\Research\\Map_Numbers\\Black Numbers\\BlackB1.png","icon size":2.0,"folder":null,"country":null,"bubble":"B1,  ","postal code":null,"show name":"Never","longitude":-77.093242,"id":"aep8ztllvwbr","address":"7220 Wisconsin Ave","state":"MD"},"type":"Feature","geometry":{"type":"Point","coordinates":[-77.093242,38.981662]}},{"properties":{"name":"B2","city":"Bethesda","latitude":38.9827359,"icon url":"N:\\Research\\Map_Numbers\\Black Numbers\\BlackB2.png","icon size":2.0,"folder":null,"country":null,"bubble":"B2,  ","postal code":null,"show name":"Never","longitude":-77.0924038,"id":"aep8ztgjikv2","address":"7315 Wisconsin Ave","state":"MD"},"type":"Feature","geometry":{"type":"Point","coordinates":[-77.0924038,38.9827359]}},{"properties":{"name":"B3","city":"Bethesda","latitude":38.982641,"icon url":"N:\\Research\\Map_Numbers\\Black Numbers\\BlackB3.png","icon size":2.0,"folder":null,"country":null,"bubble":"B3,  ","postal code":null,"show name":"Never","longitude":-77.092732,"id":"aep8ztr52dp6","address":"7315 Wisconsin Ave","state":"MD"},"type":"Feature","geometry":{"type":"Point","coordinates":[-77.092732,38.982641]}},{"properties":{"name":"B4","city":"Bethesda","latitude":38.9844349,"icon url":"N:\\Research\\Map_Numbers\\Black Numbers\\BlackB4.png","icon size":2.0,"folder":null,"country":null,"bubble":"B4,  ","postal code":null,"show name":"Never","longitude":-77.093778,"id":"aep8ztfhq6i9","address":"7475 Wisconsin Ave","state":"MD"},"type":"Feature","geometry":{"type":"Point","coordinates":[-77.093778,38.9844349]}},{"properties":{"name":"B5","city":"Bethesda","latitude":38.989643,"icon url":"N:\\Research\\Map_Numbers\\Black Numbers\\BlackB5.png","icon size":2.0,"folder":null,"country":null,"bubble":"B5,  ","postal code":null,"show name":"Never","longitude":-77.095623,"id":"aep8ztnpc6yo","address":"7900 Wisconsin Ave","state":"MD"},"type":"Feature","geometry":{"type":"Point","coordinates":[-77.095623,38.989643]}}],"is_temporal":false,"author":{"url":"","metadata":"","contact_name":"","contact_address":"","source":"","contact_phone":""},"source":"","pagination":{"sort":null,"start":0,"total":25,"limit":1000000},"state":"complete","tags":"sara","published":"2013-05-31T16:00:00Z","id":363437}