{"type":"FeatureCollection","data_type":"Dataset","url_type":null,"permissions":[{"permissions":{"download":true,"view":true},"group_id":"everyone"}],"classification":null,"title":"postcodes","count":86,"stream_id":363586,"contributor":{"url":"http://geocommons.com/users/73830","name":"offc"},"data_attributes":null,"calculation_params":null,"icon_link":null,"link":"http://geocommons.com/overlays/363586.json","extent":[0.0,0.0,0.0,0.0],"geometry_types":[],"unique_name":null,"name":"postcodes","feature_count":86,"description":"","next_feature":null,"is_raster":false,"short_classification":"Y","stats":{},"features":[{"properties":{"postcode":"SY23 3FL","university":"Aberystwyth University","geo_score":0.0,"id":"aepj7y238rvq","geo_precision":"unmatched"},"type":"Feature","geometry":null},{"properties":{"postcode":"CB1 1PT","university":"Anglia Ruskin University","geo_score":0.0,"id":"aepj7y94d692","geo_precision":"unmatched"},"type":"Feature","geometry":null},{"properties":{"postcode":"BA2 9BN","university":"Bath Spa University","geo_score":0.0,"id":"aepj7y38lpe9","geo_precision":"unmatched"},"type":"Feature","geometry":null},{"properties":{"postcode":"B42 2SU","university":"Birmingham City University","geo_score":0.0,"id":"aepj7y2vcjp4","geo_precision":"unmatched"},"type":"Feature","geometry":null},{"properties":{"postcode":"FY2 0HB","university":"Blackpool and The Fylde College","geo_score":0.0,"id":"aepj7y2uu0ni","geo_precision":"unmatched"},"type":"Feature","geometry":null},{"properties":{"postcode":"BH12 5BB","university":"Bournemouth University","geo_score":0.0,"id":"aepj7y1at9xw","geo_precision":"unmatched"},"type":"Feature","geometry":null},{"properties":{"postcode":"UB8 3PH","university":"Brunel University London","geo_score":0.0,"id":"aepj7yctz2za","geo_precision":"unmatched"},"type":"Feature","geometry":null},{"properties":{"postcode":"HP11 2JZ","university":"Buckinghamshire Chilterns University College","geo_score":0.0,"id":"aepj7y8zi9o6","geo_precision":"unmatched"},"type":"Feature","geometry":null},{"properties":{"postcode":"CT1 1QU","university":"Canterbury Christ church","geo_score":0.0,"id":"aepj7y50fn44","geo_precision":"unmatched"},"type":"Feature","geometry":null},{"properties":{"postcode":"CF5 2YB","university":"Cardiff Metropolitan University","geo_score":0.0,"id":"aepj7y5emzw7","geo_precision":"unmatched"},"type":"Feature","geometry":null},{"properties":{"postcode":"CF10 3AT","university":"Cardiff University","geo_score":0.0,"id":"aepj7y1i2aam","geo_precision":"unmatched"},"type":"Feature","geometry":null},{"properties":{"postcode":"N1C 4AA","university":"Central Saint Martins College of Art and Design","geo_score":0.0,"id":"aepj7y93mm8s","geo_precision":"unmatched"},"type":"Feature","geometry":null},{"properties":{"postcode":"811 02 Bratislava","university":"Comenius University in Bratislava Slovakia","geo_score":0.0,"id":"aepj7y883wbb","geo_precision":"unmatched"},"type":"Feature","geometry":null},{"properties":{"postcode":"CV1 5FB","university":"Coventry University","geo_score":0.0,"id":"aepj7y8e8nhc","geo_precision":"unmatched"},"type":"Feature","geometry":null},{"properties":{"postcode":"LE2 7DR","university":"De Montfort University Leicester","geo_score":0.0,"id":"aepj7y07uach","geo_precision":"unmatched"},"type":"Feature","geometry":null},{"properties":{"postcode":"TR11 4RH","university":"Falmouth University","geo_score":0.0,"id":"aepj7y8d5mol","geo_precision":"unmatched"},"type":"Feature","geometry":null},{"properties":{"postcode":"GU1 1EZ","university":"Guildford College","geo_score":0.0,"id":"aepj7y3en1xc","geo_precision":"unmatched"},"type":"Feature","geometry":null},{"properties":{"postcode":"EH14 1AS","university":"Heriot-Watt University","geo_score":0.0,"id":"aepj7yagdsii","geo_precision":"unmatched"},"type":"Feature","geometry":null},{"properties":{"postcode":"ST5 5BG","university":"Keele University","geo_score":0.0,"id":"aepj7xy894h8","geo_precision":"unmatched"},"type":"Feature","geometry":null},{"properties":{"postcode":"KT1 2EE","university":"Kingston University London","geo_score":0.0,"id":"aepj7yd8a430","geo_precision":"unmatched"},"type":"Feature","geometry":null},{"properties":{"postcode":"LS18 5HD","university":"Leeds Trinity and All Saints University","geo_score":0.0,"id":"aepj7y18r3e9","geo_precision":"unmatched"},"type":"Feature","geometry":null},{"properties":{"postcode":"L3 5UZ","university":"Liverpool John Moores","geo_score":0.0,"id":"aepj7y9694rc","geo_precision":"unmatched"},"type":"Feature","geometry":null},{"properties":{"postcode":"W1G 0BJ","university":"London college of fashion","geo_score":0.0,"id":"aepj7y911fz0","geo_precision":"unmatched"},"type":"Feature","geometry":null},{"properties":{"postcode":"E1 7QA","university":"London Metropolitan University","geo_score":0.0,"id":"aepj7xxnb26o","geo_precision":"unmatched"},"type":"Feature","geometry":null},{"properties":{"postcode":"SE1 0AA","university":"London South Bank University","geo_score":0.0,"id":"aepj7y2ki84f","geo_precision":"unmatched"},"type":"Feature","geometry":null},{"properties":{"postcode":"M15 6BH","university":"Manchester Metropolitan University","geo_score":0.0,"id":"aepj7xxx0por","geo_precision":"unmatched"},"type":"Feature","geometry":null},{"properties":{"postcode":"NW4 4BT","university":"Middlesex University","geo_score":0.0,"id":"aepj7xxzp250","geo_precision":"unmatched"},"type":"Feature","geometry":null},{"properties":{"postcode":"NE1 7RU","university":"Newcastle University","geo_score":0.0,"id":"aepj7xz6i0o4","geo_precision":"unmatched"},"type":"Feature","geometry":null},{"properties":{"postcode":"N1 6AH","university":"Newport University","geo_score":0.0,"id":"aepj7yb3qvu1","geo_precision":"unmatched"},"type":"Feature","geometry":null},{"properties":{"postcode":"NE1 8ST","university":"Northumbria University","geo_score":0.0,"id":"aepj7y8scuyi","geo_precision":"unmatched"},"type":"Feature","geometry":null},{"properties":{"postcode":"NG1 4BU","university":"Nottingham Trent University","geo_score":0.0,"id":"aepj7y88o5va","geo_precision":"unmatched"},"type":"Feature","geometry":null},{"properties":{"postcode":"OX3 0BP","university":"Oxford Brookes University","geo_score":0.0,"id":"aepj7y65ghcw","geo_precision":"unmatched"},"type":"Feature","geometry":null},{"properties":{"postcode":"E1 4NS","university":"Queen Mary, University of London","geo_score":0.0,"id":"aepj7yafy4ok","geo_precision":"unmatched"},"type":"Feature","geometry":null},{"properties":{"postcode":"SE10 0EW","university":"Ravensbourne College of Design and Communication","geo_score":0.0,"id":"aepj7y358lss","geo_precision":"unmatched"},"type":"Feature","geometry":null},{"properties":{"postcode":"E8 4DD","university":"SAE Institute","geo_score":0.0,"id":"aepj7xyqredg","geo_precision":"unmatched"},"type":"Feature","geometry":null},{"properties":{"postcode":"SN15 2NY","university":"Salisbury University","geo_score":0.0,"id":"aepj7xyfz31b","geo_precision":"unmatched"},"type":"Feature","geometry":null},{"properties":{"postcode":"S1 1WB","university":"Sheffield Hallam University","geo_score":0.0,"id":"aepj7ydjebvv","geo_precision":"unmatched"},"type":"Feature","geometry":null},{"properties":{"postcode":"S10 2TN","university":"Sheffield University","geo_score":0.0,"id":"aepj7y9ljrzs","geo_precision":"unmatched"},"type":"Feature","geometry":null},{"properties":{"postcode":"TW1 4SX","university":"St Mary's University College","geo_score":0.0,"id":"aepj7y1ldapi","geo_precision":"unmatched"},"type":"Feature","geometry":null},{"properties":{"postcode":"ST4 2DE","university":"Staffordshire University","geo_score":0.0,"id":"aepj7y2j3ofy","geo_precision":"unmatched"},"type":"Feature","geometry":null},{"properties":{"postcode":"SA1 6ED","university":"Swansea Metropolitan University","geo_score":0.0,"id":"aepj7y6gdkr9","geo_precision":"unmatched"},"type":"Feature","geometry":null},{"properties":{"postcode":"TS1 3BA","university":"Teesside University","geo_score":0.0,"id":"aepj7y9picqb","geo_precision":"unmatched"},"type":"Feature","geometry":null},{"properties":{"postcode":"BH12 5HH","university":"The Arts University College at Bournemouth","geo_score":0.0,"id":"aepj7y26rlce","geo_precision":"unmatched"},"type":"Feature","geometry":null},{"properties":{"postcode":"CO3 3LL","university":"The University of Essex | Colchester Institute","geo_score":0.0,"id":"aepj7xz08qja","geo_precision":"unmatched"},"type":"Feature","geometry":null},{"properties":{"postcode":"TR1 3XX","university":"Truro and Penwith College","geo_score":0.0,"id":"aepj7y32x515","geo_precision":"unmatched"},"type":"Feature","geometry":null},{"properties":{"postcode":"KT18 5BE","university":"UCA Epsom - University for the Creative Arts","geo_score":0.0,"id":"aepj7y0k2pw9","geo_precision":"unmatched"},"type":"Feature","geometry":null},{"properties":{"postcode":"WC1E 6BT","university":"University College London","geo_score":0.0,"id":"aepj7xyqzya3","geo_precision":"unmatched"},"type":"Feature","geometry":null},{"properties":{"postcode":"CT1 3AN","university":"University for the Creative Arts","geo_score":0.0,"id":"aepj7y7tok8b","geo_precision":"unmatched"},"type":"Feature","geometry":null},{"properties":{"postcode":"LU1 3JU","university":"University of Bedfordshire","geo_score":0.0,"id":"aepj7ydmrjej","geo_precision":"unmatched"},"type":"Feature","geometry":null},{"properties":{"postcode":"BN2 4AT","university":"University of Brighton","geo_score":0.0,"id":"aepj7y8q14da","geo_precision":"unmatched"},"type":"Feature","geometry":null},{"properties":{"postcode":"MK18 1EG","university":"University of Buckingham","geo_score":0.0,"id":"aepj7y5zmz8w","geo_precision":"unmatched"},"type":"Feature","geometry":null},{"properties":{"postcode":"PR1 2HE","university":"University of Central Lancashire","geo_score":0.0,"id":"aepj7xyq47t1","geo_precision":"unmatched"},"type":"Feature","geometry":null},{"properties":{"postcode":"CH1 4AR","university":"University of Chester","geo_score":0.0,"id":"aepj7y1zf6cy","geo_precision":"unmatched"},"type":"Feature","geometry":null},{"properties":{"postcode":"PO19 6PE","university":"University of Chichester","geo_score":0.0,"id":"aepj7yb7tuhf","geo_precision":"unmatched"},"type":"Feature","geometry":null},{"properties":{"postcode":"CA1 2HH","university":"University of Cumbria","geo_score":0.0,"id":"aepj7y8bdmx7","geo_precision":"unmatched"},"type":"Feature","geometry":null},{"properties":{"postcode":"DE22 1GB","university":"University of Derby","geo_score":0.0,"id":"aepj7y4a3vp9","geo_precision":"unmatched"},"type":"Feature","geometry":null},{"properties":{"postcode":"E16 2RD","university":"University of East London","geo_score":0.0,"id":"aepj7yctu861","geo_precision":"unmatched"},"type":"Feature","geometry":null},{"properties":{"postcode":"CF37 1DL","university":"University of Glamorgan","geo_score":0.0,"id":"aepj7y9udcat","geo_precision":"unmatched"},"type":"Feature","geometry":null},{"properties":{"postcode":"GL2 9HW","university":"University of Gloucestershire","geo_score":0.0,"id":"aepj7xyfcihg","geo_precision":"unmatched"},"type":"Feature","geometry":null},{"properties":{"postcode":"SE10 9LS","university":"University of Greenwich","geo_score":0.0,"id":"aepj7yax3xis","geo_precision":"unmatched"},"type":"Feature","geometry":null},{"properties":{"postcode":"AL10 9AB","university":"University of Hertfordshire","geo_score":0.0,"id":"aepj7y42g70p","geo_precision":"unmatched"},"type":"Feature","geometry":null},{"properties":{"postcode":"HD1 3DH","university":"University of Huddersfield","geo_score":0.0,"id":"aepj7y60bmeq","geo_precision":"unmatched"},"type":"Feature","geometry":null},{"properties":{"postcode":"CT2 7NZ","university":"University of Kent","geo_score":0.0,"id":"aepj7y1k7fqo","geo_precision":"unmatched"},"type":"Feature","geometry":null},{"properties":{"postcode":"LS2 9JT","university":"University of Leeds","geo_score":0.0,"id":"aepj7yczijuf","geo_precision":"unmatched"},"type":"Feature","geometry":null},{"properties":{"postcode":"LE1 7RH","university":"University of Leicester","geo_score":0.0,"id":"aepj7y7e9mdo","geo_precision":"unmatched"},"type":"Feature","geometry":null},{"properties":{"postcode":"LN6 7TS","university":"University of Lincoln","geo_score":0.0,"id":"aepj7y7m3142","geo_precision":"unmatched"},"type":"Feature","geometry":null},{"properties":{"postcode":"L69 3BX","university":"University of Liverpool","geo_score":0.0,"id":"aepj7y6a18dm","geo_precision":"unmatched"},"type":"Feature","geometry":null},{"properties":{"postcode":"M13 9PL","university":"University of Manchester","geo_score":0.0,"id":"aepj7ye1izqq","geo_precision":"unmatched"},"type":"Feature","geometry":null},{"properties":{"postcode":"NN2 7AL","university":"University of Northampton","geo_score":0.0,"id":"aepj7y2k5f4q","geo_precision":"unmatched"},"type":"Feature","geometry":null},{"properties":{"postcode":"PL4 8AA","university":"University of Plymouth","geo_score":0.0,"id":"aepj7xzbgu1d","geo_precision":"unmatched"},"type":"Feature","geometry":null},{"properties":{"postcode":"PO1 2UP","university":"University of Portsmouth","geo_score":0.0,"id":"aepj7y3h0x7m","geo_precision":"unmatched"},"type":"Feature","geometry":null},{"properties":{"postcode":"RG6 6UR","university":"University of Reading","geo_score":0.0,"id":"aepj7xy8p9cx","geo_precision":"unmatched"},"type":"Feature","geometry":null},{"properties":{"postcode":"M5 4WT","university":"University of Salford","geo_score":0.0,"id":"aepj7yd5582i","geo_precision":"unmatched"},"type":"Feature","geometry":null},{"properties":{"postcode":"S10 2TN","university":"University of Sheffield","geo_score":0.0,"id":"aepj7xytahc2","geo_precision":"unmatched"},"type":"Feature","geometry":null},{"properties":{"postcode":"SO17 1BJ","university":"University of Southampton","geo_score":0.0,"id":"aepj7y7qamv0","geo_precision":"unmatched"},"type":"Feature","geometry":null},{"properties":{"postcode":"PL6 8BH","university":"University of St. Mark &amp; St. John Plymouth","geo_score":0.0,"id":"aepj7y1snx3v","geo_precision":"unmatched"},"type":"Feature","geometry":null},{"properties":{"postcode":"SR1 3SD","university":"University of Sunderland","geo_score":0.0,"id":"aepj7ybffjbx","geo_precision":"unmatched"},"type":"Feature","geometry":null},{"properties":{"postcode":"GU2 7XH","university":"University of Surrey","geo_score":0.0,"id":"aepj7y65aq35","geo_precision":"unmatched"},"type":"Feature","geometry":null},{"properties":{"postcode":"BN1 9RH","university":"University of Sussex","geo_score":0.0,"id":"aepj7y4vw8w7","geo_precision":"unmatched"},"type":"Feature","geometry":null},{"properties":{"postcode":"BS16 1DD","university":"University of the West of England Bristol","geo_score":0.0,"id":"aepj7y0yw8bc","geo_precision":"unmatched"},"type":"Feature","geometry":null},{"properties":{"postcode":"CF10 3EY","university":"University of Victoria Cardiff","geo_score":0.0,"id":"aepj7y9vokc7","geo_precision":"unmatched"},"type":"Feature","geometry":null},{"properties":{"postcode":"W5 5RF","university":"University of West London","geo_score":0.0,"id":"aepj7y4jnqlk","geo_precision":"unmatched"},"type":"Feature","geometry":null},{"properties":{"postcode":"SO22 4NR","university":"University of Winchester","geo_score":0.0,"id":"aepj7xy03foq","geo_precision":"unmatched"},"type":"Feature","geometry":null},{"properties":{"postcode":"WV1 1LY","university":"University of Wolverhampton","geo_score":0.0,"id":"aepj7xzhukc2","geo_precision":"unmatched"},"type":"Feature","geometry":null},{"properties":{"postcode":"WR2 6AJ","university":"University of Worcester","geo_score":0.0,"id":"aepj7y8ahvji","geo_precision":"unmatched"},"type":"Feature","geometry":null},{"properties":{"postcode":"DT4 7LQ","university":"Weymouth College","geo_score":0.0,"id":"aepj7y86wnys","geo_precision":"unmatched"},"type":"Feature","geometry":null}],"is_temporal":false,"author":{"url":"","metadata":"","contact_name":"","contact_address":"","source":"","contact_phone":""},"source":"","pagination":{"sort":null,"start":0,"total":86,"limit":1000000},"state":"complete","tags":"","published":"2014-08-16T18:05:42-04:00","id":363586}