{"type":"FeatureCollection","data_type":"Dataset","url_type":null,"permissions":[{"permissions":{"download":true,"view":true},"group_id":"everyone"}],"classification":null,"title":"data2","count":22,"stream_id":36357,"contributor":{"url":"http://geocommons.com/users/12502","name":"truonglam"},"data_attributes":null,"calculation_params":null,"icon_link":null,"link":"http://geocommons.com/overlays/36357.json","extent":[-122.978,30.2672,-71.4594,47.0909],"geometry_types":["point"],"unique_name":null,"name":"data2","feature_count":22,"description":"","next_feature":null,"is_raster":false,"short_classification":"Y","stats":{"Total":{"max":10372000000.0,"mean":1402272727.27273,"variance":7.15733201731602e+18,"stdev":2675319049.63053,"min":1000000.0,"median":51000000.0}},"features":[{"properties":{"City":"Phoenix","geo_score":0.857,"State":"AZ","Total":6707000000.0,"id":"a6tazuvqsm19","geo_precision":"city"},"type":"Feature","geometry":{"type":"Point","coordinates":[-112.074037,33.448377]}},{"properties":{"City":"Folsom","geo_score":0.857,"State":"CA","Total":4201000000.0,"id":"a6tazulh0thq","geo_precision":"city"},"type":"Feature","geometry":{"type":"Point","coordinates":[-121.310796,38.594181]}},{"properties":{"City":"Santa Clara","geo_score":0.757,"State":"CA","Total":4047000000.0,"id":"a6tazupsb04o","geo_precision":"city"},"type":"Feature","geometry":{"type":"Point","coordinates":[-119.045658,36.114674]}},{"properties":{"City":"Boulder","geo_score":0.857,"State":"CO","Total":14000000.0,"id":"a6tazuja419i","geo_precision":"city"},"type":"Feature","geometry":{"type":"Point","coordinates":[-105.250597,39.975263]}},{"properties":{"City":"Fort Collins","geo_score":0.753,"State":"CO","Total":374000000.0,"id":"a6tazuw7dkzr","geo_precision":"city"},"type":"Feature","geometry":{"type":"Point","coordinates":[-108.685164,39.149614]}},{"properties":{"City":"Washington","geo_score":0.857,"State":"DC","Total":14000000.0,"id":"a6tazuu5h05h","geo_precision":"city"},"type":"Feature","geometry":{"type":"Point","coordinates":[-77.036366,38.895112]}},{"properties":{"City":"Atlanta","geo_score":0.857,"State":"GA","Total":6000000.0,"id":"a6tazuheciga","geo_precision":"city"},"type":"Feature","geometry":{"type":"Point","coordinates":[-84.387982,33.748995]}},{"properties":{"City":"Boise","geo_score":0.857,"State":"ID","Total":17000000.0,"id":"a6tazux1udtm","geo_precision":"city"},"type":"Feature","geometry":{"type":"Point","coordinates":[-116.203451,43.6135]}},{"properties":{"City":"Champaign","geo_score":0.857,"State":"IL","Total":51000000.0,"id":"a6tazuilcpvu","geo_precision":"city"},"type":"Feature","geometry":{"type":"Point","coordinates":[-88.243383,40.116421]}},{"properties":{"City":"Chicago","geo_score":0.857,"State":"IL","Total":26000000.0,"id":"a6tazuko2akx","geo_precision":"city"},"type":"Feature","geometry":{"type":"Point","coordinates":[-87.650052,41.850033]}},{"properties":{"City":"Rockton","geo_score":0.857,"State":"IL","Total":1000000.0,"id":"a6tazutalkqj","geo_precision":"city"},"type":"Feature","geometry":{"type":"Point","coordinates":[-89.142856,42.381926]}},{"properties":{"City":"Hudson","geo_score":0.857,"State":"MA","Total":1214000000.0,"id":"a6tazuiytdlh","geo_precision":"city"},"type":"Feature","geometry":{"type":"Point","coordinates":[-71.459405,42.446396]}},{"properties":{"City":"Raleigh","geo_score":0.857,"State":"NC","Total":14000000.0,"id":"a6tazuowfp7m","geo_precision":"city"},"type":"Feature","geometry":{"type":"Point","coordinates":[-78.638615,35.772096]}},{"properties":{"City":"Nashua","geo_score":0.857,"State":"NH","Total":40000000.0,"id":"a6tazus40wvz","geo_precision":"city"},"type":"Feature","geometry":{"type":"Point","coordinates":[-71.626336,42.771537]}},{"properties":{"City":"Morristown","geo_score":0.857,"State":"NJ","Total":13000000.0,"id":"a6tazuoq13pw","geo_precision":"city"},"type":"Feature","geometry":{"type":"Point","coordinates":[-74.253756,40.425107]}},{"properties":{"City":"Rio Rancho","geo_score":0.746,"State":"NM","Total":2066000000.0,"id":"a6tazukzn5yf","geo_precision":"city"},"type":"Feature","geometry":{"type":"Point","coordinates":[-104.195805,35.93873]}},{"properties":{"City":"Hillsboro","geo_score":0.857,"State":"OR","Total":10372000000.0,"id":"a6tazur8ydf6","geo_precision":"city"},"type":"Feature","geometry":{"type":"Point","coordinates":[-122.977963,45.458397]}},{"properties":{"City":"Pittsburgh","geo_score":0.857,"State":"PA","Total":25000000.0,"id":"a6tazuodt2e6","geo_precision":"city"},"type":"Feature","geometry":{"type":"Point","coordinates":[-79.995886,40.440625]}},{"properties":{"City":"Columbia","geo_score":0.857,"State":"SC","Total":173000000.0,"id":"a6tazusl8jfv","geo_precision":"city"},"type":"Feature","geometry":{"type":"Point","coordinates":[-81.024864,33.987454]}},{"properties":{"City":"Austin","geo_score":0.857,"State":"TX","Total":709000000.0,"id":"a6tazuql584i","geo_precision":"city"},"type":"Feature","geometry":{"type":"Point","coordinates":[-97.743061,30.267153]}},{"properties":{"City":"Chantilly","geo_score":0.857,"State":"VA","Total":22000000.0,"id":"a6tazutgrl0k","geo_precision":"city"},"type":"Feature","geometry":{"type":"Point","coordinates":[-77.499705,38.920292]}},{"properties":{"City":"DuPont","geo_score":0.857,"State":"WA","Total":744000000.0,"id":"a6tazumc6nyu","geo_precision":"city"},"type":"Feature","geometry":{"type":"Point","coordinates":[-122.656691,47.090904]}}],"is_temporal":false,"author":{"url":"","metadata":"","contact_name":"","contact_address":"","source":"","contact_phone":""},"source":"","pagination":{"sort":null,"start":0,"total":22,"limit":1000000},"state":"complete","tags":"","published":"2014-08-10T17:05:58-04:00","id":36357}