{"type":"FeatureCollection","data_type":"Dataset","url_type":null,"permissions":[{"permissions":{"download":true,"view":true},"group_id":"everyone"}],"classification":null,"title":"West Credit Unions","count":469,"stream_id":365283,"contributor":{"url":"http://geocommons.com/users/74371","name":"lscottcornell"},"data_attributes":null,"calculation_params":null,"icon_link":null,"link":"http://geocommons.com/overlays/365283.json","extent":[-159.399,19.7162,-92.7564,61.215],"geometry_types":["point"],"unique_name":null,"name":"West Credit Unions","feature_count":469,"description":"","next_feature":null,"is_raster":false,"short_classification":"Y","stats":{},"features":[{"properties":{"name":"Pittsburg EFCU","city":null,"zip":null,"assets":"$10,338,089","url":null,"column_8":"Credit Union","geo_score":0.0,"street":null,"id":"aeuz0hitm0sd","geo_precision":"","state":null},"type":"Feature","geometry":null},{"properties":{"name":"1st Financial CU","city":null,"zip":null,"assets":"$639,968,123","url":null,"column_8":"Credit Union","geo_score":0.0,"street":null,"id":"aeuz0ho0dhzv","geo_precision":"unmatched","state":"CA"},"type":"Feature","geometry":null},{"properties":{"name":"Maui County EFCU","city":null,"zip":null,"assets":"$245,728,679","url":"WWW.MAUIEFCU.ORG","column_8":"Credit Union","geo_score":0.0,"street":null,"id":"aeuz0hg8d32u","geo_precision":"unmatched","state":"HI"},"type":"Feature","geometry":null},{"properties":{"name":"Omaha Public Power District EFCU","city":null,"zip":null,"assets":"$26,281,624","url":null,"column_8":"Credit Union","geo_score":0.0,"street":null,"id":"aeuz0hevyv2s","geo_precision":"","state":null},"type":"Feature","geometry":null},{"properties":{"name":"Popa FCU","city":"CERRITOS","zip":"90703","assets":"$214,561,496","url":"POPAFCU.ORG","column_8":"Credit Union","geo_score":0.958,"street":"13304 EAST ALONDRA BLVD.","id":"aeuz0hiynp5c","geo_precision":"range","state":"CA"},"type":"Feature","geometry":{"type":"Point","coordinates":[-118.04654,33.887855]}},{"properties":{"name":"Pacific Transportation FCU","city":null,"zip":null,"assets":"$80,100,873","url":null,"column_8":"Credit Union","geo_score":0.0,"street":null,"id":"aeuz0hqcyp5s","geo_precision":"","state":null},"type":"Feature","geometry":null},{"properties":{"name":"Battle River Credit Union Ltd.","city":null,"zip":null,"assets":"423,776,050","url":null,"column_8":"Credit Union","geo_score":0.0,"street":null,"id":"aeuz0hnt7q9j","geo_precision":"unmatched","state":"AB"},"type":"Feature","geometry":null},{"properties":{"name":"Bay Federal Credit Union","city":"CAPITOLA","zip":"95010","assets":"$622,110,191","url":"WWW.BAYFED.COM","column_8":"Credit Union","geo_score":1.0,"street":"3333 CLARES STREET","id":"aeuz0hhao6xn","geo_precision":"range","state":"CA"},"type":"Feature","geometry":{"type":"Point","coordinates":[-121.969599,36.97431]}},{"properties":{"name":"Burbank City FCU","city":"BURBANK","zip":"91506","assets":"$258,197,680","url":"WWW.BURBANKCITY.ORG","column_8":"Credit Union","geo_score":0.857,"street":"1800 W. MAGNOLIA BLVD","id":"aeuz0hp4h76u","geo_precision":"zip","state":"CA"},"type":"Feature","geometry":{"type":"Point","coordinates":[-118.298662,33.786594]}},{"properties":{"name":"Advantage Credit Union","city":null,"zip":null,"assets":"260,309,887","url":null,"column_8":"Credit Union","geo_score":0.0,"street":null,"id":"aeuz0hompxm3","geo_precision":"unmatched","state":"SK"},"type":"Feature","geometry":null},{"properties":{"name":"America's Christian CU","city":"Glendora","zip":"91740-0808","assets":"$245,186,316","url":"www.americaschristiancu.com","column_8":"Credit Union","geo_score":0.364,"street":"PO Box 5100","id":"aeuz0hjdkvhh","geo_precision":"street","state":"CA"},"type":"Feature","geometry":{"type":"Point","coordinates":[-118.062631,34.100947]}},{"properties":{"name":"America's CU","city":"FORT LEWIS","zip":"98433-0338","assets":"$353,768,479","url":"WWW.YOURCREDITUNION.ORG","column_8":"Credit Union","geo_score":0.385,"street":"P O BOX 33338","id":"aeuz0hqdgu49","geo_precision":"street","state":"WA"},"type":"Feature","geometry":{"type":"Point","coordinates":[-122.427592,47.317423]}},{"properties":{"name":"BECU Boeing Employees' Credit Union","city":"Tukwila","zip":null,"assets":"$8,733,928,699","url":"WWW.BECU.ORG","column_8":"Credit Union","geo_score":0.805,"street":"12770 Gateway Drive","id":"aeuz0hex6qib","geo_precision":"range","state":"WA"},"type":"Feature","geometry":{"type":"Point","coordinates":[-122.274901,47.488943]}},{"properties":{"name":"Beehive Credit Union","city":null,"zip":"84115","assets":"$182,521,942","url":"BEEHIVECREDIT.COM","column_8":"Credit Union","geo_score":0.714,"street":null,"id":"aeuz0hliaclc","geo_precision":"zip","state":"ID"},"type":"Feature","geometry":{"type":"Point","coordinates":[-111.907992,40.713835]}},{"properties":{"name":"Bellco Federal Credit Union","city":"Greenwood Villa","zip":null,"assets":"$1,970,698,288","url":"WWW.BELLCO.ORG","column_8":"Credit Union","geo_score":0.805,"street":"7600 East Orchard Rd","id":"aeuz0hr94iaw","geo_precision":"range","state":"CO"},"type":"Feature","geometry":{"type":"Point","coordinates":[-104.902165,39.609484]}},{"properties":{"name":"Arizona Central Credit Union","city":null,"zip":null,"assets":"$421,846,760","url":"WWW.AZCENTRALCU.ORG","column_8":"Credit Union","geo_score":0.0,"street":null,"id":"aeuz0hof7bzi","geo_precision":"unmatched","state":"AZ"},"type":"Feature","geometry":null},{"properties":{"name":"Arizona State Savings &amp; Credit Unio","city":null,"zip":null,"assets":null,"url":null,"column_8":"Credit Union","geo_score":0.0,"street":null,"id":"aeuz0hs4ckv9","geo_precision":"unmatched","state":"az"},"type":"Feature","geometry":null},{"properties":{"name":"Arizona State CU","city":"PHOENIX","zip":"85005-6637","assets":"$1,309,479,120","url":"AZSTCU.ORG","column_8":"Credit Union","geo_score":0.364,"street":"PO BOX 6637","id":"aeuz0hlra8xs","geo_precision":"street","state":"AZ"},"type":"Feature","geometry":{"type":"Point","coordinates":[-111.975672,33.329504]}},{"properties":{"name":"Bergengren CU","city":null,"zip":null,"assets":"$160,728,298","url":null,"column_8":"Credit Union","geo_score":0.0,"street":null,"id":"aeuz0hov76dl","geo_precision":"unmatched","state":"NS"},"type":"Feature","geometry":null},{"properties":{"name":"Arrowhead Central","city":"SAN BERNARDINO","zip":"92402","assets":"$853,134,377","url":"WWW.ARROWHEADCU.ORG","column_8":"Credit Union","geo_score":0.414,"street":"PO BOX 735","id":"aeuz0hkqpd7z","geo_precision":"street","state":"CA"},"type":"Feature","geometry":{"type":"Point","coordinates":[-117.189968,34.23892]}},{"properties":{"name":"Capital City Savings CU Ltd","city":null,"zip":null,"assets":"3,088,839,409","url":null,"column_8":"Credit Union","geo_score":0.0,"street":null,"id":"aeuz0hmsvubm","geo_precision":"unmatched","state":"AB"},"type":"Feature","geometry":null},{"properties":{"name":"Assiniboine Credit Union","city":null,"zip":null,"assets":"1,000,150,011","url":null,"column_8":"Credit Union","geo_score":0.0,"street":null,"id":"aeuz0hmh2vy0","geo_precision":"unmatched","state":"MB"},"type":"Feature","geometry":null},{"properties":{"name":"Aerospace FCU","city":"LOS ANGELES","zip":"90009","assets":"$300,000,000","url":"WWW.AEROFCU.ORG","column_8":"Credit Union","geo_score":0.286,"street":"P.O. BOX 90735","id":"aeuz0hh9iizm","geo_precision":"street","state":"CA"},"type":"Feature","geometry":{"type":"Point","coordinates":[-118.186002,34.062213]}},{"properties":{"name":"Astra Credit Union","city":null,"zip":null,"assets":"387,177,898","url":null,"column_8":"Credit Union","geo_score":0.0,"street":null,"id":"aeuz0hlll4ng","geo_precision":"unmatched","state":"MB"},"type":"Feature","geometry":null},{"properties":{"name":"Black Hills FCU","city":"Rapid City","zip":"57709-1420","assets":"$865,301,453","url":"WWW.BLACKHILLSFCU.ORG","column_8":"Credit Union","geo_score":0.857,"street":"P.O. Box 1420","id":"aeuz0hjkzgyw","geo_precision":"zip","state":"SD"},"type":"Feature","geometry":{"type":"Point","coordinates":[-103.317149,44.076106]}},{"properties":{"name":"Caltech Employees FCU","city":"LA CANADA","zip":"91012","assets":"$884,225,340","url":"WWW.CEFCU.ORG","column_8":"Credit Union","geo_score":0.857,"street":"P. O. BOX 11001","id":"aeuz0hf7vzsm","geo_precision":"zip","state":"CA"},"type":"Feature","geometry":{"type":"Point","coordinates":[-118.298662,33.786594]}},{"properties":{"name":"Aftra-Sag FCU","city":null,"zip":null,"assets":"$219,209,594","url":"WWW.AFTRASAGFCU.ORG","column_8":"Credit Union","geo_score":0.0,"street":null,"id":"aeuz0ho3ras9","geo_precision":"unmatched","state":"CA"},"type":"Feature","geometry":null},{"properties":{"name":"Alaska USA Federal Credit Union","city":"Anchorage","zip":"99519-6613","assets":"$4,400,390,892","url":"www.alaskausa.org","column_8":"Credit Union","geo_score":0.393,"street":"P.O. Box 196613","id":"aeuz0hh06tj7","geo_precision":"street","state":"AK"},"type":"Feature","geometry":{"type":"Point","coordinates":[-149.911908,61.214949]}},{"properties":{"name":"Alliance Credit Union","city":"San Jose","zip":null,"assets":"348,000,000","url":"www.alliancecreditunion.org","column_8":"Credit Union","geo_score":0.714,"street":null,"id":"aeuz0hq6366r","geo_precision":"city","state":"CA"},"type":"Feature","geometry":{"type":"Point","coordinates":[-121.705327,37.189396]}},{"properties":{"name":"Cal State 9 Credit Union","city":"CONCORD","zip":"94527-1768","assets":"$463,727,995","url":"WWW.CALSTATE9.COM","column_8":"Credit Union","geo_score":0.357,"street":"P.O. BOX 271768","id":"aeuz0hqxdc5b","geo_precision":"street","state":"CA"},"type":"Feature","geometry":{"type":"Point","coordinates":[-122.308805,38.294593]}},{"properties":{"name":"Cal State Central Credit Union (Santa Rosa)","city":null,"zip":null,"assets":null,"url":null,"column_8":"Credit Union","geo_score":0.0,"street":null,"id":"aeuz0hm2q17o","geo_precision":"unmatched","state":"CA"},"type":"Feature","geometry":null},{"properties":{"name":"California Bear","city":"Los Angeles","zip":"90071","assets":"$118,616,383","url":"WWW.CALBEARCU.ORG","column_8":"Credit Union","geo_score":0.707,"street":"350 S. Figueroa St. 180","id":"aeuz0hq4gq8y","geo_precision":"range","state":"CA"},"type":"Feature","geometry":{"type":"Point","coordinates":[-118.252286,34.057499]}},{"properties":{"name":"California Coast Credit Union","city":"San Diego","zip":"92150","assets":"$1,849,656,553","url":"www.calcoastcu.org","column_8":"Credit Union","geo_score":0.357,"street":"P.O. Box 502080","id":"aeuz0hibfp9g","geo_precision":"street","state":"CA"},"type":"Feature","geometry":{"type":"Point","coordinates":[-117.223765,32.730984]}},{"properties":{"name":"California Credit Union","city":"Glendale, CA 91209","zip":null,"assets":"$1,197,195,842","url":"www.californiacu.org","column_8":"Credit Union","geo_score":0.421,"street":"PO Box 29100","id":"aeuz0hlo3rsx","geo_precision":"street","state":"CA"},"type":"Feature","geometry":{"type":"Point","coordinates":[-118.225,34.184764]}},{"properties":{"name":"Altona Credit Union","city":null,"zip":null,"assets":"207,154,367","url":null,"column_8":"Credit Union","geo_score":0.0,"street":null,"id":"aeuz0hhygxsz","geo_precision":"unmatched","state":"MB"},"type":"Feature","geometry":null},{"properties":{"name":"1st Choice Credit Union","city":null,"zip":null,"assets":"246,952,708","url":null,"column_8":"Credit Union","geo_score":0.0,"street":null,"id":"aeuz0hi5qfz5","geo_precision":"unmatched","state":"AB"},"type":"Feature","geometry":null},{"properties":{"name":"Boulder Valley CU (BR)","city":null,"zip":null,"assets":"$241,360,698","url":"WWW.BVCU.ORG","column_8":"Credit Union","geo_score":0.0,"street":null,"id":"aeuz0hgpoj53","geo_precision":"unmatched","state":"CO"},"type":"Feature","geometry":null},{"properties":{"name":"49er FCU","city":"Placerville","zip":null,"assets":"$42,802,609","url":null,"column_8":"Credit Union","geo_score":0.714,"street":null,"id":"aeuz0hh9iz5c","geo_precision":"city","state":"CA"},"type":"Feature","geometry":{"type":"Point","coordinates":[-120.797149,38.730224]}},{"properties":{"name":"American River HealthPro","city":null,"zip":null,"assets":"$214,668,799","url":"WWW.ARHCU.ORG","column_8":"Credit Union","geo_score":0.0,"street":null,"id":"aeuz0hfkldde","geo_precision":"unmatched","state":"CA"},"type":"Feature","geometry":null},{"properties":{"name":"Banner Federal CU","city":null,"zip":null,"assets":"$50,565,235","url":null,"column_8":"Credit Union","geo_score":0.0,"street":null,"id":"aeuz0hkcyh5q","geo_precision":"unmatched","state":"AZ"},"type":"Feature","geometry":null},{"properties":{"name":"Coast Central Credit Union","city":null,"zip":null,"assets":"$962,883,913","url":"COASTCCU.ORG","column_8":"Credit Union","geo_score":0.0,"street":null,"id":"aeuz0houlu9s","geo_precision":"unmatched","state":"CA"},"type":"Feature","geometry":null},{"properties":{"name":"Central Minnesota","city":"Melrose","zip":"56352","assets":"$587,748,507","url":"www.centralmnfcu.org","column_8":"Credit Union","geo_score":0.633,"street":"20 S. 4th Ave E.","id":"aeuz0hu1xvji","geo_precision":"street","state":"MN"},"type":"Feature","geometry":{"type":"Point","coordinates":[-94.86972,45.628119]}},{"properties":{"name":"Coastal Community Credit Union (BC)","city":null,"zip":null,"assets":"1,407,482,650","url":null,"column_8":"Credit Union","geo_score":0.0,"street":null,"id":"aeuz0hesd9v5","geo_precision":"unmatched","state":"BC"},"type":"Feature","geometry":null},{"properties":{"name":"Community One","city":null,"zip":null,"assets":"$177,787,413","url":"WWW.COMMUNITYONEFCU.COM","column_8":"Credit Union","geo_score":0.0,"street":null,"id":"aeuz0hj3gpft","geo_precision":"unmatched","state":"NV"},"type":"Feature","geometry":null},{"properties":{"name":"Consolidated","city":"Portland","zip":null,"assets":"$157,925,278","url":"WWW.CONSOLIDATEDFCU.COM","column_8":"Credit Union","geo_score":0.902,"street":"2021 Ne Sandy Blvd","id":"aeuz0hkl10c4","geo_precision":"range","state":"OR"},"type":"Feature","geometry":{"type":"Point","coordinates":[-122.64468,45.52627]}},{"properties":{"name":"Continental FCU","city":"EL SEGUNDO","zip":"90245","assets":"$182,180,330","url":"WWW.CONTINENTALFCU.ORG","column_8":"Credit Union","geo_score":0.598,"street":"300 N. CONTINENTAL BOULEVARD, SUITE","id":"aeuz0hqp8mx8","geo_precision":"street","state":"CA"},"type":"Feature","geometry":{"type":"Point","coordinates":[-118.390853,33.91746]}},{"properties":{"name":"Contra Costa FCU","city":"Martinez","zip":"94553-0144","assets":"$591,096,049","url":"WWW.CONTRACOSTAFCU.ORG","column_8":"Credit Union","geo_score":0.357,"street":"P.O. Box 509","id":"aeuz0hhpq3vk","geo_precision":"street","state":"CA"},"type":"Feature","geometry":{"type":"Point","coordinates":[-122.308805,38.294593]}},{"properties":{"name":"Central State","city":"Stockton","zip":null,"assets":"$145,657,229","url":"WWW.CENTRALSTATECU.ORG","column_8":"Credit Union","geo_score":0.0,"street":"PO Box 1329","id":"aeuz0hm2hoz6","geo_precision":"unmatched","state":"CA"},"type":"Feature","geometry":null},{"properties":{"name":"Centris FCU","city":null,"zip":null,"assets":"$398,975,432","url":"WWW.CENTRISFCU.ORG","column_8":"Credit Union","geo_score":0.0,"street":null,"id":"aeuz0ht0vv2d","geo_precision":"unmatched","state":"NE"},"type":"Feature","geometry":null},{"properties":{"name":"Coors CU","city":"Golden","zip":"80401","assets":"$127,604,349","url":"WWW.COORSCU.ORG","column_8":"Credit Union","geo_score":1.0,"street":"816 Washington Ave.","id":"aeuz0heocwka","geo_precision":"range","state":"CO"},"type":"Feature","geometry":{"type":"Point","coordinates":[-105.224268,39.758416]}},{"properties":{"name":"Capital Educators","city":null,"zip":null,"assets":"$250,980,934","url":"WWW.CAPEDFCU.ORG","column_8":"Credit Union","geo_score":0.0,"street":null,"id":"aeuz0hlqv0w4","geo_precision":"unmatched","state":"ID"},"type":"Feature","geometry":null},{"properties":{"name":"Aventa Credit Union","city":null,"zip":null,"assets":"$135,975,897","url":"WWW.CSCU.COM","column_8":"Credit Union","geo_score":0.0,"street":null,"id":"aeuz0hk0qc77","geo_precision":"unmatched","state":"CO"},"type":"Feature","geometry":null},{"properties":{"name":"Credit Union of Colorado","city":"Denver","zip":"80203","assets":"957,556,699","url":"WWW.CSECU.ORG","column_8":"Credit Union","geo_score":1.0,"street":"1390 Logan St.","id":"aeuz0hpxfjd1","geo_precision":"range","state":"CO"},"type":"Feature","geometry":{"type":"Point","coordinates":[-104.982228,39.737012]}},{"properties":{"name":"Colorado United Credit Union","city":null,"zip":null,"assets":"$71,005,699","url":null,"column_8":"Credit Union","geo_score":0.0,"street":null,"id":"aeuz0hoiu9iw","geo_precision":"unmatched","state":"CO"},"type":"Feature","geometry":null},{"properties":{"name":"Community Savings Credit Union","city":null,"zip":null,"assets":"255,265,136","url":null,"column_8":"Credit Union","geo_score":0.0,"street":null,"id":"aeuz0hkm5xik","geo_precision":"unmatched","state":"BC"},"type":"Feature","geometry":null},{"properties":{"name":"CESSNA EMPLOYEES","city":null,"zip":null,"assets":"$200,419,833","url":"WWW.CESSNACU.NET","column_8":"Credit Union","geo_score":0.0,"street":null,"id":"aeuz0hk8hedp","geo_precision":"unmatched","state":"KS"},"type":"Feature","geometry":null},{"properties":{"name":"Columbia Credit Union","city":"VANCOUVER","zip":"98666-0324","assets":"$871,471,106","url":"WWW.COLUMBIACU.ORG","column_8":"Credit Union","geo_score":0.371,"street":"PO BOX 324","id":"aeuz0hmpo3sb","geo_precision":"street","state":"WA"},"type":"Feature","geometry":{"type":"Point","coordinates":[-122.33722,45.587766]}},{"properties":{"name":"CommunityAmerica CU","city":"Kansas City","zip":null,"assets":"$1,846,372,121","url":"WWW.CACU.COM","column_8":"Credit Union","geo_score":0.714,"street":null,"id":"aeuz0hmumwcp","geo_precision":"city","state":"MO"},"type":"Feature","geometry":{"type":"Point","coordinates":[-94.598583,39.102404]}},{"properties":{"name":"Chetco Federal Credit Union","city":"Harbor","zip":"97415","assets":"$357,168,722","url":"WWW.CHETCOFCU.ORG","column_8":"Credit Union","geo_score":0.357,"street":"P.O. Box 3000J","id":"aeuz0huoksh3","geo_precision":"street","state":"OR"},"type":"Feature","geometry":{"type":"Point","coordinates":[-123.073656,43.797647]}},{"properties":{"name":"Chevron Federal Credit Union","city":"OAKLAND","zip":"94612","assets":"$1,317,548,278","url":"WWW.CHEVRONFCU.ORG","column_8":"Credit Union","geo_score":0.916,"street":"475 14TH STREET","id":"aeuz0hrbn9rl","geo_precision":"range","state":"CA"},"type":"Feature","geometry":{"type":"Point","coordinates":[-122.271973,37.804524]}},{"properties":{"name":"Chevron Valley CU","city":"BAKERSFIELD","zip":"93312","assets":"$121,359,845","url":"WWW.CVCU.ORG","column_8":"Credit Union","geo_score":1.0,"street":"8200 GRANITE FALLS DR","id":"aeuz0ht0n3pv","geo_precision":"range","state":"CA"},"type":"Feature","geometry":{"type":"Point","coordinates":[-119.094029,35.387065]}},{"properties":{"name":"Chinook CU Ltd","city":null,"zip":null,"assets":"383,151,357","url":null,"column_8":"Credit Union","geo_score":0.0,"street":null,"id":"aeuz0heru36t","geo_precision":"unmatched","state":"AB"},"type":"Feature","geometry":null},{"properties":{"name":"Christian Community Credit Union","city":null,"zip":null,"assets":"$521,000,000","url":null,"column_8":"Credit Union","geo_score":0.0,"street":null,"id":"aeuz0htedr5l","geo_precision":"unmatched","state":"CA"},"type":"Feature","geometry":null},{"properties":{"name":"Community Credit Union","city":null,"zip":null,"assets":"2,387,895,726","url":null,"column_8":"Credit Union","geo_score":0.0,"street":null,"id":"aeuz0hlj5qkb","geo_precision":"unmatched","state":"AB"},"type":"Feature","geometry":null},{"properties":{"name":"Carpathia CU Limited","city":null,"zip":null,"assets":"198,075,163","url":null,"column_8":"Credit Union","geo_score":0.0,"street":null,"id":"aeuz0hlnrazr","geo_precision":"unmatched","state":"MB"},"type":"Feature","geometry":null},{"properties":{"name":"City &amp; County","city":null,"zip":null,"assets":"$477,936,979","url":"WWW.CCFCU.ORG","column_8":"Credit Union","geo_score":0.0,"street":null,"id":"aeuz0homoyne","geo_precision":"unmatched","state":"MN"},"type":"Feature","geometry":null},{"properties":{"name":"Clackamas FCU","city":"OREGON CITY","zip":"97045","assets":"$200,926,401","url":"CLACKAMASFCU.ORG","column_8":"Credit Union","geo_score":0.857,"street":"PO BOX 2020","id":"aeuz0hidkrs4","geo_precision":"zip","state":"OR"},"type":"Feature","geometry":{"type":"Point","coordinates":[-122.492866,45.343455]}},{"properties":{"name":"Cascade FCU","city":"Kent","zip":"98032","assets":"$257,917,464","url":"www.cascadefcu.org","column_8":"Credit Union","geo_score":0.941,"street":"18020 80TH AVE S","id":"aeuz0htl97q4","geo_precision":"range","state":"WA"},"type":"Feature","geometry":{"type":"Point","coordinates":[-122.232826,47.440846]}},{"properties":{"name":"Cascade Forest Products FCU","city":null,"zip":null,"assets":"$10,529,770","url":null,"column_8":"Credit Union","geo_score":0.0,"street":null,"id":"aeuz0hhoinfk","geo_precision":"unmatched","state":"WA"},"type":"Feature","geometry":null},{"properties":{"name":"CBC FCU","city":null,"zip":null,"assets":"$344,570,345","url":"WWW.CBCFCU.ORG","column_8":"Credit Union","geo_score":0.0,"street":null,"id":"aeuz0hoyarqu","geo_precision":"unmatched","state":"CA"},"type":"Feature","geometry":null},{"properties":{"name":"CCEC Credit Union","city":null,"zip":null,"assets":null,"url":null,"column_8":"Credit Union","geo_score":0.0,"street":null,"id":"aeuz0howalci","geo_precision":"unmatched","state":"BC"},"type":"Feature","geometry":null},{"properties":{"name":"Clark County CU","city":null,"zip":null,"assets":"$579,000,288","url":null,"column_8":"Credit Union","geo_score":0.0,"street":null,"id":"aeuz0hsxo7m3","geo_precision":"unmatched","state":"NV"},"type":"Feature","geometry":null},{"properties":{"name":"Downey","city":null,"zip":null,"assets":"$146,864,088","url":"WWW.DOWNEYFCU.ORG","column_8":"Credit Union","geo_score":0.0,"street":null,"id":"aeuz0ho1j9r3","geo_precision":"unmatched","state":"CA"},"type":"Feature","geometry":null},{"properties":{"name":"Ent FCU","city":"COLORADO SPRING","zip":"80920","assets":"$3,022,688,076","url":"WWW.ENT.COM","column_8":"Credit Union","geo_score":0.994,"street":"7250 CAMPUS DRIVE","id":"aeuz0hjqlyri","geo_precision":"range","state":"CO"},"type":"Feature","geometry":{"type":"Point","coordinates":[-104.811094,38.938913]}},{"properties":{"name":"First West (Envision, Valley First)","city":"Surrey","zip":null,"assets":"5,687,057,325","url":null,"column_8":"Credit Union","geo_score":0.0,"street":null,"id":"aeuz0htx4xkt","geo_precision":"unmatched","state":"BC"},"type":"Feature","geometry":null},{"properties":{"name":"Evangelical Christian CU","city":"Brea","zip":"92822-2400","assets":"$990,524,449","url":"WWW.ECCU.ORG","column_8":"Credit Union","geo_score":0.286,"street":"P.O. Box 2400","id":"aeuz0hgrsyen","geo_precision":"street","state":"CA"},"type":"Feature","geometry":{"type":"Point","coordinates":[-117.958187,33.801787]}},{"properties":{"name":"Deer Valley CU","city":null,"zip":null,"assets":"$245,578,248","url":"WWW.DVCU.ORG","column_8":"Credit Union","geo_score":0.0,"street":null,"id":"aeuz0hrx3k3k","geo_precision":"unmatched","state":"AZ"},"type":"Feature","geometry":null},{"properties":{"name":"Del Norte Credit Union","city":"Los Alamos","zip":null,"assets":"$314,553,980","url":"WWW.DNCU.ORG","column_8":"Credit Union","geo_score":0.714,"street":null,"id":"aeuz0his2otd","geo_precision":"city","state":"NM"},"type":"Feature","geometry":{"type":"Point","coordinates":[-105.836957,34.652009]}},{"properties":{"name":"F &amp; A FCU","city":"MONTEREY PARK","zip":"91754","assets":"$1,118,290,243","url":"WWW.FAFCU.ORG","column_8":"Credit Union","geo_score":1.0,"street":"2625 CORPORATE PLACE","id":"aeuz0hfogygp","geo_precision":"range","state":"CA"},"type":"Feature","geometry":{"type":"Point","coordinates":[-118.165404,34.046643]}},{"properties":{"name":"Eagle Community","city":null,"zip":null,"assets":"$210,640,861","url":"WWW.EAGLECU.ORG","column_8":"Credit Union","geo_score":0.0,"street":null,"id":"aeuz0hqtdfw1","geo_precision":"unmatched","state":"CA"},"type":"Feature","geometry":null},{"properties":{"name":"Credit Union Atlantic Ltd","city":null,"zip":null,"assets":"202,018,709","url":null,"column_8":"Credit Union","geo_score":0.0,"street":null,"id":"aeuz0hu978og","geo_precision":"unmatched","state":"NS"},"type":"Feature","geometry":null},{"properties":{"name":"Denver Community FCU","city":null,"zip":null,"assets":"$223,269,115","url":"WWW.DENVERCOMMUNITY.COOP","column_8":"Credit Union","geo_score":0.0,"street":null,"id":"aeuz0hruil3a","geo_precision":"unmatched","state":"CO"},"type":"Feature","geometry":null},{"properties":{"name":"Credit Union Of America","city":"Wichita","zip":"67201-7528","assets":"$394,592,351","url":"WWW.CUOFAMERICA.COM","column_8":"Credit Union","geo_score":0.857,"street":"P.O. Box 47528","id":"aeuz0hh5h1u7","geo_precision":"zip","state":"KS"},"type":"Feature","geometry":{"type":"Point","coordinates":[-97.258997,37.651974]}},{"properties":{"name":"Credit Union Of Denver","city":null,"zip":null,"assets":"$519,785,299","url":"WWW.CUDENVER.COM","column_8":"Credit Union","geo_score":0.0,"street":null,"id":"aeuz0hk0v6rl","geo_precision":"unmatched","state":"CO"},"type":"Feature","geometry":null},{"properties":{"name":"Credit Union Of Southern California","city":null,"zip":null,"assets":"$614,013,506","url":"WWW.CUSOCAL.ORG","column_8":"Credit Union","geo_score":0.0,"street":null,"id":"aeuz0hnet8sy","geo_precision":"unmatched","state":"CA"},"type":"Feature","geometry":null},{"properties":{"name":"Credit Union West","city":"Glendale","zip":"85312-7600","assets":"$450,999,621","url":"WWW.CUWEST.ORG","column_8":"Credit Union","geo_score":0.286,"street":"P.O. Box 7600","id":"aeuz0ho1un1g","geo_precision":"street","state":"AZ"},"type":"Feature","geometry":{"type":"Point","coordinates":[-112.767208,33.963634]}},{"properties":{"name":"Crosstown CU Ltd","city":null,"zip":null,"assets":"444,808,924","url":null,"column_8":"Credit Union","geo_score":0.0,"street":null,"id":"aeuz0hkog57k","geo_precision":"unmatched","state":"MB"},"type":"Feature","geometry":null},{"properties":{"name":"CSC Employees FCU","city":"El Segundo","zip":null,"assets":"$83,608,789","url":null,"column_8":"Credit Union","geo_score":0.286,"street":"P.O. Box 976","id":"aeuz0hnqp68s","geo_precision":"street","state":"CA"},"type":"Feature","geometry":{"type":"Point","coordinates":[-118.163459,33.931733]}},{"properties":{"name":"Deseret First Credit Union","city":"Salt Lake City","zip":null,"assets":"$512,261,794","url":"WWW.DFCU.COM","column_8":"Credit Union","geo_score":0.5,"street":"PO Box 45046","id":"aeuz0htbe7sk","geo_precision":"street","state":"UT"},"type":"Feature","geometry":{"type":"Point","coordinates":[-111.861054,40.770559]}},{"properties":{"name":"CU Central Falls","city":null,"zip":null,"assets":null,"url":null,"column_8":"Credit Union","geo_score":0.0,"street":null,"id":"aeuz0hidbt5p","geo_precision":"","state":null},"type":"Feature","geometry":null},{"properties":{"name":"CU Hawaii FCU","city":"HILO","zip":"96720","assets":"$239,959,161","url":"WWW.CUHAWAII.COM","column_8":"Credit Union","geo_score":1.0,"street":"476 HINANO STREET","id":"aeuz0himxajr","geo_precision":"range","state":"HI"},"type":"Feature","geometry":{"type":"Point","coordinates":[-155.068698,19.71623]}},{"properties":{"name":"Desert Schools","city":null,"zip":null,"assets":"$3,211,129,771","url":"WWW.DESERTSCHOOLS.ORG","column_8":"Credit Union","geo_score":0.0,"street":null,"id":"aeuz0hqjuwp5","geo_precision":"unmatched","state":"AZ"},"type":"Feature","geometry":null},{"properties":{"name":"East Coast CU","city":null,"zip":null,"assets":null,"url":null,"column_8":"Credit Union","geo_score":0.0,"street":"521 Chebucto Street PO Box 527 Baddeck NS B0E 1B0","id":"aeuz0hnmvxxs","geo_precision":"unmatched","state":"NS"},"type":"Feature","geometry":null},{"properties":{"name":"East Idaho","city":null,"zip":null,"assets":"$247,947,773","url":"WWW.EASTIDAHOCU.ORG","column_8":"Credit Union","geo_score":0.0,"street":null,"id":"aeuz0hen8a5p","geo_precision":"unmatched","state":"ID"},"type":"Feature","geometry":null},{"properties":{"name":"E-Central CU","city":null,"zip":null,"assets":"$183,158,783","url":"WWW.ECENTRALCU.ORG","column_8":"Credit Union","geo_score":0.0,"street":null,"id":"aeuz0hkw2s7m","geo_precision":"unmatched","state":"CA"},"type":"Feature","geometry":null},{"properties":{"name":"Families &amp; Schools Together FCU","city":"Hanford","zip":"93230","assets":"$83,996,062","url":"www.fastcu.com","column_8":"Credit Union","geo_score":0.625,"street":"240 N. Irwin","id":"aeuz0hjmdvdf","geo_precision":"street","state":"CA"},"type":"Feature","geometry":{"type":"Point","coordinates":[-119.646872,36.330967]}},{"properties":{"name":"FAMILY FIRST (UT)","city":"OREM","zip":"84059","assets":"$159,919,362","url":"WWW.FAMILY1STCU.COM","column_8":"Credit Union","geo_score":0.442,"street":"PO BOX 1750","id":"aeuz0hm2i6e9","geo_precision":"street","state":"UT"},"type":"Feature","geometry":{"type":"Point","coordinates":[-111.897351,41.026593]}},{"properties":{"name":"Edwards FCU","city":"EDWARDS","zip":"93524","assets":"$130,914,326","url":"WWW.EDWARDSFCU.ORG","column_8":"Credit Union","geo_score":1.0,"street":"10 SOUTH MUROC DRIVE","id":"aeuz0hjmm02r","geo_precision":"range","state":"CA"},"type":"Feature","geometry":{"type":"Point","coordinates":[-117.900815,34.920029]}},{"properties":{"name":"Foothill FCU","city":"Arcadia","zip":"91006","assets":"$270,561,620","url":"WWW.FOOTHILLCU.ORG","column_8":"Credit Union","geo_score":0.935,"street":"30 South First Avenue","id":"aeuz0hppjd5w","geo_precision":"range","state":"CA"},"type":"Feature","geometry":{"type":"Point","coordinates":[-118.028254,34.139308]}},{"properties":{"name":"Fiscal","city":null,"zip":null,"assets":null,"url":null,"column_8":"Credit Union","geo_score":0.0,"street":null,"id":"aeuz0hu6ffic","geo_precision":"unmatched","state":"ca"},"type":"Feature","geometry":null},{"properties":{"name":"Glendale Area Schools","city":null,"zip":null,"assets":"$333,193,167","url":"WWW.GASFCU.ORG","column_8":"Credit Union","geo_score":0.0,"street":null,"id":"aeuz0hfi7oh5","geo_precision":"unmatched","state":"CA"},"type":"Feature","geometry":null},{"properties":{"name":"Glendale City EFCU","city":null,"zip":null,"assets":"$59,418,035","url":null,"column_8":"Credit Union","geo_score":0.0,"street":null,"id":"aeuz0hr7p436","geo_precision":"unmatched","state":"ca"},"type":"Feature","geometry":null},{"properties":{"name":"Global CU","city":"Spokane","zip":null,"assets":"$357,469,114","url":"WWW.GLOBALCU.ORG","column_8":"Credit Union","geo_score":0.714,"street":null,"id":"aeuz0hihs4ue","geo_precision":"city","state":"WA"},"type":"Feature","geometry":{"type":"Point","coordinates":[-117.435997,47.66264]}},{"properties":{"name":"GOLDEN BAY FCU","city":"MOUNTAIN VIEW","zip":"94042","assets":"$229,429,582","url":"WWW.GOLDENBAY.ORG","column_8":"Credit Union","geo_score":0.857,"street":"P.O. BOX 1449","id":"aeuz0hq7tuvi","geo_precision":"zip","state":"CA"},"type":"Feature","geometry":{"type":"Point","coordinates":[-121.705327,37.189396]}},{"properties":{"name":"Golden Plains CU","city":"Liberal","zip":"67905","assets":"$380,802,076","url":"WWW.GPCU.ORG","column_8":"Credit Union","geo_score":0.414,"street":"PO Box 786","id":"aeuz0henfkmd","geo_precision":"street","state":"KS"},"type":"Feature","geometry":{"type":"Point","coordinates":[-100.797072,37.373219]}},{"properties":{"name":"Great Northwest FCU","city":"Aberdeen","zip":null,"assets":"$71,847,123","url":null,"column_8":"Credit Union","geo_score":0.714,"street":null,"id":"aeuz0ho47p3s","geo_precision":"city","state":"WA"},"type":"Feature","geometry":{"type":"Point","coordinates":[-123.779611,47.062592]}},{"properties":{"name":"Great Plains","city":null,"zip":null,"assets":"$228,607,361","url":"WWW.GREATPLAINSFCU.COM","column_8":"Credit Union","geo_score":0.0,"street":null,"id":"aeuz0hqa88oa","geo_precision":"unmatched","state":"KS"},"type":"Feature","geometry":null},{"properties":{"name":"Greater Minnesota","city":null,"zip":null,"assets":"$162,154,698","url":"WWW.GMCU.COM","column_8":"Credit Union","geo_score":0.0,"street":null,"id":"aeuz0hlr0jlu","geo_precision":"unmatched","state":"MN"},"type":"Feature","geometry":null},{"properties":{"name":"Greater Nevada Credit Union","city":"CARSON CITY","zip":"89701","assets":"$558,157,942","url":"www.gncu.org","column_8":"Credit Union","geo_score":1.0,"street":"451 EAGLE STATION LANE","id":"aeuz0hp1p5g4","geo_precision":"range","state":"NV"},"type":"Feature","geometry":{"type":"Point","coordinates":[-119.768921,39.131049]}},{"properties":{"name":"Goldenwest","city":null,"zip":null,"assets":"$813,621,000","url":"WWW.GWCU.ORG","column_8":"Credit Union","geo_score":0.0,"street":null,"id":"aeuz0hml5mub","geo_precision":"unmatched","state":"UT"},"type":"Feature","geometry":null},{"properties":{"name":"Gulf &amp; Fraser Financial Group","city":"Vancouver","zip":null,"assets":"978,000,000","url":null,"column_8":"Credit Union","geo_score":0.0,"street":null,"id":"aeuz0hovgglc","geo_precision":"unmatched","state":"BC"},"type":"Feature","geometry":null},{"properties":{"name":"Farmers Insurance Group FCU","city":"LOS ANGELES","zip":"90010","assets":"$623,176,487","url":"WWW.FIGFCU.COM","column_8":"Credit Union","geo_score":0.286,"street":"P.O. BOX 36911","id":"aeuz0hjg2tar","geo_precision":"street","state":"CA"},"type":"Feature","geometry":{"type":"Point","coordinates":[-118.186002,34.062213]}},{"properties":{"name":"First US Community CU","city":"Sacramento","zip":null,"assets":"$236,887,455","url":null,"column_8":"Credit Union","geo_score":0.714,"street":null,"id":"aeuz0hlxiv39","geo_precision":"city","state":"CA"},"type":"Feature","geometry":{"type":"Point","coordinates":[-121.555406,38.380456]}},{"properties":{"name":"North Shore Credit Union","city":null,"zip":null,"assets":"1,306,347,069","url":null,"column_8":"Credit Union","geo_score":0.0,"street":null,"id":"aeuz0hpz1psl","geo_precision":"unmatched","state":"BC"},"type":"Feature","geometry":null},{"properties":{"name":"SESLOC Federal Credit Union","city":"SAN LUIS OBISPO","zip":"93403","assets":"$428,674,062","url":"WWW.SESLOC.ORG","column_8":"Credit Union","geo_score":0.393,"street":"P.O. BOX 5360","id":"aeuz0hqy3lh9","geo_precision":"street","state":"CA"},"type":"Feature","geometry":{"type":"Point","coordinates":[-120.46791,34.650696]}},{"properties":{"name":"Intouch (Ensign) FCU","city":"HENDERSON","zip":"89014","assets":"$134,722,738","url":"ENSIGNFCU.ORG","column_8":"Credit Union","geo_score":0.597,"street":"1300 W. WARM SPRINGS ROAD","id":"aeuz0hns3j74","geo_precision":"street","state":"NV"},"type":"Feature","geometry":{"type":"Point","coordinates":[-115.033067,36.056346]}},{"properties":{"name":"OSU FCU (Inactive)","city":"CORVALLIS","zip":"97339","assets":"$619,466,987","url":"WWW.OSUFEDERAL.COM","column_8":"Credit Union","geo_score":0.403,"street":"PO BOX 306","id":"aeuz0hhb3tzx","geo_precision":"street","state":"OR"},"type":"Feature","geometry":{"type":"Point","coordinates":[-123.260739,44.57825]}},{"properties":{"name":"First Financial Credit Union (CA)","city":"WEST COVINA","zip":"91790","assets":"$596,412,160","url":"WWW.FFCU.ORG","column_8":"Credit Union","geo_score":1.0,"street":"1600 WEST CAMERON AVE","id":"aeuz0hod4db1","geo_precision":"range","state":"CA"},"type":"Feature","geometry":{"type":"Point","coordinates":[-117.942484,34.068818]}},{"properties":{"name":"TruStone Financial (Teacher FCU of MN)","city":"Plymouth","zip":"55447","assets":"$873,467,560","url":"https://trustonefinancial.org","column_8":"Credit Union","geo_score":0.711,"street":"14601 27th Avenue No Suite 104","id":"aeuz0hrepdrq","geo_precision":"range","state":"MN"},"type":"Feature","geometry":{"type":"Point","coordinates":[-93.471565,45.009353]}},{"properties":{"name":"Financial Center CU (inactive)","city":"STOCKTON","zip":"95208","assets":"$295,691,533","url":"WWW.FCCUBURT.ORG","column_8":"Credit Union","geo_score":0.857,"street":"P.O. BOX 208005","id":"aeuz0hem9f8n","geo_precision":"zip","state":"CA"},"type":"Feature","geometry":{"type":"Point","coordinates":[-121.253872,37.889849]}},{"properties":{"name":"Hutchinson CU (Inactive)","city":"HUTCHINSON","zip":"67502","assets":"$102,462,766","url":"WWW.HCU.COOP","column_8":"Credit Union","geo_score":0.614,"street":"900 E. 23RD","id":"aeuz0hjs1mbq","geo_precision":"street","state":"KS"},"type":"Feature","geometry":{"type":"Point","coordinates":[-97.933566,38.078779]}},{"properties":{"name":"USE Credit Union","city":"SAN DIEGO","zip":"92121","assets":"$841,976,046","url":"WWW.USECU.ORG","column_8":"Credit Union","geo_score":0.941,"street":"10120 PACIFIC HEIGHTS BLVD.","id":"aeuz0hprsp0n","geo_precision":"range","state":"CA"},"type":"Feature","geometry":{"type":"Point","coordinates":[-117.194999,32.903486]}},{"properties":{"name":"CREDIT UNION 1 OF KANSAS","city":null,"zip":null,"assets":null,"url":null,"column_8":"Credit Union","geo_score":0.0,"street":null,"id":"aeuz0hffe244","geo_precision":"unmatched","state":"ks"},"type":"Feature","geometry":null},{"properties":{"name":"Accentra CU (Inactive)","city":"Austin","zip":null,"assets":"$97,581,820","url":null,"column_8":"Credit Union","geo_score":0.714,"street":null,"id":"aeuz0hpk6wfz","geo_precision":"city","state":"MN"},"type":"Feature","geometry":{"type":"Point","coordinates":[-92.976818,43.699305]}},{"properties":{"name":"Affinity Plus FCU (Inactive)","city":"ST PAUL","zip":"55107","assets":"$1,271,538,199","url":"WWW.AFFINITYPLUS.ORG","column_8":"Credit Union","geo_score":0.887,"street":"175 WEST LAFAYETTE ROAD","id":"aeuz0hprl43y","geo_precision":"range","state":"MN"},"type":"Feature","geometry":{"type":"Point","coordinates":[-93.076102,44.940836]}},{"properties":{"name":"Rocky Mountain Law Enforcement (Inactive)","city":"HELENA","zip":"59602","assets":"$126,595,805","url":"WWW.RMLEFCU.ORG","column_8":"Credit Union","geo_score":1.0,"street":"3400 N MONTANA AVENUE","id":"aeuz0hokzl5n","geo_precision":"range","state":"MT"},"type":"Feature","geometry":{"type":"Point","coordinates":[-112.021056,46.620867]}},{"properties":{"name":"Pacific Marine CU (Inactive)","city":null,"zip":null,"assets":"$482,561,165","url":"WWW.PMCU.COM","column_8":"Credit Union","geo_score":0.0,"street":null,"id":"aeuz0hrc4ie0","geo_precision":"unmatched","state":"CA"},"type":"Feature","geometry":null},{"properties":{"name":"Servus Credit Union","city":null,"zip":null,"assets":"231,064,014","url":null,"column_8":"Credit Union","geo_score":0.0,"street":null,"id":"aeuz0hm0yaf5","geo_precision":"unmatched","state":"AB"},"type":"Feature","geometry":null},{"properties":{"name":"Synergy Credit Union Ltd","city":null,"zip":null,"assets":null,"url":null,"column_8":"Credit Union","geo_score":0.0,"street":null,"id":"aeuz0hkbxm05","geo_precision":"unmatched","state":"SK"},"type":"Feature","geometry":null},{"properties":{"name":"FSCC - Financial Service Centers Cooperative Inc","city":"San Dimas","zip":null,"assets":null,"url":"FSCC.com","column_8":"Credit Union","geo_score":0.763,"street":"924 Overland Court Suite 220","id":"aeuz0hkmuqwa","geo_precision":"range","state":"CA"},"type":"Feature","geometry":{"type":"Point","coordinates":[-117.825637,34.109785]}},{"properties":{"name":"Interior Savings Credit Union","city":null,"zip":null,"assets":"1,556,020,927","url":null,"column_8":"Credit Union","geo_score":0.0,"street":null,"id":"aeuz0holkjx9","geo_precision":"unmatched","state":"BC"},"type":"Feature","geometry":null},{"properties":{"name":"Common Wealth Credit Union","city":null,"zip":null,"assets":"1,434,219,916","url":null,"column_8":"Credit Union","geo_score":0.0,"street":null,"id":"aeuz0hrqdocs","geo_precision":"unmatched","state":"AB"},"type":"Feature","geometry":null},{"properties":{"name":"First Imperial","city":null,"zip":null,"assets":"62,000,000","url":"ficu.com","column_8":"Credit Union","geo_score":0.0,"street":null,"id":"aeuz0hi2po6w","geo_precision":"","state":null},"type":"Feature","geometry":null},{"properties":{"name":"Affinity Credit Union","city":null,"zip":null,"assets":"616,693,940","url":null,"column_8":"Credit Union","geo_score":0.0,"street":null,"id":"aeuz0hg1vs5w","geo_precision":"unmatched","state":"SK"},"type":"Feature","geometry":null},{"properties":{"name":"Fibre FCU","city":"LONGVIEW","zip":"98632","assets":"$679,919,797","url":"WWW.FIBRECU.COM","column_8":"Credit Union","geo_score":0.364,"street":"PO BOX 1234","id":"aeuz0hpamr3v","geo_precision":"street","state":"WA"},"type":"Feature","geometry":{"type":"Point","coordinates":[-122.33722,45.587766]}},{"properties":{"name":"Financial Partners Credit Union","city":null,"zip":null,"assets":"$771,836,102","url":"WWW.FPCU.ORG","column_8":"Credit Union","geo_score":0.0,"street":null,"id":"aeuz0hsgdeul","geo_precision":"unmatched","state":"CA"},"type":"Feature","geometry":null},{"properties":{"name":"First Credit Union of Tempe","city":"Tempe","zip":"85285-2030","assets":"$477,119,717","url":"WWW.FIRSTCU.COOP","column_8":"Credit Union","geo_score":0.857,"street":null,"id":"aeuz0horu4jo","geo_precision":"zip","state":"AZ"},"type":"Feature","geometry":{"type":"Point","coordinates":[-112.18717,33.276539]}},{"properties":{"name":"First Calgary Savings &amp; Credit Union","city":null,"zip":null,"assets":"1,760,774,315","url":null,"column_8":"Credit Union","geo_score":0.0,"street":null,"id":"aeuz0hp748ff","geo_precision":"unmatched","state":"AB"},"type":"Feature","geometry":null},{"properties":{"name":"First Cheyenne FCU","city":"Cheyenne","zip":null,"assets":"$27,099,279","url":null,"column_8":"Credit Union","geo_score":0.714,"street":null,"id":"aeuz0hosr73t","geo_precision":"city","state":"WY"},"type":"Feature","geometry":{"type":"Point","coordinates":[-104.56264,41.25173]}},{"properties":{"name":"First Choice Credit Union (KS)","city":null,"zip":null,"assets":"$61,337,329","url":null,"column_8":"Credit Union","geo_score":0.0,"street":null,"id":"aeuz0hf0sewx","geo_precision":"unmatched","state":"KS"},"type":"Feature","geometry":null},{"properties":{"name":"First Community FCU (ND)","city":null,"zip":null,"assets":"$412,614,989","url":null,"column_8":"Credit Union","geo_score":0.0,"street":null,"id":"aeuz0hqf3re6","geo_precision":"unmatched","state":"ND"},"type":"Feature","geometry":null},{"properties":{"name":"Coulee Dam FCU","city":"Coulee Dam","zip":null,"assets":"$72,102,349","url":null,"column_8":"Credit Union","geo_score":0.714,"street":null,"id":"aeuz0hukb5fi","geo_precision":"city","state":"WA"},"type":"Feature","geometry":{"type":"Point","coordinates":[-118.941876,48.037889]}},{"properties":{"name":"Vancity","city":null,"zip":null,"assets":"$10,693,376,752","url":null,"column_8":"Credit Union","geo_score":0.0,"street":null,"id":"aeuz0hesdjtm","geo_precision":"unmatched","state":"BC"},"type":"Feature","geometry":null},{"properties":{"name":"Rocky Mountain Credit Union","city":null,"zip":null,"assets":"145,000,000","url":"www.rmlefcu.org","column_8":"Credit Union","geo_score":0.0,"street":null,"id":"aeuz0hesymdn","geo_precision":"","state":null},"type":"Feature","geometry":null},{"properties":{"name":"Coast Capital Savings Credit Union","city":null,"zip":null,"assets":"10,889,495,322","url":null,"column_8":"Credit Union","geo_score":0.0,"street":null,"id":"aeuz0hry8r0j","geo_precision":"unmatched","state":"BC"},"type":"Feature","geometry":null},{"properties":{"name":"California Credit Union","city":null,"zip":null,"assets":"1,072,000,000","url":"www.californiacu.org","column_8":"Credit Union","geo_score":0.0,"street":null,"id":"aeuz0htv12h0","geo_precision":"","state":null},"type":"Feature","geometry":null},{"properties":{"name":"Solarity Credit Union","city":null,"zip":null,"assets":"485,996,000","url":"www.solaritycu.org","column_8":"Credit Union","geo_score":0.0,"street":null,"id":"aeuz0hhw7dxc","geo_precision":"unmatched","state":"WA"},"type":"Feature","geometry":null},{"properties":{"name":"FIRST U.S. COMMUNITY","city":"SACRAMENTO","zip":"95825","assets":"$176,569,107","url":"FIRSTUS.ORG","column_8":"Credit Union","geo_score":1.0,"street":"580 UNIVERSITY AVE.","id":"aeuz0hgpiac0","geo_precision":"range","state":"CA"},"type":"Feature","geometry":{"type":"Point","coordinates":[-121.419233,38.565636]}},{"properties":{"name":"Credit Union 1 (AK) (inactive)","city":"Anchorage","zip":"99507","assets":"$711,903,251","url":"www.cu1.org","column_8":"Credit Union","geo_score":0.81,"street":"1941 Abbott Road","id":"aeuz0hr2s8gw","geo_precision":"street","state":"AK"},"type":"Feature","geometry":{"type":"Point","coordinates":[-149.847213,61.139594]}},{"properties":{"name":"NEW HORIZONS COMMUNITY","city":"DENVER","zip":"80209","assets":"$160,577,178","url":"NEWHORIZONSCCU.ORG","column_8":"Credit Union","geo_score":0.614,"street":"99 S. BROADWAY","id":"aeuz0hhonez3","geo_precision":"street","state":"CO"},"type":"Feature","geometry":{"type":"Point","coordinates":[-104.987501,39.716575]}},{"properties":{"name":"Wescom Credit Union","city":"PASADENA","zip":"91101","assets":"$2,619,326,062","url":"WWW.WESCOM.ORG","column_8":"Credit Union","geo_score":1.0,"street":"123 S MARENGO AVE","id":"aeuz0ht2m3pg","geo_precision":"range","state":"CA"},"type":"Feature","geometry":{"type":"Point","coordinates":[-118.145994,34.142712]}},{"properties":{"name":"POTLATCH NO 1","city":"LEWISTON","zip":"83501","assets":"$422,930,452","url":"WWW.P1FCU.ORG","column_8":"Credit Union","geo_score":0.414,"street":"PO BOX 897","id":"aeuz0htukty1","geo_precision":"street","state":"ID"},"type":"Feature","geometry":{"type":"Point","coordinates":[-116.440706,46.551271]}},{"properties":{"name":"UTAH POWER","city":"SALT LAKE CITY","zip":"84116","assets":"$427,649,561","url":"WWW.UTAHPOWERCU.ORG","column_8":"Credit Union","geo_score":0.513,"street":"1407 W NORTH TEMPLE, 120-C","id":"aeuz0hn8qxn7","geo_precision":"street","state":"UT"},"type":"Feature","geometry":{"type":"Point","coordinates":[-111.907296,40.771541]}},{"properties":{"name":"SOUTHPOINT","city":"SLEEPY EYE","zip":"56085","assets":"$213,072,396","url":"WWW.SOUTHPOINTFED.COM","column_8":"Credit Union","geo_score":0.457,"street":"PO BOX 406","id":"aeuz0htgu0sh","geo_precision":"street","state":"MN"},"type":"Feature","geometry":{"type":"Point","coordinates":[-94.029997,43.429776]}},{"properties":{"name":"1ST PACIFIC","city":"VALLEJO","zip":"94590","assets":"$228,540,324","url":"WWW.1STPACIFIC.ORG","column_8":"Credit Union","geo_score":0.403,"street":"PO BOX 1552","id":"aeuz0hsx5req","geo_precision":"street","state":"CA"},"type":"Feature","geometry":{"type":"Point","coordinates":[-122.308805,38.294593]}},{"properties":{"name":"FITZSIMONS COMMUNITY","city":"AURORA","zip":"80045","assets":"$145,553,333","url":"WWW.FITZFCU.ORG","column_8":"Credit Union","geo_score":0.642,"street":"13529 E 17TH PLACE","id":"aeuz0hu375b6","geo_precision":"street","state":"CO"},"type":"Feature","geometry":{"type":"Point","coordinates":[-104.840775,39.744513]}},{"properties":{"name":"TRANSWEST","city":"SALT LAKE CITY","zip":"84165-0218","assets":"$144,221,613","url":"WWW.TRANSWESTCU.COM","column_8":"Credit Union","geo_score":0.393,"street":"P.O. BOX 65218","id":"aeuz0hhigaio","geo_precision":"street","state":"UT"},"type":"Feature","geometry":{"type":"Point","coordinates":[-111.861054,40.770559]}},{"properties":{"name":"KANSAS SUPER CHIEF","city":"TOPEKA","zip":"66614","assets":"$139,351,575","url":"WWW.KSCCU.COM","column_8":"Credit Union","geo_score":1.0,"street":"3626 SW WANAMAKER RD","id":"aeuz0hpbcdql","geo_precision":"range","state":"KS"},"type":"Feature","geometry":{"type":"Point","coordinates":[-95.762287,39.001683]}},{"properties":{"name":"SOLANO FIRST","city":"FAIRFIELD","zip":"94533","assets":"$136,683,584","url":"WWW.SOLANOFIRST.COM","column_8":"Credit Union","geo_score":0.357,"street":"P.O. BOX 5040","id":"aeuz0hsr2q1k","geo_precision":"street","state":"CA"},"type":"Feature","geometry":{"type":"Point","coordinates":[-122.308805,38.294593]}},{"properties":{"name":"PACIFIC POSTAL","city":"SAN JOSE","zip":"95126","assets":"$189,895,069","url":"PPCU.ORG","column_8":"Credit Union","geo_score":0.577,"street":"1040 LEIGH AVE","id":"aeuz0hspa3ec","geo_precision":"range","state":"CA"},"type":"Feature","geometry":{"type":"Point","coordinates":[-121.889133,37.294479]}},{"properties":{"name":"Alta Vista Credit Union","city":"SAN BERNARDINO","zip":"92408","assets":"$135,477,475","url":"WWW.ALTAVISTACU.ORG","column_8":"Credit Union","geo_score":0.598,"street":"295 S. TIPPECANOE AVE.","id":"aeuz0hlxntp1","geo_precision":"street","state":"CA"},"type":"Feature","geometry":{"type":"Point","coordinates":[-117.259676,34.098099]}},{"properties":{"name":"SEA AIR","city":"SEAL BEACH","zip":"90740-1648","assets":"$134,623,243","url":"WWW.SEAAIRFCU.ORG","column_8":"Credit Union","geo_score":0.857,"street":"P.O. BOX 2648","id":"aeuz0hlge7j2","geo_precision":"zip","state":"CA"},"type":"Feature","geometry":{"type":"Point","coordinates":[-117.769442,33.640302]}},{"properties":{"name":"GREAT RIVER","city":"ST. CLOUD","zip":"56301","assets":"$131,503,688","url":"WWW.GREATRIVERFCU.ORG","column_8":"Credit Union","geo_score":0.857,"street":"1532 WEST ST. GERMAIN STREET","id":"aeuz0htewfjl","geo_precision":"zip","state":"MN"},"type":"Feature","geometry":{"type":"Point","coordinates":[-94.24638,45.452743]}},{"properties":{"name":"Westerra Credit Union","city":"DENVER","zip":"80209","assets":"$1,177,648,206","url":"WESTERRACU.COM","column_8":"Credit Union","geo_score":0.604,"street":"3700 E. ALAMEDA AVENUE","id":"aeuz0hpsn20u","geo_precision":"street","state":"CO"},"type":"Feature","geometry":{"type":"Point","coordinates":[-104.987575,39.711157]}},{"properties":{"name":"Altura CU","city":"RIVERSIDE","zip":"92502","assets":"$889,725,023","url":"WWW.ALTURACU.COM","column_8":"Credit Union","geo_score":0.805,"street":"2847 Campus Parkway","id":"aeuz0hqyrywh","geo_precision":"range","state":"CA"},"type":"Feature","geometry":{"type":"Point","coordinates":[-117.280997,33.937541]}},{"properties":{"name":"Spokane Teachers Credit Union","city":"SPOKANE","zip":"99210-1954","assets":"$1,316,627,055","url":"WWW.STCU.ORG","column_8":"Credit Union","geo_score":0.857,"street":"PO BOX 1954","id":"aeuz0hp8h96q","geo_precision":"zip","state":"WA"},"type":"Feature","geometry":{"type":"Point","coordinates":[-117.431742,47.653568]}},{"properties":{"name":"SCHOOLS","city":"RANCHO DOMINGUE","zip":"90220","assets":"$123,383,063","url":"SCHOOLSFCU.ORG","column_8":"Credit Union","geo_score":0.994,"street":"2200 WEST ARTESIA BOULEVARD","id":"aeuz0hryshq2","geo_precision":"range","state":"CA"},"type":"Feature","geometry":{"type":"Point","coordinates":[-118.247937,33.873846]}},{"properties":{"name":"MATADORS COMMUNITY","city":"NORTHRIDGE","zip":"91328","assets":"$120,031,633","url":"WWW.MATADORS.ORG","column_8":"Credit Union","geo_score":0.347,"street":"P.O. BOX 1052","id":"aeuz0hivyu5n","geo_precision":"street","state":"CA"},"type":"Feature","geometry":{"type":"Point","coordinates":[-118.571389,34.152361]}},{"properties":{"name":"TRONA VALLEY COMMUNITY","city":"GREEN RIVER","zip":"82935","assets":"$119,666,377","url":"WWW.TRONAVALLEY.COOP","column_8":"Credit Union","geo_score":0.945,"street":"840 HITCHING POST","id":"aeuz0higaugz","geo_precision":"range","state":"WY"},"type":"Feature","geometry":{"type":"Point","coordinates":[-109.463628,41.509063]}},{"properties":{"name":"VALLEY FCU OF MONTANA","city":"BILLINGS","zip":"59104-0417","assets":"$118,265,684","url":"WWW.VALLEYFCU.COM","column_8":"Credit Union","geo_score":0.857,"street":"PO BOX 20417","id":"aeuz0hgwp8z5","geo_precision":"zip","state":"MT"},"type":"Feature","geometry":{"type":"Point","coordinates":[-108.194508,45.978288]}},{"properties":{"name":"GREAT BASIN","city":"RENO","zip":"89511","assets":"$117,107,186","url":"WWW.GREATBASIN.ORG","column_8":"Credit Union","geo_score":0.708,"street":"9770 SOUTH VIRGINIA STREET","id":"aeuz0hmd1rsy","geo_precision":"street","state":"NV"},"type":"Feature","geometry":{"type":"Point","coordinates":[-119.769367,39.439453]}},{"properties":{"name":"ANOKA HENNEPIN","city":"COON RAPIDS","zip":"55448","assets":"$151,043,033","url":"WWW.AHCU.COOP","column_8":"Credit Union","geo_score":0.929,"street":"3505 NORTHDALE BLVD NW","id":"aeuz0hsp4cj5","geo_precision":"range","state":"MN"},"type":"Feature","geometry":{"type":"Point","coordinates":[-93.346706,45.196111]}},{"properties":{"name":"ALPINE","city":"OREM","zip":"84039","assets":"$116,361,419","url":"WWW.ALPINECU.COM","column_8":"Credit Union","geo_score":0.857,"street":"P.O. BOX 217","id":"aeuz0hit1zl9","geo_precision":"zip","state":"UT"},"type":"Feature","geometry":{"type":"Point","coordinates":[-109.774553,40.485962]}},{"properties":{"name":"Altana","city":"BILLINGS","zip":"59102","assets":"$198,686,796","url":"WWW.AVANTAFCU.ORG","column_8":"Credit Union","geo_score":1.0,"street":"3212 CENTRAL AVENUE","id":"aeuz0hjra293","geo_precision":"range","state":"MT"},"type":"Feature","geometry":{"type":"Point","coordinates":[-108.598594,45.76956]}},{"properties":{"name":"Hawaii Law Enforcement FCU","city":"HONOLULU","zip":"96826","assets":"$145,759,909","url":"WWW.HPFCU.COM","column_8":"Credit Union","geo_score":0.571,"street":"1537 YOUNG STREET, 3RD FLOOR","id":"aeuz0ho8fpfp","geo_precision":"street","state":"HI"},"type":"Feature","geometry":{"type":"Point","coordinates":[-157.83685,21.298226]}},{"properties":{"name":"Unitus Community CU","city":"PORTLAND","zip":"97207-1937","assets":"$851,786,928","url":"WWW.UNITUSCCU.COM","column_8":"Credit Union","geo_score":0.714,"street":"P.O. BOX 1937","id":"aeuz0hooyp4k","geo_precision":"street","state":"OR"},"type":"Feature","geometry":{"type":"Point","coordinates":[-122.824798,45.543205]}},{"properties":{"name":"American First CU","city":"LA HABRA","zip":"90631","assets":"$700,807,884","url":"WWW.AMERFIRST.ORG","column_8":"Credit Union","geo_score":1.0,"street":"700 NORTH HARBOR BOULEVARD","id":"aeuz0hfhhycs","geo_precision":"range","state":"CA"},"type":"Feature","geometry":{"type":"Point","coordinates":[-117.932971,33.936061]}},{"properties":{"name":"SCHOOL EMPLOYEES OF WASHINGTON","city":"SEATTLE","zip":"98109","assets":"$587,244,789","url":"WWW.SECU.ORG","column_8":"Credit Union","geo_score":1.0,"street":"325 EASTLAKE AVENUE EAST","id":"aeuz0hlec59v","geo_precision":"range","state":"WA"},"type":"Feature","geometry":{"type":"Point","coordinates":[-122.329225,47.621691]}},{"properties":{"name":"HAWAII CENTRAL","city":"HONOLULU","zip":"96813","assets":"$112,463,693","url":"WWW.HCCU.INFO","column_8":"Credit Union","geo_score":1.0,"street":"681 SOUTH KING STREET","id":"aeuz0heftme4","geo_precision":"range","state":"HI"},"type":"Feature","geometry":{"type":"Point","coordinates":[-157.854989,21.303579]}},{"properties":{"name":"DAKOTALAND","city":"HURON","zip":"57350","assets":"$161,439,207","url":"WWW.DAKOTALANDFCU.COM","column_8":"Credit Union","geo_score":1.0,"street":"1371 DAKOTA AVE S","id":"aeuz0huibfcx","geo_precision":"range","state":"SD"},"type":"Feature","geometry":{"type":"Point","coordinates":[-98.214229,44.350558]}},{"properties":{"name":"UNITED LOCAL","city":"FRESNO","zip":"93726","assets":"$111,169,268","url":"WWW.UNITEDLOCAL.ORG","column_8":"Credit Union","geo_score":1.0,"street":"3650 E ASHLAN AVE","id":"aeuz0hqgziu7","geo_precision":"range","state":"CA"},"type":"Feature","geometry":{"type":"Point","coordinates":[-119.767024,36.794045]}},{"properties":{"name":"IDAHY","city":"BOISE","zip":"83703","assets":"$110,831,887","url":"WWW.IDAHY.ORG","column_8":"Credit Union","geo_score":0.935,"street":"1010 N ROSE ST","id":"aeuz0hg2inlv","geo_precision":"range","state":"ID"},"type":"Feature","geometry":{"type":"Point","coordinates":[-116.228123,43.633827]}},{"properties":{"name":"SAN JOAQUIN POWER EMPLOYEES","city":"FRESNO","zip":"93755-6039","assets":"$110,766,159","url":"WWW.SJPECU.ORG","column_8":"Credit Union","geo_score":0.357,"street":"PO BOX 16039","id":"aeuz0honm5ro","geo_precision":"street","state":"CA"},"type":"Feature","geometry":{"type":"Point","coordinates":[-119.776889,36.731752]}},{"properties":{"name":"MID OREGON","city":"BEND","zip":"97708","assets":"$107,301,622","url":"WWW.MIDOREGON.COM","column_8":"Credit Union","geo_score":0.403,"street":"PO BOX 6749","id":"aeuz0hfomsll","geo_precision":"street","state":"OR"},"type":"Feature","geometry":{"type":"Point","coordinates":[-121.253296,44.754127]}},{"properties":{"name":"Meritrust Credit Union","city":"WICHITA","zip":"67278","assets":"$838,739,760","url":"WWW.BWCU.ORG","column_8":"Credit Union","geo_score":0.857,"street":"PO BOX 789757","id":"aeuz0heiyn89","geo_precision":"zip","state":"KS"},"type":"Feature","geometry":{"type":"Point","coordinates":[-97.480419,37.693588]}},{"properties":{"name":"WATERMARK","city":"SEATTLE","zip":"98101","assets":"$465,642,463","url":"WWW.WATERMARKCU.ORG","column_8":"Credit Union","geo_score":1.0,"street":"800 STEWART STREET","id":"aeuz0hkj35b2","geo_precision":"range","state":"WA"},"type":"Feature","geometry":{"type":"Point","coordinates":[-122.334438,47.615615]}},{"properties":{"name":"CAL STATE C U OF THE NORTH BAY","city":"SANTA ROSA","zip":"95401","assets":"$105,237,082","url":"WWW.CSCCU.ORG","column_8":"Credit Union","geo_score":1.0,"street":"1205 NORTH DUTTON AVE","id":"aeuz0hihu4xs","geo_precision":"range","state":"CA"},"type":"Feature","geometry":{"type":"Point","coordinates":[-122.730509,38.446302]}},{"properties":{"name":"NORTHWEST PLUS","city":"EVERETT","zip":"98201","assets":"$105,210,224","url":"NWPLUSCU.COM","column_8":"Credit Union","geo_score":1.0,"street":"2821 HEWITT AVE","id":"aeuz0hfyblmf","geo_precision":"range","state":"WA"},"type":"Feature","geometry":{"type":"Point","coordinates":[-122.192684,47.979166]}},{"properties":{"name":"AMERICAN SOUTHWEST","city":"SIERRA VISTA","zip":"85635","assets":"$187,501,422","url":"www.americansouthwestcu.org","column_8":"Credit Union","geo_score":0.614,"street":"3090 E. FRY BLVD","id":"aeuz0huf15c3","geo_precision":"street","state":"AZ"},"type":"Feature","geometry":{"type":"Point","coordinates":[-110.297503,31.554643]}},{"properties":{"name":"Advantis Credit Union","city":"MILWAUKIE","zip":"97222","assets":"$705,343,811","url":"WWW.ADVANTISCU.ORG","column_8":"Credit Union","geo_score":0.614,"street":"10501 S.E. MAIN STREET","id":"aeuz0hjuakv1","geo_precision":"street","state":"OR"},"type":"Feature","geometry":{"type":"Point","coordinates":[-122.639873,45.456862]}},{"properties":{"name":"Visterra Credit Union","city":"MORENO VALLEY","zip":"92552-9500","assets":"$400,521,133","url":"WWW.VISTERRCU.ORG","column_8":"Credit Union","geo_score":0.347,"street":"P.O. BOX 9500","id":"aeuz0hi9qmub","geo_precision":"street","state":"CA"},"type":"Feature","geometry":{"type":"Point","coordinates":[-116.74425,33.480738]}},{"properties":{"name":"RED CANOE","city":"LONGVIEW","zip":"98632","assets":"$601,410,017","url":"WWW.REDCANOECU.COM","column_8":"Credit Union","geo_score":0.364,"street":"PO BOX 3020","id":"aeuz0hmeekzf","geo_precision":"street","state":"WA"},"type":"Feature","geometry":{"type":"Point","coordinates":[-122.33722,45.587766]}},{"properties":{"name":"Honolulu FCU","city":"HONOLULU","zip":"96804","assets":"$239,430,205","url":"WWW.HONOLULUFCU.COM","column_8":"Credit Union","geo_score":0.357,"street":"P. O. BOX 2428","id":"aeuz0hgz8ksj","geo_precision":"street","state":"HI"},"type":"Feature","geometry":{"type":"Point","coordinates":[-157.741655,21.282501]}},{"properties":{"name":"MINNESOTA BUILDING TRADES","city":"MAPLE GROVE","zip":"55369-5260","assets":"$101,623,218","url":"WWW.MBTFCU.COM","column_8":"Credit Union","geo_score":0.941,"street":"12080 73RD AVE N","id":"aeuz0hhxm688","geo_precision":"range","state":"MN"},"type":"Feature","geometry":{"type":"Point","coordinates":[-93.432552,45.087488]}},{"properties":{"name":"TRUSTAR","city":"INT'L FALLS","zip":"56649","assets":"$147,966,465","url":"TRUSTARFCU.COM","column_8":"Credit Union","geo_score":0.856,"street":"601 4TH ST.","id":"aeuz0hrt3edg","geo_precision":"range","state":"MN"},"type":"Feature","geometry":{"type":"Point","coordinates":[-93.4082,48.601679]}},{"properties":{"name":"TRUGROCER","city":"BOISE","zip":"83707","assets":"$212,202,213","url":"WWW.TRUGROCER.COM","column_8":"Credit Union","geo_score":0.857,"street":"P. O. BOX 8145","id":"aeuz0ho3tvi0","geo_precision":"zip","state":"ID"},"type":"Feature","geometry":{"type":"Point","coordinates":[-116.026214,43.314614]}},{"properties":{"name":"YAKIMA VALLEY CU","city":"YAKIMA","zip":"98907","assets":"$207,907,276","url":"WWW.YVCU.ORG","column_8":"Credit Union","geo_score":0.393,"street":"P O BOX 2922","id":"aeuz0hgiohk1","geo_precision":"street","state":"WA"},"type":"Feature","geometry":{"type":"Point","coordinates":[-121.091021,47.198254]}},{"properties":{"name":"RIO GRANDE","city":"ALBUQUERQUE","zip":"87110","assets":"$192,181,896","url":"RIOGRANDECU.ORG","column_8":"Credit Union","geo_score":0.634,"street":"1401 SAN PEDRO NE","id":"aeuz0hoh9s0l","geo_precision":"street","state":"NM"},"type":"Feature","geometry":{"type":"Point","coordinates":[-107.171523,34.953428]}},{"properties":{"name":"SIOUXLAND","city":"SOUTH SIOUX CIT","zip":"68776","assets":"$147,083,670","url":"WWW.SIOUXLANDFEDERALCU.COM","column_8":"Credit Union","geo_score":0.371,"street":"PO BOX 807","id":"aeuz0hs7qafz","geo_precision":"street","state":"NE"},"type":"Feature","geometry":{"type":"Point","coordinates":[-96.987647,41.960286]}},{"properties":{"name":"A. E. A.","city":"YUMA","zip":"85366","assets":"$342,520,328","url":"WWW.AEAFCU.ORG","column_8":"Credit Union","geo_score":0.286,"street":"P.O. BOX 13000","id":"aeuz0hrgiito","geo_precision":"street","state":"AZ"},"type":"Feature","geometry":{"type":"Point","coordinates":[-112.767208,33.963634]}},{"properties":{"name":"First City Credit Union","city":"LOS ANGELES","zip":"90086","assets":"$381,469,108","url":"FIRSTCITYCU.ORG","column_8":"Credit Union","geo_score":0.286,"street":"P.O. BOX 86008","id":"aeuz0hpstyb5","geo_precision":"street","state":"CA"},"type":"Feature","geometry":{"type":"Point","coordinates":[-118.186002,34.062213]}},{"properties":{"name":"FIRST METROPOLITAN","city":"CONCORD","zip":"94520","assets":"$205,017,961","url":"WWW.METRO1CU.ORG","column_8":"Credit Union","geo_score":0.512,"street":"1333 WILLOW PASS RD., STE. 206","id":"aeuz0hk3l8a0","geo_precision":"street","state":"CA"},"type":"Feature","geometry":{"type":"Point","coordinates":[-122.055774,37.971458]}},{"properties":{"name":"Eagle Legacy","city":"ARVADA","zip":"80001","assets":"$214,473,213","url":"WWW.EAGLELEGACY.ORG","column_8":"Credit Union","geo_score":0.325,"street":"PO BOX 1346","id":"aeuz0hgduefz","geo_precision":"street","state":"CO"},"type":"Feature","geometry":{"type":"Point","coordinates":[-104.824443,39.641076]}},{"properties":{"name":"Mainstreet Credit Union","city":"LENEXA","zip":"66215","assets":"$250,498,047","url":"WWW.CUJC.ORG","column_8":"Credit Union","geo_score":0.935,"street":"13001 W 95TH STREET","id":"aeuz0hpwg9q0","geo_precision":"range","state":"KS"},"type":"Feature","geometry":{"type":"Point","coordinates":[-94.736848,38.956442]}},{"properties":{"name":"HAWAIIAN TEL","city":"HONOLULU","zip":"96817","assets":"514,000,000","url":"WWW.HTEFCU.ORG","column_8":"Credit Union","geo_score":1.0,"street":"1138 NORTH KING STREET","id":"aeuz0heprp98","geo_precision":"range","state":"HI"},"type":"Feature","geometry":{"type":"Point","coordinates":[-157.869589,21.326054]}},{"properties":{"name":"CITY AND COUNTY EMPLOYEES","city":"ST. PAUL","zip":"55101","assets":"$321,127,253","url":"WWW.CCCU.COM","column_8":"Credit Union","geo_score":0.766,"street":"144 11TH STREET EAST","id":"aeuz0hpg46iy","geo_precision":"range","state":"MN"},"type":"Feature","geometry":{"type":"Point","coordinates":[-93.094272,44.952602]}},{"properties":{"name":"WESTSTAR","city":"LAS VEGAS","zip":"89193","assets":"$192,025,003","url":"WWW.WESTSTAR.ORG","column_8":"Credit Union","geo_score":0.385,"street":"P O BOX 94138","id":"aeuz0hpcbjn7","geo_precision":"street","state":"NV"},"type":"Feature","geometry":{"type":"Point","coordinates":[-115.083911,36.227972]}},{"properties":{"name":"Prevail Credit Union","city":"SEATTLE","zip":"98104","assets":"$232,460,840","url":"PREVAILCU.COM","column_8":"Credit Union","geo_score":0.878,"street":"801 2ND AVE., SUITE 100","id":"aeuz0hmxa1lg","geo_precision":"street","state":"WA"},"type":"Feature","geometry":{"type":"Point","coordinates":[-122.331985,47.601717]}},{"properties":{"name":"PACIFIC OAKS","city":"CAMARILLO","zip":"93010","assets":"$259,229,585","url":"WWW.PACIFICOAKSFCU.ORG","column_8":"Credit Union","geo_score":0.805,"street":"761 DAILY DRIVE SUITE 200","id":"aeuz0hil1o92","geo_precision":"range","state":"CA"},"type":"Feature","geometry":{"type":"Point","coordinates":[-119.091629,34.221184]}},{"properties":{"name":"OUR COMMUNITY","city":"SHELTON","zip":"98584","assets":"$186,399,810","url":"WWW.OURCU.COM","column_8":"Credit Union","geo_score":0.333,"street":"P.O. BOX 1670","id":"aeuz0hqomrry","geo_precision":"street","state":"WA"},"type":"Feature","geometry":{"type":"Point","coordinates":[-122.600639,46.946118]}},{"properties":{"name":"NW PRIORITY","city":"PORTLAND","zip":"97292-0640","assets":"$184,526,786","url":"WWW.NWPRIORITYCU.ORG","column_8":"Credit Union","geo_score":0.357,"street":"PO BOX 16640","id":"aeuz0hmp6t4e","geo_precision":"street","state":"OR"},"type":"Feature","geometry":{"type":"Point","coordinates":[-122.630078,45.547152]}},{"properties":{"name":"First Financial Credit Union (NM)","city":"Albuquerque","zip":"87125-0587","assets":"$383,634,910","url":"www.ffnm.org","column_8":"Credit Union","geo_score":0.333,"street":"P.O. Box 25587","id":"aeuz0hfb7iz6","geo_precision":"street","state":"NM"},"type":"Feature","geometry":{"type":"Point","coordinates":[-106.569215,35.152374]}},{"properties":{"name":"State Employees CU - NM","city":"Santa Fe","zip":null,"assets":"330,000,000","url":null,"column_8":"Credit Union","geo_score":0.714,"street":null,"id":"aeuz0hfn9jnc","geo_precision":"city","state":"NM"},"type":"Feature","geometry":{"type":"Point","coordinates":[-105.982146,35.697473]}},{"properties":{"name":"University Federal Credit Union","city":"Salt Lake City","zip":null,"assets":"551 Million","url":null,"column_8":"Credit Union","geo_score":0.714,"street":null,"id":"aeuz0hjjpkju","geo_precision":"city","state":"UT"},"type":"Feature","geometry":{"type":"Point","coordinates":[-111.900719,40.756095]}},{"properties":{"name":"San Francisco Federal Credit Union","city":"San Francisco","zip":null,"assets":"800 Million","url":null,"column_8":"Credit Union","geo_score":0.714,"street":null,"id":"aeuz0hgb56m1","geo_precision":"city","state":"CA"},"type":"Feature","geometry":{"type":"Point","coordinates":[-118.298662,33.786594]}},{"properties":{"name":"Integris Credit Union","city":"Prince George","zip":null,"assets":"$363,332,102","url":"https://www.integriscu.ca/","column_8":"Credit Union","geo_score":0.0,"street":"ntegris Credit Union 1532 ? 6th Avenue Prince George, BC V2L 5B5","id":"aeuz0hmh7ern","geo_precision":"unmatched","state":"BC"},"type":"Feature","geometry":null},{"properties":{"name":"iQ Credit Union","city":"VANCOUVER","zip":"98668","assets":"$427,447,986","url":"WWW.IQCU.COM","column_8":"Credit Union","geo_score":0.364,"street":"PO BOX 1739","id":"aeuz0hh9es8s","geo_precision":"street","state":"WA"},"type":"Feature","geometry":{"type":"Point","coordinates":[-122.33722,45.587766]}},{"properties":{"name":"Island Savings Credit Union","city":null,"zip":null,"assets":"1,019,366,052","url":null,"column_8":"Credit Union","geo_score":0.0,"street":null,"id":"aeuz0hhysxow","geo_precision":"unmatched","state":"BC"},"type":"Feature","geometry":null},{"properties":{"name":"National 1st FCU","city":"Sunnydale","zip":null,"assets":"$173,263,264","url":"WWW.NATIONAL1ST.ORG","column_8":"Credit Union","geo_score":0.0,"street":null,"id":"aeuz0hmha4ei","geo_precision":"unmatched","state":"CA"},"type":"Feature","geometry":null},{"properties":{"name":"Jeffco Schools","city":null,"zip":null,"assets":"$142,466,360","url":"JEFFCOCU.COOP","column_8":"Credit Union","geo_score":0.0,"street":null,"id":"aeuz0hnajd2q","geo_precision":"unmatched","state":"CO"},"type":"Feature","geometry":null},{"properties":{"name":"Jordan FCU","city":"Sandy","zip":null,"assets":"$207,395,002","url":"WWW.JORDAN-CU.ORG","column_8":"Credit Union","geo_score":0.714,"street":null,"id":"aeuz0hpm380t","geo_precision":"city","state":"UT"},"type":"Feature","geometry":{"type":"Point","coordinates":[-111.859504,40.578597]}},{"properties":{"name":"Kaiperm","city":null,"zip":null,"assets":"$105,078,080","url":"WWW.KAIPERMFCU.ORG","column_8":"Credit Union","geo_score":0.0,"street":null,"id":"aeuz0hs520nb","geo_precision":"unmatched","state":"CA"},"type":"Feature","geometry":null},{"properties":{"name":"Kaiperm Diablo FCU","city":"Walnut Creek","zip":null,"assets":"$60,724,042","url":null,"column_8":"Credit Union","geo_score":0.714,"street":null,"id":"aeuz0hj5t9fl","geo_precision":"city","state":"CA"},"type":"Feature","geometry":{"type":"Point","coordinates":[-122.481647,38.517964]}},{"properties":{"name":"Kauai Community","city":"Lihue","zip":"96766","assets":"$300,148,556","url":"WWW.KCFCU.ORG","column_8":"Credit Union","geo_score":0.643,"street":"P.O. Box 1447","id":"aeuz0hn3pybf","geo_precision":"street","state":"HI"},"type":"Feature","geometry":{"type":"Point","coordinates":[-159.39868,21.9641]}},{"properties":{"name":"Kern Federal Credit Union (Bakersfield)","city":null,"zip":null,"assets":"$219,996,260","url":"WWW.KERNFCU.ORG","column_8":"Credit Union","geo_score":0.0,"street":null,"id":"aeuz0hsz7qzw","geo_precision":"unmatched","state":"CA"},"type":"Feature","geometry":null},{"properties":{"name":"Kern Schools FCU","city":"Bakersfield","zip":"93389","assets":"$1,726,406,573","url":"WWW.KSFCU.ORG","column_8":"Credit Union","geo_score":0.357,"street":"9500 Ming Avenue P.O. Box 9506","id":"aeuz0hkfvyoz","geo_precision":"street","state":"CA"},"type":"Feature","geometry":{"type":"Point","coordinates":[-119.106993,35.321804]}},{"properties":{"name":"Keypoint Credit Union","city":"SANTA CLARA","zip":"95051","assets":"$722,820,408","url":"KEYPOINTCU.COM","column_8":"Credit Union","geo_score":1.0,"street":"2805 BOWERS AVENUE","id":"aeuz0heehgxz","geo_precision":"range","state":"CA"},"type":"Feature","geometry":{"type":"Point","coordinates":[-121.977711,37.374018]}},{"properties":{"name":"Kinecta Federal Credit Union","city":"Manhattan Beach","zip":"90266","assets":"$3,768,237,370","url":"http://www.kinecta.org","column_8":"Credit Union","geo_score":1.0,"street":"1440 Rosecrans Ave.","id":"aeuz0hn4p92a","geo_precision":"range","state":"CA"},"type":"Feature","geometry":{"type":"Point","coordinates":[-118.38702,33.9018]}},{"properties":{"name":"Kirtland Federal Credit Union","city":"ALBUQUERQUE","zip":"87198","assets":"$577,412,039","url":"WWW.KIRTLANDFCU.ORG","column_8":"Credit Union","geo_score":0.393,"street":"PO BOX 80570","id":"aeuz0hl1ufcg","geo_precision":"street","state":"NM"},"type":"Feature","geometry":{"type":"Point","coordinates":[-106.569215,35.152374]}},{"properties":{"name":"Kitsap Community FCU","city":"Bremerton","zip":null,"assets":"$903,432,411","url":"KITSAPCU.ORG","column_8":"Credit Union","geo_score":0.714,"street":null,"id":"aeuz0hji1uf9","geo_precision":"city","state":"WA"},"type":"Feature","geometry":{"type":"Point","coordinates":[-122.634712,47.606478]}},{"properties":{"name":"Kootenay Savings Credit Union","city":null,"zip":null,"assets":"940,000,000","url":null,"column_8":"Credit Union","geo_score":0.0,"street":null,"id":"aeuz0hnotl8p","geo_precision":"unmatched","state":"BC"},"type":"Feature","geometry":null},{"properties":{"name":"LA Financial Credit Union","city":null,"zip":null,"assets":"$343,902,691","url":"WWW.LAFINANCIAL.ORG","column_8":"Credit Union","geo_score":0.0,"street":null,"id":"aeuz0hlriw57","geo_precision":"unmatched","state":"CA"},"type":"Feature","geometry":null},{"properties":{"name":"Lacamas Community Credit Union","city":"Camas","zip":"98607","assets":"$175,939,707","url":"WWW.LACAMAS.ORG","column_8":"Credit Union","geo_score":0.393,"street":"P.O. Box 1108","id":"aeuz0hkc0naa","geo_precision":"street","state":"WA"},"type":"Feature","geometry":{"type":"Point","coordinates":[-122.33722,45.587766]}},{"properties":{"name":"Lake State FCU","city":"Moose Lake","zip":null,"assets":"$181,168,981","url":"LAKESTATEFCU.ORG","column_8":"Credit Union","geo_score":0.714,"street":null,"id":"aeuz0hrgzv4j","geo_precision":"city","state":"MN"},"type":"Feature","geometry":{"type":"Point","coordinates":[-92.756405,46.552827]}},{"properties":{"name":"Lakeland CU Ltd","city":null,"zip":null,"assets":"332,180,955","url":null,"column_8":"Credit Union","geo_score":0.0,"street":null,"id":"aeuz0hmlidhw","geo_precision":"unmatched","state":"AB"},"type":"Feature","geometry":null},{"properties":{"name":"Lakes Area CU","city":null,"zip":null,"assets":"$22,299,646","url":null,"column_8":"Credit Union","geo_score":0.0,"street":null,"id":"aeuz0hff4dls","geo_precision":"unmatched","state":"MN"},"type":"Feature","geometry":null},{"properties":{"name":"LBS Financial Credit Union","city":null,"zip":null,"assets":"$1,023,831,959","url":"WWW.LBSFCU.ORG","column_8":"Credit Union","geo_score":0.0,"street":null,"id":"aeuz0hfahlpc","geo_precision":"unmatched","state":"CA"},"type":"Feature","geometry":null},{"properties":{"name":"Liberty First CU","city":"Lincoln","zip":"68503","assets":"$127,003,400","url":"WWW.LIBERTYFIRSTCU.COM","column_8":"Credit Union","geo_score":0.837,"street":"501 North 46th","id":"aeuz0hgvkq4m","geo_precision":"range","state":"NE"},"type":"Feature","geometry":{"type":"Point","coordinates":[-96.655817,40.820702]}},{"properties":{"name":"Lockheed Federal Credit Union","city":null,"zip":null,"assets":"3,319,207,913","url":"WWW.LOCKHEEDFCU.ORG","column_8":"Credit Union","geo_score":0.0,"street":null,"id":"aeuz0hpnkvo5","geo_precision":"unmatched","state":"CA"},"type":"Feature","geometry":null},{"properties":{"name":"Long Beach City Employees","city":null,"zip":null,"assets":"$258,169,391","url":"HTTP://WWW.LBCEFCU.ORG","column_8":"Credit Union","geo_score":0.0,"street":null,"id":"aeuz0hm4s6lx","geo_precision":"unmatched","state":"CA"},"type":"Feature","geometry":null},{"properties":{"name":"Long Beach Firemens","city":null,"zip":null,"assets":"$127,650,476","url":"WWW.LBFCU.ORG","column_8":"Credit Union","geo_score":0.0,"street":null,"id":"aeuz0hhjm6y8","geo_precision":"unmatched","state":"CA"},"type":"Feature","geometry":null},{"properties":{"name":"Los Angeles FCU","city":"Glendale","zip":"91205","assets":"$698,523,083","url":"WWW.LAFCU.ORG","column_8":"Credit Union","geo_score":1.0,"street":"300 S Glendale Avenue","id":"aeuz0hj67rto","geo_precision":"range","state":"CA"},"type":"Feature","geometry":{"type":"Point","coordinates":[-118.249695,34.14179]}},{"properties":{"name":"MaPS Credit Union","city":"Salem","zip":null,"assets":"$410,628,837","url":"WWW.MAPSCU.COM","column_8":"Credit Union","geo_score":0.714,"street":null,"id":"aeuz0hoqb4jy","geo_precision":"city","state":"OR"},"type":"Feature","geometry":{"type":"Point","coordinates":[-122.921721,44.90472]}},{"properties":{"name":"Mayo Employees Credit Union","city":null,"zip":null,"assets":"$451,090,080","url":"WWW.MAYOCREDITUNION.ORG","column_8":"Credit Union","geo_score":0.0,"street":null,"id":"aeuz0hqct6m5","geo_precision":"unmatched","state":"MN"},"type":"Feature","geometry":null},{"properties":{"name":"Matanuska Valley","city":null,"zip":null,"assets":"$227,306,453","url":"WWW.MVFCU.COOP","column_8":"Credit Union","geo_score":0.0,"street":null,"id":"aeuz0htlklrg","geo_precision":"unmatched","state":"AK"},"type":"Feature","geometry":null},{"properties":{"name":"Members Cooperative CU","city":null,"zip":null,"assets":"$348,885,461","url":"WWW.MEMBERSCCU.ORG","column_8":"Credit Union","geo_score":0.0,"street":null,"id":"aeuz0hf2enqx","geo_precision":"unmatched","state":"MN"},"type":"Feature","geometry":null},{"properties":{"name":"Hawaii Federal Credit Union","city":"Honolulu","zip":"96820","assets":"$57,674,575","url":"WWW.HAWAIIFCU.ORG","column_8":"Credit Union","geo_score":0.357,"street":"P.O. Box 30207","id":"aeuz0hfk2u8r","geo_precision":"street","state":"HI"},"type":"Feature","geometry":{"type":"Point","coordinates":[-157.741655,21.282501]}},{"properties":{"name":"HAPO Community CU","city":"Richland","zip":null,"assets":"$732,374,396","url":"WWW.HAPO.ORG","column_8":"Credit Union","geo_score":0.902,"street":"601 Williams Blvd","id":"aeuz0hi3bxrt","geo_precision":"range","state":"WA"},"type":"Feature","geometry":{"type":"Point","coordinates":[-119.279479,46.285717]}},{"properties":{"name":"Merced School Employees","city":null,"zip":null,"assets":"$344,324,579","url":"WWW.MERCEDSCHOOLCU.ORG","column_8":"Credit Union","geo_score":0.0,"street":null,"id":"aeuz0hnwi004","geo_precision":"unmatched","state":"CA"},"type":"Feature","geometry":null},{"properties":{"name":"Meriwest Credit Union","city":"San Jose","zip":"95153","assets":"$1,294,198,000","url":"WWW.MERIWEST.COM","column_8":"Credit Union","geo_score":0.357,"street":"P.O. Box 530953","id":"aeuz0hp7uq9x","geo_precision":"street","state":"CA"},"type":"Feature","geometry":{"type":"Point","coordinates":[-121.969332,37.29821]}},{"properties":{"name":"Heartland Community CU Ltd","city":null,"zip":null,"assets":"413,767,125","url":null,"column_8":"Credit Union","geo_score":0.0,"street":null,"id":"aeuz0hhzjnbz","geo_precision":"unmatched","state":"MB"},"type":"Feature","geometry":null},{"properties":{"name":"Heritage Community CU","city":null,"zip":null,"assets":"$246,698,104","url":"HERITAGECCU.COM","column_8":"Credit Union","geo_score":0.0,"street":null,"id":"aeuz0htfqe34","geo_precision":"unmatched","state":"CA"},"type":"Feature","geometry":null},{"properties":{"name":"Health Associates FCU","city":null,"zip":null,"assets":"$51,576,770","url":null,"column_8":"Credit Union","geo_score":0.0,"street":null,"id":"aeuz0hlm66sv","geo_precision":"unmatched","state":"CA"},"type":"Feature","geometry":null},{"properties":{"name":"Metro 1","city":null,"zip":null,"assets":null,"url":null,"column_8":"Credit Union","geo_score":0.0,"street":null,"id":"aeuz0hm0cfdq","geo_precision":"unmatched","state":"CA"},"type":"Feature","geometry":null},{"properties":{"name":"Metro Health Services","city":null,"zip":null,"assets":"$189,062,079","url":"WWW.METROFCU.ORG","column_8":"Credit Union","geo_score":0.0,"street":null,"id":"aeuz0hl3g176","geo_precision":"unmatched","state":"NE"},"type":"Feature","geometry":null},{"properties":{"name":"Mid American CU","city":"Wichita","zip":"67209","assets":"$196,519,674","url":"WWW.MIDAMERICAN.COOP","column_8":"Credit Union","geo_score":0.607,"street":"8404 W. Kellogg Dr","id":"aeuz0hfpi8c1","geo_precision":"street","state":"KS"},"type":"Feature","geometry":{"type":"Point","coordinates":[-97.338515,37.678902]}},{"properties":{"name":"Mid Minnesota","city":null,"zip":null,"assets":"$223,062,494","url":"WWW.MMFCU.ORG","column_8":"Credit Union","geo_score":0.0,"street":null,"id":"aeuz0hunbm10","geo_precision":"unmatched","state":"MN"},"type":"Feature","geometry":null},{"properties":{"name":"Hickam Federal CU","city":"Honolulu","zip":"96820","assets":"$390,936,583","url":"WWW.HICKAMFCU.ORG","column_8":"Credit Union","geo_score":0.393,"street":"PO Box 30025","id":"aeuz0ht5qkw8","geo_precision":"street","state":"HI"},"type":"Feature","geometry":{"type":"Point","coordinates":[-157.786015,21.272449]}},{"properties":{"name":"High Desert FCU","city":"APPLE VALLEY","zip":"92307-1388","assets":"$187,383,773","url":"WWW.HDFCU.ORG","column_8":"Credit Union","geo_score":1.0,"street":"15099 KAMANA ROAD","id":"aeuz0hidqqqu","geo_precision":"range","state":"CA"},"type":"Feature","geometry":{"type":"Point","coordinates":[-117.271618,34.542423]}},{"properties":{"name":"Highmark FCU","city":null,"zip":null,"assets":"$78,110,527","url":null,"column_8":"Credit Union","geo_score":0.0,"street":null,"id":"aeuz0hjgvb0n","geo_precision":"unmatched","state":"SD"},"type":"Feature","geometry":null},{"properties":{"name":"Honeywell Aerospace FCU","city":"Glendale","zip":null,"assets":"$185,065,101","url":"WWW.HAFCU.NET","column_8":"Credit Union","geo_score":0.714,"street":null,"id":"aeuz0higi4m7","geo_precision":"city","state":"AZ"},"type":"Feature","geometry":{"type":"Point","coordinates":[-112.18717,33.276539]}},{"properties":{"name":"Horizon Credit Union (WA)","city":"Spokane Valley","zip":"Name HORIZON","assets":"$406,921,534","url":"WWW.HZCU.ORG","column_8":"Credit Union","geo_score":0.347,"street":"P.O. Box 15128","id":"aeuz0hqo8ncj","geo_precision":"street","state":"WA"},"type":"Feature","geometry":{"type":"Point","coordinates":[-117.718865,48.173348]}},{"properties":{"name":"Mill Town CU","city":null,"zip":null,"assets":"$41,250,373","url":null,"column_8":"Credit Union","geo_score":0.0,"street":null,"id":"aeuz0heyg7il","geo_precision":"unmatched","state":"WA"},"type":"Feature","geometry":null},{"properties":{"name":"Minnequa Works CU","city":"Pueblo","zip":"81004","assets":"$138,805,395","url":"www.minnequaworks.com","column_8":"Credit Union","geo_score":0.602,"street":"1549 E. Abriendo Ave","id":"aeuz0hlw4rlx","geo_precision":"street","state":"CO"},"type":"Feature","geometry":{"type":"Point","coordinates":[-104.62117,38.259798]}},{"properties":{"name":"Miramar Federal Credit Union","city":"SAN DIEGO","zip":"92126","assets":"$205,951,923","url":"WWW.MIRAMARFCU.ORG","column_8":"Credit Union","geo_score":1.0,"street":"9494 MIRAMAR ROAD","id":"aeuz0hh1v9eb","geo_precision":"range","state":"CA"},"type":"Feature","geometry":{"type":"Point","coordinates":[-117.126827,32.893819]}},{"properties":{"name":"Mission Federal Credit Union","city":null,"zip":null,"assets":"$2,053,001,456","url":"WWW.MissionFCU.ORG","column_8":"Credit Union","geo_score":0.0,"street":null,"id":"aeuz0hn4ydya","geo_precision":"unmatched","state":"CA"},"type":"Feature","geometry":null},{"properties":{"name":"Idaho Central Credit Union","city":"POCATELLO","zip":"83206","assets":"$865,562,212","url":"WWW.ICCU.COM","column_8":"Credit Union","geo_score":0.857,"street":"PO BOX 2469","id":"aeuz0hr6bh95","geo_precision":"zip","state":"ID"},"type":"Feature","geometry":{"type":"Point","coordinates":[-112.313836,42.639474]}},{"properties":{"name":"ILWU Credit Union","city":null,"zip":null,"assets":"$22,873,173","url":null,"column_8":"Credit Union","geo_score":0.0,"street":null,"id":"aeuz0hg1j5n9","geo_precision":"unmatched","state":"CA"},"type":"Feature","geometry":null},{"properties":{"name":"MOCSE FCU","city":"Modesto","zip":null,"assets":"$185,835,137","url":"WWW.MOCSE.ORG","column_8":"Credit Union","geo_score":0.714,"street":null,"id":"aeuz0heg5wwq","geo_precision":"city","state":"CA"},"type":"Feature","geometry":{"type":"Point","coordinates":[-121.016796,37.669463]}},{"properties":{"name":"Monterey CU","city":"Monterey","zip":"93942","assets":"$163,203,858","url":"www.montereycu.com","column_8":"Credit Union","geo_score":0.347,"street":"P.O. Box 3288","id":"aeuz0hmwhm3n","geo_precision":"street","state":"CA"},"type":"Feature","geometry":{"type":"Point","coordinates":[-121.724688,36.777789]}},{"properties":{"name":"All Valley FCU","city":null,"zip":null,"assets":"$94,973,923","url":"www.avfcu.org","column_8":"Credit Union","geo_score":0.0,"street":null,"id":"aeuz0hr2nyiz","geo_precision":"unmatched","state":"CA"},"type":"Feature","geometry":null},{"properties":{"name":"O Bee","city":null,"zip":null,"assets":"$146,903,356","url":"WWW.OBEE.COM","column_8":"Credit Union","geo_score":0.0,"street":null,"id":"aeuz0hgq05m9","geo_precision":"unmatched","state":"WA"},"type":"Feature","geometry":null},{"properties":{"name":"GESA Credit Union","city":"Richland","zip":null,"assets":"$656,516,959","url":"WWW.GESA.COM","column_8":"Credit Union","geo_score":0.714,"street":null,"id":"aeuz0hfhlpk2","geo_precision":"city","state":"WA"},"type":"Feature","geometry":{"type":"Point","coordinates":[-119.491659,46.282031]}},{"properties":{"name":"Minnco","city":null,"zip":null,"assets":"$170,105,660","url":"MINNCO.COM","column_8":"Credit Union","geo_score":0.0,"street":null,"id":"aeuz0hmxnxgg","geo_precision":"unmatched","state":"MN"},"type":"Feature","geometry":null},{"properties":{"name":"Mutual First","city":"Omaha","zip":null,"assets":"109,000,000","url":"WWW.MUTUALFIRST.COM","column_8":"Credit Union","geo_score":0.714,"street":null,"id":"aeuz0hu3ihwi","geo_precision":"city","state":"NE"},"type":"Feature","geometry":{"type":"Point","coordinates":[-96.171104,41.291736]}},{"properties":{"name":"Lloydminster Credit Union","city":null,"zip":null,"assets":"592,131,765","url":null,"column_8":"Credit Union","geo_score":0.0,"street":null,"id":"aeuz0hid1dvp","geo_precision":"unmatched","state":"SK"},"type":"Feature","geometry":null},{"properties":{"name":"California State &amp; Federal Empl No 20 CU","city":null,"zip":null,"assets":"$116,291,670","url":null,"column_8":"Credit Union","geo_score":0.0,"street":null,"id":"aeuz0hknzi82","geo_precision":"unmatched","state":"ca"},"type":"Feature","geometry":null},{"properties":{"name":"Operating Engineers Local Union #3 FCU (OEFCU)","city":null,"zip":"94551","assets":"$820,243,590","url":"WWW.OEFCU.ORG","column_8":"Credit Union","geo_score":0.5,"street":"P.O. Box 5073","id":"aeuz0hlwq4py","geo_precision":"street","state":"CA"},"type":"Feature","geometry":{"type":"Point","coordinates":[-121.777896,37.683213]}},{"properties":{"name":"SchoolsFirst FCU","city":"Santa Ana","zip":"92711-1547","assets":"$8,434,124,764","url":"www.schoolsfirstfcu.org","column_8":"Credit Union","geo_score":0.857,"street":"P.O. Box 11547","id":"aeuz0hha2003","geo_precision":"zip","state":"CA"},"type":"Feature","geometry":{"type":"Point","coordinates":[-117.769442,33.640302]}},{"properties":{"name":"Orange Countys Credit Union","city":null,"zip":null,"assets":"$870,076,249","url":"WWW.ORANGECOUNTYSCU.ORG","column_8":"Credit Union","geo_score":0.0,"street":null,"id":"aeuz0hk6bkqq","geo_precision":"unmatched","state":"CA"},"type":"Feature","geometry":null},{"properties":{"name":"Otero FCU","city":"Alamogordo","zip":null,"assets":"$173,059,336","url":"WWW.OTEROFCU.ORG","column_8":"Credit Union","geo_score":0.714,"street":null,"id":"aeuz0hm2ug3a","geo_precision":"city","state":"NM"},"type":"Feature","geometry":{"type":"Point","coordinates":[-105.948967,32.870046]}},{"properties":{"name":"Pacific Community Credit Union","city":null,"zip":null,"assets":"$187,987,975","url":"WWW.YOURCREDITUNION.COM","column_8":"Credit Union","geo_score":0.0,"street":null,"id":"aeuz0hpqhfyb","geo_precision":"unmatched","state":"CA"},"type":"Feature","geometry":null},{"properties":{"name":"Pacific N W","city":null,"zip":null,"assets":"$141,863,976","url":"WWW.PNWFCU.ORG","column_8":"Credit Union","geo_score":0.0,"street":null,"id":"aeuz0hpq981z","geo_precision":"unmatched","state":"OR"},"type":"Feature","geometry":null},{"properties":{"name":"Pacific Resource","city":"Los Angelos","zip":"90071","assets":"$122,845,981","url":"WWW.PACIFICRESOURCECU.ORG","column_8":"Credit Union","geo_score":0.991,"street":"333 South Hope St.","id":"aeuz0hjkmy2w","geo_precision":"range","state":"CA"},"type":"Feature","geometry":{"type":"Point","coordinates":[-118.252275,34.053711]}},{"properties":{"name":"Pacific Service","city":null,"zip":null,"assets":"$1,065,029,355","url":"WWW.PACIFICSERVICE.ORG","column_8":"Credit Union","geo_score":0.0,"street":null,"id":"aeuz0htgudzj","geo_precision":"unmatched","state":"CA"},"type":"Feature","geometry":null},{"properties":{"name":"South Interlake CU Ltd","city":null,"zip":null,"assets":"413,301,070","url":null,"column_8":"Credit Union","geo_score":0.0,"street":null,"id":"aeuz0houwpvx","geo_precision":"unmatched","state":"MB"},"type":"Feature","geometry":null},{"properties":{"name":"USC Credit Union","city":"Los Angeles","zip":null,"assets":"$341,237,803","url":"WWW.USCCREDITUNION.ORG","column_8":"Credit Union","geo_score":0.714,"street":null,"id":"aeuz0hicj5i0","geo_precision":"city","state":"CA"},"type":"Feature","geometry":{"type":"Point","coordinates":[-120.618608,38.052816]}},{"properties":{"name":"USU Charter Credit Union","city":null,"zip":null,"assets":"$147,358,142","url":"WWW.USUCCU.ORG","column_8":"Credit Union","geo_score":0.0,"street":null,"id":"aeuz0hq1kk38","geo_precision":"unmatched","state":"UT"},"type":"Feature","geometry":null},{"properties":{"name":"Parsons","city":null,"zip":null,"assets":"$215,352,703","url":"PARSONSFCU.ORG","column_8":"Credit Union","geo_score":0.0,"street":null,"id":"aeuz0hopad52","geo_precision":"unmatched","state":"CA"},"type":"Feature","geometry":null},{"properties":{"name":"Partners Federal Credit Union (CA)","city":"Burbank","zip":null,"assets":"$879,218,557","url":"WWW.PARTNERSFCU.ORG","column_8":"Credit Union","geo_score":0.512,"street":"100 N First Street Ste 400","id":"aeuz0hn2u8sz","geo_precision":"street","state":"CA"},"type":"Feature","geometry":{"type":"Point","coordinates":[-121.927094,37.326942]}},{"properties":{"name":"Pasadena","city":null,"zip":null,"assets":"$120,138,416","url":"PFCU.ORG","column_8":"Credit Union","geo_score":0.0,"street":null,"id":"aeuz0hj817e8","geo_precision":"unmatched","state":"CA"},"type":"Feature","geometry":null},{"properties":{"name":"Pearl Harbor FCU","city":"Waipahu","zip":"96797","assets":"350,455,018","url":"WWW.PHFCU.COM","column_8":"Credit Union","geo_score":0.708,"street":"94-449 Ukee Street","id":"aeuz0hr0l6pt","geo_precision":"street","state":"HI"},"type":"Feature","geometry":{"type":"Point","coordinates":[-158.000051,21.424723]}},{"properties":{"name":"Peninsula Community FCU","city":null,"zip":null,"assets":"$158,808,444","url":"PCFCU.ORG","column_8":"Credit Union","geo_score":0.0,"street":null,"id":"aeuz0hkvqp9a","geo_precision":"unmatched","state":"WA"},"type":"Feature","geometry":null},{"properties":{"name":"Southland CU","city":null,"zip":null,"assets":"$387,758,280","url":"WWW.SOUTHLANDCU.ORG","column_8":"Credit Union","geo_score":0.0,"street":null,"id":"aeuz0hk2i0fm","geo_precision":"unmatched","state":"CA"},"type":"Feature","geometry":null},{"properties":{"name":"Southwest CU Ltd","city":null,"zip":null,"assets":"466,206,160","url":null,"column_8":"Credit Union","geo_score":0.0,"street":null,"id":"aeuz0hqbsvuu","geo_precision":"unmatched","state":"SK"},"type":"Feature","geometry":null},{"properties":{"name":"Spectra Credit Union","city":null,"zip":null,"assets":"421,260,172","url":null,"column_8":"Credit Union","geo_score":0.0,"street":null,"id":"aeuz0hk4wwmd","geo_precision":"unmatched","state":"SK"},"type":"Feature","geometry":null},{"properties":{"name":"Spectrum Federal Credit Union","city":"SAN FRANCISCO","zip":"94119","assets":"$130,916,830","url":"WWW.SPECTRUMFCU.ORG","column_8":"Credit Union","geo_score":0.857,"street":"P O BOX 193919","id":"aeuz0hr6ate5","geo_precision":"zip","state":"CA"},"type":"Feature","geometry":{"type":"Point","coordinates":[-122.727802,37.784827]}},{"properties":{"name":"EvergreenDIRECT Credit Union","city":null,"zip":null,"assets":"$38,883,639","url":null,"column_8":"Credit Union","geo_score":0.0,"street":null,"id":"aeuz0helvttf","geo_precision":"unmatched","state":"CA"},"type":"Feature","geometry":null},{"properties":{"name":"Utah Central CU","city":"Salt Lake City","zip":"84115","assets":"$176,906,994","url":"UTAHCENTRAL.COM","column_8":"Credit Union","geo_score":1.0,"street":"25 East 1700 South","id":"aeuz0hm90jnh","geo_precision":"range","state":"UT"},"type":"Feature","geometry":{"type":"Point","coordinates":[-111.890243,40.733584]}},{"properties":{"name":"Pima Federal Credit Union","city":"Tucson","zip":null,"assets":"$348,578,286","url":"WWW.PIMAFCU.ORG","column_8":"Credit Union","geo_score":0.714,"street":null,"id":"aeuz0hjl7diy","geo_precision":"city","state":"AZ"},"type":"Feature","geometry":{"type":"Point","coordinates":[-110.970869,32.217975]}},{"properties":{"name":"St. Cloud FCU","city":null,"zip":null,"assets":"$84,328,340","url":null,"column_8":"Credit Union","geo_score":0.0,"street":null,"id":"aeuz0hgydclg","geo_precision":"unmatched","state":"MN"},"type":"Feature","geometry":null},{"properties":{"name":"St Vrain Valley CU","city":null,"zip":null,"assets":"$81,893,243","url":null,"column_8":"Credit Union","geo_score":0.0,"street":null,"id":"aeuz0hs9bo5b","geo_precision":"unmatched","state":"CO"},"type":"Feature","geometry":null},{"properties":{"name":"St. Helens Community","city":"St. Helens","zip":null,"assets":"$157,202,183","url":"WWW.SHCFCU.ORG","column_8":"Credit Union","geo_score":0.0,"street":null,"id":"aeuz0hpwzruy","geo_precision":"unmatched","state":"OR"},"type":"Feature","geometry":null},{"properties":{"name":"St. Marys Parish (oh)","city":null,"zip":null,"assets":null,"url":null,"column_8":"Credit Union","geo_score":0.0,"street":null,"id":"aeuz0hoea69f","geo_precision":"","state":null},"type":"Feature","geometry":null},{"properties":{"name":"Utah Community","city":null,"zip":null,"assets":"$555,457,774","url":"WWW.UCCU","column_8":"Credit Union","geo_score":0.0,"street":null,"id":"aeuz0herwbxw","geo_precision":"unmatched","state":"UT"},"type":"Feature","geometry":null},{"properties":{"name":"Valley Credit Union (CA)","city":"SAN JOSE","zip":"95126","assets":"$302,334,074","url":"WWW.VALLEYCU.ORG","column_8":"Credit Union","geo_score":1.0,"street":"670 LINCOLN AVENUE","id":"aeuz0hrzzt56","geo_precision":"range","state":"CA"},"type":"Feature","geometry":{"type":"Point","coordinates":[-121.906898,37.316084]}},{"properties":{"name":"Valley First Credit Union (Modesto)","city":"Modesto","zip":"95350","assets":"$365,703,804","url":"WWW.VALLEYFIRSTCU.ORG","column_8":"Credit Union","geo_score":1.0,"street":"1005 W Orangeburg Avenue","id":"aeuz0hmljfws","geo_precision":"range","state":"CA"},"type":"Feature","geometry":{"type":"Point","coordinates":[-121.006229,37.66399]}},{"properties":{"name":"Van Tel/Safeway Credit Union","city":null,"zip":null,"assets":"293,495,831","url":null,"column_8":"Credit Union","geo_score":0.0,"street":null,"id":"aeuz0hiypoco","geo_precision":"unmatched","state":"BC"},"type":"Feature","geometry":null},{"properties":{"name":"Ventura County CU","city":"VENTURA","zip":"93006","assets":"$465,905,279","url":"WWW.VCCUONLINE.NET","column_8":"Credit Union","geo_score":0.403,"street":"PO BOX 6920","id":"aeuz0hk1n2ck","geo_precision":"street","state":"CA"},"type":"Feature","geometry":{"type":"Point","coordinates":[-119.203382,34.271497]}},{"properties":{"name":"Point Loma CU","city":"San Diego","zip":null,"assets":"$487,855,981","url":"WWW.PLCU.COM","column_8":"Credit Union","geo_score":0.714,"street":null,"id":"aeuz0hnsl3su","geo_precision":"city","state":"CA"},"type":"Feature","geometry":{"type":"Point","coordinates":[-117.174366,32.7211]}},{"properties":{"name":"Point West","city":null,"zip":null,"assets":"$103,700,513","url":"WWW.POINTWESTCU.COM","column_8":"Credit Union","geo_score":0.0,"street":null,"id":"aeuz0hu4pfiw","geo_precision":"unmatched","state":"OR"},"type":"Feature","geometry":null},{"properties":{"name":"Stamford Federal Credit Union","city":null,"zip":null,"assets":"$53,304,629","url":null,"column_8":"Credit Union","geo_score":0.0,"street":null,"id":"aeuz0hjl7mrv","geo_precision":"","state":null},"type":"Feature","geometry":null},{"properties":{"name":"Stanford Federal Credit Union","city":"Palo Alto","zip":"94303-0843","assets":"$1,017,381,743","url":"WWW.SFCU.ORG","column_8":"Credit Union","geo_score":0.357,"street":"P.O. Box 10690","id":"aeuz0hmjokaq","geo_precision":"street","state":"CA"},"type":"Feature","geometry":{"type":"Point","coordinates":[-122.16606,37.45021]}},{"properties":{"name":"Star One FCU","city":"Sunnyvale","zip":"94088-3643","assets":"6,145,074,077","url":"WWW.STARONE.ORG","column_8":"Credit Union","geo_score":0.857,"street":"P.O. Box 3643","id":"aeuz0hjjohz1","geo_precision":"zip","state":"CA"},"type":"Feature","geometry":{"type":"Point","coordinates":[-121.705327,37.189396]}},{"properties":{"name":"State Employees Credit Union of New Mexico","city":"Santa Fe","zip":"87505","assets":"$245,029,609","url":null,"column_8":"Credit Union","geo_score":0.857,"street":"813 St. Michaels Dr","id":"aeuz0hrh23q5","geo_precision":"zip","state":"NM"},"type":"Feature","geometry":{"type":"Point","coordinates":[-105.946155,35.656638]}},{"properties":{"name":"Vons Employees FCU","city":"El Monte","zip":"91734","assets":"$387,273,850","url":"WWW.VONSCU.COM","column_8":"Credit Union","geo_score":0.286,"street":"P.O. Box 8023","id":"aeuz0hqtbjkg","geo_precision":"street","state":"CA"},"type":"Feature","geometry":{"type":"Point","coordinates":[-117.933461,34.100128]}},{"properties":{"name":"Wainwright CU Ltd","city":null,"zip":null,"assets":"274,666,251","url":null,"column_8":"Credit Union","geo_score":0.0,"street":null,"id":"aeuz0hrowlcy","geo_precision":"unmatched","state":"AB"},"type":"Feature","geometry":null},{"properties":{"name":"Postal Credit Union (N St Paul)","city":"N. St. Paul","zip":"55109","assets":"$530,456,063","url":"WWW.POSTALCU.ORG","column_8":"Credit Union","geo_score":0.857,"street":"2401 N. McKnight Road","id":"aeuz0hkfp8sf","geo_precision":"zip","state":"MN"},"type":"Feature","geometry":{"type":"Point","coordinates":[-93.043771,44.999281]}},{"properties":{"name":"Power","city":"Pueblo","zip":null,"assets":"$79,085,260","url":"WWW.POWERCO.ORG","column_8":"Credit Union","geo_score":0.714,"street":null,"id":"aeuz0hr0jxvt","geo_precision":"city","state":"CO"},"type":"Feature","geometry":{"type":"Point","coordinates":[-104.427776,38.344117]}},{"properties":{"name":"Prairie Centre CU Ltd","city":null,"zip":null,"assets":"235,635,986","url":null,"column_8":"Credit Union","geo_score":0.0,"street":null,"id":"aeuz0hlzegnc","geo_precision":"unmatched","state":"SK"},"type":"Feature","geometry":null},{"properties":{"name":"Premier America CU","city":"Chatsworth","zip":null,"assets":"$1,424,745,542","url":"WWW.PREMIER.ORG","column_8":"Credit Union","geo_score":0.347,"street":"P.O. Box 2178","id":"aeuz0hfrw1d9","geo_precision":"street","state":"CA"},"type":"Feature","geometry":{"type":"Point","coordinates":[-118.571389,34.152361]}},{"properties":{"name":"Premier Community","city":null,"zip":null,"assets":"$110,726,206","url":"PREMIERCCU.ORG","column_8":"Credit Union","geo_score":0.0,"street":null,"id":"aeuz0hkgcbmd","geo_precision":"unmatched","state":"CA"},"type":"Feature","geometry":null},{"properties":{"name":"Premier Members FCU","city":"Boulder","zip":"80303","assets":"$442,363,769","url":"www.premiermembers.org","column_8":"Credit Union","geo_score":1.0,"street":"5495 Arapahoe Ave.","id":"aeuz0htrew12","geo_precision":"range","state":"CO"},"type":"Feature","geometry":{"type":"Point","coordinates":[-105.225719,40.014814]}},{"properties":{"name":"Printing Industries Credit Union","city":null,"zip":null,"assets":"$26,809,264","url":null,"column_8":"Credit Union","geo_score":0.0,"street":null,"id":"aeuz0hgq2b3n","geo_precision":"unmatched","state":"CA"},"type":"Feature","geometry":null},{"properties":{"name":"Priority One","city":null,"zip":null,"assets":"$169,246,575","url":"WWW.PRIORITYONECU.ORG","column_8":"Credit Union","geo_score":0.0,"street":null,"id":"aeuz0hlkt7ai","geo_precision":"unmatched","state":"CA"},"type":"Feature","geometry":null},{"properties":{"name":"Prospera Credit Union","city":null,"zip":null,"assets":"1,648,987,725","url":null,"column_8":"Credit Union","geo_score":0.0,"street":null,"id":"aeuz0hhwt9n7","geo_precision":"unmatched","state":"BC"},"type":"Feature","geometry":null},{"properties":{"name":"Steinbach CU Ltd","city":null,"zip":null,"assets":"2,015,355,739","url":null,"column_8":"Credit Union","geo_score":0.0,"street":null,"id":"aeuz0hrg6cly","geo_precision":"unmatched","state":"MB"},"type":"Feature","geometry":null},{"properties":{"name":"Sterlent CU","city":"PLEASANTON","zip":"94588","assets":"$121,525,751","url":"WWW.STERLENTCU.ORG","column_8":"Credit Union","geo_score":0.393,"street":"PO BOX 11055","id":"aeuz0hf7j9zx","geo_precision":"street","state":"CA"},"type":"Feature","geometry":{"type":"Point","coordinates":[-122.308805,38.294593]}},{"properties":{"name":"SummitOne Credit Union","city":"Ogden","zip":"84403","assets":"$64,038,259","url":"www.summitonecu.com","column_8":"Credit Union","geo_score":0.873,"street":"4723 Harrison Blvd Suite 100","id":"aeuz0hnsr6yh","geo_precision":"range","state":"UT"},"type":"Feature","geometry":{"type":"Point","coordinates":[-111.949328,41.176519]}},{"properties":{"name":"Sun Community","city":null,"zip":null,"assets":"$304,086,517","url":"WWW.SUNCOMMUNITYFCU.ORG","column_8":"Credit Union","geo_score":0.0,"street":null,"id":"aeuz0hs8cufs","geo_precision":"unmatched","state":"CA"},"type":"Feature","geometry":null},{"properties":{"name":"SunCorp Corporate CU","city":"Westminster,","zip":"80020","assets":null,"url":"www.suncorp.coop","column_8":"Credit Union","geo_score":0.533,"street":"11080 CirclePoint Road, Suite 500","id":"aeuz0hrol3hj","geo_precision":"street","state":"CO"},"type":"Feature","geometry":{"type":"Point","coordinates":[-105.073594,39.897324]}},{"properties":{"name":"Sunshine Coast Credit Union","city":null,"zip":null,"assets":"278,702,072","url":null,"column_8":"Credit Union","geo_score":0.0,"street":null,"id":"aeuz0hisn5vm","geo_precision":"unmatched","state":"BC"},"type":"Feature","geometry":null},{"properties":{"name":"Warren FCU","city":"Cheyenne","zip":"82001","assets":"399,000,000","url":"WWW.WARRENFCU.COM","column_8":"Credit Union","geo_score":0.571,"street":"114 E 7th Ave P.O. Box 3200","id":"aeuz0hlrqqif","geo_precision":"street","state":"WY"},"type":"Feature","geometry":{"type":"Point","coordinates":[-104.829462,41.152356]}},{"properties":{"name":"Washington State Employees CU","city":"Olympia","zip":null,"assets":"$1,243,609,032","url":"WWW.WSECU.ORG","column_8":"Credit Union","geo_score":0.714,"street":null,"id":"aeuz0hgcovsd","geo_precision":"city","state":"WA"},"type":"Feature","geometry":{"type":"Point","coordinates":[-122.869079,46.984767]}},{"properties":{"name":"Water and Power Community CU","city":"LOS ANGELES","zip":"90012","assets":"$472,120,845","url":"WWW.WPCU.ORG","column_8":"Credit Union","geo_score":0.604,"street":"1053 W. SUNSET BLVD","id":"aeuz0hmxujbk","geo_precision":"street","state":"CA"},"type":"Feature","geometry":{"type":"Point","coordinates":[-118.249211,34.065204]}},{"properties":{"name":"Wauna FCU","city":"CLATSKANIE","zip":"97016","assets":"$115,427,604","url":"WWW.WAUNAFCU.ORG","column_8":"Credit Union","geo_score":0.364,"street":"PO BOX 67","id":"aeuz0hq1zz4f","geo_precision":"street","state":"OR"},"type":"Feature","geometry":{"type":"Point","coordinates":[-122.747231,45.377879]}},{"properties":{"name":"Provident Credit Union","city":"Redwood City","zip":"94065","assets":"$1,592,067,000","url":"PROVIDENTCU.COM","column_8":"Credit Union","geo_score":1.0,"street":"303 Twin Dolphin Drive","id":"aeuz0hgt5dwf","geo_precision":"range","state":"CA"},"type":"Feature","geometry":{"type":"Point","coordinates":[-122.25912,37.522067]}},{"properties":{"name":"Public Service Employees CU (Inactive)","city":"DENVER","zip":"80224","assets":"$1,076,028,873","url":"WWW.PSCU.ORG","column_8":"Credit Union","geo_score":0.878,"street":"7055 EAST EVANS AVENUE","id":"aeuz0hq8a2tp","geo_precision":"street","state":"CO"},"type":"Feature","geometry":{"type":"Point","coordinates":[-104.904328,39.677389]}},{"properties":{"name":"Qualstar Credit Union","city":"Bellevue","zip":null,"assets":"$336,062,321","url":"WWW.QUALSTARCU.COM","column_8":"Credit Union","geo_score":0.714,"street":null,"id":"aeuz0hsbneqd","geo_precision":"city","state":"WA"},"type":"Feature","geometry":{"type":"Point","coordinates":[-122.207221,47.615471]}},{"properties":{"name":"Clearpath (Ralphs) Federal Credit Union","city":null,"zip":null,"assets":"$79,167,834","url":null,"column_8":"Credit Union","geo_score":0.0,"street":null,"id":"aeuz0hp8rvvs","geo_precision":"unmatched","state":"CA"},"type":"Feature","geometry":null},{"properties":{"name":"Sunwest Federal Credit Union","city":null,"zip":null,"assets":"$255,314,320","url":"WWW.SUNWESTFCU.ORG","column_8":"Credit Union","geo_score":0.0,"street":null,"id":"aeuz0hszu302","geo_precision":"unmatched","state":"AZ"},"type":"Feature","geometry":null},{"properties":{"name":"TAPCO Credit Union","city":"Tacoma","zip":null,"assets":"$242,911,125","url":"WWW.TAPCOCU.ORG","column_8":"Credit Union","geo_score":0.837,"street":"6312 19Th Street West","id":"aeuz0hn50ied","geo_precision":"range","state":"WA"},"type":"Feature","geometry":{"type":"Point","coordinates":[-122.522219,47.242661]}},{"properties":{"name":"WesCorp Federal CU","city":"San Dimas","zip":"91773","assets":"$29,000,000,000","url":"www.wescorp.org","column_8":"Credit Union","geo_score":0.61,"street":"924 Overland Court P.O. Box 9024","id":"aeuz0hgf9duq","geo_precision":"street","state":"CA"},"type":"Feature","geometry":{"type":"Point","coordinates":[-117.827707,34.110047]}},{"properties":{"name":"Western Cooperative","city":null,"zip":null,"assets":"$279,182,837","url":"WCCU.ORG","column_8":"Credit Union","geo_score":0.0,"street":null,"id":"aeuz0hq1337i","geo_precision":"unmatched","state":"ND"},"type":"Feature","geometry":null},{"properties":{"name":"Western FCU","city":"MANHATTAN BEACH","zip":"90267","assets":"$1,662,435,090","url":"WWW.WESTERN.ORG","column_8":"Credit Union","geo_score":0.286,"street":"P.O. BOX 10018","id":"aeuz0hftdv40","geo_precision":"street","state":"CA"},"type":"Feature","geometry":{"type":"Point","coordinates":[-118.163459,33.931733]}},{"properties":{"name":"Western Vista FCU","city":"Cheyenne","zip":"82001","assets":"$104,578,161","url":"www.wvista.com","column_8":"Credit Union","geo_score":1.0,"street":"3207 Sparks Road","id":"aeuz0hpkkplr","geo_precision":"range","state":"WY"},"type":"Feature","geometry":{"type":"Point","coordinates":[-104.772709,41.137969]}},{"properties":{"name":"Nebraska Energy","city":null,"zip":null,"assets":"$253,101,057","url":"WWW.NE-FCU.ORG","column_8":"Credit Union","geo_score":0.0,"street":null,"id":"aeuz0ho1gzgf","geo_precision":"unmatched","state":"NE"},"type":"Feature","geometry":null},{"properties":{"name":"Red Rocks","city":"Highlands Ranch","zip":null,"assets":"$176,203,591","url":"WWW.REDROCKS.ORG","column_8":"Credit Union","geo_score":0.0,"street":"9325 Dorchester St., Suite 200","id":"aeuz0hhkgs5o","geo_precision":"unmatched","state":"CO"},"type":"Feature","geometry":null},{"properties":{"name":"Redwood Credit Union","city":"Santa Rosa","zip":"95403","assets":"$1,728,720,000","url":"WWW.REDWOODCU.ORG","column_8":"Credit Union","geo_score":0.873,"street":"3033 Cleveland Avenue Suite 100","id":"aeuz0hq5ec4p","geo_precision":"range","state":"CA"},"type":"Feature","geometry":{"type":"Point","coordinates":[-122.72936,38.469187]}},{"properties":{"name":"Sharepoint Credit Union","city":null,"zip":null,"assets":"$170,525,264","url":"WWW.RECU.COM","column_8":"Credit Union","geo_score":0.0,"street":null,"id":"aeuz0hhm48u8","geo_precision":"unmatched","state":"MN"},"type":"Feature","geometry":null},{"properties":{"name":"Richfield-Bloomington","city":null,"zip":null,"assets":"$223,786,401","url":"WWW.RBCU.ORG","column_8":"Credit Union","geo_score":0.0,"street":null,"id":"aeuz0hl2fwez","geo_precision":"unmatched","state":"MN"},"type":"Feature","geometry":null},{"properties":{"name":"Technology Credit Union","city":"San Jose","zip":"95131","assets":"$1,396,753,206","url":"http://www.techcu.com","column_8":"Credit Union","geo_score":0.625,"street":"2010 N. First St.","id":"aeuz0hjf0g2c","geo_precision":"street","state":"CA"},"type":"Feature","geometry":{"type":"Point","coordinates":[-121.919864,37.375437]}},{"properties":{"name":"Telesis Community","city":null,"zip":null,"assets":"$624,827,747","url":"WWW.TELESISCU.COM","column_8":"Credit Union","geo_score":0.0,"street":null,"id":"aeuz0hqje7p2","geo_precision":"unmatched","state":"CA"},"type":"Feature","geometry":null},{"properties":{"name":"Tenet FCU","city":null,"zip":null,"assets":"$56,937,145","url":"www.tenetcu.com","column_8":"Credit Union","geo_score":0.0,"street":null,"id":"aeuz0hmwz64r","geo_precision":"unmatched","state":"CA"},"type":"Feature","geometry":null},{"properties":{"name":"Westmark","city":null,"zip":null,"assets":"$385,431,984","url":"WWW.WESTMARK.ORG","column_8":"Credit Union","geo_score":0.0,"street":null,"id":"aeuz0hjjvovi","geo_precision":"unmatched","state":"ID"},"type":"Feature","geometry":null},{"properties":{"name":"Westminster Savings Credit Union","city":null,"zip":null,"assets":"1,516,689,504","url":null,"column_8":"Credit Union","geo_score":0.0,"street":null,"id":"aeuz0hg4f7zq","geo_precision":"unmatched","state":"BC"},"type":"Feature","geometry":null},{"properties":{"name":"Westoba Credit Union","city":null,"zip":null,"assets":"684,092,671","url":null,"column_8":"Credit Union","geo_score":0.0,"street":null,"id":"aeuz0huhfokz","geo_precision":"unmatched","state":"MB"},"type":"Feature","geometry":null},{"properties":{"name":"Whatcom Educational CU","city":"BELLINGHAM","zip":"98227","assets":"$593,315,949","url":"WWW.WECU.COM","column_8":"Credit Union","geo_score":0.442,"street":"PO BOX 9750","id":"aeuz0hkku7sn","geo_precision":"street","state":"WA"},"type":"Feature","geometry":{"type":"Point","coordinates":[-122.916939,48.709006]}},{"properties":{"name":"Whitefish CU","city":"WHITEFISH","zip":"59937","assets":"$1.200,000,000","url":"www.whitefishcreditunion.com","column_8":"Credit Union","geo_score":0.286,"street":"P.O. BOX 37","id":"aeuz0hpvoisd","geo_precision":"street","state":"MT"},"type":"Feature","geometry":{"type":"Point","coordinates":[-115.552809,48.392521]}},{"properties":{"name":"Wings Financial FCU","city":"Apple Valley","zip":"55337","assets":"$2,720,583,731","url":"WWW.WINGSFINANCIAL.COM","column_8":"Credit Union","geo_score":0.633,"street":"14985 Glazier Ave.","id":"aeuz0hn9oyyy","geo_precision":"street","state":"MN"},"type":"Feature","geometry":{"type":"Point","coordinates":[-93.234312,44.769729]}},{"properties":{"name":"Newfoundland and Labrador Credit Union","city":null,"zip":null,"assets":"313,500,000","url":null,"column_8":"Credit Union","geo_score":0.0,"street":null,"id":"aeuz0hftc6kj","geo_precision":"unmatched","state":"NF"},"type":"Feature","geometry":null},{"properties":{"name":"Norbel","city":null,"zip":null,"assets":"$127,406,596","url":"WWW.NORBEL.ORG","column_8":"Credit Union","geo_score":0.0,"street":null,"id":"aeuz0hi7ipud","geo_precision":"unmatched","state":"CO"},"type":"Feature","geometry":null},{"properties":{"name":"Norlarco Credit Union","city":"FORT COLLINS","zip":"80522","assets":"$353,792,177","url":"WWW.NORLARCO.COM","column_8":"Credit Union","geo_score":0.857,"street":"PO BOX 528","id":"aeuz0hl7b64r","geo_precision":"zip","state":"CO"},"type":"Feature","geometry":{"type":"Point","coordinates":[-105.057005,40.642907]}},{"properties":{"name":"Rivermark Community CU","city":"Beaverton","zip":"97076-4044","assets":"$569,896,910","url":"www.rivermarkcu.org","column_8":"Credit Union","geo_score":0.857,"street":"P O Box 4044","id":"aeuz0hlj0tg7","geo_precision":"zip","state":"OR"},"type":"Feature","geometry":{"type":"Point","coordinates":[-123.114725,45.548616]}},{"properties":{"name":"Rogue FCU","city":"Medford","zip":null,"assets":"$461,249.868","url":"WWW.ROGUEFCU.ORG","column_8":"Credit Union","geo_score":0.902,"street":"1370 Center Drive","id":"aeuz0hlla13s","geo_precision":"range","state":"OR"},"type":"Feature","geometry":{"type":"Point","coordinates":[-122.85459,42.311198]}},{"properties":{"name":"Woodstone CU","city":"Federal Way","zip":null,"assets":"$93,152,783","url":null,"column_8":"Credit Union","geo_score":0.714,"street":null,"id":"aeuz0hszxmbp","geo_precision":"city","state":"WA"},"type":"Feature","geometry":{"type":"Point","coordinates":[-121.803388,47.432251]}},{"properties":{"name":"Sacramento Credit Union","city":null,"zip":null,"assets":"$321,762,235","url":"WWW.SACTOCU.ORG","column_8":"Credit Union","geo_score":0.0,"street":null,"id":"aeuz0hewm2zn","geo_precision":"unmatched","state":"ca"},"type":"Feature","geometry":null},{"properties":{"name":"Safe 1","city":null,"zip":null,"assets":"$306,980,450","url":"SAFE1.ORG","column_8":"Credit Union","geo_score":0.0,"street":null,"id":"aeuz0ht79clw","geo_precision":"unmatched","state":"CA"},"type":"Feature","geometry":null},{"properties":{"name":"SAFE CU (f/k/a Capital Power)","city":"North Highlands","zip":"95660","assets":"$1,904,130,287","url":"www.safecu.org","column_8":"Credit Union","geo_score":0.393,"street":"P.O. Box 1057","id":"aeuz0hefjp84","geo_precision":"street","state":"CA"},"type":"Feature","geometry":{"type":"Point","coordinates":[-121.305372,38.890339]}},{"properties":{"name":"The California","city":null,"zip":null,"assets":"$1,252,908,082","url":"WWW.CALIFORNIACU.ORG","column_8":"Credit Union","geo_score":0.0,"street":null,"id":"aeuz0htvx3tv","geo_precision":"unmatched","state":"CA"},"type":"Feature","geometry":null},{"properties":{"name":"Yolo Federal Credit Union","city":"Woodland","zip":"95695","assets":"$162,375,321","url":"YOLOFCU.ORG","column_8":"Credit Union","geo_score":0.619,"street":"266 W. Main St.","id":"aeuz0hqkrun0","geo_precision":"street","state":"CA"},"type":"Feature","geometry":{"type":"Point","coordinates":[-121.784,38.677549]}},{"properties":{"name":"Zia","city":null,"zip":null,"assets":"$102,505,260","url":"WWW.ZIACU.ORG","column_8":"Credit Union","geo_score":0.0,"street":null,"id":"aeuz0hupt32x","geo_precision":"unmatched","state":"NM"},"type":"Feature","geometry":null},{"properties":{"name":"Salt Lake City","city":null,"zip":null,"assets":"$215,723,785","url":"WWW.SALTLAKECU.COM","column_8":"Credit Union","geo_score":0.0,"street":null,"id":"aeuz0hm1dqzv","geo_precision":"unmatched","state":"UT"},"type":"Feature","geometry":null},{"properties":{"name":"San Diego County CU","city":"San Diego","zip":"92121","assets":"$4,813,947,799","url":"WWW.SDCCU.COM","column_8":"Credit Union","geo_score":1.0,"street":"6545 Sequence Drive","id":"aeuz0hjqoix0","geo_precision":"range","state":"CA"},"type":"Feature","geometry":{"type":"Point","coordinates":[-117.179147,32.907577]}},{"properties":{"name":"San Diego Metropolitan Credit Union","city":"SAN DIEGO","zip":"92171","assets":"$286,582,685","url":"WWW.SDMCU.ORG","column_8":"Credit Union","geo_score":0.385,"street":"P OBOX 719099","id":"aeuz0hi9lwqm","geo_precision":"street","state":"CA"},"type":"Feature","geometry":{"type":"Point","coordinates":[-117.223765,32.730984]}},{"properties":{"name":"San Francisco FCU","city":null,"zip":null,"assets":"$591,027,523","url":"WWW.SANFRANCISCOFCU.COM","column_8":"Credit Union","geo_score":0.0,"street":null,"id":"aeuz0hgq6ghg","geo_precision":"unmatched","state":"CA"},"type":"Feature","geometry":null},{"properties":{"name":"San Jose","city":null,"zip":null,"assets":"$124,133,870","url":"WWW.SJCU.ORG","column_8":"Credit Union","geo_score":0.0,"street":null,"id":"aeuz0hf641cp","geo_precision":"unmatched","state":"CA"},"type":"Feature","geometry":null},{"properties":{"name":"Sandia Area","city":null,"zip":null,"assets":"$422,000,000","url":"WWW.SANDIA.ORG","column_8":"Credit Union","geo_score":0.0,"street":null,"id":"aeuz0hl4t26e","geo_precision":"unmatched","state":"NM"},"type":"Feature","geometry":null},{"properties":{"name":"Sandia Laboratory FCU","city":null,"zip":null,"assets":"$1,933,310,749","url":"WWW.SLFCU.ORG","column_8":"Credit Union","geo_score":0.0,"street":null,"id":"aeuz0hg3y3bn","geo_precision":"unmatched","state":"NM"},"type":"Feature","geometry":null},{"properties":{"name":"Santa Barbara Teachers","city":null,"zip":null,"assets":"$153,588,834","url":"WWW.SBTFCU.ORG","column_8":"Credit Union","geo_score":0.0,"street":null,"id":"aeuz0hp57wum","geo_precision":"unmatched","state":"CA"},"type":"Feature","geometry":null},{"properties":{"name":"Santa Clara County","city":null,"zip":null,"assets":"$456,787,115","url":"WWW.SCCFCU.ORG","column_8":"Credit Union","geo_score":0.0,"street":null,"id":"aeuz0htg00yu","geo_precision":"unmatched","state":"CA"},"type":"Feature","geometry":null},{"properties":{"name":"Saskatoon City Employees Credit Union","city":null,"zip":null,"assets":null,"url":null,"column_8":"Credit Union","geo_score":0.0,"street":null,"id":"aeuz0hr4zeuu","geo_precision":"unmatched","state":"SK"},"type":"Feature","geometry":null},{"properties":{"name":"Saskatoon Credit Union","city":null,"zip":null,"assets":"673,031,241","url":null,"column_8":"Credit Union","geo_score":0.0,"street":null,"id":"aeuz0hepqpzn","geo_precision":"unmatched","state":"SK"},"type":"Feature","geometry":null},{"properties":{"name":"The Members Own","city":null,"zip":null,"assets":"$109,693,399","url":"WWW.MEMBERSOWN.ORG","column_8":"Credit Union","geo_score":0.0,"street":null,"id":"aeuz0hnj92o6","geo_precision":"unmatched","state":"CA"},"type":"Feature","geometry":null},{"properties":{"name":"Think Bank","city":"ROCHESTER","zip":"55903","assets":"$1,312,751,900","url":"WWW.THINKCU.COM","column_8":"Credit Union","geo_score":0.403,"street":"PO BOX 5949","id":"aeuz0hij6vg1","geo_precision":"street","state":"MN"},"type":"Feature","geometry":{"type":"Point","coordinates":[-93.041159,44.196726]}},{"properties":{"name":"Schools Financial","city":"Sacramento","zip":"95852","assets":"$1,323,148,606","url":"WWW.SCHOOLS.ORG","column_8":"Credit Union","geo_score":0.857,"street":"P.O. Box 526001","id":"aeuz0huly76i","geo_precision":"zip","state":"CA"},"type":"Feature","geometry":{"type":"Point","coordinates":[-121.444429,38.377411]}},{"properties":{"name":"Sea West Coast Guard F.C.U.","city":"OAKLAND","zip":"94605-6349","assets":"$303,364,232","url":"WWW.SEAWEST.COOP","column_8":"Credit Union","geo_score":1.0,"street":"8750 MOUNTAIN BOULEVARD","id":"aeuz0hsc2icu","geo_precision":"range","state":"CA"},"type":"Feature","geometry":{"type":"Point","coordinates":[-122.152001,37.766394]}},{"properties":{"name":"United Heritage-merged with Chartway in VA Bch","city":null,"zip":null,"assets":"$236,648,556","url":"WWW.TFCU.NET","column_8":"Credit Union","geo_score":0.0,"street":null,"id":"aeuz0hovo70s","geo_precision":"unmatched","state":"UT"},"type":"Feature","geometry":null},{"properties":{"name":"Town And Country","city":null,"zip":null,"assets":"$308,302,177","url":"WWW.TOWNANDCOUNTRY.ORG","column_8":"Credit Union","geo_score":0.0,"street":null,"id":"aeuz0hrb8nx2","geo_precision":"unmatched","state":"ND"},"type":"Feature","geometry":null},{"properties":{"name":"Toyota FCU","city":null,"zip":null,"assets":"$250,446,303","url":"WWW.TOYOTAFCU.ORG","column_8":"Credit Union","geo_score":0.0,"street":null,"id":"aeuz0hf2ox8p","geo_precision":"unmatched","state":"CA"},"type":"Feature","geometry":null},{"properties":{"name":"Travis CU","city":"Vacaville","zip":"95696-2069","assets":"$1,871,845,000","url":"WWW.TRAVISCU.ORG","column_8":"Credit Union","geo_score":0.393,"street":"P.O. Box 2069","id":"aeuz0hua3owf","geo_precision":"street","state":"CA"},"type":"Feature","geometry":{"type":"Point","coordinates":[-121.305372,38.890339]}},{"properties":{"name":"North Coast CU","city":"Bellingham","zip":"98225","assets":"$121,811,121","url":"www.northcoastcu.com","column_8":"Credit Union","geo_score":1.0,"street":"1100 Dupont Street","id":"aeuz0hsqr5y7","geo_precision":"range","state":"WA"},"type":"Feature","geometry":{"type":"Point","coordinates":[-122.486089,48.758251]}},{"properties":{"name":"North Island Financial CU","city":"San Diego,","zip":"92186-5833","assets":"$1,540,042,589","url":"WWW.MYISLAND.COM","column_8":"Credit Union","geo_score":0.357,"street":"P.O. Box 85833","id":"aeuz0hjrhkcn","geo_precision":"street","state":"CA"},"type":"Feature","geometry":{"type":"Point","coordinates":[-117.223765,32.730984]}},{"properties":{"name":"Seattle Metropolitan Credit Union","city":"Seattle","zip":null,"assets":"$544,937,906","url":"WWW.SMCU.COM","column_8":"Credit Union","geo_score":0.714,"street":null,"id":"aeuz0hlutj5l","geo_precision":"city","state":"WA"},"type":"Feature","geometry":{"type":"Point","coordinates":[-121.803388,47.432251]}},{"properties":{"name":"Selco Community CU","city":"EUGENE","zip":"97401","assets":"$733,297,107","url":"WWW.SELCO.ORG","column_8":"Credit Union","geo_score":0.357,"street":"P O BOX 7487","id":"aeuz0hhhyisd","geo_precision":"street","state":"OR"},"type":"Feature","geometry":{"type":"Point","coordinates":[-123.073656,43.797647]}},{"properties":{"name":"Service First","city":null,"zip":null,"assets":"$125,377,645","url":"WWW.SERVICEFIRSTFCU.ORG","column_8":"Credit Union","geo_score":0.0,"street":null,"id":"aeuz0hmqfqex","geo_precision":"unmatched","state":"sd"},"type":"Feature","geometry":null},{"properties":{"name":"TruWest Credit Union","city":"SCOTTSDALE","zip":"85271","assets":"$860,328,829","url":"WWW.TRUWEST.ORG","column_8":"Credit Union","geo_score":0.371,"street":"P.O. BOX 3489","id":"aeuz0hgzn28s","geo_precision":"street","state":"AZ"},"type":"Feature","geometry":{"type":"Point","coordinates":[-111.857759,33.41491]}},{"properties":{"name":"Tucoemas FCU","city":"Visalia","zip":null,"assets":"$193,669,719","url":"TUCOEMAS.ORG","column_8":"Credit Union","geo_score":0.714,"street":null,"id":"aeuz0hffv233","geo_precision":"city","state":"CA"},"type":"Feature","geometry":{"type":"Point","coordinates":[-119.355559,36.13188]}},{"properties":{"name":"Tucson","city":null,"zip":null,"assets":"$223,492,120","url":"WWW.TUCSONFCU.COM","column_8":"Credit Union","geo_score":0.0,"street":null,"id":"aeuz0htygct6","geo_precision":"unmatched","state":"az"},"type":"Feature","geometry":null},{"properties":{"name":"Tulare County FCU","city":null,"zip":null,"assets":null,"url":null,"column_8":"Credit Union","geo_score":0.0,"street":null,"id":"aeuz0hqgsdki","geo_precision":"unmatched","state":"CA"},"type":"Feature","geometry":null},{"properties":{"name":"Spire FCU","city":"Falcon Heights","zip":"55113","assets":"$601,037,158","url":"www.spire-banking.com","column_8":"Credit Union","geo_score":0.963,"street":"2025 Larpenteur Ave","id":"aeuz0hodc1z9","geo_precision":"range","state":"MN"},"type":"Feature","geometry":{"type":"Point","coordinates":[-93.185207,44.991775]}},{"properties":{"name":"SF Police Credit Union","city":"San Francisco","zip":"94122","assets":"$475,512,249","url":"WWW.SFPCU.ORG","column_8":"Credit Union","geo_score":0.857,"street":"P.O. Box 22219","id":"aeuz0hj251rt","geo_precision":"zip","state":"CA"},"type":"Feature","geometry":{"type":"Point","coordinates":[-122.475732,37.761179]}},{"properties":{"name":"UNCLE Credit Union","city":null,"zip":null,"assets":"$230,324,985","url":"WWW.UNCLECU.ORG","column_8":"Credit Union","geo_score":0.0,"street":null,"id":"aeuz0hsc5xuk","geo_precision":"unmatched","state":"CA"},"type":"Feature","geometry":null},{"properties":{"name":"University CU - CA","city":"Los Angeles","zip":"90025","assets":"$414,844,523","url":"www.ucu.org","column_8":"Credit Union","geo_score":0.598,"street":"1500 S. Sepulveda Blvd.","id":"aeuz0hk8prcr","geo_precision":"street","state":"CA"},"type":"Feature","geometry":{"type":"Point","coordinates":[-118.465443,34.072253]}},{"properties":{"name":"North Peace Savings and Credit Union","city":null,"zip":null,"assets":"173,039,127","url":null,"column_8":"Credit Union","geo_score":0.0,"street":null,"id":"aeuz0hq1436a","geo_precision":"unmatched","state":"BC"},"type":"Feature","geometry":null},{"properties":{"name":"Northern Hills FCU","city":null,"zip":null,"assets":"$48,376,368","url":null,"column_8":"Credit Union","geo_score":0.0,"street":null,"id":"aeuz0hfph7ia","geo_precision":"unmatched","state":"SD"},"type":"Feature","geometry":null},{"properties":{"name":"Northern Savings Credit Union","city":null,"zip":null,"assets":"397,358,138","url":null,"column_8":"Credit Union","geo_score":0.0,"street":null,"id":"aeuz0hlr5u9x","geo_precision":"unmatched","state":"BC"},"type":"Feature","geometry":null},{"properties":{"name":"Sierra Central CU","city":null,"zip":null,"assets":"$523,570,294","url":"WWW.SIERRACENTRAL.COM","column_8":"Credit Union","geo_score":0.0,"street":null,"id":"aeuz0ht228hr","geo_precision":"unmatched","state":"CA"},"type":"Feature","geometry":null},{"properties":{"name":"Unified Correctional FCU","city":null,"zip":null,"assets":"$15,553,758","url":null,"column_8":"Credit Union","geo_score":0.0,"street":null,"id":"aeuz0hshraz3","geo_precision":"unmatched","state":"ca"},"type":"Feature","geometry":null},{"properties":{"name":"UniWyo FCU","city":null,"zip":null,"assets":"$172,461,464","url":"WWW.UNIWYO.COM","column_8":"Credit Union","geo_score":0.0,"street":null,"id":"aeuz0hhikew9","geo_precision":"unmatched","state":"WY"},"type":"Feature","geometry":null},{"properties":{"name":"Northrop Grumman","city":null,"zip":null,"assets":"$592,582,321","url":"WWW.NORGRUMFCU.ORG","column_8":"Credit Union","geo_score":0.0,"street":null,"id":"aeuz0hl9vgr1","geo_precision":"unmatched","state":"CA"},"type":"Feature","geometry":null},{"properties":{"name":"Northwest Community (OR)","city":"Springfield","zip":null,"assets":"$596,965,825","url":"WWW.NWCU.COM","column_8":"Credit Union","geo_score":0.714,"street":null,"id":"aeuz0hmtkhvn","geo_precision":"city","state":"OR"},"type":"Feature","geometry":{"type":"Point","coordinates":[-122.329813,45.519009]}},{"properties":{"name":"Numerica Credit Union","city":"Spokane","zip":null,"assets":"$1,138,202,247","url":"WWW.NUMERICACU.COM","column_8":"Credit Union","geo_score":0.462,"street":"14610 E. Spraque Ave.","id":"aeuz0hkj88zr","geo_precision":"street","state":"WA"},"type":"Feature","geometry":{"type":"Point","coordinates":[-117.415975,47.657235]}},{"properties":{"name":"Sioux Falls FCU","city":"SIOUX FALLS","zip":"57104","assets":"$159,115,262","url":"WWW.SIOUXFALLSFCU.ORG","column_8":"Credit Union","geo_score":0.935,"street":"700 EAST 14TH STREET","id":"aeuz0hhmb66r","geo_precision":"range","state":"SD"},"type":"Feature","geometry":{"type":"Point","coordinates":[-96.716771,43.541466]}},{"properties":{"name":"Silver State Schools CU","city":null,"zip":null,"assets":"822,000,000","url":"www.silverstatecu.com","column_8":"Credit Union","geo_score":0.0,"street":null,"id":"aeuz0ht34vcg","geo_precision":"unmatched","state":"NV"},"type":"Feature","geometry":null},{"properties":{"name":"US Alliance Credit union (Denver)","city":"Denver","zip":"80202","assets":"$65,849,192","url":null,"column_8":"Credit Union","geo_score":0.571,"street":"1499 Wynkoop Street, Suite 100","id":"aeuz0hlzxj9b","geo_precision":"street","state":"CO"},"type":"Feature","geometry":{"type":"Point","coordinates":[-105.002116,39.750954]}},{"properties":{"name":"Oakland Municipal","city":null,"zip":null,"assets":"$123,048,744","url":"WWW.OMCU.COM","column_8":"Credit Union","geo_score":0.0,"street":null,"id":"aeuz0hjhpotj","geo_precision":"unmatched","state":"CA"},"type":"Feature","geometry":null},{"properties":{"name":"SOFCU Community Credit Union","city":"Grants Pass","zip":"97527","assets":"$280,922,841","url":"WWW.SOFCU.COM","column_8":"Credit Union","geo_score":0.585,"street":"1551 Harbeck Rd.","id":"aeuz0hru88r0","geo_precision":"zip","state":"OR"},"type":"Feature","geometry":{"type":"Point","coordinates":[-123.440456,42.345125]}},{"properties":{"name":"Sound CU","city":"Tacoma","zip":null,"assets":"$531,804,571","url":"WWW.SOUNDCU.COM","column_8":"Credit Union","geo_score":0.714,"street":null,"id":"aeuz0hee8b1t","geo_precision":"city","state":"WA"},"type":"Feature","geometry":{"type":"Point","coordinates":[-122.444335,47.253671]}},{"properties":{"name":"Power Credit Union","city":"Pueblo","zip":null,"assets":"79,000,000","url":"www.powercu.org","column_8":"Credit Union","geo_score":0.714,"street":null,"id":"aeuz0ht42i7m","geo_precision":"city","state":"CO"},"type":"Feature","geometry":{"type":"Point","coordinates":[-104.427776,38.344117]}},{"properties":{"name":"Atlantic City FCU","city":null,"zip":null,"assets":"89000000","url":null,"column_8":"Credit Union","geo_score":0.0,"street":null,"id":"aeuz0hhblcxp","geo_precision":"","state":null},"type":"Feature","geometry":null},{"properties":{"name":"Peoples Community","city":null,"zip":null,"assets":"152,000,000","url":"peoplescu.org","column_8":"Credit Union","geo_score":0.0,"street":null,"id":"aeuz0hkkmq9t","geo_precision":"","state":null},"type":"Feature","geometry":null},{"properties":{"name":"CU Resources Group","city":null,"zip":null,"assets":null,"url":"www.curesources.coop","column_8":"Credit Union","geo_score":0.0,"street":null,"id":"aeuz0ht017lm","geo_precision":"","state":null},"type":"Feature","geometry":null},{"properties":{"name":"TwinStar CU","city":"OLYMPIA","zip":"98507","assets":"$701,764,876","url":"TWINSTARCU.COM","column_8":"Credit Union","geo_score":0.414,"street":"PO BOX 718","id":"aeuz0hlcs60j","geo_precision":"street","state":"WA"},"type":"Feature","geometry":{"type":"Point","coordinates":[-123.553568,46.996988]}},{"properties":{"name":"Vantis Credit Union","city":null,"zip":null,"assets":"497,775,401","url":null,"column_8":"Credit Union","geo_score":0.0,"street":null,"id":"aeuz0hmipkms","geo_precision":"unmatched","state":"MB"},"type":"Feature","geometry":null},{"properties":{"name":"Community Financial Credit Union","city":"Broomfield","zip":null,"assets":"116,000,000","url":null,"column_8":"Credit Union","geo_score":0.714,"street":null,"id":"aeuz0hf6acdw","geo_precision":"city","state":"CO"},"type":"Feature","geometry":{"type":"Point","coordinates":[-105.08665,39.920541]}},{"properties":{"name":"BCU Financial (SK)","city":null,"zip":null,"assets":"443,665,231","url":null,"column_8":"Credit Union","geo_score":0.0,"street":null,"id":"aeuz0hr8oxo1","geo_precision":"unmatched","state":"SK"},"type":"Feature","geometry":null},{"properties":{"name":"Mountain View Credit Union","city":null,"zip":null,"assets":"373,562,051","url":null,"column_8":"Credit Union","geo_score":0.0,"street":null,"id":"aeuz0hoput2n","geo_precision":"unmatched","state":"AB"},"type":"Feature","geometry":null},{"properties":{"name":"Aldergrove Credit Union","city":null,"zip":null,"assets":"372,766,327","url":null,"column_8":"Credit Union","geo_score":0.0,"street":null,"id":"aeuz0hfskp40","geo_precision":"unmatched","state":"BC"},"type":"Feature","geometry":null},{"properties":{"name":"Salmon Arm Savings and","city":null,"zip":null,"assets":"357,796,401","url":null,"column_8":"Credit Union","geo_score":0.0,"street":null,"id":"aeuz0hnkjs8y","geo_precision":"unmatched","state":"BC"},"type":"Feature","geometry":null},{"properties":{"name":"Civic Credit Union","city":null,"zip":null,"assets":"334,400,161","url":null,"column_8":"Credit Union","geo_score":0.0,"street":null,"id":"aeuz0hrul7xc","geo_precision":"unmatched","state":"MB"},"type":"Feature","geometry":null},{"properties":{"name":"Cornerstone CU (SK)","city":null,"zip":null,"assets":"309,032,061","url":"www.cornerstone.cu.sk.ca","column_8":"Credit Union","geo_score":0.0,"street":null,"id":"aeuz0huc009s","geo_precision":"unmatched","state":"SK"},"type":"Feature","geometry":null},{"properties":{"name":"Weyburn Credit Union Ltd.","city":null,"zip":null,"assets":"252,999,749","url":null,"column_8":"Credit Union","geo_score":0.0,"street":null,"id":"aeuz0hlbowu1","geo_precision":"unmatched","state":"SK"},"type":"Feature","geometry":null},{"properties":{"name":"Vanguard Credit Union","city":null,"zip":null,"assets":"238,308,591","url":null,"column_8":"Credit Union","geo_score":0.0,"street":null,"id":"aeuz0hgp6sfl","geo_precision":"unmatched","state":"MB"},"type":"Feature","geometry":null},{"properties":{"name":"CP Saint-Boniface MB","city":null,"zip":null,"assets":"226,347,000","url":null,"column_8":"Credit Union","geo_score":0.0,"street":null,"id":"aeuz0hg5tv7c","geo_precision":"unmatched","state":"MB"},"type":"Feature","geometry":null},{"properties":{"name":"Rocky Credit Union","city":null,"zip":null,"assets":"224,824,823","url":null,"column_8":"Credit Union","geo_score":0.0,"street":null,"id":"aeuz0ho8s7ba","geo_precision":"unmatched","state":"AB"},"type":"Feature","geometry":null},{"properties":{"name":"Diamond North Credit Union","city":null,"zip":null,"assets":"206,633,886","url":null,"column_8":"Credit Union","geo_score":0.0,"street":null,"id":"aeuz0hl0y6z7","geo_precision":"unmatched","state":"SK"},"type":"Feature","geometry":null},{"properties":{"name":"Virden Credit Union","city":null,"zip":null,"assets":"206,422,138","url":null,"column_8":"Credit Union","geo_score":0.0,"street":null,"id":"aeuz0hu7pe4b","geo_precision":"unmatched","state":"MB"},"type":"Feature","geometry":null},{"properties":{"name":"Bulkley Valley Credit Union","city":null,"zip":null,"assets":"203,654,021","url":null,"column_8":"Credit Union","geo_score":0.0,"street":null,"id":"aeuz0hp9jsdk","geo_precision":"unmatched","state":"BC"},"type":"Feature","geometry":null},{"properties":{"name":"Agassiz Credit Union","city":null,"zip":null,"assets":"203,010,704","url":null,"column_8":"Credit Union","geo_score":0.0,"street":null,"id":"aeuz0hetl5h3","geo_precision":"unmatched","state":"MB"},"type":"Feature","geometry":null},{"properties":{"name":"Vernon and District Credit Union","city":null,"zip":null,"assets":"202,462,766","url":null,"column_8":"Credit Union","geo_score":0.0,"street":null,"id":"aeuz0hkgy3jr","geo_precision":"unmatched","state":"BC"},"type":"Feature","geometry":null},{"properties":{"name":"Entegra","city":null,"zip":null,"assets":"201,727,910","url":null,"column_8":"Credit Union","geo_score":0.0,"street":null,"id":"aeuz0hfd73xi","geo_precision":"unmatched","state":"MB"},"type":"Feature","geometry":null},{"properties":{"name":"Shell Credit Union","city":null,"zip":null,"assets":"196,162,388","url":null,"column_8":"Credit Union","geo_score":0.0,"street":null,"id":"aeuz0hpmh383","geo_precision":"unmatched","state":"AB"},"type":"Feature","geometry":null},{"properties":{"name":"Grand Forks District Savings Credit Union","city":null,"zip":null,"assets":"189,282,558","url":null,"column_8":"Credit Union","geo_score":0.0,"street":null,"id":"aeuz0hmbkttk","geo_precision":"unmatched","state":"BC"},"type":"Feature","geometry":null},{"properties":{"name":"Lake View Credit Union","city":null,"zip":null,"assets":"187,830,788","url":null,"column_8":"Credit Union","geo_score":0.0,"street":null,"id":"aeuz0hnwounp","geo_precision":"unmatched","state":"BC"},"type":"Feature","geometry":null},{"properties":{"name":"Sharons Credit Union","city":null,"zip":null,"assets":"186,726,384","url":null,"column_8":"Credit Union","geo_score":0.0,"street":null,"id":"aeuz0hnxk398","geo_precision":"unmatched","state":"BC"},"type":"Feature","geometry":null},{"properties":{"name":"Niverville","city":null,"zip":null,"assets":"174,744,950","url":null,"column_8":"Credit Union","geo_score":0.0,"street":null,"id":"aeuz0hf3ww2b","geo_precision":"unmatched","state":"MB"},"type":"Feature","geometry":null},{"properties":{"name":"Spirit of Alaska FCU","city":null,"zip":null,"assets":"$108,838,211","url":"www.spiritofak.com","column_8":"Credit Union","geo_score":0.0,"street":null,"id":"aeuz0hoccmnr","geo_precision":"unmatched","state":"AK"},"type":"Feature","geometry":null},{"properties":{"name":"CU Service Network","city":"Albuquerque","zip":null,"assets":null,"url":null,"column_8":"Credit Union","geo_score":0.714,"street":null,"id":"aeuz0hry8l5q","geo_precision":"city","state":"NM"},"type":"Feature","geometry":{"type":"Point","coordinates":[-106.651137,35.084491]}},{"properties":{"name":"Heartland CU (MN)","city":null,"zip":null,"assets":"$81,977,052","url":"https://www.heartlandcu.com","column_8":"Credit Union","geo_score":0.0,"street":null,"id":"aeuz0hfn6g4a","geo_precision":"unmatched","state":"MN"},"type":"Feature","geometry":null},{"properties":{"name":"NuVista FCU","city":"Montrose","zip":null,"assets":"$76,622,131","url":null,"column_8":"Credit Union","geo_score":0.714,"street":null,"id":"aeuz0hr26lg8","geo_precision":"city","state":"CO"},"type":"Feature","geometry":{"type":"Point","coordinates":[-108.050689,38.443069]}},{"properties":{"name":"Desert Valleys FCU","city":"234 N Balsam Street","zip":"93555","assets":"$17,559,054","url":"www.myhomecu.com","column_8":"Credit Union","geo_score":0.857,"street":null,"id":"aeuz0hu8fxmf","geo_precision":"zip","state":"CA"},"type":"Feature","geometry":{"type":"Point","coordinates":[-117.794007,35.540458]}},{"properties":{"name":"Aloha FCU","city":null,"zip":null,"assets":null,"url":"www.alohafcu.com","column_8":"Credit Union","geo_score":0.0,"street":null,"id":"aeuz0hh1aiyy","geo_precision":"","state":null},"type":"Feature","geometry":null},{"properties":{"name":"ISU Credit Union","city":null,"zip":null,"assets":"$113,034,713","url":"www.isucu.org","column_8":"Credit Union","geo_score":0.0,"street":null,"id":"aeuz0hs7p623","geo_precision":"unmatched","state":"Idaho"},"type":"Feature","geometry":null},{"properties":{"name":"Pioneer Federal Credit Union","city":"Mountain Home","zip":null,"assets":"$306,229,663","url":"www.pioneerfcu.org","column_8":"Credit Union","geo_score":0.714,"street":null,"id":"aeuz0huoly25","geo_precision":"city","state":"ID"},"type":"Feature","geometry":{"type":"Point","coordinates":[-115.720455,43.156195]}},{"properties":{"name":"Montrose FCU","city":"Montrose","zip":null,"assets":"$63,365,739","url":null,"column_8":"Credit Union","geo_score":0.714,"street":null,"id":"aeuz0htw48h3","geo_precision":"city","state":"CO"},"type":"Feature","geometry":{"type":"Point","coordinates":[-108.050689,38.443069]}},{"properties":{"name":"Health Care CU","city":"Murray","zip":null,"assets":"66,000,000","url":"http://www.myhccu.org/","column_8":"Credit Union","geo_score":0.714,"street":null,"id":"aeuz0hgrmrzn","geo_precision":"city","state":"Utah"},"type":"Feature","geometry":{"type":"Point","coordinates":[-111.153502,38.966642]}},{"properties":{"name":"University and Community CU","city":null,"zip":null,"assets":"85000000","url":"home.cuintouch.com","column_8":"Credit Union","geo_score":0.0,"street":null,"id":"aeuz0hphkxn4","geo_precision":"","state":null},"type":"Feature","geometry":null},{"properties":{"name":"Southpoint FCU","city":null,"zip":null,"assets":"229,045,177","url":"www.southpointfed.com","column_8":"Credit Union","geo_score":0.0,"street":null,"id":"aeuz0hugrh4v","geo_precision":"unmatched","state":"MN"},"type":"Feature","geometry":null},{"properties":{"name":"Sioux Empire","city":null,"zip":null,"assets":"84,000,000","url":null,"column_8":"Credit Union","geo_score":0.0,"street":null,"id":"aeuz0hqlq0ws","geo_precision":"","state":null},"type":"Feature","geometry":null},{"properties":{"name":"Spokane FCU","city":null,"zip":null,"assets":"125,000,000","url":"www.spokanefederal.com","column_8":"Credit Union","geo_score":0.0,"street":null,"id":"aeuz0hs9hu1s","geo_precision":"","state":null},"type":"Feature","geometry":null},{"properties":{"name":"Capital Credit Union","city":null,"zip":null,"assets":"301,000,000","url":"www.capcu.org","column_8":"Credit Union","geo_score":0.0,"street":null,"id":"aeuz0hlngitz","geo_precision":"unmatched","state":"ND"},"type":"Feature","geometry":null},{"properties":{"name":"Matadors Community Credit Union","city":null,"zip":null,"assets":"$120,000,000","url":null,"column_8":"Credit Union","geo_score":0.0,"street":null,"id":"aeuz0hsisdnf","geo_precision":"unmatched","state":"CA"},"type":"Feature","geometry":null},{"properties":{"name":"Parkside FCU","city":null,"zip":null,"assets":null,"url":"www.parksidefcu.com","column_8":"Credit Union","geo_score":0.0,"street":null,"id":"aeuz0hndqtzc","geo_precision":"unmatched","state":"MT"},"type":"Feature","geometry":null},{"properties":{"name":"San Diego Credit Union","city":null,"zip":null,"assets":"$5,460,193,524","url":"www.sdccu.com","column_8":"Credit Union","geo_score":0.0,"street":null,"id":"aeuz0hgqdh1i","geo_precision":"","state":null},"type":"Feature","geometry":null},{"properties":{"name":"Quest CU","city":"Topeka","zip":"66601-1128","assets":"$244,784,554","url":"www.quest-cu.org","column_8":"Credit Union","geo_score":0.857,"street":"P.O. Box 1128","id":"aeuz0hhets77","geo_precision":"zip","state":"KS"},"type":"Feature","geometry":{"type":"Point","coordinates":[-95.780662,38.988075]}},{"properties":{"name":"Shrewsbury CU","city":null,"zip":null,"assets":null,"url":"shrewsburycu.com","column_8":"Credit Union","geo_score":0.0,"street":null,"id":"aeuz0hmt26e4","geo_precision":"","state":null},"type":"Feature","geometry":null},{"properties":{"name":"Advantage Plus","city":null,"zip":null,"assets":"111,000,000","url":"advantagepluscreditunion.com","column_8":"Credit Union","geo_score":0.0,"street":null,"id":"aeuz0hkpgont","geo_precision":"","state":null},"type":"Feature","geometry":null},{"properties":{"name":"Park Side","city":"Whitefish","zip":null,"assets":"$115,368,598","url":"www.parksidefcu.com","column_8":"credit union","geo_score":0.714,"street":null,"id":"aeuz0hedgulc","geo_precision":"city","state":"MT"},"type":"Feature","geometry":{"type":"Point","coordinates":[-114.365126,48.274564]}}],"is_temporal":false,"author":{"url":"","metadata":"","contact_name":"","contact_address":"","source":"","contact_phone":""},"source":"","pagination":{"sort":null,"start":0,"total":469,"limit":1000000},"state":"complete","tags":"","published":"2014-08-16T20:22:22-04:00","id":365283}