{"type":"FeatureCollection","data_type":"Dataset","url_type":null,"permissions":[{"permissions":{"download":true,"view":true},"group_id":"everyone"}],"classification":null,"title":"Southeast Customers","count":21,"stream_id":365269,"contributor":{"url":"http://geocommons.com/users/74371","name":"lscottcornell"},"data_attributes":null,"calculation_params":null,"icon_link":null,"link":"http://geocommons.com/overlays/365269.json","extent":[-87.3143,25.7683,-77.7798,36.5789],"geometry_types":["point"],"unique_name":null,"name":"Southeast Customers","feature_count":21,"description":"","next_feature":null,"is_raster":false,"short_classification":"Y","stats":{"asset size":{"max":491894000,"variance":1.15218908207619e+16,"mean":23423523.8095238,"stdev":107340070.899743,"min":0,"median":0}},"features":[{"properties":{"name":"Envision Credit Union","city":"Tallahassee","zip":"32314","column_8":"Customer","geo_score":0.436,"website":"WWW.ENVISIONCU.COM","asset size":0,"street":"Post Office Box 5198","id":"aeuxxe9ugjrz","geo_precision":"street","state":"FL"},"type":"Feature","geometry":{"type":"Point","coordinates":[-84.259662,30.442719]}},{"properties":{"name":"Fairwinds CU","city":"ORLANDO","zip":"32826","column_8":"Customer","geo_score":0.604,"website":"WWW.FAIRWINDS.ORG","asset size":0,"street":"3087 N. ALAFAYA TRAIL","id":"aeuxxe6cojui","geo_precision":"street","state":"FL"},"type":"Feature","geometry":{"type":"Point","coordinates":[-81.207736,28.568944]}},{"properties":{"name":"Florida Central Credit Union","city":"Tampa","zip":null,"column_8":"Customer","geo_score":0.714,"website":"WWW.FLORIDACENTRALCU.COM","asset size":0,"street":null,"id":"aeuxxdwfwwzd","geo_precision":"city","state":"FL"},"type":"Feature","geometry":{"type":"Point","coordinates":[-82.582035,27.996097]}},{"properties":{"name":"Achieva Credit Union","city":"Clearwater","zip":"33755","column_8":"Customer","geo_score":0.963,"website":"WWW.ACHIEVACU.COM","asset size":0,"street":"1499 Gulf-to-Bay Blvd","id":"aeuxxe03a0re","geo_precision":"range","state":"FL"},"type":"Feature","geometry":{"type":"Point","coordinates":[-82.776958,27.962511]}},{"properties":{"name":"Kennedy Space Center FCU","city":"MERRITT ISLAND","zip":"32952","column_8":"Customer","geo_score":1.0,"website":"KSCFCU.ORG","asset size":0,"street":"300 SOUTH PLUMOSA STREET","id":"aeuxxe9neune","geo_precision":"range","state":"FL"},"type":"Feature","geometry":{"type":"Point","coordinates":[-80.692008,28.35209]}},{"properties":{"name":"CFE Central Florida Educators FCU","city":"Orlando","zip":null,"column_8":"Customer","geo_score":0.714,"website":"WWW.MYCFE.COM","asset size":0,"street":null,"id":"aeuxxduffdqy","geo_precision":"city","state":"FL"},"type":"Feature","geometry":{"type":"Point","coordinates":[-81.373291,28.545179]}},{"properties":{"name":"Financial FCU","city":"Miami","zip":"33131-1004","column_8":"Customer","geo_score":0.619,"website":"www.financialcu.com","asset size":0,"street":"22 E. Flagler Street, 6th floor","id":"aeuxxe9rbws3","geo_precision":"street","state":"FL"},"type":"Feature","geometry":{"type":"Point","coordinates":[-80.193392,25.768321]}},{"properties":{"name":"TROPICAL FINANCIAL","city":"MIRAMAR","zip":"33082","column_8":"Customer","geo_score":0.857,"website":"WWW.TROPICALFCU.ORG","asset size":0,"street":"P.O. BOX 829517","id":"aeuxxdxfsn73","geo_precision":"zip","state":"FL"},"type":"Feature","geometry":{"type":"Point","coordinates":[-80.448254,26.145724]}},{"properties":{"name":"Midflorida CU","city":"Lakeland","zip":"33801","column_8":"Customer","geo_score":0.592,"website":"MIDFLORIDA.COM","asset size":0,"street":"23079 129 South Kentucky Ave Ste 700","id":"aeuxxdvu5cqt","geo_precision":"street","state":"FL"},"type":"Feature","geometry":{"type":"Point","coordinates":[-81.898016,27.994808]}},{"properties":{"name":"Florida Credit Union","city":"Gainesville","zip":"32627","column_8":"Customer","geo_score":0.857,"website":"FLCU.org","asset size":491894000,"street":"P.O. Box 5549","id":"aeuxxe6cp4w9","geo_precision":"zip","state":"FL"},"type":"Feature","geometry":{"type":"Point","coordinates":[-81.904531,29.372195]}},{"properties":{"name":"Pen Air FCU","city":"Pensacola","zip":"32514-5723","column_8":"Customer","geo_score":0.916,"website":"WWW.PENAIR.ORG","asset size":0,"street":"1495 E Nine Mile Rd","id":"aeuxxe8dwq2i","geo_precision":"range","state":"FL"},"type":"Feature","geometry":{"type":"Point","coordinates":[-87.231336,30.532442]}},{"properties":{"name":"Tyndall FCU","city":"Panama City","zip":"32412-0760","column_8":"Customer","geo_score":0.347,"website":"WWW.TYNDALLFCU.ORG","asset size":0,"street":"P.O. Box 59760","id":"aeuxxdvcsap0","geo_precision":"street","state":"FL"},"type":"Feature","geometry":{"type":"Point","coordinates":[-86.096938,30.308929]}},{"properties":{"name":"Southeastern FCU","city":"Valdosta","zip":"31604","column_8":"Customer","geo_score":0.857,"website":null,"asset size":0,"street":null,"id":"aeuxxdxmhw8o","geo_precision":"zip","state":"GA"},"type":"Feature","geometry":{"type":"Point","coordinates":[-83.252192,30.827965]}},{"properties":{"name":"Local Government FCU","city":"RALEIGH","zip":"27603","column_8":"Customer","geo_score":0.854,"website":"WWW.LGFCU.ORG","asset size":0,"street":"323 WEST JONES STREET SUITE 600","id":"aeuxxe5q86ip","geo_precision":"range","state":"NC"},"type":"Feature","geometry":{"type":"Point","coordinates":[-78.644532,35.782655]}},{"properties":{"name":"Truliant Federal Credit Union","city":"WINSTON SALEM","zip":"27103","column_8":"Customer","geo_score":0.585,"website":"WWW.TRULIANTFCU.ORG","asset size":0,"street":"3200 TRULIANT WAY","id":"aeuxxe4soxye","geo_precision":"zip","state":"NC"},"type":"Feature","geometry":{"type":"Point","coordinates":[-80.273939,36.08486]}},{"properties":{"name":"Marine FCU (NC)","city":"Jacksonville","zip":"28541-1551","column_8":"Customer","geo_score":0.451,"website":"WWW.MARINEFEDERAL.ORG","asset size":0,"street":"PO Box 1551,","id":"aeuxxe2sqwb1","geo_precision":"street","state":"NC"},"type":"Feature","geometry":{"type":"Point","coordinates":[-77.779758,35.065129]}},{"properties":{"name":"Palmetto Citizens FCU (inactive)","city":"COLUMBIA","zip":"29250","column_8":"Customer","geo_score":0.857,"website":"WWW.PALMETTOCITIZENS.ORG","asset size":0,"street":"POB 5846","id":"aeuxxe0woi4m","geo_precision":"zip","state":"SC"},"type":"Feature","geometry":{"type":"Point","coordinates":[-80.970766,34.005992]}},{"properties":{"name":"South Carolina State Credit Union","city":"Columbia","zip":"29202","column_8":"Customer","geo_score":0.357,"website":"WWW.SCSCU.COM","asset size":0,"street":"P.O. Box 726","id":"aeuxxe5f3yzt","geo_precision":"street","state":"SC"},"type":"Feature","geometry":{"type":"Point","coordinates":[-81.025208,33.984375]}},{"properties":{"name":"Fort Campbell FCU","city":"Clarksville","zip":"37040","column_8":"Customer","geo_score":0.776,"website":"FCFCU.ORG","asset size":0,"street":"2050 Lowe's Dr.","id":"aeuxxe4lmglj","geo_precision":"street","state":"TN"},"type":"Feature","geometry":{"type":"Point","coordinates":[-87.314298,36.578886]}},{"properties":{"name":"Community First CUof Florida","city":"JACKSONVILLE","zip":"32232-0077","column_8":"Customer","geo_score":0.357,"website":"COMMUNITYFIRSTGL.ORG","asset size":0,"street":"P.O. BOX 2600","id":"aeuxxe5uued4","geo_precision":"street","state":"FL"},"type":"Feature","geometry":{"type":"Point","coordinates":[-81.783987,30.233532]}},{"properties":{"name":"Space Coast Credit Union","city":"MELBOURNE","zip":"32941","column_8":"Customer","geo_score":0.585,"website":"WWW.SCCU.COM","asset size":0,"street":"8045 NORTH WICKHAM ROAD","id":"aeuxxdtmb6n5","geo_precision":"zip","state":"FL"},"type":"Feature","geometry":{"type":"Point","coordinates":[-80.523463,27.924577]}}],"is_temporal":false,"author":{"url":"","metadata":"","contact_name":"","contact_address":"","source":"","contact_phone":""},"source":"","pagination":{"sort":null,"start":0,"total":21,"limit":1000000},"state":"complete","tags":"","published":"2014-08-16T20:21:16-04:00","id":365269}