{"type":"FeatureCollection","data_type":"Dataset","url_type":null,"permissions":[{"permissions":{"download":true,"view":true},"group_id":"everyone"}],"classification":null,"title":"Florida Banks and Credit Unions","count":606,"stream_id":365255,"contributor":{"url":"http://geocommons.com/users/74371","name":"lscottcornell"},"data_attributes":null,"calculation_params":null,"icon_link":null,"link":"http://geocommons.com/overlays/365255.json","extent":[-87.2738,24.5501,-80.0343,30.7951],"geometry_types":["point"],"unique_name":null,"name":"Florida Banks and Credit Unions","feature_count":606,"description":"","next_feature":null,"is_raster":false,"short_classification":"Y","stats":{},"features":[{"properties":{"name":"American Pioneer Federal Savings Bank","city":"Daytona Beach","zip":"32014","assets":"$907,268,000","url":null,"street":"230 North Beach Street","id":"aeuwxab1j6px","geo_precision":"street","state":"Florida"},"type":"Feature","geometry":{"type":"Point","coordinates":[-81.272881,29.846432]}},{"properties":{"name":"Florida Bank of Volusia County","city":"Daytona Beach","zip":"32015","assets":"$232,403,000","url":null,"street":"130 North Ridgewood Avenue","id":"aeuwxa7lxjet","geo_precision":"range","state":"Florida"},"type":"Feature","geometry":{"type":"Point","coordinates":[-81.023005,29.21101]}},{"properties":{"name":"CBC NATIONAL BANK","city":"Fernandina Beach","zip":"32034","assets":"$438,243,000","url":"http://www.cbcnationalbank.com:80/","street":"1891 South 14th Street","id":"aeuwxaewxnnv","geo_precision":"range","state":"Florida"},"type":"Feature","geometry":{"type":"Point","coordinates":[-81.455445,30.643888]}},{"properties":{"name":"First Coast Community Bank","city":"Fernandina Beach","zip":"32034","assets":"$266,874,000","url":null,"street":"1750 South 14th Street","id":"aeuwxaf6wcrb","geo_precision":"range","state":"Florida"},"type":"Feature","geometry":{"type":"Point","coordinates":[-81.454925,30.646441]}},{"properties":{"name":"First National Bank of Nassau County","city":"Fernandina Beach","zip":"32034","assets":"$260,148,000","url":null,"street":"1891 South 14th Street","id":"aeuwxam11unf","geo_precision":"range","state":"Florida"},"type":"Feature","geometry":{"type":"Point","coordinates":[-81.455445,30.643888]}},{"properties":{"name":"First Federal Bank of Florida","city":"Lake City","zip":"32055","assets":"$995,077,000","url":"http://www.ffsb.com:80/","street":"4705 West Us Highway 90","id":"aeuwxa6vwvbb","geo_precision":"street","state":"Florida"},"type":"Feature","geometry":{"type":"Point","coordinates":[-82.683489,30.18041]}},{"properties":{"name":"CNB National Bank","city":"Lake City","zip":"32055","assets":"$847,355,000","url":"http://www.cnbnb.com:80/","street":"201 North Marion Street","id":"aeuwxa73jetd","geo_precision":"range","state":"Florida"},"type":"Feature","geometry":{"type":"Point","coordinates":[-82.63718,30.19138]}},{"properties":{"name":"Barnett Bank of North Central Florida","city":"Lake City","zip":"32055","assets":"$268,614,000","url":null,"street":"150 West Madison Street","id":"aeuwxa9msdnu","geo_precision":"range","state":"Florida"},"type":"Feature","geometry":{"type":"Point","coordinates":[-82.638301,30.190625]}},{"properties":{"name":"Columbia Bank","city":"Lake City","zip":"32055","assets":"$211,101,000","url":"http://www.columbiabankflorida.com:80/","street":"173 Northwest Hillsboro Street","id":"aeuwxalj7uyj","geo_precision":"range","state":"Florida"},"type":"Feature","geometry":{"type":"Point","coordinates":[-82.638177,30.192785]}},{"properties":{"name":"Columbia County Bank (Lake City)","city":"Lake City","zip":"32055","assets":null,"url":null,"street":"173 NW Hillsboro Street","id":"aeuwxaj55126","geo_precision":"range","state":"FL"},"type":"Feature","geometry":{"type":"Point","coordinates":[-82.638177,30.192785]}},{"properties":{"name":"First Federal Savings Bank of Florida","city":"LAKE CITY","zip":"32055","assets":null,"url":null,"street":"4705 W US HIGHWAY 90","id":"aeuwxahu1ucy","geo_precision":"street","state":"FL"},"type":"Feature","geometry":{"type":"Point","coordinates":[-82.683489,30.18041]}},{"properties":{"name":"Barnett Bank of the St. Johns","city":"Saint Augustine","zip":"32084","assets":"$473,629,000","url":null,"street":"60 Cathedral Place","id":"aeuwxac1rclx","geo_precision":"range","state":"Florida"},"type":"Feature","geometry":{"type":"Point","coordinates":[-81.31145,29.892742]}},{"properties":{"name":"Prosperity Bank of St Augustine (inc)","city":"SAINT AUGUSTINE","zip":"32084","assets":null,"url":null,"street":"790 N PONCE DE LEON BLVD","id":"aeuwxaejf7ov","geo_precision":"range","state":"FL"},"type":"Feature","geometry":{"type":"Point","coordinates":[-81.320379,29.897717]}},{"properties":{"name":"Prosperity Bank","city":"Saint Augustine","zip":"32086","assets":"$799,931,000","url":"http://www.prosperitybank.com:80/","street":"100 South Park Boulevard","id":"aeuwxaguizdy","geo_precision":"street","state":"Florida"},"type":"Feature","geometry":{"type":"Point","coordinates":[-81.315339,29.916394]}},{"properties":{"name":"Bank of St. Augustine","city":"Saint Augustine","zip":"32086","assets":"$186,208,000","url":"http://www.bankstaug.com:80/","street":"120 State Road 312 West","id":"aeuwxamgunhy","geo_precision":"street","state":"Florida"},"type":"Feature","geometry":{"type":"Point","coordinates":[-81.318553,29.866498]}},{"properties":{"name":"SunTrust Bank, East Central Florida","city":"Daytona Beach","zip":"32114","assets":"$1,302,505,000","url":null,"street":"120 South Ridgewood Avenue","id":"aeuwxajzu5jx","geo_precision":"range","state":"Florida"},"type":"Feature","geometry":{"type":"Point","coordinates":[-81.022062,29.209282]}},{"properties":{"name":"Gateway Bank of Florida","city":"Daytona Beach","zip":"32114","assets":"$205,003,000","url":"http://www.gatewaybankfl.com:80/","street":"1950 West International Speedway Boulevard","id":"aeuwxa9f1uin","geo_precision":"range","state":"Florida"},"type":"Feature","geometry":{"type":"Point","coordinates":[-81.075011,29.189249]}},{"properties":{"name":"Security First Federal Savings and Loan Association","city":"Daytona Beach","zip":"32118","assets":"$1,013,550,000","url":null,"street":"501 N Grandview Ave","id":"aeuwxa8x3xev","geo_precision":"range","state":"Florida"},"type":"Feature","geometry":{"type":"Point","coordinates":[-81.013493,29.23519]}},{"properties":{"name":"First Federal Savings Bank of New Smyrna","city":"New Smyrna Beach","zip":"32168","assets":"$320,025,000","url":null,"street":"900 N Dixie Freeway","id":"aeuwxagrjl3r","geo_precision":"zip","state":"Florida"},"type":"Feature","geometry":{"type":"Point","coordinates":[-81.033705,28.951931]}},{"properties":{"name":"Cypress Coquina Bank","city":"Ormond Beach","zip":"32174","assets":"$284,367,000","url":null,"street":"1020 West Granada Boulevard","id":"aeuwxamzc5ov","geo_precision":"range","state":"Florida"},"type":"Feature","geometry":{"type":"Point","coordinates":[-81.094609,29.273722]}},{"properties":{"name":"First Federal Bank of North Florida","city":"Palatka","zip":"32177","assets":"$440,122,000","url":null,"street":"511 St Johns Ave","id":"aeuwxaalm44o","geo_precision":"range","state":"Florida"},"type":"Feature","geometry":{"type":"Point","coordinates":[-81.634394,29.647091]}},{"properties":{"name":"1st Performance National Bank","city":"Jacksonville","zip":"32201","assets":"$278,641,000","url":null,"street":"76 South Laura Street","id":"aeuwxaewrj4q","geo_precision":"range","state":"Florida"},"type":"Feature","geometry":{"type":"Point","coordinates":[-81.655312,30.350797]}},{"properties":{"name":"EverBank","city":"Jacksonville","zip":"32202","assets":"$13,773,875,000","url":"http://www.everbank.com:80/","street":"501 Riverside Avenue","id":"aeuwxak9xhmc","geo_precision":"range","state":"Florida"},"type":"Feature","geometry":{"type":"Point","coordinates":[-81.675569,30.318752]}},{"properties":{"name":"Florida National Bank","city":"Jacksonville","zip":"32202","assets":"$7,815,325,000","url":null,"street":"225 Water Street","id":"aeuwxaj64xdi","geo_precision":"range","state":"Florida"},"type":"Feature","geometry":{"type":"Point","coordinates":[-81.663156,30.325831]}},{"properties":{"name":"First Union National Bank of Florida","city":"Jacksonville","zip":"32202","assets":"$6,339,124,000","url":null,"street":"200 West Forsyth Street","id":"aeuwxag1wa47","geo_precision":"range","state":"Florida"},"type":"Feature","geometry":{"type":"Point","coordinates":[-81.661608,30.327848]}},{"properties":{"name":"SunTrust Bank, North Florida, National Association","city":"Jacksonville","zip":"32202","assets":"$1,253,170,000","url":null,"street":"200 West Forsyth Street","id":"aeuwxamw6yba","geo_precision":"range","state":"Florida"},"type":"Feature","geometry":{"type":"Point","coordinates":[-81.661608,30.327848]}},{"properties":{"name":"Southeast Bank for Savings, A FSB","city":"Jacksonville","zip":"32202","assets":"$1,251,038,000","url":null,"street":"300 West Adams St","id":"aeuwxa71ob3k","geo_precision":"range","state":"Florida"},"type":"Feature","geometry":{"type":"Point","coordinates":[-81.662556,30.32884]}},{"properties":{"name":"Duval Federal Savings and Loan Association","city":"Jacksonville","zip":"32202","assets":"$1,016,266,000","url":null,"street":"1 North Hogan Street","id":"aeuwxafng5zy","geo_precision":"range","state":"Florida"},"type":"Feature","geometry":{"type":"Point","coordinates":[-81.661087,30.325312]}},{"properties":{"name":"The Jacksonville Bank","city":"Jacksonville","zip":"32202","assets":"$582,744,000","url":"http://www.jaxbank.com:80/","street":"100 North Laura Street","id":"aeuwxafu096u","geo_precision":"range","state":"Florida"},"type":"Feature","geometry":{"type":"Point","coordinates":[-81.659014,30.328066]}},{"properties":{"name":"Duval Federal Savings Association","city":"Jacksonville","zip":"32202","assets":"$347,458,000","url":null,"street":"1 North Hogan Street","id":"aeuwxalgh4ur","geo_precision":"range","state":"Florida"},"type":"Feature","geometry":{"type":"Point","coordinates":[-81.661087,30.325312]}},{"properties":{"name":"SouthTrust Bank of Northeast Florida National Association","city":"Jacksonville","zip":"32202","assets":"$326,802,000","url":null,"street":"51 West Bay Street","id":"aeuwxa7o5d4m","geo_precision":"range","state":"Florida"},"type":"Feature","geometry":{"type":"Point","coordinates":[-81.658753,30.326466]}},{"properties":{"name":"First Guaranty Bank and Trust Company of Jacksonville","city":"Jacksonville","zip":"32203","assets":"$397,082,000","url":null,"street":"1234 King Street","id":"aeuwxamoyi2a","geo_precision":"range","state":"Florida"},"type":"Feature","geometry":{"type":"Point","coordinates":[-81.694825,30.312191]}},{"properties":{"name":"Atlantic Bank of Jacksonville","city":"Jacksonville","zip":"32203","assets":"$336,156,000","url":null,"street":"1601 Main Street West Bay Station","id":"aeuwxaj4ajty","geo_precision":"range","state":"Florida"},"type":"Feature","geometry":{"type":"Point","coordinates":[-81.654119,30.344417]}},{"properties":{"name":"FIS","city":"Jacksonville","zip":"32204","assets":null,"url":"www.fisglobal.com","street":"601 Riverside Ave","id":"aeuwxam25x76","geo_precision":"street","state":"FL"},"type":"Feature","geometry":{"type":"Point","coordinates":[-81.676932,30.315785]}},{"properties":{"name":"American National Bank of Florida","city":"Jacksonville","zip":"32207","assets":"$529,328,000","url":null,"street":"2031 Hendricks Avenue","id":"aeuwxa7pa6gx","geo_precision":"range","state":"Florida"},"type":"Feature","geometry":{"type":"Point","coordinates":[-81.652725,30.304363]}},{"properties":{"name":"FloridaBank, A Federal Savings Bank","city":"Jacksonville","zip":"32207","assets":"$272,521,000","url":null,"street":"5500 San Jose Boulevard","id":"aeuwxad8cdv2","geo_precision":"range","state":"Florida"},"type":"Feature","geometry":{"type":"Point","coordinates":[-81.64598,30.261968]}},{"properties":{"name":"Patriot Transportation Holding, Inc.","city":"Jacksonville","zip":"32207","assets":null,"url":"http://www.patriottrans.com","street":"1801 Art Museum Drive","id":"aeuwxa8akmjs","geo_precision":"range","state":"FL"},"type":"Feature","geometry":{"type":"Point","coordinates":[-81.61706,30.30405]}},{"properties":{"name":"FirstAtlantic Bank","city":"Jacksonville","zip":"32216","assets":"$319,131,000","url":"http://www.bankfirstatlantic.com:80/","street":"4500 Salisbury Road, Suite 490","id":"aeuwxadoyd32","geo_precision":"street","state":"Florida"},"type":"Feature","geometry":{"type":"Point","coordinates":[-81.596999,30.262569]}},{"properties":{"name":"Oceanside Bank","city":"Jacksonville Beach","zip":"32250","assets":"$257,383,000","url":null,"street":"1315 South Third Street","id":"aeuwxa87m7qu","geo_precision":"range","state":"Florida"},"type":"Feature","geometry":{"type":"Point","coordinates":[-81.389065,30.275297]}},{"properties":{"name":"CNLBank, First Coast","city":"Jacksonville","zip":"32255","assets":"$224,340,000","url":null,"street":"10739 Deerwood Park Boulevard, Suite 100","id":"aeuwxae1rb99","geo_precision":"street","state":"Florida"},"type":"Feature","geometry":{"type":"Point","coordinates":[-81.69879,30.255084]}},{"properties":{"name":"Florida Capital Bank, National Association","city":"Jacksonville","zip":"32256","assets":"$774,189,000","url":"http://www.flcb.com:80/","street":"10151 Deerwood Park Boulevard, Bldg 300, Suite 110","id":"aeuwxamvgoii","geo_precision":"street","state":"Florida"},"type":"Feature","geometry":{"type":"Point","coordinates":[-81.531669,30.164838]}},{"properties":{"name":"Synovus Bank of Jacksonville","city":"Jacksonville","zip":"32256","assets":"$244,934,000","url":null,"street":"10407 Centurion Parkway North, Suite 200","id":"aeuwxae7bm1w","geo_precision":"street","state":"Florida"},"type":"Feature","geometry":{"type":"Point","coordinates":[-81.543008,30.238802]}},{"properties":{"name":"American Enterprise Bank of Florida","city":"Jacksonville","zip":"32256","assets":"$195,116,000","url":"http://www.aebfl.com:80/","street":"10611 Deerwood Park Boulevard","id":"aeuwxae5fpxk","geo_precision":"street","state":"Florida"},"type":"Feature","geometry":{"type":"Point","coordinates":[-81.543143,30.246443]}},{"properties":{"name":"Monticello Bank","city":"Jacksonville","zip":"32257","assets":"$234,209,000","url":null,"street":"10696 St. Augustine Road","id":"aeuwxaavalfu","geo_precision":"street","state":"Florida"},"type":"Feature","geometry":{"type":"Point","coordinates":[-81.621267,30.155922]}},{"properties":{"name":"Atlantic Coast Bank","city":"Jacksonville","zip":"32258","assets":"$778,902,000","url":"http://www.atlanticcoastbank.net:80/","street":"12724 Gran Bay Parkway West, Suite 150","id":"aeuwxakrp7tb","geo_precision":"street","state":"Florida"},"type":"Feature","geometry":{"type":"Point","coordinates":[-81.574383,30.148398]}},{"properties":{"name":"Barnett Bank of Tallahassee","city":"Tallahassee","zip":"32301","assets":"$626,554,000","url":null,"street":"Calhoun At Jefferson Street","id":"aeuwxafwr51z","geo_precision":"street","state":"Florida"},"type":"Feature","geometry":{"type":"Point","coordinates":[-84.279592,30.439823]}},{"properties":{"name":"Sun Federal Savings and Loan Association","city":"Tallahassee","zip":"32301","assets":"$359,329,000","url":null,"street":"111 South Monroe St","id":"aeuwxam5lqcv","geo_precision":"range","state":"Florida"},"type":"Feature","geometry":{"type":"Point","coordinates":[-84.280576,30.440866]}},{"properties":{"name":"Hancock Bank of Florida","city":"Tallahassee","zip":"32301","assets":"$355,231,000","url":null,"street":"101 North Monroe Street","id":"aeuwxals8w8f","geo_precision":"range","state":"Florida"},"type":"Feature","geometry":{"type":"Point","coordinates":[-84.280678,30.443592]}},{"properties":{"name":"Capital City Bank Group, Inc.","city":"Tallahassee","zip":"32301","assets":null,"url":"https://www.ccbg.com","street":"217 North Monroe Street","id":"aeuwxaifxq4e","geo_precision":"range","state":"FL"},"type":"Feature","geometry":{"type":"Point","coordinates":[-84.280603,30.444523]}},{"properties":{"name":"Capital City First National Bank of Tallahassee","city":"Tallahassee","zip":"32302","assets":"$346,249,000","url":null,"street":"217 North Monroe Street","id":"aeuwxagh3gab","geo_precision":"range","state":"Florida"},"type":"Feature","geometry":{"type":"Point","coordinates":[-84.280603,30.444523]}},{"properties":{"name":"Tallahassee State Bank","city":"Tallahassee","zip":"32304","assets":"$359,842,000","url":null,"street":"2720 West Tennessee Street","id":"aeuwxaj8ld2t","geo_precision":"range","state":"Florida"},"type":"Feature","geometry":{"type":"Point","coordinates":[-84.340785,30.454394]}},{"properties":{"name":"SunTrust Bank, Northwest, Florida","city":"Tallahassee","zip":"32308","assets":"$1,224,737,000","url":null,"street":"3522 Thomasville Road","id":"aeuwxaisigxt","geo_precision":"street","state":"Florida"},"type":"Feature","geometry":{"type":"Point","coordinates":[-84.252356,30.501165]}},{"properties":{"name":"First Federal Bank","city":"Tallahassee","zip":"32308","assets":"$237,876,000","url":"http://www.ffbtn.com:80/","street":"1301 Metropolitan Boulevard","id":"aeuwxaj6l403","geo_precision":"range","state":"Florida"},"type":"Feature","geometry":{"type":"Point","coordinates":[-84.251024,30.497836]}},{"properties":{"name":"SunTrust Bank, Tallahassee, National Association","city":"Tallahassee","zip":"32312","assets":"$591,200,000","url":null,"street":"3522 Thomasville Road","id":"aeuwxaim0klz","geo_precision":"street","state":"Florida"},"type":"Feature","geometry":{"type":"Point","coordinates":[-84.255633,30.488217]}},{"properties":{"name":"Andrew Jackson Savings Bank","city":"Tallahassee","zip":"32317","assets":"$446,425,000","url":null,"street":"3522 Thomasville Road","id":"aeuwxa7xan9r","geo_precision":"range","state":"Florida"},"type":"Feature","geometry":{"type":"Point","coordinates":[-84.246754,30.510698]}},{"properties":{"name":"Wakulla Bank","city":"Crawfordville","zip":"32327","assets":"$402,205,000","url":null,"street":"2932 Crawfordville Highway","id":"aeuwxan0z6p7","geo_precision":"range","state":"Florida"},"type":"Feature","geometry":{"type":"Point","coordinates":[-84.375218,30.181178]}},{"properties":{"name":"FloridaFirst Bank","city":"Panama City","zip":"32401","assets":"$275,566,000","url":"http://www.floridafirstbank.com:80/","street":"144 Harrison Avenue","id":"aeuwxagvo00f","geo_precision":"range","state":"Florida"},"type":"Feature","geometry":{"type":"Point","coordinates":[-85.6622,30.153696]}},{"properties":{"name":"Bay Bank &amp; Trust Co.","city":"Panama City","zip":"32401","assets":"$232,517,000","url":null,"street":"509 Harrison Avenue","id":"aeuwxaaqv1eq","geo_precision":"range","state":"Florida"},"type":"Feature","geometry":{"type":"Point","coordinates":[-85.660438,30.158676]}},{"properties":{"name":"Peoples First Community Bank","city":"Panama City","zip":"32405","assets":"$1,795,420,000","url":"http://www.peoplesfirst.com","street":"2305 Hwy 77","id":"aeuwxa8fph9h","geo_precision":"street","state":"Florida"},"type":"Feature","geometry":{"type":"Point","coordinates":[-85.650028,30.18303]}},{"properties":{"name":"Summit Bank, National Association","city":"Panama City","zip":"32405","assets":"$224,861,000","url":"http://www.summitbankna.com:80/","street":"101 West 23rd Street","id":"aeuwxabxvcst","geo_precision":"range","state":"Florida"},"type":"Feature","geometry":{"type":"Point","coordinates":[-85.660476,30.189619]}},{"properties":{"name":"The Bank of Bonifay","city":"Bonifay","zip":"32425","assets":"$242,871,000","url":null,"street":"300 North Waukesha Street","id":"aeuwxabg3c4p","geo_precision":"range","state":"Florida"},"type":"Feature","geometry":{"type":"Point","coordinates":[-85.679514,30.795094]}},{"properties":{"name":"sSouthTrust Bank of Northwest Florida","city":"Marianna","zip":"32446","assets":"$407,466,000","url":null,"street":"4393 Lafayette Street","id":"aeuwxa8ic6df","geo_precision":"range","state":"Florida"},"type":"Feature","geometry":{"type":"Point","coordinates":[-85.230982,30.775027]}},{"properties":{"name":"Southern Home Savings Bank","city":"Pensacola","zip":"32501","assets":"$251,631,000","url":null,"street":"251 W Garden St","id":"aeuwxamqpi14","geo_precision":"street","state":"Florida"},"type":"Feature","geometry":{"type":"Point","coordinates":[-87.226102,30.411189]}},{"properties":{"name":"COASTAL BANK AND TRUST OF FLORIDA","city":"Pensacola","zip":"32502","assets":"$1,733,808,000","url":null,"street":"125 West Romana Street, Suite 400","id":"aeuwxac32gyo","geo_precision":"street","state":"Florida"},"type":"Feature","geometry":{"type":"Point","coordinates":[-87.215042,30.411372]}},{"properties":{"name":"Barnett Bank of West Florida","city":"Pensacola","zip":"32502","assets":"$792,013,000","url":null,"street":"100 West Garden Street","id":"aeuwxamegj1v","geo_precision":"range","state":"Florida"},"type":"Feature","geometry":{"type":"Point","coordinates":[-87.217942,30.41239]}},{"properties":{"name":"The Citizens and Peoples National Bank of Pensacola","city":"Pensacola","zip":"32502","assets":"$434,044,000","url":null,"street":"213 South Palafox Street","id":"aeuwxact83po","geo_precision":"zip","state":"Florida"},"type":"Feature","geometry":{"type":"Point","coordinates":[-87.225691,30.474288]}},{"properties":{"name":"Sun Bank/West Florida, National Association","city":"Pensacola","zip":"32502","assets":"$239,516,000","url":null,"street":"220 West Garden Street","id":"aeuwxa7ls3b5","geo_precision":"range","state":"Florida"},"type":"Feature","geometry":{"type":"Point","coordinates":[-87.220224,30.412082]}},{"properties":{"name":"Gulf Coast Community Bank","city":"Pensacola","zip":"32502","assets":"$197,682,000","url":"http://www.mygulfbank.com:80/","street":"40 North Palafox Street","id":"aeuwxacf5xmm","geo_precision":"zip","state":"Florida"},"type":"Feature","geometry":{"type":"Point","coordinates":[-87.225691,30.474288]}},{"properties":{"name":"Bank of Pensacola","city":"PENSACOLA","zip":"32502","assets":null,"url":null,"street":"125 W ROMANA ST STE 400","id":"aeuwxag7yer1","geo_precision":"range","state":"FL"},"type":"Feature","geometry":{"type":"Point","coordinates":[-87.217256,30.410929]}},{"properties":{"name":"Regions Bank of Florida","city":"Pensacola","zip":"32505","assets":"$914,497,000","url":null,"street":"50 Beverly Parkway","id":"aeuwxafc9pq9","geo_precision":"range","state":"Florida"},"type":"Feature","geometry":{"type":"Point","coordinates":[-87.243176,30.466594]}},{"properties":{"name":"First American Bank of Pensacola, National Association","city":"Pensacola","zip":"32505","assets":"$309,326,000","url":null,"street":"3300 North Pace Boulevard","id":"aeuwxa9c2hiw","geo_precision":"range","state":"Florida"},"type":"Feature","geometry":{"type":"Point","coordinates":[-87.239796,30.447208]}},{"properties":{"name":"Destin Bank","city":"Destin","zip":"32541","assets":"$527,975,000","url":"http://www.destinbank.com:80/","street":"2000 Ninety Eight Palms Boulevard","id":"aeuwxa9y2tcv","geo_precision":"range","state":"Florida"},"type":"Feature","geometry":{"type":"Point","coordinates":[-87.210684,30.435167]}},{"properties":{"name":"First Florida Bank","city":"Destin","zip":"32541","assets":"$184,874,000","url":"http://www.firstflbank.com:80/","street":"125 Main Street","id":"aeuwxa828d35","geo_precision":"range","state":"Florida"},"type":"Feature","geometry":{"type":"Point","coordinates":[-86.483503,30.391298]}},{"properties":{"name":"Beach Community Bank","city":"Fort Walton Beach","zip":"32548","assets":"$610,899,000","url":"http://www.beachcommunitybank.com:80/","street":"17 Southeast Eglin Parkway","id":"aeuwxalj20ds","geo_precision":"street","state":"Florida"},"type":"Feature","geometry":{"type":"Point","coordinates":[-86.606248,30.414997]}},{"properties":{"name":"FNBT.COM BANK","city":"Fort Walton Beach","zip":"32548","assets":"$370,954,000","url":"http://www.fnbt.com:80/","street":"29 North Eglin Parkway, N.E.","id":"aeuwxa7mvk8l","geo_precision":"street","state":"Florida"},"type":"Feature","geometry":{"type":"Point","coordinates":[-86.605555,30.414074]}},{"properties":{"name":"First City Bank of Florida","city":"Fort Walton Beach","zip":"32548","assets":"$267,044,000","url":"http://www.firstcitybank.com:80/","street":"135 Perry Avenue, S.E.","id":"aeuwxafw3pbu","geo_precision":"street","state":"Florida"},"type":"Feature","geometry":{"type":"Point","coordinates":[-86.60291,30.409456]}},{"properties":{"name":"Barnett Bank of Northwest Florida","city":"Fort Walton Beach","zip":"32549","assets":"$300,737,000","url":null,"street":"189 North Elgin Parkway","id":"aeuwxadnogsg","geo_precision":"zip","state":"Florida"},"type":"Feature","geometry":{"type":"Point","coordinates":[-86.594479,30.661155]}},{"properties":{"name":"First National Bank of Florida","city":"Milton","zip":"32570","assets":"$296,841,000","url":"http://www.fnbflorida.com:80/","street":"6512 Caroline Street, S. W.","id":"aeuwxadn4sew","geo_precision":"street","state":"Florida"},"type":"Feature","geometry":{"type":"Point","coordinates":[-87.089064,30.60265]}},{"properties":{"name":"First National Bank Florida","city":"MILTON","zip":"32570","assets":null,"url":null,"street":"6512 CAROLINE ST","id":"aeuwxaeu32iv","geo_precision":"range","state":"FL"},"type":"Feature","geometry":{"type":"Point","coordinates":[-87.056569,30.610697]}},{"properties":{"name":"First Mutual Association of Florida","city":"Pensacola","zip":"32575","assets":"$798,062,000","url":null,"street":"70 N Baylen Street","id":"aeuwxakzq6ar","geo_precision":"range","state":"Florida"},"type":"Feature","geometry":{"type":"Point","coordinates":[-87.216919,30.413226]}},{"properties":{"name":"Vanguard Bank &amp; Trust Company","city":"Valparaiso","zip":"32580","assets":"$625,486,000","url":null,"street":"23 John Sims Parkway","id":"aeuwxal69p00","geo_precision":"range","state":"Florida"},"type":"Feature","geometry":{"type":"Point","coordinates":[-86.494148,30.513414]}},{"properties":{"name":"Barnett Bank of Alachua County, National Association","city":"Gainesville","zip":"32602","assets":"$501,132,000","url":null,"street":"2627 Northwest 43rd Street","id":"aeuwxa9lwfuc","geo_precision":"range","state":"Florida"},"type":"Feature","geometry":{"type":"Point","coordinates":[-82.388975,29.676689]}},{"properties":{"name":"Merchants &amp; Southern Bank","city":"Gainesville","zip":"32602","assets":"$420,992,000","url":"http://www.msbank.com:80/","street":"3361 North Main Street","id":"aeuwxaaagjhy","geo_precision":"range","state":"Florida"},"type":"Feature","geometry":{"type":"Point","coordinates":[-82.319308,29.683304]}},{"properties":{"name":"Sun Bank of Gainesville","city":"Gainesville","zip":"32602","assets":"$184,278,000","url":null,"street":"411 North Main Street","id":"aeuwxailefjd","geo_precision":"range","state":"Florida"},"type":"Feature","geometry":{"type":"Point","coordinates":[-82.324942,29.656719]}},{"properties":{"name":"Florida Citizens Bank","city":"Gainesville","zip":"32607","assets":"$271,588,000","url":"http://www.floridacitizensbank.com:80/","street":"3919 West Newberry Road","id":"aeuwxa7kxxgu","geo_precision":"range","state":"Florida"},"type":"Feature","geometry":{"type":"Point","coordinates":[-82.383099,29.653052]}},{"properties":{"name":"Millennium Bank","city":"Gainesville","zip":"32607","assets":"$195,125,000","url":"http://www.mlbk.com:80/","street":"4340 West Newberry Road","id":"aeuwxacm6o4c","geo_precision":"range","state":"Florida"},"type":"Feature","geometry":{"type":"Point","coordinates":[-82.386303,29.654371]}},{"properties":{"name":"Gainesville State Bank","city":"Gainesville","zip":"32608","assets":"$208,905,000","url":null,"street":"S.W. 34th Street &amp; Windmeadows Blvd.","id":"aeuwxadpi20x","geo_precision":"street","state":"Florida"},"type":"Feature","geometry":{"type":"Point","coordinates":[-82.44606,29.621855]}},{"properties":{"name":"The First National Bank of Alachua","city":"Alachua","zip":"32615","assets":"$229,987,000","url":"http://www.fnba.net:80/","street":"Highway 441 And N.E. 1st Street","id":"aeuwxafwnkxw","geo_precision":"street","state":"Florida"},"type":"Feature","geometry":{"type":"Point","coordinates":[-82.459864,29.782968]}},{"properties":{"name":"Drummond Community Bank","city":"Chiefland","zip":"32626","assets":"$196,404,000","url":"http://www.drummondbank.com:80/","street":"1627 North Young Boulevard","id":"aeuwxaee0ptf","geo_precision":"range","state":"Florida"},"type":"Feature","geometry":{"type":"Point","coordinates":[-82.866705,29.49467]}},{"properties":{"name":"Merchants and Southern Bank","city":"GAINESVILLE","zip":"32653","assets":null,"url":null,"street":"2040 NW 67TH PL","id":"aeuwxajpxduu","geo_precision":"street","state":"FL"},"type":"Feature","geometry":{"type":"Point","coordinates":[-82.363649,29.71631]}},{"properties":{"name":"Barnett Bank of Marion County, National Association","city":"Ocala","zip":"32670","assets":"$615,413,000","url":null,"street":"35 S.E. First Avenue","id":"aeuwxabm9ub3","geo_precision":"street","state":"Florida"},"type":"Feature","geometry":{"type":"Point","coordinates":[-82.51527,29.404799]}},{"properties":{"name":"PERKINS STATE BANK","city":"Williston","zip":"32696","assets":"$188,234,000","url":"http://www.perkinsstatebank.com:80/","street":"342 East Noble Avenue","id":"aeuwxaelkqm9","geo_precision":"range","state":"Florida"},"type":"Feature","geometry":{"type":"Point","coordinates":[-82.438045,29.388685]}},{"properties":{"name":"Williston Holding Co","city":"WILLISTON","zip":"32696","assets":null,"url":null,"street":"342 E NOBLE AVE","id":"aeuwxaeive1i","geo_precision":"range","state":"FL"},"type":"Feature","geometry":{"type":"Point","coordinates":[-82.438045,29.388685]}},{"properties":{"name":"Empire of America FSB","city":"Deland","zip":"32720","assets":"$2,977,457,000","url":null,"street":"345 North Woodland Blvd","id":"aeuwxae2rr1b","geo_precision":"range","state":"Florida"},"type":"Feature","geometry":{"type":"Point","coordinates":[-81.303464,29.03247]}},{"properties":{"name":"Barnett Bank of Volusia County","city":"De Land","zip":"32720","assets":"$1,447,658,000","url":null,"street":"230 North Woodland Boulevard","id":"aeuwxaloh1ho","geo_precision":"range","state":"Florida"},"type":"Feature","geometry":{"type":"Point","coordinates":[-81.303547,29.030254]}},{"properties":{"name":"Mainstreet Community Bank of Florida","city":"Deland","zip":"32720","assets":"$212,861,000","url":"http://www.mainstreetcbf.com:80/","street":"204 South Woodland Boulevard","id":"aeuwxal4hyac","geo_precision":"range","state":"Florida"},"type":"Feature","geometry":{"type":"Point","coordinates":[-81.30344,29.02621]}},{"properties":{"name":"Barnett Bank of Lake County, National Association","city":"Eustis","zip":"32726","assets":"$429,049,000","url":null,"street":"100 North Bay Street","id":"aeuwxaeae9cu","geo_precision":"range","state":"Florida"},"type":"Feature","geometry":{"type":"Point","coordinates":[-81.685659,28.853627]}},{"properties":{"name":"Urban Trust Bank","city":"Lake Mary","zip":"32746","assets":"$616,200,000","url":"http://www.urbantrustbank.com:80/","street":"400 Colonial Center Parkway, Suite 150","id":"aeuwxa8gqw75","geo_precision":"street","state":"Florida"},"type":"Feature","geometry":{"type":"Point","coordinates":[-81.360269,28.780299]}},{"properties":{"name":"Homebanc National Association","city":"Lake Mary","zip":"32746","assets":"$478,118,000","url":"http://www.homebanc.com:80/","street":"3701 West Lake Mary Boulevard","id":"aeuwxabag503","geo_precision":"range","state":"Florida"},"type":"Feature","geometry":{"type":"Point","coordinates":[-81.343686,28.756154]}},{"properties":{"name":"Independent Banker's Bank of Florida","city":"Lake Mary","zip":"32746","assets":"$241,946,000","url":"http://www.ibbfla.com:80/","street":"615 Crescent Executive Court, Suite 400","id":"aeuwxae4vsmy","geo_precision":"street","state":"Florida"},"type":"Feature","geometry":{"type":"Point","coordinates":[-81.344646,28.756064]}},{"properties":{"name":"Harland Financial Solutions","city":"Lake Mary","zip":"32746","assets":null,"url":"www.harlandfinancialsolutions.com","street":"Corp HQ 605 Cresent Executive Court Suite 600","id":"aeuwxal49nxr","geo_precision":"street","state":"FL"},"type":"Feature","geometry":{"type":"Point","coordinates":[-81.344646,28.756064]}},{"properties":{"name":"Regions Bank, National Association","city":"Longwood","zip":"32750","assets":"$185,465,000","url":null,"street":"425 U.S. Highway 17-92, South","id":"aeuwxaep8j4x","geo_precision":"street","state":"Florida"},"type":"Feature","geometry":{"type":"Point","coordinates":[-81.327097,28.697127]}},{"properties":{"name":"The Huntington National Bank of Florida","city":"Maitland","zip":"32751","assets":"$1,728,551,000","url":null,"street":"253 North Orlando Avenue","id":"aeuwxadfb9hc","geo_precision":"range","state":"Florida"},"type":"Feature","geometry":{"type":"Point","coordinates":[-81.36359,28.627898]}},{"properties":{"name":"Florida Choice Bank","city":"Mount Dora","zip":"32757","assets":"$868,805,000","url":"http://www.floridachoicebank.com","street":"18055 U.S. Highway 441","id":"aeuwxaltwk2e","geo_precision":"street","state":"Florida"},"type":"Feature","geometry":{"type":"Point","coordinates":[-81.614271,28.737275]}},{"properties":{"name":"The First National Bank of Mount Dora","city":"Mount Dora","zip":"32757","assets":"$199,019,000","url":"http://www.fnbmd.com:80/","street":"714 N Donnelly Street","id":"aeuwxabz46bt","geo_precision":"range","state":"Florida"},"type":"Feature","geometry":{"type":"Point","coordinates":[-81.644651,28.803122]}},{"properties":{"name":"First Green Bank","city":"Mount Dora","zip":"32757","assets":"$176,261,000","url":"http://www.firstgreenbank.com:80/","street":"18251 State Highway 441","id":"aeuwxakqv28v","geo_precision":"range","state":"Florida"},"type":"Feature","geometry":{"type":"Point","coordinates":[-81.649203,28.824184]}},{"properties":{"name":"Pinnacle Bank","city":"Orange City","zip":"32763","assets":"$198,634,000","url":"http://www.pinnaclebank-fl.com:80/","street":"1113 Saxon Boulevard","id":"aeuwxacd8q9j","geo_precision":"zip","state":"Florida"},"type":"Feature","geometry":{"type":"Point","coordinates":[-81.296174,28.928877]}},{"properties":{"name":"Citizens Bank of Florida","city":"Oviedo","zip":"32765","assets":"$226,000,000","url":"http://www.mycbfl.com:80/","street":"156 Geneva Drive","id":"aeuwxaf576vs","geo_precision":"range","state":"Florida"},"type":"Feature","geometry":{"type":"Point","coordinates":[-81.204994,28.672804]}},{"properties":{"name":"Federal Trust Bank","city":"Sanford","zip":"32771","assets":"$322,131,000","url":null,"street":"420 West First Street","id":"aeuwxa71h8a5","geo_precision":"range","state":"Florida"},"type":"Feature","geometry":{"type":"Point","coordinates":[-81.271952,28.811763]}},{"properties":{"name":"Banco Popular, National Association - Florida","city":"Sanford","zip":"32771","assets":"$214,450,000","url":null,"street":"1780 West Airport Boulevard","id":"aeuwxalg0si5","geo_precision":"range","state":"Florida"},"type":"Feature","geometry":{"type":"Point","coordinates":[-81.297774,28.788459]}},{"properties":{"name":"First Federal Savings and Loan Association of Seminole Co","city":"Sanford","zip":"32771","assets":"$185,267,000","url":null,"street":"312 West First St","id":"aeuwxakam3tr","geo_precision":"range","state":"Florida"},"type":"Feature","geometry":{"type":"Point","coordinates":[-81.271037,28.811763]}},{"properties":{"name":"Federal Trust Corporation","city":"Sanford","zip":"32771","assets":null,"url":"http://www.federaltrust.com/","street":"312 West 1st Street","id":"aeuwxamfmq2e","geo_precision":"range","state":"FL"},"type":"Feature","geometry":{"type":"Point","coordinates":[-81.271037,28.811763]}},{"properties":{"name":"Reunion Bank of Florida","city":"Tavares","zip":"32778","assets":"$178,605,000","url":"http://www.reunionbank.com:80/","street":"1892 East Burleigh Boulevard","id":"aeuwxa72fbfp","geo_precision":"zip","state":"Florida"},"type":"Feature","geometry":{"type":"Point","coordinates":[-81.725272,28.767762]}},{"properties":{"name":"First National Bank of Central Florida","city":"Winter Park","zip":"32789","assets":"$342,079,000","url":null,"street":"369 North New York Avenue","id":"aeuwxacq0u6c","geo_precision":"range","state":"Florida"},"type":"Feature","geometry":{"type":"Point","coordinates":[-81.352879,28.599824]}},{"properties":{"name":"First National Bank, Winter Park","city":"Winter Park","zip":"32789","assets":"$283,346,000","url":null,"street":"369 North New York Avenue","id":"aeuwxab3ovta","geo_precision":"range","state":"Florida"},"type":"Feature","geometry":{"type":"Point","coordinates":[-81.352879,28.599824]}},{"properties":{"name":"National Bank of Commerce","city":"Winter Park","zip":"32789","assets":"$217,527,000","url":"http://www.nationalbankofcommerce.com:80/","street":"1201 South Orlando Avenue","id":"aeuwxadirwqz","geo_precision":"range","state":"Florida"},"type":"Feature","geometry":{"type":"Point","coordinates":[-81.365106,28.585746]}},{"properties":{"name":"Commerce National Bank &amp; Trust (Winter Park)","city":"Winter Park","zip":"32789","assets":"$94,468,000","url":null,"street":"1201 S. Orlando Ave.","id":"aeuwxafkfa2f","geo_precision":"street","state":"FL"},"type":"Feature","geometry":{"type":"Point","coordinates":[-81.365128,28.596536]}},{"properties":{"name":"United Legacy Bank","city":"Winter Park","zip":"32792","assets":"$208,237,000","url":"http://www.unitedlegacybank.com:80/","street":"401 South Semoran Boulevard","id":"aeuwxa8gkpgi","geo_precision":"range","state":"Florida"},"type":"Feature","geometry":{"type":"Point","coordinates":[-81.307374,28.592634]}},{"properties":{"name":"Barnett Bank of Central Florida, National Association","city":"Orlando","zip":"32801","assets":"$3,598,231,000","url":null,"street":"390 North Orange Avenue","id":"aeuwxaccqftp","geo_precision":"range","state":"Florida"},"type":"Feature","geometry":{"type":"Point","coordinates":[-81.379175,28.545828]}},{"properties":{"name":"CNLBank","city":"Orlando","zip":"32801","assets":"$1,374,305,000","url":"http://www.cnlbank.com:80/","street":"450 South Orange Avenue","id":"aeuwxaicrsa8","geo_precision":"range","state":"Florida"},"type":"Feature","geometry":{"type":"Point","coordinates":[-81.378763,28.537727]}},{"properties":{"name":"The First, Federal Association","city":"Orlando","zip":"32801","assets":"$1,066,094,000","url":null,"street":"One Dupont Center - 390 N Orange Ave","id":"aeuwxabfdcns","geo_precision":"range","state":"Florida"},"type":"Feature","geometry":{"type":"Point","coordinates":[-81.379175,28.545828]}},{"properties":{"name":"Seaside National Bank &amp; Trust","city":"Orlando","zip":"32801","assets":"$761,181,000","url":"http://www.seasidebank.com:80/","street":"201 South Orange Avenue","id":"aeuwxamlbnfv","geo_precision":"range","state":"Florida"},"type":"Feature","geometry":{"type":"Point","coordinates":[-81.379005,28.539023]}},{"properties":{"name":"Southern Community Bank of Central Florida","city":"Orlando","zip":"32801","assets":"$663,574,000","url":"http://www.southernbank.net:80/","street":"250 North Orange Avenue","id":"aeuwxafqimz1","geo_precision":"range","state":"Florida"},"type":"Feature","geometry":{"type":"Point","coordinates":[-81.379163,28.545132]}},{"properties":{"name":"Old Florida National Bank","city":"Orlando","zip":"32801","assets":"$622,894,000","url":"http://www.oldfnb.com:80/","street":"60 North Court Avenue, First Floor","id":"aeuwxafjnihg","geo_precision":"street","state":"Florida"},"type":"Feature","geometry":{"type":"Point","coordinates":[-81.34507,28.452785]}},{"properties":{"name":"Orange Bank","city":"Orlando","zip":"32801","assets":"$354,423,000","url":null,"street":"65 North Orange Avenue","id":"aeuwxagcd5hq","geo_precision":"range","state":"Florida"},"type":"Feature","geometry":{"type":"Point","coordinates":[-81.378974,28.543023]}},{"properties":{"name":"Old Southern Bank","city":"Orlando","zip":"32801","assets":"$336,390,000","url":null,"street":"250 N. Orange Ave.","id":"aeuwxadu6s2o","geo_precision":"street","state":"Florida"},"type":"Feature","geometry":{"type":"Point","coordinates":[-81.379036,28.54212]}},{"properties":{"name":"SouthTrust Bank of Orlando","city":"Orlando","zip":"32801","assets":"$321,934,000","url":null,"street":"135 West Central Boulevard","id":"aeuwxa8xojxe","geo_precision":"range","state":"Florida"},"type":"Feature","geometry":{"type":"Point","coordinates":[-81.38154,28.542097]}},{"properties":{"name":"Orange Bank of Florida","city":"Orlando","zip":"32801","assets":"$288,009,000","url":"http://www.orangebankfl.com:80/","street":"519 North Magnolia","id":"aeuwxaapd375","geo_precision":"street","state":"Florida"},"type":"Feature","geometry":{"type":"Point","coordinates":[-81.272538,28.56063]}},{"properties":{"name":"United American Bank of Central Florida","city":"Orlando","zip":"32801","assets":"$270,318,000","url":null,"street":"105 West Colonial Drive","id":"aeuwxab7o78l","geo_precision":"range","state":"Florida"},"type":"Feature","geometry":{"type":"Point","coordinates":[-81.381845,28.553157]}},{"properties":{"name":"SunTrust Bank, Central Florida, National Association","city":"Orlando","zip":"32802","assets":"$9,356,034,000","url":null,"street":"200 South Orange Avenue","id":"aeuwxab7yjqi","geo_precision":"range","state":"Florida"},"type":"Feature","geometry":{"type":"Point","coordinates":[-81.379005,28.539023]}},{"properties":{"name":"Sun First National Bank of Orlando","city":"Orlando","zip":"32802","assets":"$920,165,000","url":null,"street":"200 South Orange Avenue","id":"aeuwxaazsu4g","geo_precision":"range","state":"Florida"},"type":"Feature","geometry":{"type":"Point","coordinates":[-81.379005,28.539023]}},{"properties":{"name":"Florida Bank of Commerce","city":"Orlando","zip":"32802","assets":"$233,955,000","url":"http://www.fbcbank.com:80/","street":"105 East Robinson Street","id":"aeuwxaikwnq1","geo_precision":"range","state":"Florida"},"type":"Feature","geometry":{"type":"Point","coordinates":[-81.37696,28.545744]}},{"properties":{"name":"The Florida National Bank at Orlando","city":"Orlando","zip":"32802","assets":"$204,983,000","url":null,"street":"801 North Orange Avenue","id":"aeuwxa7v2ji2","geo_precision":"range","state":"Florida"},"type":"Feature","geometry":{"type":"Point","coordinates":[-81.379235,28.556374]}},{"properties":{"name":"Pan American Bank of Orlando, National Association","city":"Orlando","zip":"32802","assets":"$199,614,000","url":null,"street":"250 North Orange Avenue","id":"aeuwxalhlei6","geo_precision":"range","state":"Florida"},"type":"Feature","geometry":{"type":"Point","coordinates":[-81.379163,28.545132]}},{"properties":{"name":"Southeast National Bank of Orlando","city":"Orlando","zip":"32802","assets":"$187,625,000","url":null,"street":"201 East Pine Street","id":"aeuwxakm4f2g","geo_precision":"range","state":"Florida"},"type":"Feature","geometry":{"type":"Point","coordinates":[-81.37288,28.541314]}},{"properties":{"name":"American Pioneer Savings Bank","city":"Orlando","zip":"32803","assets":"$1,613,793,000","url":null,"street":"135 West Central Blvd Suite 700","id":"aeuwxadrmfz6","geo_precision":"street","state":"Florida"},"type":"Feature","geometry":{"type":"Point","coordinates":[-81.358162,28.542859]}},{"properties":{"name":"New Traditions National Bank","city":"Orlando","zip":"32803","assets":"$447,104,000","url":"http://www.ntbank.net:80/","street":"600 Wilkinson Street, Ste 100","id":"aeuwxadqc5go","geo_precision":"street","state":"Florida"},"type":"Feature","geometry":{"type":"Point","coordinates":[-81.372821,28.579047]}},{"properties":{"name":"United Heritage Bank","city":"Orlando","zip":"32804","assets":"$791,334,000","url":"http://www.uhb-fl.com:80/","street":"3378 Edgewater Drive","id":"aeuwxah0221n","geo_precision":"range","state":"Florida"},"type":"Feature","geometry":{"type":"Point","coordinates":[-81.389666,28.581319]}},{"properties":{"name":"First Commercial Bank of Florida","city":"Orlando","zip":"32806","assets":"$578,638,000","url":null,"street":"945 South Orange Avenue","id":"aeuwxafb1ck7","geo_precision":"range","state":"Florida"},"type":"Feature","geometry":{"type":"Point","coordinates":[-81.376431,28.530059]}},{"properties":{"name":"SunTrust BankCard, National Association","city":"Orlando","zip":"32809","assets":"$219,974,000","url":"http://www.suntrust.com:80/","street":"7455 Chancellor Drive","id":"aeuwxafc2zpo","geo_precision":"range","state":"Florida"},"type":"Feature","geometry":{"type":"Point","coordinates":[-81.412203,28.463917]}},{"properties":{"name":"Bank of Central Florida","city":"Orange County","zip":"32810","assets":"$247,515,000","url":"http://www.bankofcentralflorida.com:80/","street":"1401 Lee Road","id":"aeuwxa9m6x1a","geo_precision":"range","state":"Florida"},"type":"Feature","geometry":{"type":"Point","coordinates":[-81.402791,28.605833]}},{"properties":{"name":"Next Step Inc.","city":"Orlando","zip":"32811","assets":null,"url":"http://nextstepinc.com","street":"4630 S. Kirkman Rd Suite 612","id":"aeuwxaf0oyns","geo_precision":"street","state":"FL"},"type":"Feature","geometry":{"type":"Point","coordinates":[-81.458197,28.541517]}},{"properties":{"name":"Foreign Currency Exchange Corp","city":"ORLANDO","zip":"32819","assets":null,"url":null,"street":"5750 MAJOR BLVD STE 200","id":"aeuwxaij1yxo","geo_precision":"range","state":"FL"},"type":"Feature","geometry":{"type":"Point","coordinates":[-81.4597,28.477935]}},{"properties":{"name":"United Savings of America, FA","city":"Melbourne","zip":"32901","assets":"$327,158,000","url":null,"street":"502 East New Haven Avenue","id":"aeuwxa8ai6oo","geo_precision":"range","state":"Florida"},"type":"Feature","geometry":{"type":"Point","coordinates":[-80.612823,28.078611]}},{"properties":{"name":"The Bank Brevard","city":"Melbourne","zip":"32901","assets":"$207,831,000","url":null,"street":"300 South Harbor City Boulevard","id":"aeuwxag905ai","geo_precision":"range","state":"Florida"},"type":"Feature","geometry":{"type":"Point","coordinates":[-80.615708,28.104804]}},{"properties":{"name":"Fidelity Bank of Florida, National Association","city":"Merritt Island","zip":"32953","assets":"$333,805,000","url":null,"street":"1380 North Courtenay Parkway","id":"aeuwxabf425z","geo_precision":"range","state":"Florida"},"type":"Feature","geometry":{"type":"Point","coordinates":[-80.702605,28.382725]}},{"properties":{"name":"Northern Trust Bank of Vero Beach","city":"Vero Beach","zip":"32960","assets":"$199,068,000","url":null,"street":"755 Beachland Boulevard","id":"aeuwxa7c3fsn","geo_precision":"range","state":"Florida"},"type":"Feature","geometry":{"type":"Point","coordinates":[-80.359551,27.653469]}},{"properties":{"name":"Indian River National Bank Inc","city":"Vero Beach","zip":"32961","assets":"$698,195,000","url":null,"street":"958 20th Place","id":"aeuwxabte7ew","geo_precision":"range","state":"Florida"},"type":"Feature","geometry":{"type":"Point","coordinates":[-80.392347,27.638935]}},{"properties":{"name":"Caribank","city":"Dania","zip":"33004","assets":"$525,792,000","url":null,"street":"255 East Dania Beach Boulevard","id":"aeuwxadogy1o","geo_precision":"range","state":"Florida"},"type":"Feature","geometry":{"type":"Point","coordinates":[-80.138623,26.052634]}},{"properties":{"name":"Community Bank of Broward","city":"Dania Beach","zip":"33004","assets":"$464,010,000","url":"http://www.communitybankofbroward.com:80/","street":"1991 Stirling Road","id":"aeuwxaecfkxj","geo_precision":"range","state":"Florida"},"type":"Feature","geometry":{"type":"Point","coordinates":[-80.167478,26.048035]}},{"properties":{"name":"Bank of Hallandale and Trust Company","city":"Hallandale","zip":"33009","assets":"$293,365,000","url":null,"street":"801 East Beach Boulevard","id":"aeuwxamp630s","geo_precision":"street","state":"Florida"},"type":"Feature","geometry":{"type":"Point","coordinates":[-80.495291,25.02435]}},{"properties":{"name":"Family Bank","city":"Hallandale","zip":"33009","assets":"$253,659,000","url":null,"street":"1000 East Hallandale Beach Boulevard","id":"aeuwxaburu7r","geo_precision":"range","state":"Florida"},"type":"Feature","geometry":{"type":"Point","coordinates":[-80.136288,25.985861]}},{"properties":{"name":"Desjardins Bank, National Association","city":"Hallandale","zip":"33009","assets":"$200,106,000","url":"http://www.desjardinsbank.com:80/","street":"1001 East Hallandale Beach Boulevard","id":"aeuwxaj00uzo","geo_precision":"range","state":"Florida"},"type":"Feature","geometry":{"type":"Point","coordinates":[-80.136288,25.985861]}},{"properties":{"name":"Consolidated Bank, National Association","city":"Hialeah","zip":"33012","assets":"$529,609,000","url":null,"street":"900 West 49th Street","id":"aeuwxal7slex","geo_precision":"range","state":"Florida"},"type":"Feature","geometry":{"type":"Point","coordinates":[-80.301322,25.866569]}},{"properties":{"name":"Financial Federal Bank, F.S.B.","city":"Miami Lakes","zip":"33014","assets":"$649,746,000","url":null,"street":"6625 Miami Lakes Drive","id":"aeuwxaj6fnbl","geo_precision":"street","state":"Florida"},"type":"Feature","geometry":{"type":"Point","coordinates":[-80.30823,25.908701]}},{"properties":{"name":"BankUnited, National Association","city":"Miami Lakes","zip":"33016","assets":"$11,559,060,000","url":"http://www.bankunited.com:80/","street":"14817 Oak Lane","id":"aeuwxa8294vl","geo_precision":"range","state":"Florida"},"type":"Feature","geometry":{"type":"Point","coordinates":[-80.328878,25.908853]}},{"properties":{"name":"Kislak National Bank","city":"Miami Lakes","zip":"33016","assets":"$965,717,000","url":"http://www.bankonus.com:80/","street":"7900 Miami Lakes Drive West","id":"aeuwxa8oyj50","geo_precision":"range","state":"Florida"},"type":"Feature","geometry":{"type":"Point","coordinates":[-80.328183,25.913197]}},{"properties":{"name":"The Skylake State Bank","city":"HIALEAH","zip":"33016","assets":null,"url":null,"street":"7900 MIAMI LAKES DR W","id":"aeuwxaeog3vt","geo_precision":"range","state":"FL"},"type":"Feature","geometry":{"type":"Point","coordinates":[-80.328183,25.913197]}},{"properties":{"name":"Hollywood Federal Bank, A Federal Savings Bank","city":"Hollywood","zip":"33020","assets":"$1,525,465,000","url":null,"street":"1909 Tyler St","id":"aeuwxaev6iwy","geo_precision":"range","state":"Florida"},"type":"Feature","geometry":{"type":"Point","coordinates":[-80.146852,26.012481]}},{"properties":{"name":"Hollywood Federal Savings Bank","city":"Hollywood","zip":"33020","assets":"$347,554,000","url":null,"street":"1909 Tyler Street","id":"aeuwxajx7ouv","geo_precision":"range","state":"Florida"},"type":"Feature","geometry":{"type":"Point","coordinates":[-80.146852,26.012481]}},{"properties":{"name":"Suncoast Savings and Loan Association, FSA","city":"Hollywood","zip":"33021","assets":"$409,427,000","url":null,"street":"4350 Sheridan Street","id":"aeuwxajafnr1","geo_precision":"range","state":"Florida"},"type":"Feature","geometry":{"type":"Point","coordinates":[-80.186726,26.032752]}},{"properties":{"name":"American Bank of Hollywood","city":"Hollywood","zip":"33021","assets":"$274,823,000","url":null,"street":"6600 Taft Street","id":"aeuwxamz8g22","geo_precision":"street","state":"Florida"},"type":"Feature","geometry":{"type":"Point","coordinates":[-80.206764,26.024938]}},{"properties":{"name":"Flagship National Bank of Broward County","city":"Hollywood","zip":"33022","assets":"$179,685,000","url":null,"street":"2001 Hollywood Boulevard","id":"aeuwxamrx1vf","geo_precision":"range","state":"Florida"},"type":"Feature","geometry":{"type":"Point","coordinates":[-80.148823,26.01144]}},{"properties":{"name":"Atlantic National Bank of Broward","city":"Hollywood","zip":"33023","assets":"$197,794,000","url":null,"street":"6015 Washington Street","id":"aeuwxai3v5q3","geo_precision":"range","state":"Florida"},"type":"Feature","geometry":{"type":"Point","coordinates":[-80.209134,26.002714]}},{"properties":{"name":"1st National Bank of South Florida","city":"Homestead","zip":"33030","assets":"$307,992,000","url":"http://www.1stnatbank.com:80/","street":"1550 North Krome Avenue","id":"aeuwxabo0h55","geo_precision":"range","state":"Florida"},"type":"Feature","geometry":{"type":"Point","coordinates":[-80.475971,25.484923]}},{"properties":{"name":"Community Bank of Florida, Inc","city":"Homestead","zip":"33033","assets":"$526,275,000","url":"http://www.communitybankfl.com:80/","street":"28801 S.W. 157th Avenue","id":"aeuwxaduum5g","geo_precision":"street","state":"Florida"},"type":"Feature","geometry":{"type":"Point","coordinates":[-80.446002,25.496554]}},{"properties":{"name":"FIRST STATE BANK OF THE FLORIDA KEYS","city":"Key West","zip":"33040","assets":"$888,263,000","url":"http://www.keysbank.com:80/","street":"1201 Simonton Street","id":"aeuwxa9x56f3","geo_precision":"range","state":"Florida"},"type":"Feature","geometry":{"type":"Point","coordinates":[-81.796545,24.550055]}},{"properties":{"name":"First State Bank of the FL Keys","city":"KEY WEST","zip":"33040","assets":"$814,520,000","url":null,"street":"1201 SIMONTON ST","id":"aeuwxaab8h4a","geo_precision":"range","state":"FL"},"type":"Feature","geometry":{"type":"Point","coordinates":[-81.796545,24.550055]}},{"properties":{"name":"Barnett Bank of the Keys","city":"Key West","zip":"33040","assets":"$335,577,000","url":null,"street":"1010 Kennedy Drive","id":"aeuwxai803fc","geo_precision":"range","state":"Florida"},"type":"Feature","geometry":{"type":"Point","coordinates":[-81.76749,24.565647]}},{"properties":{"name":"The Citizens and Southern Bank of Monroe County","city":"Marathon","zip":"33050","assets":"$227,159,000","url":null,"street":"Main Street","id":"aeuwxah3nuor","geo_precision":"street","state":"Florida"},"type":"Feature","geometry":{"type":"Point","coordinates":[-80.212978,26.00507]}},{"properties":{"name":"Florida Coast Bank","city":"Pompano Beach","zip":"33061","assets":"$590,999,000","url":null,"street":"1101 East Atlantic Boulevard","id":"aeuwxai4y394","geo_precision":"range","state":"Florida"},"type":"Feature","geometry":{"type":"Point","coordinates":[-80.111609,26.231738]}},{"properties":{"name":"The First Bankers, N.A.","city":"Pompano Beach","zip":"33061","assets":"$453,858,000","url":null,"street":"2400 East Atlantic Boulevard","id":"aeuwxaeodfyj","geo_precision":"range","state":"Florida"},"type":"Feature","geometry":{"type":"Point","coordinates":[-80.099021,26.231872]}},{"properties":{"name":"Florida Shores Bank - Southeast","city":"Pompano Beach","zip":"33062","assets":"$186,724,000","url":"http://www.floridashoresbank.com:80/","street":"400 North Federal Highway","id":"aeuwxa9kbrq7","geo_precision":"range","state":"Florida"},"type":"Feature","geometry":{"type":"Point","coordinates":[-80.102884,26.237263]}},{"properties":{"name":"Commonwealth Savings and Loan Association","city":"Margate","zip":"33063","assets":"$1,576,500,000","url":null,"street":"1200 N S Road #7","id":"aeuwxaaztsf9","geo_precision":"range","state":"Florida"},"type":"Feature","geometry":{"type":"Point","coordinates":[-80.204794,26.230471]}},{"properties":{"name":"Commonwealth Federal Savings and Loan Association","city":"Margate","zip":"33063","assets":"$759,654,000","url":null,"street":"1200 N S Road #7","id":"aeuwxain4c7w","geo_precision":"range","state":"Florida"},"type":"Feature","geometry":{"type":"Point","coordinates":[-80.204794,26.230471]}},{"properties":{"name":"City National Bank of Florida","city":"Miami","zip":"33101","assets":"$4,208,624,000","url":"http://www.citynational.com:80/","street":"25 West Flagler Street","id":"aeuwxagk6q94","geo_precision":"range","state":"Florida"},"type":"Feature","geometry":{"type":"Point","coordinates":[-80.1942,25.774205]}},{"properties":{"name":"Pan American Bank, National Association","city":"Miami","zip":"33101","assets":"$1,509,321,000","url":null,"street":"250 South East 1st Street","id":"aeuwxaebfoyg","geo_precision":"range","state":"Florida"},"type":"Feature","geometry":{"type":"Point","coordinates":[-80.189522,25.773345]}},{"properties":{"name":"Florida National Bank of Miami","city":"Miami","zip":"33101","assets":"$665,402,000","url":null,"street":"169 East Flagler Street","id":"aeuwxaae6114","geo_precision":"range","state":"Florida"},"type":"Feature","geometry":{"type":"Point","coordinates":[-80.191309,25.774278]}},{"properties":{"name":"City National Bank of Miami","city":"Miami","zip":"33101","assets":"$485,771,000","url":null,"street":"25 West Flagler Street","id":"aeuwxaclvj3k","geo_precision":"range","state":"Florida"},"type":"Feature","geometry":{"type":"Point","coordinates":[-80.1942,25.774205]}},{"properties":{"name":"The Bank of Miami","city":"Miami","zip":"33101","assets":"$357,468,000","url":null,"street":"110 East Flagler Street","id":"aeuwxa9pivsk","geo_precision":"range","state":"Florida"},"type":"Feature","geometry":{"type":"Point","coordinates":[-80.190423,25.774164]}},{"properties":{"name":"Pan American Bank of Miami","city":"Miami","zip":"33101","assets":"$210,076,000","url":null,"street":"250 South East 1st Street","id":"aeuwxaj4qeim","geo_precision":"range","state":"Florida"},"type":"Feature","geometry":{"type":"Point","coordinates":[-80.189522,25.773345]}},{"properties":{"name":"JGB BANK, NATIONAL ASSOCIATION","city":"Doral","zip":"33122","assets":"$410,656,000","url":"http://www.jgbbank.com:80/","street":"8200 Northwest 33rd Street","id":"aeuwxabg7fa7","geo_precision":"range","state":"Florida"},"type":"Feature","geometry":{"type":"Point","coordinates":[-80.331206,25.804381]}},{"properties":{"name":"Eastern National Bank","city":"Miami","zip":"33122","assets":"$384,760,000","url":"http://www.enbfl.com:80/","street":"799 Brickell Avenue","id":"aeuwxajtbv9c","geo_precision":"zip","state":"Florida"},"type":"Feature","geometry":{"type":"Point","coordinates":[-80.319002,25.799306]}},{"properties":{"name":"FirstBank Florida","city":"Miami","zip":"33126","assets":"$936,417,000","url":null,"street":"701 Waterford Way, Bldg. 1, Suite 800","id":"aeuwxa83pths","geo_precision":"zip","state":"Florida"},"type":"Feature","geometry":{"type":"Point","coordinates":[-80.294302,25.786724]}},{"properties":{"name":"Premier American Bank","city":"Miami","zip":"33126","assets":"$299,225,000","url":null,"street":"5301 Blue Lagoon Drive, Suite 200","id":"aeuwxahpidmp","geo_precision":"street","state":"Florida"},"type":"Feature","geometry":{"type":"Point","coordinates":[-80.289929,25.782099]}},{"properties":{"name":"Apollo Bank","city":"Miami","zip":"33130","assets":"$214,187,000","url":"http://www.apollobank.com:80/","street":"1150 South Miami Avenue","id":"aeuwxaiqqdj9","geo_precision":"range","state":"Florida"},"type":"Feature","geometry":{"type":"Point","coordinates":[-80.193262,25.762965]}},{"properties":{"name":"Mellon United National Bank","city":"MIAMI","zip":"33130","assets":null,"url":null,"street":"1399 SW 1ST AVE","id":"aeuwxac5006j","geo_precision":"range","state":"FL"},"type":"Feature","geometry":{"type":"Point","coordinates":[-80.195073,25.760631]}},{"properties":{"name":"City National Bancshares, Inc.","city":"MIAMI","zip":"33130","assets":null,"url":null,"street":"25 W FLAGLER ST","id":"aeuwxa9de5an","geo_precision":"range","state":"FL"},"type":"Feature","geometry":{"type":"Point","coordinates":[-80.1942,25.774205]}},{"properties":{"name":"Northern Trust, National Association","city":"Miami","zip":"33131","assets":"$16,103,864,000","url":null,"street":"700 Brickell Avenue","id":"aeuwxaaa966p","geo_precision":"zip","state":"Florida"},"type":"Feature","geometry":{"type":"Point","coordinates":[-80.252552,25.378169]}},{"properties":{"name":"Southeast Bank, National Association","city":"Miami","zip":"33131","assets":"$11,026,691,000","url":null,"street":"One Southeast Financial Center","id":"aeuwxai5ui26","geo_precision":"street","state":"Florida"},"type":"Feature","geometry":{"type":"Point","coordinates":[-80.191925,25.774185]}},{"properties":{"name":"Centrust Bank, A State Savings Bank","city":"Miami","zip":"33131","assets":"$8,217,563,000","url":null,"street":"101 East Flagler Street","id":"aeuwxakjdsc2","geo_precision":"range","state":"Florida"},"type":"Feature","geometry":{"type":"Point","coordinates":[-80.190274,25.774245]}},{"properties":{"name":"CenTrust Federal Savings Bank","city":"Miami","zip":"33131","assets":"$6,643,940,000","url":null,"street":"101 East Flagler Street","id":"aeuwxaea4xzl","geo_precision":"range","state":"Florida"},"type":"Feature","geometry":{"type":"Point","coordinates":[-80.190274,25.774245]}},{"properties":{"name":"Barnett Bank of South Florida, National Association","city":"Miami","zip":"33131","assets":"$4,940,015,000","url":null,"street":"701 Brickell Avenue","id":"aeuwxai79l0i","geo_precision":"zip","state":"Florida"},"type":"Feature","geometry":{"type":"Point","coordinates":[-80.252552,25.378169]}},{"properties":{"name":"Citizens Federal Bank, A FSB","city":"Miami","zip":"33131","assets":"$4,739,805,000","url":null,"street":"1221 Brickell Avenue","id":"aeuwxajrsa8o","geo_precision":"zip","state":"Florida"},"type":"Feature","geometry":{"type":"Point","coordinates":[-80.252552,25.378169]}},{"properties":{"name":"Suntrust Bank, Miami, National Association","city":"Miami","zip":"33131","assets":"$4,488,945,000","url":null,"street":"777 Brickell Avenue","id":"aeuwxacf2cgh","geo_precision":"zip","state":"Florida"},"type":"Feature","geometry":{"type":"Point","coordinates":[-80.252552,25.378169]}},{"properties":{"name":"Sabadell United Bank, National Association","city":"Miami","zip":"33131","assets":"$3,665,639,000","url":"http://www.sabadellunited.com:80/","street":"1111 Brickell Avenue","id":"aeuwxa8lkxii","geo_precision":"zip","state":"Florida"},"type":"Feature","geometry":{"type":"Point","coordinates":[-80.252552,25.378169]}},{"properties":{"name":"Amerifirst Bank, A FSB","city":"Miami","zip":"33131","assets":"$3,575,040,000","url":null,"street":"One S E Third Avenue","id":"aeuwxak42asz","geo_precision":"street","state":"Florida"},"type":"Feature","geometry":{"type":"Point","coordinates":[-80.18898,25.77426]}},{"properties":{"name":"AmeriFirst Federal Savings Bank","city":"Miami","zip":"33131","assets":"$2,351,799,000","url":null,"street":"One S.E. Third Avenue","id":"aeuwxalpgall","geo_precision":"street","state":"Florida"},"type":"Feature","geometry":{"type":"Point","coordinates":[-80.190112,25.7717]}},{"properties":{"name":"Union Planters Bank of Florida","city":"Miami","zip":"33131","assets":"$2,160,518,000","url":null,"street":"1221 Brickell Avenue","id":"aeuwxagyhhea","geo_precision":"zip","state":"Florida"},"type":"Feature","geometry":{"type":"Point","coordinates":[-80.252552,25.378169]}},{"properties":{"name":"Intercontinental Bank, National Association","city":"Miami","zip":"33131","assets":"$1,155,554,000","url":null,"street":"200 S.E. First Street, Suite 1001","id":"aeuwxacunir3","geo_precision":"street","state":"Florida"},"type":"Feature","geometry":{"type":"Point","coordinates":[-80.187109,25.773559]}},{"properties":{"name":"Helm Bank USA","city":"Miami","zip":"33131","assets":"$889,802,000","url":"http://www.helmbankusa.com:80/","street":"999 Brickell Avenue","id":"aeuwxaj6riux","geo_precision":"zip","state":"Florida"},"type":"Feature","geometry":{"type":"Point","coordinates":[-80.252552,25.378169]}},{"properties":{"name":"Espirito Santo Bank","city":"Miami","zip":"33131","assets":"$588,024,000","url":"http://www.esbf.com:80/","street":"1395 Brickell Avenue","id":"aeuwxa7ipck5","geo_precision":"zip","state":"Florida"},"type":"Feature","geometry":{"type":"Point","coordinates":[-80.252552,25.378169]}},{"properties":{"name":"Transatlantic Bank","city":"Miami","zip":"33131","assets":"$532,013,000","url":null,"street":"48 East Flagler Street","id":"aeuwxadgd3nb","geo_precision":"range","state":"Florida"},"type":"Feature","geometry":{"type":"Point","coordinates":[-80.192655,25.774086]}},{"properties":{"name":"Sun Bank of Miami","city":"Miami","zip":"33131","assets":"$447,919,000","url":null,"street":"777 Brickell Avenue","id":"aeuwxamkxv3s","geo_precision":"zip","state":"Florida"},"type":"Feature","geometry":{"type":"Point","coordinates":[-80.252552,25.378169]}},{"properties":{"name":"Pinebank, National Association","city":"Miami","zip":"33131","assets":"$412,653,000","url":"http://www.pinebank.com:80/","street":"1001 Brickle Bay Drive","id":"aeuwxajj2fex","geo_precision":"range","state":"Florida"},"type":"Feature","geometry":{"type":"Point","coordinates":[-80.128336,25.853163]}},{"properties":{"name":"International Finance Bank","city":"Miami","zip":"33131","assets":"$367,666,000","url":"http://www.intlfinancebank.com:80/","street":"801 Brickell Avenue, Suite 2400","id":"aeuwxa9sfgdm","geo_precision":"zip","state":"Florida"},"type":"Feature","geometry":{"type":"Point","coordinates":[-80.252552,25.378169]}},{"properties":{"name":"Intercredit Bank, National Association","city":"Miami","zip":"33131","assets":"$281,684,000","url":"http://www.intercrbank.com:80/","street":"1200 Brickell Avenue, 4th Floor","id":"aeuwxab8j33l","geo_precision":"street","state":"Florida"},"type":"Feature","geometry":{"type":"Point","coordinates":[-80.193439,25.771251]}},{"properties":{"name":"Atico Savings Bank","city":"Miami","zip":"33131","assets":"$280,669,000","url":null,"street":"101 S E Second Avenue","id":"aeuwxan7dn0x","geo_precision":"range","state":"Florida"},"type":"Feature","geometry":{"type":"Point","coordinates":[-80.190187,25.772609]}},{"properties":{"name":"Skylake National Bank","city":"Miami","zip":"33131","assets":"$187,187,000","url":null,"street":"801 Brickell Avenue, Suite 2300","id":"aeuwxaaxdank","geo_precision":"zip","state":"Florida"},"type":"Feature","geometry":{"type":"Point","coordinates":[-80.252552,25.378169]}},{"properties":{"name":"Allied Cash Holdings LLC","city":"MIAMI","zip":"33131","assets":null,"url":null,"street":"200 SE 1ST ST STE 800","id":"aeuwxaewey9j","geo_precision":"range","state":"FL"},"type":"Feature","geometry":{"type":"Point","coordinates":[-80.188964,25.773439]}},{"properties":{"name":"Intercredit Bank, NA","city":"MIAMI","zip":"33131","assets":null,"url":null,"street":"1200 BRICKELL AVE FL 4","id":"aeuwxah2us0e","geo_precision":"street","state":"FL"},"type":"Feature","geometry":{"type":"Point","coordinates":[-80.191892,25.771368]}},{"properties":{"name":"Banco Bilbao Vizcaya Argentaria, S.A.","city":"MIAMI","zip":"33131","assets":null,"url":null,"street":"2 S BISCAYNE BLVD # 3301","id":"aeuwxamqk8nt","geo_precision":"street","state":"FL"},"type":"Feature","geometry":{"type":"Point","coordinates":[-80.187282,25.771338]}},{"properties":{"name":"Banco Santander International","city":"MIAMI","zip":"33131","assets":null,"url":"http://www.pb-santander.com","street":"1401 BRICKELL AVE # 1500","id":"aeuwxa7b8gqc","geo_precision":"zip","state":"FL"},"type":"Feature","geometry":{"type":"Point","coordinates":[-80.252552,25.378169]}},{"properties":{"name":"Northern Trust Bank of Florida, National Association","city":"MIAMI","zip":"33131","assets":null,"url":null,"street":"700 BRICKELL AVE","id":"aeuwxa8bvf8c","geo_precision":"zip","state":"FL"},"type":"Feature","geometry":{"type":"Point","coordinates":[-80.252552,25.378169]}},{"properties":{"name":"The Bank of New York Trust Company N A","city":"MIAMI","zip":"33131","assets":null,"url":null,"street":"800 BRICKELL AVE STE 300","id":"aeuwxa75tmvh","geo_precision":"zip","state":"FL"},"type":"Feature","geometry":{"type":"Point","coordinates":[-80.252552,25.378169]}},{"properties":{"name":"New Biscayne Federal Savings and Loan Association","city":"Miami","zip":"33132","assets":"$2,082,042,000","url":null,"street":"1776-90 Biscayne Blvd","id":"aeuwxanbwafv","geo_precision":"range","state":"Florida"},"type":"Feature","geometry":{"type":"Point","coordinates":[-80.189055,25.792907]}},{"properties":{"name":"Flagler Federal Savings and Loan Association","city":"Miami","zip":"33132","assets":"$1,601,277,000","url":null,"street":"101 N E 1st Avenue","id":"aeuwxakibtdh","geo_precision":"range","state":"Florida"},"type":"Feature","geometry":{"type":"Point","coordinates":[-80.192017,25.77613]}},{"properties":{"name":"SafraBank National Association","city":"Miami","zip":"33132","assets":"$291,371,000","url":null,"street":"120 North Biscayne Boulevard","id":"aeuwxahrbysi","geo_precision":"range","state":"Florida"},"type":"Feature","geometry":{"type":"Point","coordinates":[-80.18757,25.776037]}},{"properties":{"name":"Safrabank","city":"Miami","zip":"33132","assets":"$218,260,000","url":null,"street":"120 North Biscayne Boulevard","id":"aeuwxak546iu","geo_precision":"range","state":"Florida"},"type":"Feature","geometry":{"type":"Point","coordinates":[-80.18757,25.776037]}},{"properties":{"name":"Coconut Grove Bank","city":"Miami","zip":"33133","assets":"$619,694,000","url":"http://www.coconutgrovebank.com:80/","street":"2701 South Bayshore Drive","id":"aeuwxaf1z2s4","geo_precision":"range","state":"Florida"},"type":"Feature","geometry":{"type":"Point","coordinates":[-80.238393,25.727895]}},{"properties":{"name":"Biscayne Bank","city":"Miami","zip":"33133","assets":"$231,174,000","url":"http://www.biscaynebank.com:80/","street":"3121 Commodore Plaza, Third Floor","id":"aeuwxa9j7fq7","geo_precision":"street","state":"Florida"},"type":"Feature","geometry":{"type":"Point","coordinates":[-80.243746,25.72672]}},{"properties":{"name":"Grove Coconut Bank","city":"MIAMI","zip":"33133","assets":null,"url":null,"street":"2701 S BAYSHORE DR FL 2","id":"aeuwxagk8hq1","geo_precision":"range","state":"FL"},"type":"Feature","geometry":{"type":"Point","coordinates":[-80.238393,25.727895]}},{"properties":{"name":"BankUnited, FSB","city":"Coral Gables","zip":"33134","assets":"$13,111,463,000","url":null,"street":"255 Alhambra Circle","id":"aeuwxac64zr6","geo_precision":"range","state":"Florida"},"type":"Feature","geometry":{"type":"Point","coordinates":[-80.259766,25.752143]}},{"properties":{"name":"MERCANTIL COMMERCEBANK, NATIONAL ASSOCIATION","city":"Coral Gables","zip":"33134","assets":"$6,816,254,000","url":"http://www.mercantilcb.com:80/","street":"220 Alhambra Circle - 12th Floor","id":"aeuwxaj12c9h","geo_precision":"street","state":"Florida"},"type":"Feature","geometry":{"type":"Point","coordinates":[-80.265194,25.760704]}},{"properties":{"name":"Coral Gables Federal Savings and Loan Association","city":"Coral Gables","zip":"33134","assets":"$2,524,086,000","url":null,"street":"2511 Ponce De Leon Boulevard","id":"aeuwxa80qvgn","geo_precision":"range","state":"Florida"},"type":"Feature","geometry":{"type":"Point","coordinates":[-80.258497,25.747952]}},{"properties":{"name":"Gibraltar Private Bank &amp; Trust Co.","city":"Coral Gables","zip":"33134","assets":"$1,630,299,000","url":"http://www.gibraltarprivate.com:80/","street":"220 Alhambra Circle, Fifth Floor","id":"aeuwxaldtvzt","geo_precision":"street","state":"Florida"},"type":"Feature","geometry":{"type":"Point","coordinates":[-80.260928,25.766672]}},{"properties":{"name":"Great Florida Bank","city":"Coral Gables","zip":"33134","assets":"$1,266,562,000","url":"http://www.greatfloridabank.com:80/","street":"150 Alahambra Circle, Suite 120","id":"aeuwxa7qbcm5","geo_precision":"street","state":"Florida"},"type":"Feature","geometry":{"type":"Point","coordinates":[-80.254706,25.752443]}},{"properties":{"name":"BAC Florida Bank","city":"Coral Gables","zip":"33134","assets":"$1,180,034,000","url":"http://www.bacflorida.com:80/","street":"169 Miracle Mile, Suite R10","id":"aeuwxa79jp25","geo_precision":"street","state":"Florida"},"type":"Feature","geometry":{"type":"Point","coordinates":[-80.133844,25.856945]}},{"properties":{"name":"Banesco USA","city":"Coral Gables","zip":"33134","assets":"$514,138,000","url":null,"street":"150 Alhambra Circle, Suite 100","id":"aeuwxalx9yd7","geo_precision":"street","state":"Florida"},"type":"Feature","geometry":{"type":"Point","coordinates":[-80.254706,25.752443]}},{"properties":{"name":"The Bank of Miami, National Association","city":"Coral Gables","zip":"33134","assets":"$448,150,000","url":null,"street":"121 Alhambra Plaza","id":"aeuwxacq33c8","geo_precision":"range","state":"Florida"},"type":"Feature","geometry":{"type":"Point","coordinates":[-80.256938,25.752341]}},{"properties":{"name":"Professional Federal Savings Bank","city":"Coral Gables","zip":"33134","assets":"$262,429,000","url":null,"street":"3001 Ponce De Leon Boulevard","id":"aeuwxagfmzu3","geo_precision":"range","state":"Florida"},"type":"Feature","geometry":{"type":"Point","coordinates":[-80.258415,25.74412]}},{"properties":{"name":"First Bank of Miami","city":"Coral Gables","zip":"33134","assets":"$247,768,000","url":"http://www.firstbankmiami.com:80/","street":"255 Aragon Avenue","id":"aeuwxamdiamo","geo_precision":"range","state":"Florida"},"type":"Feature","geometry":{"type":"Point","coordinates":[-80.259724,25.750501]}},{"properties":{"name":"Flagship First National Bank of Coral Gables","city":"Coral Gables","zip":"33134","assets":"$224,121,000","url":null,"street":"100 Miracle Mile","id":"aeuwxab8mwmt","geo_precision":"street","state":"Florida"},"type":"Feature","geometry":{"type":"Point","coordinates":[-80.269202,25.713852]}},{"properties":{"name":"Professional Savings Bank","city":"Coral Gables","zip":"33134","assets":"$222,048,000","url":null,"street":"3001 Ponce De Leon Boulevard","id":"aeuwxacxtbr8","geo_precision":"range","state":"Florida"},"type":"Feature","geometry":{"type":"Point","coordinates":[-80.258415,25.74412]}},{"properties":{"name":"Marquis Bank","city":"Coral Gables","zip":"33134","assets":"$183,873,000","url":"http://www.marquisbank.com:80/","street":"355 Alhambra Circle, Suite 125","id":"aeuwxandqzxn","geo_precision":"street","state":"Florida"},"type":"Feature","geometry":{"type":"Point","coordinates":[-80.254706,25.752443]}},{"properties":{"name":"Gibraltar Private Bank","city":"CORAL GABLES","zip":"33134","assets":null,"url":null,"street":"220 ALHAMBRA CIR FL 5","id":"aeuwxae9efyr","geo_precision":"range","state":"FL"},"type":"Feature","geometry":{"type":"Point","coordinates":[-80.260393,25.751936]}},{"properties":{"name":"International Bank of Miami Na, The (inc)","city":"MIAMI","zip":"33134","assets":null,"url":null,"street":"121 ALHAMBRA PLZ 2","id":"aeuwxakf8toq","geo_precision":"range","state":"FL"},"type":"Feature","geometry":{"type":"Point","coordinates":[-80.256938,25.752341]}},{"properties":{"name":"Bankboston International","city":"CORAL GABLES","zip":"33134","assets":null,"url":null,"street":"55 ALHAMBRA PLZ STE 800","id":"aeuwxacjtd8t","geo_precision":"range","state":"FL"},"type":"Feature","geometry":{"type":"Point","coordinates":[-80.255762,25.75244]}},{"properties":{"name":"BankUnited Financial Corporation","city":"Coral Gables","zip":"33134","assets":null,"url":"http://www.bankunited.com/","street":"255 Alhambra Circle","id":"aeuwxamhcacf","geo_precision":"range","state":"FL"},"type":"Feature","geometry":{"type":"Point","coordinates":[-80.259766,25.752143]}},{"properties":{"name":"Bankunited Savings Bank","city":"CORAL GABLES","zip":"33134","assets":null,"url":null,"street":"255 ALHAMBRA CIR STE 720","id":"aeuwxaa4vsmo","geo_precision":"range","state":"FL"},"type":"Feature","geometry":{"type":"Point","coordinates":[-80.259766,25.752143]}},{"properties":{"name":"Commercebank Holding Corporation","city":"CORAL GABLES","zip":"33134","assets":null,"url":null,"street":"220 ALHAMBRA CIR","id":"aeuwxa9d1gss","geo_precision":"range","state":"FL"},"type":"Feature","geometry":{"type":"Point","coordinates":[-80.260393,25.751936]}},{"properties":{"name":"General Bank, A Federal Savings Bank","city":"Miami","zip":"33135","assets":"$355,501,000","url":null,"street":"3099 S W 8th Street","id":"aeuwxa7f3o35","geo_precision":"range","state":"Florida"},"type":"Feature","geometry":{"type":"Point","coordinates":[-80.244755,25.764993]}},{"properties":{"name":"Royal Trust Bank, National Association","city":"Miami","zip":"33135","assets":"$325,867,000","url":null,"street":"627 S.W. 27th Avenue","id":"aeuwxal9dxwa","geo_precision":"street","state":"Florida"},"type":"Feature","geometry":{"type":"Point","coordinates":[-80.239086,25.771335]}},{"properties":{"name":"Continental National Bank of Miami Inc","city":"Miami","zip":"33135","assets":"$311,822,000","url":"http://www.continentalbank.com:80/","street":"1801 S.W. 1st Street","id":"aeuwxa9qncvw","geo_precision":"street","state":"Florida"},"type":"Feature","geometry":{"type":"Point","coordinates":[-80.214641,25.772523]}},{"properties":{"name":"General Federal Savings Bank","city":"Miami","zip":"33135","assets":"$240,777,000","url":null,"street":"3099 S.W. Eighth Street","id":"aeuwxahdvyg4","geo_precision":"street","state":"Florida"},"type":"Feature","geometry":{"type":"Point","coordinates":[-80.197422,25.766282]}},{"properties":{"name":"The First State Bank of Miami","city":"Miami","zip":"33138","assets":"$440,206,000","url":null,"street":"7900 N.E. 2nd Avenue","id":"aeuwxa9gvsy1","geo_precision":"street","state":"Florida"},"type":"Feature","geometry":{"type":"Point","coordinates":[-80.191428,25.836464]}},{"properties":{"name":"Jefferson Bank of Florida","city":"Miami Beach","zip":"33140","assets":"$471,035,000","url":null,"street":"301 Arthur Godfrey Road","id":"aeuwxalvkeif","geo_precision":"street","state":"Florida"},"type":"Feature","geometry":{"type":"Point","coordinates":[-80.129244,25.813834]}},{"properties":{"name":"Central Bank and Trust Company","city":"Miami","zip":"33142","assets":"$176,765,000","url":"http://www.centralbank-kansas.com:80/","street":"1313 Northwest 36th Street","id":"aeuwxal7wr6x","geo_precision":"range","state":"Florida"},"type":"Feature","geometry":{"type":"Point","coordinates":[-80.218573,25.809799]}},{"properties":{"name":"The First National Bank of South Miami","city":"South Miami","zip":"33143","assets":"$411,394,000","url":"http://www.fnbsm.com:80/","street":"5750 Sunset Drive","id":"aeuwxagyh1il","geo_precision":"street","state":"Florida"},"type":"Feature","geometry":{"type":"Point","coordinates":[-80.328226,25.70619]}},{"properties":{"name":"Republic National Bank of Miami","city":"Miami","zip":"33144","assets":"$1,513,652,000","url":null,"street":"10 N. W. 42nd Avenue","id":"aeuwxadw3eqg","geo_precision":"street","state":"Florida"},"type":"Feature","geometry":{"type":"Point","coordinates":[-80.122048,25.813667]}},{"properties":{"name":"Commercial Bank of Florida","city":"Miami","zip":"33144","assets":"$1,031,678,000","url":"http://www.commercialbankfl.com:80/","street":"1550 S.W. 57th Avenue","id":"aeuwxai9b7ns","geo_precision":"street","state":"Florida"},"type":"Feature","geometry":{"type":"Point","coordinates":[-80.288738,25.757165]}},{"properties":{"name":"Totalbank","city":"Miami","zip":"33145","assets":"$2,307,638,000","url":"http://www.totalbank.com:80/","street":"2720 Coral Way","id":"aeuwxa948ucg","geo_precision":"street","state":"Florida"},"type":"Feature","geometry":{"type":"Point","coordinates":[-80.212876,25.751113]}},{"properties":{"name":"Terrabank, National Association","city":"Miami","zip":"33145","assets":"$270,065,000","url":"http://www.terrabank.com:80/","street":"3191 Coral Way","id":"aeuwxaid6s6s","geo_precision":"street","state":"Florida"},"type":"Feature","geometry":{"type":"Point","coordinates":[-80.212876,25.751113]}},{"properties":{"name":"Chase Federal Bank, a Federal Savings Bank","city":"Miami","zip":"33156","assets":"$2,811,384,000","url":null,"street":"7300 North Kendall","id":"aeuwxakas74r","geo_precision":"range","state":"Florida"},"type":"Feature","geometry":{"type":"Point","coordinates":[-80.311721,25.688697]}},{"properties":{"name":"Metro Bank of Dade County","city":"Miami","zip":"33156","assets":"$399,441,000","url":null,"street":"9350 South Dixie Highway","id":"aeuwxafqq47j","geo_precision":"zip","state":"Florida"},"type":"Feature","geometry":{"type":"Point","coordinates":[-80.368943,25.631494]}},{"properties":{"name":"Intermex Wire Transfers, Inc.","city":"MIAMI","zip":"33156","assets":null,"url":null,"street":"9480 S DIXIE HWY","id":"aeuwxal8x7l9","geo_precision":"zip","state":"FL"},"type":"Feature","geometry":{"type":"Point","coordinates":[-80.368943,25.631494]}},{"properties":{"name":"County National Bank of South Florida","city":"North Miami Beach","zip":"33162","assets":"$252,551,000","url":null,"street":"801 N.E. 167th Street","id":"aeuwxaf8jf3q","geo_precision":"street","state":"Florida"},"type":"Feature","geometry":{"type":"Point","coordinates":[-80.194305,25.928326]}},{"properties":{"name":"Interamerican Bank, A FSB","city":"Miami","zip":"33165","assets":"$247,193,000","url":"http://www.interamericanbank.com:80/","street":"9190 Coral Way","id":"aeuwxadfvwp5","geo_precision":"street","state":"Florida"},"type":"Feature","geometry":{"type":"Point","coordinates":[-80.330739,25.747546]}},{"properties":{"name":"Republic Federal Bank, National Association","city":"Miami","zip":"33166","assets":"$433,011,000","url":null,"street":"8600 Nw 36th Street, Suite 800","id":"aeuwxaecjjqj","geo_precision":"street","state":"Florida"},"type":"Feature","geometry":{"type":"Point","coordinates":[-80.266567,25.808322]}},{"properties":{"name":"American Savings of Florida, F.S.B.","city":"Miami","zip":"33169","assets":"$3,284,425,000","url":null,"street":"17801 Nw Second Avenue","id":"aeuwxa8acm67","geo_precision":"range","state":"Florida"},"type":"Feature","geometry":{"type":"Point","coordinates":[-80.204866,25.938017]}},{"properties":{"name":"Lincoln Savings and Loan Association","city":"Miami","zip":"33169","assets":"$209,562,000","url":null,"street":"18405 N W Second Avenue","id":"aeuwxa9vxn7g","geo_precision":"range","state":"Florida"},"type":"Feature","geometry":{"type":"Point","coordinates":[-80.205221,25.945226]}},{"properties":{"name":"U. S. Century Bank","city":"Doral","zip":"33172","assets":"$1,356,033,000","url":"http://www.uscentury.com:80/","street":"2301 Nw 87th Avenue","id":"aeuwxa9epgkf","geo_precision":"range","state":"Florida"},"type":"Feature","geometry":{"type":"Point","coordinates":[-80.336829,25.794406]}},{"properties":{"name":"Executive National Bank","city":"Miami","zip":"33176","assets":"$284,567,000","url":"http://www.executivebank.com:80/","street":"9600 North Kendall Drive","id":"aeuwxafzaz3g","geo_precision":"range","state":"Florida"},"type":"Feature","geometry":{"type":"Point","coordinates":[-80.349588,25.687443]}},{"properties":{"name":"Executive Banking Corporation","city":"MIAMI","zip":"33176","assets":null,"url":null,"street":"9600 N KENDALL DR","id":"aeuwxait6jpz","geo_precision":"range","state":"FL"},"type":"Feature","geometry":{"type":"Point","coordinates":[-80.349588,25.687443]}},{"properties":{"name":"Hamilton Bank, National Association","city":"Miami","zip":"33178","assets":"$1,409,496,000","url":null,"street":"3750 N.W. 87th Avenue, Suite 700","id":"aeuwxammxhcf","geo_precision":"street","state":"Florida"},"type":"Feature","geometry":{"type":"Point","coordinates":[-80.337432,25.81155]}},{"properties":{"name":"Turnberry Bank","city":"Aventura","zip":"33180","assets":"$240,251,000","url":null,"street":"20295 Ne 29th Place","id":"aeuwxak7grsp","geo_precision":"range","state":"Florida"},"type":"Feature","geometry":{"type":"Point","coordinates":[-80.142366,25.962264]}},{"properties":{"name":"SunTrust Bank, South Florida, National Association","city":"Fort Lauderdale","zip":"33301","assets":"$5,160,444,000","url":null,"street":"501 East Las Olas Boulevard","id":"aeuwxab3tmjn","geo_precision":"range","state":"Florida"},"type":"Feature","geometry":{"type":"Point","coordinates":[-80.137326,26.119204]}},{"properties":{"name":"Barnett Bank of Broward County, National Association","city":"Fort Lauderdale","zip":"33301","assets":"$4,541,759,000","url":null,"street":"1 East Broward Boulevard","id":"aeuwxaadxevx","geo_precision":"range","state":"Florida"},"type":"Feature","geometry":{"type":"Point","coordinates":[-80.142483,26.12227]}},{"properties":{"name":"Bank of Florida - Southeast","city":"Fort Lauderdale","zip":"33301","assets":"$595,318,000","url":null,"street":"200 Sw First Avenue","id":"aeuwxageg2nv","geo_precision":"range","state":"Florida"},"type":"Feature","geometry":{"type":"Point","coordinates":[-80.144444,26.119466]}},{"properties":{"name":"Barnett Bank of Broward County","city":"Fort Lauderdale","zip":"33302","assets":"$368,760,000","url":null,"street":"15 East Broward Boulevard","id":"aeuwxanagyxi","geo_precision":"street","state":"Florida"},"type":"Feature","geometry":{"type":"Point","coordinates":[-80.145371,26.122149]}},{"properties":{"name":"Bank Atlantic","city":"Fort Lauderdale","zip":"33304","assets":"$3,821,152,000","url":"http://www.bankatlantic.com:80/","street":"1750 E Sunrise Blvd","id":"aeuwxaauo46j","geo_precision":"range","state":"Florida"},"type":"Feature","geometry":{"type":"Point","coordinates":[-80.123199,26.137273]}},{"properties":{"name":"Stonegate Bank","city":"Fort Lauderdale","zip":"33304","assets":"$899,935,000","url":"http://www.stonegatebank.com:80/","street":"1430 North Federal Highway","id":"aeuwxablb1xg","geo_precision":"range","state":"Florida"},"type":"Feature","geometry":{"type":"Point","coordinates":[-80.120139,26.145878]}},{"properties":{"name":"Gulfstream American Bank and Trust, N.A.","city":"Fort Lauderdale","zip":"33304","assets":"$183,088,000","url":null,"street":"1415 East Sunrise Boulevard","id":"aeuwxae2fve0","geo_precision":"range","state":"Florida"},"type":"Feature","geometry":{"type":"Point","coordinates":[-80.128809,26.137274]}},{"properties":{"name":"Landmark Bank, National Association","city":"Fort Lauderdale","zip":"33308","assets":"$275,438,000","url":"http://www.giantbank.com:80/","street":"2600 East Commercial Boulevard","id":"aeuwxahn6h2n","geo_precision":"range","state":"Florida"},"type":"Feature","geometry":{"type":"Point","coordinates":[-80.110941,26.189551]}},{"properties":{"name":"AMERICAN NATIONAL BANK","city":"Oakland Park","zip":"33308","assets":"$220,603,000","url":"http://www.americannationalbank.com:80/","street":"4301 North Federal Highway","id":"aeuwxam48u7r","geo_precision":"range","state":"Florida"},"type":"Feature","geometry":{"type":"Point","coordinates":[-80.119573,26.181952]}},{"properties":{"name":"Bank of North America","city":"Fort Lauderdale","zip":"33309","assets":"$525,505,000","url":null,"street":"2000 West Commercial Boulevard","id":"aeuwxag5osh3","geo_precision":"range","state":"Florida"},"type":"Feature","geometry":{"type":"Point","coordinates":[-80.169679,26.18804]}},{"properties":{"name":"BankAtlantic Bancorp, Inc.","city":"Fort Lauderdale","zip":"33309","assets":null,"url":"http://www.bankatlanticbancorp.com/","street":"2100 West Cypress Creek Road","id":"aeuwxacst071","geo_precision":"range","state":"FL"},"type":"Feature","geometry":{"type":"Point","coordinates":[-80.179352,26.202662]}},{"properties":{"name":"BFC Financial Corporation","city":"Fort Lauderdale","zip":"33309","assets":null,"url":"http://www.bfcfinancial.com","street":"2100 West Cypress Creek Raod","id":"aeuwxajsdk5i","geo_precision":"range","state":"FL"},"type":"Feature","geometry":{"type":"Point","coordinates":[-80.179352,26.202662]}},{"properties":{"name":"Woodbridge Holdings Corporation","city":"Fort Lauderdale","zip":"33309","assets":null,"url":"http://www.woodbridgeholdings.com/","street":"2100 W. Cypress Creek Road","id":"aeuwxa8mgq77","geo_precision":"street","state":"FL"},"type":"Feature","geometry":{"type":"Point","coordinates":[-80.148595,26.203464]}},{"properties":{"name":"Southeast Bank","city":"Fort Lauderdale","zip":"33310","assets":"$693,909,000","url":null,"street":"6451 North Federal Highway","id":"aeuwxa6x9z87","geo_precision":"range","state":"Florida"},"type":"Feature","geometry":{"type":"Point","coordinates":[-80.107794,26.208252]}},{"properties":{"name":"Century National Bank of Broward","city":"Fort Lauderdale","zip":"33310","assets":"$469,683,000","url":null,"street":"501 East Las Olas Boulevard","id":"aeuwxagk7st8","geo_precision":"range","state":"Florida"},"type":"Feature","geometry":{"type":"Point","coordinates":[-80.137326,26.119204]}},{"properties":{"name":"Union Bank of Florida","city":"Lauderhill","zip":"33313","assets":"$1,010,886,000","url":"http://www.unionbk.com:80/","street":"1205 N.W. 40th Avenue","id":"aeuwxaajkwqg","geo_precision":"street","state":"Florida"},"type":"Feature","geometry":{"type":"Point","coordinates":[-80.150761,26.176579]}},{"properties":{"name":"Ambassador Savings and Loan Association","city":"Tamarac","zip":"33321","assets":"$184,143,000","url":null,"street":"8201 North University Drive","id":"aeuwxak6ynes","geo_precision":"range","state":"Florida"},"type":"Feature","geometry":{"type":"Point","coordinates":[-80.252748,26.226723]}},{"properties":{"name":"California Federal Savings and Loan Association - Broward","city":"Sunrise","zip":"33322","assets":"$508,166,000","url":null,"street":"500 East Broward Blvd","id":"aeuwxahj0yzy","geo_precision":"range","state":"Florida"},"type":"Feature","geometry":{"type":"Point","coordinates":[-80.140385,26.122216]}},{"properties":{"name":"Regent Bank","city":"Davie","zip":"33324","assets":"$435,682,000","url":"http://www.regentbank.com:80/","street":"2205 South University Drive","id":"aeuwxabt4q34","geo_precision":"range","state":"Florida"},"type":"Feature","geometry":{"type":"Point","coordinates":[-80.251112,26.090656]}},{"properties":{"name":"Floridian Community Bank, Inc.","city":"Davie","zip":"33328","assets":"$275,162,000","url":"http://www.floridiancommunitybank.com:80/","street":"5599 South University Drive","id":"aeuwxad9dr5w","geo_precision":"range","state":"Florida"},"type":"Feature","geometry":{"type":"Point","coordinates":[-80.251855,26.053388]}},{"properties":{"name":"Florida Community Bank, National Association","city":"Fort Lauderdale","zip":"33331","assets":"$3,434,626,000","url":"http://www.floridacommunitybank.net:80/","street":"2500 Weston Road","id":"aeuwxafe3b22","geo_precision":"range","state":"Florida"},"type":"Feature","geometry":{"type":"Point","coordinates":[-80.371743,26.087381]}},{"properties":{"name":"TransCapital Bank","city":"Sunrise","zip":"33351","assets":"$223,039,000","url":"http://www.transcapitalbank.org:80/","street":"8850 W Oakland Park Blvd","id":"aeuwxahvf3ux","geo_precision":"range","state":"Florida"},"type":"Feature","geometry":{"type":"Point","coordinates":[-80.270063,26.168327]}},{"properties":{"name":"Fidelity Federal Bank &amp; Trust","city":"West Palm Beach","zip":"33401","assets":"$5,281,925,000","url":"http://www.fidelityfederal.com:80/","street":"218 Datura Street","id":"aeuwxaatwg48","geo_precision":"range","state":"Florida"},"type":"Feature","geometry":{"type":"Point","coordinates":[-80.051729,26.712185]}},{"properties":{"name":"Republic Security Bank","city":"West Palm Beach","zip":"33401","assets":"$2,639,868,000","url":null,"street":"450 South Australian Avenue","id":"aeuwxahewf9p","geo_precision":"range","state":"Florida"},"type":"Feature","geometry":{"type":"Point","coordinates":[-80.064189,26.710432]}},{"properties":{"name":"First Bank of Florida","city":"West Palm Beach","zip":"33401","assets":"$1,807,121,000","url":null,"street":"450 South Australian Avenue","id":"aeuwxak3cas7","geo_precision":"range","state":"Florida"},"type":"Feature","geometry":{"type":"Point","coordinates":[-80.064189,26.710432]}},{"properties":{"name":"Florida Public Utilities Company","city":"West Palm Beach","zip":"33401","assets":null,"url":"http://www.fpuc.com","street":"401 South Dixie Highway","id":"aeuwxam1tc5d","geo_precision":"zip","state":"FL"},"type":"Feature","geometry":{"type":"Point","coordinates":[-80.070613,26.672643]}},{"properties":{"name":"Flagler National Bank","city":"West Palm Beach","zip":"33402","assets":"$451,319,000","url":null,"street":"501 South Flagler Drive","id":"aeuwxa82rlkq","geo_precision":"range","state":"Florida"},"type":"Feature","geometry":{"type":"Point","coordinates":[-80.05049,26.709533]}},{"properties":{"name":"Southern Floridabanc Savings Association","city":"Riviera Beach","zip":"33404","assets":"$219,068,000","url":null,"street":"1217 East Blue Heron Blvd","id":"aeuwxaatmnp2","geo_precision":"range","state":"Florida"},"type":"Feature","geometry":{"type":"Point","coordinates":[-80.036485,26.783632]}},{"properties":{"name":"First National Bank and Trust Company of Riviera Beach","city":"Riviera Beach","zip":"33404","assets":"$182,038,000","url":null,"street":"3700 Broadway","id":"aeuwxaf1ssjb","geo_precision":"range","state":"Florida"},"type":"Feature","geometry":{"type":"Point","coordinates":[-80.054217,26.792569]}},{"properties":{"name":"Royal Palm Savings Bank","city":"West Palm Beach","zip":"33406","assets":"$509,313,000","url":null,"street":"100 Australian Avenue, Suite 400","id":"aeuwxabfaaim","geo_precision":"street","state":"Florida"},"type":"Feature","geometry":{"type":"Point","coordinates":[-80.073796,26.681364]}},{"properties":{"name":"Royal Palm Federal Savings and Loan Association","city":"West Palm Beach","zip":"33406","assets":"$405,229,000","url":null,"street":"100 Australian Avenue, Suite 400","id":"aeuwxafx3k4l","geo_precision":"street","state":"Florida"},"type":"Feature","geometry":{"type":"Point","coordinates":[-80.073796,26.681364]}},{"properties":{"name":"First American Bank and Trust, National Association","city":"North Palm Beach","zip":"33408","assets":"$982,086,000","url":null,"street":"401 Northlake Boulevard","id":"aeuwxaeodcd3","geo_precision":"range","state":"Florida"},"type":"Feature","geometry":{"type":"Point","coordinates":[-80.059656,26.807439]}},{"properties":{"name":"Community Savings, F. A.","city":"North Palm Beach","zip":"33408","assets":"$948,554,000","url":null,"street":"660 U. S. Highway One","id":"aeuwxaichwp5","geo_precision":"street","state":"Florida"},"type":"Feature","geometry":{"type":"Point","coordinates":[-80.054236,26.792742]}},{"properties":{"name":"Enterprise Bank of Florida","city":"North Palm Beach","zip":"33408","assets":"$253,514,000","url":"http://www.enterprisebankfl.com:80/","street":"11811 U.S. Highway One","id":"aeuwxaknborg","geo_precision":"street","state":"Florida"},"type":"Feature","geometry":{"type":"Point","coordinates":[-80.054236,26.792742]}},{"properties":{"name":"FPL Group, Inc.","city":"Juno Beach","zip":"33408","assets":null,"url":"http://www.fplgroup.com/","street":"700 Universe Boulevard","id":"aeuwxa8rzjee","geo_precision":"range","state":"FL"},"type":"Feature","geometry":{"type":"Point","coordinates":[-80.060282,26.858212]}},{"properties":{"name":"Palm Beach County Bank","city":"West Palm Beach","zip":"33409","assets":"$373,279,000","url":"http://www.pbcbonline.com:80/","street":"2130 Centrepark West Drive","id":"aeuwxajxuk9j","geo_precision":"street","state":"Florida"},"type":"Feature","geometry":{"type":"Point","coordinates":[-80.069347,26.692726]}},{"properties":{"name":"Grand Bank &amp; Trust of Florida","city":"West Palm Beach","zip":"33409","assets":"$318,686,000","url":"http://www.grandbankflorida.com:80/","street":"2055 Palm Beach Lakes Boulevard","id":"aeuwxabtf81a","geo_precision":"range","state":"Florida"},"type":"Feature","geometry":{"type":"Point","coordinates":[-80.095145,26.712915]}},{"properties":{"name":"Admiralty Bank","city":"Palm Beach Gardens","zip":"33410","assets":"$713,820,000","url":null,"street":"4400 Pga Boulevard, Suite 100","id":"aeuwxajpg5jj","geo_precision":"street","state":"Florida"},"type":"Feature","geometry":{"type":"Point","coordinates":[-80.06891,26.844607]}},{"properties":{"name":"Palm Beach Community Bank","city":"West Palm Beach","zip":"33411","assets":"$198,940,000","url":"http://www.pbcblink.com:80/","street":"8101 Okeechobee Boulevard","id":"aeuwxaerika0","geo_precision":"range","state":"Florida"},"type":"Feature","geometry":{"type":"Point","coordinates":[-80.169861,26.708577]}},{"properties":{"name":"AMTRUST BANK, F.S.B.","city":"Boca Raton","zip":"33431","assets":"$492,643,000","url":null,"street":"5550 Glades Road","id":"aeuwxagecnis","geo_precision":"range","state":"Florida"},"type":"Feature","geometry":{"type":"Point","coordinates":[-80.13024,26.368254]}},{"properties":{"name":"Paradise Bank","city":"Boca Raton","zip":"33431","assets":"$288,212,000","url":"http://www.paradisebank.com:80/","street":"2420 North Federal Highway","id":"aeuwxaehdmlv","geo_precision":"range","state":"Florida"},"type":"Feature","geometry":{"type":"Point","coordinates":[-80.076638,26.371415]}},{"properties":{"name":"Legacy Bank of Florida","city":"Boca Raton","zip":"33431","assets":"$285,410,000","url":"http://www.legacybankfl.com:80/","street":"2300 Glades Road, Suite 120/140 West","id":"aeuwxa8pi4gb","geo_precision":"range","state":"Florida"},"type":"Feature","geometry":{"type":"Point","coordinates":[-80.087427,26.361604]}},{"properties":{"name":"Bluegreen Corporation","city":"Boca Raton","zip":"33431","assets":null,"url":"http://www.bluegreencorp.com/","street":"4960 Conference Way North Suite 100","id":"aeuwxaiz5yf5","geo_precision":"street","state":"FL"},"type":"Feature","geometry":{"type":"Point","coordinates":[-80.125978,26.357294]}},{"properties":{"name":"1st United Bank","city":"Boca Raton","zip":"33432","assets":"$1,263,415,000","url":"http://www.1stunitedbankfl.com:80/","street":"980 North Federal Highway","id":"aeuwxajclw41","geo_precision":"street","state":"Florida"},"type":"Feature","geometry":{"type":"Point","coordinates":[-80.081548,26.362855]}},{"properties":{"name":"SOUTHERN COMMUNITY BANK OF SOUTH FLORIDA","city":"Boca Raton","zip":"33432","assets":"$186,989,000","url":"http://www.southernbank.net:80/","street":"1850 North Federal Highway","id":"aeuwxaik02pu","geo_precision":"range","state":"Florida"},"type":"Feature","geometry":{"type":"Point","coordinates":[-80.078759,26.366409]}},{"properties":{"name":"Sun American Bancorp","city":"Boca Raton","zip":"33432","assets":null,"url":"http://www.sunamericanbank.com/","street":"1200 N. Federal Hwy. 111 - A","id":"aeuwxa8bpoy1","geo_precision":"street","state":"FL"},"type":"Feature","geometry":{"type":"Point","coordinates":[-80.086391,26.350503]}},{"properties":{"name":"Pointe Bank","city":"Boca Raton","zip":"33433","assets":"$428,032,000","url":"http://www.pointebank.com:80/","street":"21845 Powerline Road","id":"aeuwxaknz84z","geo_precision":"range","state":"Florida"},"type":"Feature","geometry":{"type":"Point","coordinates":[-80.153965,26.353545]}},{"properties":{"name":"First Southern Bank","city":"Boc Raton","zip":"33434","assets":"$975,000,000","url":"http://www.firstsouthern.com:80/","street":"7301 West Palmetto Park Rd.","id":"aeuwxaeq3lop","geo_precision":"range","state":"Florida"},"type":"Feature","geometry":{"type":"Point","coordinates":[-80.159216,26.350384]}},{"properties":{"name":"Sun American Bank","city":"Boca Raton","zip":"33434","assets":"$535,724,000","url":null,"street":"9293 Glades Road","id":"aeuwxae6786w","geo_precision":"range","state":"Florida"},"type":"Feature","geometry":{"type":"Point","coordinates":[-80.190697,26.367969]}},{"properties":{"name":"Florida Coast Bank of Palm Beach County","city":"Boynton Beach","zip":"33435","assets":"$197,404,000","url":null,"street":"114 North Federal Highway","id":"aeuwxal87ujk","geo_precision":"range","state":"Florida"},"type":"Feature","geometry":{"type":"Point","coordinates":[-80.058037,26.527833]}},{"properties":{"name":"World Savings of Florida, FS&amp;LA","city":"Boynton Beach","zip":"33436","assets":"$1,809,740,000","url":null,"street":"12700 Military Trail","id":"aeuwxaj8rr3h","geo_precision":"range","state":"Florida"},"type":"Feature","geometry":{"type":"Point","coordinates":[-80.122729,26.487785]}},{"properties":{"name":"Sunrise Savings and Loan Association, A Federal Savings and Loan Associa","city":"Boynton Beach","zip":"33436","assets":"$1,510,137,000","url":null,"street":"12700 S Military Trail","id":"aeuwxan1b3qz","geo_precision":"range","state":"Florida"},"type":"Feature","geometry":{"type":"Point","coordinates":[-80.122729,26.487785]}},{"properties":{"name":"Investors of Florida Savings Bank","city":"Deerfield Beach","zip":"33442","assets":"$282,574,000","url":null,"street":"1802 West Hillsboro Blvd","id":"aeuwxal1xqal","geo_precision":"range","state":"Florida"},"type":"Feature","geometry":{"type":"Point","coordinates":[-80.128315,26.317954]}},{"properties":{"name":"Sun Bank/Palm Beach County, National Association","city":"Delray Beach","zip":"33444","assets":"$549,500,000","url":null,"street":"302 East Atlantic Avenue","id":"aeuwxabl690x","geo_precision":"street","state":"Florida"},"type":"Feature","geometry":{"type":"Point","coordinates":[-80.072091,26.461638]}},{"properties":{"name":"Barnett Bank of Palm Beach County","city":"Delray Beach","zip":"33444","assets":"$444,790,000","url":null,"street":"1001 East Atlantic Avenue","id":"aeuwxa9k828e","geo_precision":"street","state":"Florida"},"type":"Feature","geometry":{"type":"Point","coordinates":[-80.072091,26.461638]}},{"properties":{"name":"Sun Bank of St. Lucie County","city":"Fort Pierce","zip":"33450","assets":"$221,846,000","url":null,"street":"112 South Second Street","id":"aeuwxabhq8al","geo_precision":"range","state":"Florida"},"type":"Feature","geometry":{"type":"Point","coordinates":[-80.089629,26.347576]}},{"properties":{"name":"First Citizens Federal Savings and Loan Association","city":"Fort Pierce","zip":"33450","assets":"$200,485,000","url":null,"street":"1600 S Federal Hwy","id":"aeuwxal6jkkd","geo_precision":"range","state":"Florida"},"type":"Feature","geometry":{"type":"Point","coordinates":[-80.071255,26.43974]}},{"properties":{"name":"First Citizens Savings and Loan Association, F.A.","city":"Fort Pierce","zip":"33450","assets":"$179,758,000","url":null,"street":"1600 South Federal Highway","id":"aeuwxaessp1h","geo_precision":"range","state":"Florida"},"type":"Feature","geometry":{"type":"Point","coordinates":[-80.071255,26.43974]}},{"properties":{"name":"Barnett Bank of Martin County, National Association","city":"Martin County","zip":"33455","assets":"$368,090,000","url":null,"street":"11900 Southeast Federal Highway","id":"aeuwxah2he2h","geo_precision":"range","state":"Florida"},"type":"Feature","geometry":{"type":"Point","coordinates":[-80.136826,27.059692]}},{"properties":{"name":"Sunpoint Savings Bank, FSB","city":"Lake Worth","zip":"33460","assets":"$727,648,000","url":null,"street":"2601 10 Avenue North","id":"aeuwxan73sil","geo_precision":"street","state":"Florida"},"type":"Feature","geometry":{"type":"Point","coordinates":[-80.051223,26.637172]}},{"properties":{"name":"First State Bank of Lantana","city":"LAKE WORTH","zip":"33462","assets":null,"url":null,"street":"1189 HYPOLUXO RD","id":"aeuwxa8wdi90","geo_precision":"zip","state":"FL"},"type":"Feature","geometry":{"type":"Point","coordinates":[-80.053375,26.566459]}},{"properties":{"name":"Sunrise Savings and Loan Association","city":"Lake Worth","zip":"33463","assets":"$1,617,014,000","url":null,"street":"6801 Lake Worth Road","id":"aeuwxa7f02ei","geo_precision":"street","state":"Florida"},"type":"Feature","geometry":{"type":"Point","coordinates":[-80.146717,26.618916]}},{"properties":{"name":"Barnett Bank of Lake Okeechobee","city":"Okeechobee","zip":"33472","assets":"$199,550,000","url":null,"street":"205 North Parrott Avenue","id":"aeuwxadd2dib","geo_precision":"street","state":"Florida"},"type":"Feature","geometry":{"type":"Point","coordinates":[-80.053466,26.768008]}},{"properties":{"name":"Lydian Private Bank","city":"Palm Beach","zip":"33480","assets":"$1,700,117,000","url":null,"street":"180 Royal Palm Way","id":"aeuwxac9ceeu","geo_precision":"range","state":"Florida"},"type":"Feature","geometry":{"type":"Point","coordinates":[-80.034267,26.70549]}},{"properties":{"name":"First National Bank in Palm Beach","city":"Palm Beach","zip":"33480","assets":"$461,056,000","url":null,"street":"255 South County Road","id":"aeuwxafhnilu","geo_precision":"range","state":"Florida"},"type":"Feature","geometry":{"type":"Point","coordinates":[-80.036305,26.705742]}},{"properties":{"name":"Palm Beach National Bank &amp; Trust Company","city":"Palm Beach","zip":"33480","assets":"$360,467,000","url":null,"street":"125 Worth Avenue","id":"aeuwxadh4dqh","geo_precision":"range","state":"Florida"},"type":"Feature","geometry":{"type":"Point","coordinates":[-80.035826,26.700871]}},{"properties":{"name":"Bank of Palm Beach and Trust Company","city":"Palm Beach","zip":"33480","assets":"$224,741,000","url":null,"street":"40 Cocoanut Row","id":"aeuwxajlbj0h","geo_precision":"range","state":"Florida"},"type":"Feature","geometry":{"type":"Point","coordinates":[-80.040999,26.717563]}},{"properties":{"name":"U.S. Trust Company of Florida, National Association","city":"Palm Beach","zip":"33480","assets":"$199,597,000","url":null,"street":"132 Royal Palm Way","id":"aeuwxadzffsw","geo_precision":"range","state":"Florida"},"type":"Feature","geometry":{"type":"Point","coordinates":[-80.035537,26.705523]}},{"properties":{"name":"Lydian","city":"Palm Beach","zip":"33480","assets":null,"url":"http://www.lydian.com","street":"180 Royal Palm Blvd.","id":"aeuwxad7n5ql","geo_precision":"range","state":"FL"},"type":"Feature","geometry":{"type":"Point","coordinates":[-80.034267,26.70549]}},{"properties":{"name":"Transflorida Bank","city":"Boca Raton","zip":"33486","assets":"$329,454,000","url":null,"street":"1489 West Palmetto Park Road","id":"aeuwxafp4zot","geo_precision":"range","state":"Florida"},"type":"Feature","geometry":{"type":"Point","coordinates":[-80.112621,26.350818]}},{"properties":{"name":"Florida National Bank of Martin County","city":"Stuart","zip":"33494","assets":"$226,447,000","url":null,"street":"301 East Ocean Boulevard","id":"aeuwxafktkh4","geo_precision":"range","state":"Florida"},"type":"Feature","geometry":{"type":"Point","coordinates":[-80.034974,26.725358]}},{"properties":{"name":"Crossland Savings, Fsla","city":"Bradenton","zip":"33506","assets":"$1,239,605,000","url":null,"street":"1301 6th Avenue West","id":"aeuwxan4joe5","geo_precision":"range","state":"Florida"},"type":"Feature","geometry":{"type":"Point","coordinates":[-82.575201,27.494197]}},{"properties":{"name":"Barnett Bank of Manatee County, National Association","city":"Manatee County","zip":"33506","assets":"$872,528,000","url":null,"street":"4311 Manatee Avenue West","id":"aeuwxahtsy0m","geo_precision":"street","state":"Florida"},"type":"Feature","geometry":{"type":"Point","coordinates":[-82.484471,27.709161]}},{"properties":{"name":"Inter City National Bank of Bradenton","city":"Bradenton","zip":"33506","assets":"$229,463,000","url":null,"street":"Cortez Plaza","id":"aeuwxaileis7","geo_precision":"street","state":"Florida"},"type":"Feature","geometry":{"type":"Point","coordinates":[-82.599094,27.469523]}},{"properties":{"name":"Ellis First National Bank of Bradenton","city":"Bradenton","zip":"33506","assets":"$204,592,000","url":null,"street":"1201 6th Avenue West","id":"aeuwxafnzl79","geo_precision":"street","state":"Florida"},"type":"Feature","geometry":{"type":"Point","coordinates":[-82.57423,27.494183]}},{"properties":{"name":"Platinum Bank","city":"Brandon","zip":"33511","assets":"$393,966,000","url":"http://www.platinumbank.com:80/","street":"802 West Lumsden Road","id":"aeuwxagnmcyx","geo_precision":"range","state":"Florida"},"type":"Feature","geometry":{"type":"Point","coordinates":[-82.296146,27.923262]}},{"properties":{"name":"Fort Brooke Bank","city":"Brandon","zip":"33511","assets":"$211,513,000","url":null,"street":"510 Vonderburg Drive","id":"aeuwxakipp5i","geo_precision":"range","state":"Florida"},"type":"Feature","geometry":{"type":"Point","coordinates":[-82.288827,27.93087]}},{"properties":{"name":"The First National Bank of Clearwater","city":"Clearwater","zip":"33515","assets":"$435,775,000","url":null,"street":"400 Cleveland Street","id":"aeuwxa8a5yio","geo_precision":"street","state":"Florida"},"type":"Feature","geometry":{"type":"Point","coordinates":[-82.148223,28.017312]}},{"properties":{"name":"Bank of Clearwater","city":"Clearwater","zip":"33517","assets":"$300,393,000","url":null,"street":"600 Cleveland Street","id":"aeuwxajx52de","geo_precision":"range","state":"Florida"},"type":"Feature","geometry":{"type":"Point","coordinates":[-82.797,27.965633]}},{"properties":{"name":"Barnett Bank of Pinellas County, National Association","city":"Clearwater","zip":"33518","assets":"$791,708,000","url":null,"street":"1130 Cleveland Street","id":"aeuwxaikvkkm","geo_precision":"range","state":"Florida"},"type":"Feature","geometry":{"type":"Point","coordinates":[-82.791782,27.965646]}},{"properties":{"name":"Florida Traditions Bank","city":"Dade City","zip":"33525","assets":"$261,440,000","url":"http://www.fltraditionsbank.com:80/","street":"14033 8th Street","id":"aeuwxa9bv4uo","geo_precision":"range","state":"Florida"},"type":"Feature","geometry":{"type":"Point","coordinates":[-82.189925,28.362553]}},{"properties":{"name":"The Bank of Pasco County","city":"Dade City","zip":"33525","assets":"$206,350,000","url":null,"street":"401 East Meridian","id":"aeuwxan4aomt","geo_precision":"street","state":"Florida"},"type":"Feature","geometry":{"type":"Point","coordinates":[-82.204011,28.364566]}},{"properties":{"name":"Barnett Bank of Southwest Florida, National Association","city":"Englewood","zip":"33533","assets":"$408,594,000","url":null,"street":"333 South Indiana Avenue","id":"aeuwxaf3h0s3","geo_precision":"street","state":"Florida"},"type":"Feature","geometry":{"type":"Point","coordinates":[-82.647246,28.143193]}},{"properties":{"name":"Sun Bank of Pasco County","city":"Zephyrhills","zip":"33539","assets":"$252,275,000","url":null,"street":"5435 Gall Boulevard","id":"aeuwxa9icpl5","geo_precision":"range","state":"Florida"},"type":"Feature","geometry":{"type":"Point","coordinates":[-82.183481,28.236787]}},{"properties":{"name":"Southeast Bank of Pinellas","city":"Largo","zip":"33540","assets":"$264,212,000","url":null,"street":"801 West Bay Drive","id":"aeuwxa8sdg20","geo_precision":"street","state":"Florida"},"type":"Feature","geometry":{"type":"Point","coordinates":[-82.175805,28.1816]}},{"properties":{"name":"CENTERSTATE BANK, NATIONAL ASSOCIATION","city":"Zephyrhills","zip":"33541","assets":"$372,256,000","url":null,"street":"6930 Gall Boulevard","id":"aeuwxaemrkdj","geo_precision":"street","state":"Florida"},"type":"Feature","geometry":{"type":"Point","coordinates":[-82.188172,28.259176]}},{"properties":{"name":"Fortune Bank a Savings Bank","city":"Clearwater","zip":"33546","assets":"$2,677,032,000","url":null,"street":"2120 U S 19 South","id":"aeuwxaciw2c3","geo_precision":"street","state":"Florida"},"type":"Feature","geometry":{"type":"Point","coordinates":[-82.729624,27.915264]}},{"properties":{"name":"Heritage Bank of Florida","city":"Lutz","zip":"33549","assets":"$234,267,000","url":"http://www.heritagebankfl.com:80/","street":"23000 State Road 54","id":"aeuwxaabhv54","geo_precision":"range","state":"Florida"},"type":"Feature","geometry":{"type":"Point","coordinates":[-82.432779,28.186034]}},{"properties":{"name":"Ellis First National Bank of West Pasco","city":"New Port Richey","zip":"33552","assets":"$223,316,000","url":null,"street":"South Road And U.S. Highway 19","id":"aeuwxai7bz5o","geo_precision":"street","state":"Florida"},"type":"Feature","geometry":{"type":"Point","coordinates":[-82.172366,28.231582]}},{"properties":{"name":"Palmetto Federal Savings and Loan Association","city":"Palmetto","zip":"33561","assets":"$835,736,000","url":null,"street":"600 8th Ave","id":"aeuwxaberjow","geo_precision":"street","state":"Florida"},"type":"Feature","geometry":{"type":"Point","coordinates":[-82.069496,28.744408]}},{"properties":{"name":"Sunshine State Federal Savings and Loan Association","city":"Plant City","zip":"33563","assets":"$203,432,000","url":"http://www.sunshinestatefederal.com:80/","street":"102 W Baker St","id":"aeuwxamcj3zh","geo_precision":"range","state":"Florida"},"type":"Feature","geometry":{"type":"Point","coordinates":[-82.123827,28.017871]}},{"properties":{"name":"The Hillsboro Sun Bank","city":"Plant City","zip":"33566","assets":"$186,475,000","url":null,"street":"202 West Reynolds Street","id":"aeuwxaka6b9c","geo_precision":"street","state":"Florida"},"type":"Feature","geometry":{"type":"Point","coordinates":[-82.125942,28.015881]}},{"properties":{"name":"Coast Bank, Federal Savings Bank","city":"Sarasota","zip":"33577","assets":"$1,287,573,000","url":null,"street":"1777 Main Street","id":"aeuwxaghr4oe","geo_precision":"range","state":"Florida"},"type":"Feature","geometry":{"type":"Point","coordinates":[-82.259686,27.946285]}},{"properties":{"name":"Southeast First National Bank of Sarasota","city":"Sarasota","zip":"33578","assets":"$307,722,000","url":null,"street":"1401 Main Street","id":"aeuwxab9dffy","geo_precision":"street","state":"Florida"},"type":"Feature","geometry":{"type":"Point","coordinates":[-82.260022,27.946358]}},{"properties":{"name":"Citizens and Southern National Bank of Sarasota","city":"Sarasota","zip":"33579","assets":"$458,807,000","url":null,"street":"2001 Siesta Drive","id":"aeuwxa9lhpok","geo_precision":"range","state":"Florida"},"type":"Feature","geometry":{"type":"Point","coordinates":[-82.526289,27.303126]}},{"properties":{"name":"National Bank of Sarasota","city":"Sarasota","zip":"33579","assets":"$177,470,000","url":null,"street":"2001 Siesta Drive","id":"aeuwxal0azo2","geo_precision":"range","state":"Florida"},"type":"Feature","geometry":{"type":"Point","coordinates":[-82.526289,27.303126]}},{"properties":{"name":"Valrico State Bank","city":"Valrico","zip":"33594","assets":"$192,811,000","url":"http://www.valricostate.com:80/","street":"1815 East State Road 60","id":"aeuwxak52z5d","geo_precision":"range","state":"Florida"},"type":"Feature","geometry":{"type":"Point","coordinates":[-82.258218,27.937777]}},{"properties":{"name":"SunTrust Bank, Tampa Bay","city":"Tampa","zip":"33601","assets":"$2,925,239,000","url":null,"street":"401 East Jackwon","id":"aeuwxa7qltw8","geo_precision":"zip","state":"Florida"},"type":"Feature","geometry":{"type":"Point","coordinates":[-82.582035,27.996097]}},{"properties":{"name":"The Exchange National Bank of Tampa","city":"Tampa","zip":"33601","assets":"$392,909,000","url":null,"street":"600 Florida Avenue","id":"aeuwxa7ddys6","geo_precision":"range","state":"Florida"},"type":"Feature","geometry":{"type":"Point","coordinates":[-82.454197,27.941259]}},{"properties":{"name":"NationsBank of Florida, N.A.","city":"Tampa","zip":"33602","assets":"$21,588,711,000","url":null,"street":"400 North Ashley Street","id":"aeuwxakpnvjm","geo_precision":"street","state":"Florida"},"type":"Feature","geometry":{"type":"Point","coordinates":[-82.461573,27.956315]}},{"properties":{"name":"AmSouth Bank of Florida","city":"Tampa","zip":"33602","assets":"$6,845,910,000","url":null,"street":"100 North Tampa Street","id":"aeuwxag7t4bo","geo_precision":"range","state":"Florida"},"type":"Feature","geometry":{"type":"Point","coordinates":[-82.457636,27.944855]}},{"properties":{"name":"Barnett Bank of Tampa","city":"Tampa","zip":"33602","assets":"$2,858,552,000","url":null,"street":"101 East Kennedy Boulevard","id":"aeuwxahllnq4","geo_precision":"range","state":"Florida"},"type":"Feature","geometry":{"type":"Point","coordinates":[-82.458772,27.947405]}},{"properties":{"name":"Freedom Savings and Loan Association","city":"Tampa","zip":"33602","assets":"$1,892,038,000","url":null,"street":"500 Franklin Street","id":"aeuwxai9q3ne","geo_precision":"range","state":"Florida"},"type":"Feature","geometry":{"type":"Point","coordinates":[-82.4586,27.949173]}},{"properties":{"name":"Barnett Bank of Tampa, National Association","city":"Tampa","zip":"33602","assets":"$1,589,658,000","url":null,"street":"101 East Kennedy Boulevard","id":"aeuwxair1dwe","geo_precision":"range","state":"Florida"},"type":"Feature","geometry":{"type":"Point","coordinates":[-82.458772,27.947405]}},{"properties":{"name":"First of America Bank - Florida, FSB","city":"Tampa","zip":"33602","assets":"$1,137,379,000","url":null,"street":"201 East Kennedy Avenue","id":"aeuwxaat76yl","geo_precision":"range","state":"Florida"},"type":"Feature","geometry":{"type":"Point","coordinates":[-82.457921,27.947608]}},{"properties":{"name":"Florida Bank, National Association","city":"Tampa","zip":"33602","assets":"$1,026,978,000","url":"http://www.flbk.com:80/","street":"100 West Kennedy Boulevard","id":"aeuwxaf028ht","geo_precision":"range","state":"Florida"},"type":"Feature","geometry":{"type":"Point","coordinates":[-82.460501,27.946789]}},{"properties":{"name":"Florida Bank","city":"Tampa","zip":"33602","assets":"$695,291,000","url":"http://www.flbank.com:80/","street":"201 North Franklin Street","id":"aeuwxa9tl048","geo_precision":"range","state":"Florida"},"type":"Feature","geometry":{"type":"Point","coordinates":[-82.4576,27.94692]}},{"properties":{"name":"Bank of Florida - Tampa Bay","city":"Tampa","zip":"33602","assets":"$240,513,000","url":null,"street":"777 South Harbour Island Boulevard, Suites 125 And 940","id":"aeuwxajdw9or","geo_precision":"street","state":"Florida"},"type":"Feature","geometry":{"type":"Point","coordinates":[-82.454656,27.94027]}},{"properties":{"name":"The Tampa Banking Company","city":"Tampa","zip":"33603","assets":null,"url":"http://www.bankoftampa.com","street":"4400 N. Armenia Ave.","id":"aeuwxaa0x71x","geo_precision":"street","state":"FL"},"type":"Feature","geometry":{"type":"Point","coordinates":[-82.484689,27.981302]}},{"properties":{"name":"Kforce Inc.","city":"Tampa","zip":"33605","assets":null,"url":"http://www.kforce.com","street":"1001 East Palm Avenue","id":"aeuwxaawcew8","geo_precision":"range","state":"FL"},"type":"Feature","geometry":{"type":"Point","coordinates":[-82.44827,27.962408]}},{"properties":{"name":"Bank of Tampa","city":"Tampa","zip":"33606","assets":"$1,062,802,000","url":"http://www.bankoftampa.com:80/","street":"601 Bayshore Boulevard, Suite 100","id":"aeuwxak0qaei","geo_precision":"street","state":"Florida"},"type":"Feature","geometry":{"type":"Point","coordinates":[-82.459865,27.943396]}},{"properties":{"name":"Superior Bank, National Association","city":"Tampa","zip":"33607","assets":"$2,534,417,000","url":null,"street":"4350 West Cypress Street","id":"aeuwxa6zajao","geo_precision":"range","state":"Florida"},"type":"Feature","geometry":{"type":"Point","coordinates":[-82.517064,27.952135]}},{"properties":{"name":"Bay Cities Bank","city":"Tampa","zip":"33607","assets":"$626,891,000","url":"http://www.bay-cities-bank.com:80/","street":"4301 West Boy Scout Boulevard, Suite 150","id":"aeuwxa70u22f","geo_precision":"street","state":"Florida"},"type":"Feature","geometry":{"type":"Point","coordinates":[-82.512783,27.965999]}},{"properties":{"name":"American Momentum Bank","city":"Tampa","zip":"33609","assets":"$940,381,000","url":"http://www.americanmomentumbank.com:80/","street":"4830 West Kennedy Boulevard Suite 200","id":"aeuwxagor2s3","geo_precision":"range","state":"Florida"},"type":"Feature","geometry":{"type":"Point","coordinates":[-82.525744,27.944759]}},{"properties":{"name":"Southern Exchange Bank","city":"Tampa","zip":"33609","assets":"$781,733,000","url":"http://www.southernexchangebank.com:80/","street":"4401 West Kennedy Boulevard Suite 300","id":"aeuwxa83vohs","geo_precision":"range","state":"Florida"},"type":"Feature","geometry":{"type":"Point","coordinates":[-82.519117,27.944847]}},{"properties":{"name":"Pilot Bank","city":"Tampa","zip":"33617","assets":"$220,805,000","url":"http://www.pilotbank.com:80/","street":"5140 East Fowler Avenue","id":"aeuwxa7s36n5","geo_precision":"range","state":"Florida"},"type":"Feature","geometry":{"type":"Point","coordinates":[-82.398323,28.054506]}},{"properties":{"name":"First Kensington Bank","city":"Tampa","zip":"33618","assets":"$339,902,000","url":"http://www.1stkensington.com:80/","street":"13246 North Dale Mabry Highway","id":"aeuwxaegwwvm","geo_precision":"range","state":"Florida"},"type":"Feature","geometry":{"type":"Point","coordinates":[-82.505766,28.068428]}},{"properties":{"name":"The Village Bank of Florida","city":"Tampa","zip":"33618","assets":"$207,672,000","url":null,"street":"13303 North Dale Mabry","id":"aeuwxad44o4a","geo_precision":"range","state":"Florida"},"type":"Feature","geometry":{"type":"Point","coordinates":[-82.505516,28.06811]}},{"properties":{"name":"First Citrus Bank","city":"Tampa","zip":"33618","assets":"$206,755,000","url":"http://www.firstcitrus.com:80/","street":"10824 N. Dale Mabry Highway","id":"aeuwxa97259v","geo_precision":"street","state":"Florida"},"type":"Feature","geometry":{"type":"Point","coordinates":[-82.504823,28.040132]}},{"properties":{"name":"Tampa Bay Vending, Inc.","city":"TAMPA","zip":"33619","assets":null,"url":null,"street":"9501 PALM RIVER RD","id":"aeuwxailme0v","geo_precision":"range","state":"FL"},"type":"Feature","geometry":{"type":"Point","coordinates":[-82.349032,27.941031]}},{"properties":{"name":"Metropolitan Bank and Trust","city":"Tampa","zip":"33623","assets":"$260,797,000","url":null,"street":"4600 West Cypress Street","id":"aeuwxaa6r8ds","geo_precision":"range","state":"Florida"},"type":"Feature","geometry":{"type":"Point","coordinates":[-82.523152,27.952285]}},{"properties":{"name":"Gulfshore Bank","city":"Tampa","zip":"33629","assets":"$217,473,000","url":"http://www.gulfshorebank.com:80/","street":"3201 South Macdill Avenue","id":"aeuwxakr5t6v","geo_precision":"range","state":"Florida"},"type":"Feature","geometry":{"type":"Point","coordinates":[-82.493654,27.916822]}},{"properties":{"name":"NCNB National Bank of Florida","city":"Tampa","zip":"33630","assets":"$1,642,823,000","url":null,"street":"600 Florida Avenue","id":"aeuwxa9yr3y4","geo_precision":"range","state":"Florida"},"type":"Feature","geometry":{"type":"Point","coordinates":[-82.454197,27.941259]}},{"properties":{"name":"Freedom Savings and Loan Association, A Federal Savings and Loan Associa","city":"Tampa","zip":"33631","assets":"$1,010,517,000","url":null,"street":"200 Madison Street","id":"aeuwxacjuepm","geo_precision":"range","state":"Florida"},"type":"Feature","geometry":{"type":"Point","coordinates":[-82.458283,27.948434]}},{"properties":{"name":"Manufacturers Bank of Florida","city":"Tampa","zip":"33677","assets":"$296,181,000","url":null,"street":"4144 North Armenia Avenue","id":"aeuwxah6p3i0","geo_precision":"range","state":"Florida"},"type":"Feature","geometry":{"type":"Point","coordinates":[-82.484829,27.977336]}},{"properties":{"name":"Central Bank of Tampa","city":"Tampa","zip":"33677","assets":"$223,175,000","url":null,"street":"2307 West Kennedy Boulevard","id":"aeuwxa9pe6ah","geo_precision":"range","state":"Florida"},"type":"Feature","geometry":{"type":"Point","coordinates":[-82.483967,27.944831]}},{"properties":{"name":"Sun Bank/Hillsborough","city":"Tampa","zip":"33681","assets":"$248,177,000","url":null,"street":"300 Madison Street","id":"aeuwxajzutcf","geo_precision":"range","state":"Florida"},"type":"Feature","geometry":{"type":"Point","coordinates":[-82.457416,27.948722]}},{"properties":{"name":"Citizens and Southern Bank of Tampa","city":"Tampa","zip":"33682","assets":"$357,092,000","url":null,"street":"10050 Florida Avenue","id":"aeuwxa87pe3p","geo_precision":"range","state":"Florida"},"type":"Feature","geometry":{"type":"Point","coordinates":[-82.459508,28.043025]}},{"properties":{"name":"Barnett Bank of Pinellas County","city":"St. Petersburg","zip":"33701","assets":"$3,291,722,000","url":null,"street":"One Progress Plaza, Barnett Tower","id":"aeuwxaj5xq5z","geo_precision":"street","state":"Florida"},"type":"Feature","geometry":{"type":"Point","coordinates":[-82.633995,27.771224]}},{"properties":{"name":"Centerbanc Savings Association","city":"Saint Petersburg","zip":"33701","assets":"$1,200,235,000","url":null,"street":"100 Second Avenue South","id":"aeuwxaf9r0ss","geo_precision":"range","state":"Florida"},"type":"Feature","geometry":{"type":"Point","coordinates":[-82.635508,27.769454]}},{"properties":{"name":"Park Bank of Florida","city":"St. Petersburg","zip":"33701","assets":"$591,667,000","url":null,"street":"1 Plaza Place, N.E.","id":"aeuwxa7uzw3p","geo_precision":"street","state":"Florida"},"type":"Feature","geometry":{"type":"Point","coordinates":[-82.799897,27.946482]}},{"properties":{"name":"Rutland Bank","city":"Saint Petersburg","zip":"33701","assets":"$453,742,000","url":null,"street":"55 Fifth Street, South","id":"aeuwxajhxnxu","geo_precision":"street","state":"Florida"},"type":"Feature","geometry":{"type":"Point","coordinates":[-82.640202,27.7712]}},{"properties":{"name":"Synovus Bank of Tampa Bay","city":"SAINT PETERSBURG","zip":"33701","assets":null,"url":"http://www.synovusbankfl.com","street":"333 3RD AVE N","id":"aeuwxactiaqf","geo_precision":"range","state":"FL"},"type":"Feature","geometry":{"type":"Point","coordinates":[-82.638105,27.775027]}},{"properties":{"name":"Cornerstone Community Bank","city":"Saint Petersburg","zip":"33702","assets":"$244,072,000","url":"http://www.cornerstonebankfl.com:80/","street":"6300 4th Street North","id":"aeuwxal9p6pv","geo_precision":"range","state":"Florida"},"type":"Feature","geometry":{"type":"Point","coordinates":[-82.638669,27.830902]}},{"properties":{"name":"GOLDOME SAVINGS BANK, F.S.B.","city":"Saint Petersburg","zip":"33710","assets":"$1,476,880,000","url":null,"street":"2100 66th St North","id":"aeuwxaf9hyz0","geo_precision":"range","state":"Florida"},"type":"Feature","geometry":{"type":"Point","coordinates":[-82.728504,27.790519]}},{"properties":{"name":"Goldome Federal Savings Bank","city":"St. Petersburg","zip":"33710","assets":"$210,866,000","url":null,"street":"2100 - 66th Street, North","id":"aeuwxacae8ft","geo_precision":"street","state":"Florida"},"type":"Feature","geometry":{"type":"Point","coordinates":[-82.72837,27.773877]}},{"properties":{"name":"Home Federal Bank of Florida, F.S.B.","city":"Saint Petersburg","zip":"33713","assets":"$1,426,306,000","url":null,"street":"1901 Central Ave","id":"aeuwxah8dybk","geo_precision":"range","state":"Florida"},"type":"Feature","geometry":{"type":"Point","coordinates":[-82.660283,27.771075]}},{"properties":{"name":"Raymond James Bank, National Association","city":"Saint Petersburg","zip":"33716","assets":"$8,953,780,000","url":"http://www.raymondjamesbank.com:80/","street":"710 Carillon Parkway","id":"aeuwxacmsa1f","geo_precision":"range","state":"Florida"},"type":"Feature","geometry":{"type":"Point","coordinates":[-82.665281,27.885978]}},{"properties":{"name":"Synovus Bank","city":"Saint Petersburg","zip":"33716","assets":"$1,334,461,000","url":"http://www.synovus.com:80/","street":"12450 Roosevelt Boulevard North","id":"aeuwxaji8gx7","geo_precision":"street","state":"Florida"},"type":"Feature","geometry":{"type":"Point","coordinates":[-82.672831,27.889407]}},{"properties":{"name":"PSCU Financial Services Inc.","city":"St. Petersburg","zip":"33716","assets":null,"url":"http://www.pscufs.com","street":"560 Carillon Pkwy.","id":"aeuwxahittk8","geo_precision":"range","state":"FL"},"type":"Feature","geometry":{"type":"Point","coordinates":[-82.669598,27.892048]}},{"properties":{"name":"Florida Federal Savings Bank","city":"St. Petersburg","zip":"33731","assets":"$4,115,008,000","url":null,"street":"4th St &amp; Central Ave","id":"aeuwxadp1isg","geo_precision":"street","state":"Florida"},"type":"Feature","geometry":{"type":"Point","coordinates":[-82.79723,27.937376]}},{"properties":{"name":"Florida Federal Savings, F.S.B.","city":"St. Petersburg","zip":"33731","assets":"$2,055,309,000","url":null,"street":"4th Street And Central Avenue","id":"aeuwxalw195h","geo_precision":"street","state":"Florida"},"type":"Feature","geometry":{"type":"Point","coordinates":[-82.850838,27.875726]}},{"properties":{"name":"Sun Bank/Suncoast, National Association","city":"St. Petersburg","zip":"33731","assets":"$605,963,000","url":null,"street":"301 4th Street North","id":"aeuwxaa5p989","geo_precision":"range","state":"Florida"},"type":"Feature","geometry":{"type":"Point","coordinates":[-82.638508,27.776367]}},{"properties":{"name":"Royal Trust Bank of Florida, National Association","city":"St. Petersburg","zip":"33731","assets":"$315,220,000","url":null,"street":"4th Street And Central Avenue","id":"aeuwxaiyf0ku","geo_precision":"street","state":"Florida"},"type":"Feature","geometry":{"type":"Point","coordinates":[-82.850838,27.875726]}},{"properties":{"name":"SouthTrust Bank of Florida, National Association","city":"St. Petersburg","zip":"33733","assets":"$5,344,135,000","url":null,"street":"150 2nd Avenue North","id":"aeuwxabwvaba","geo_precision":"range","state":"Florida"},"type":"Feature","geometry":{"type":"Point","coordinates":[-82.849944,27.879367]}},{"properties":{"name":"Citizens and Southern National Bank of St. Petersburg","city":"St. Petersburg","zip":"33733","assets":"$838,776,000","url":null,"street":"Central Avenue And Ninth Street","id":"aeuwxaid4bw6","geo_precision":"street","state":"Florida"},"type":"Feature","geometry":{"type":"Point","coordinates":[-82.850838,27.875726]}},{"properties":{"name":"United Bank and Trust Company","city":"Saint Petersburg","zip":"33733","assets":"$618,942,000","url":"http://www.unitedbank.com:80/","street":"5801 49th Street North","id":"aeuwxaht2zjv","geo_precision":"range","state":"Florida"},"type":"Feature","geometry":{"type":"Point","coordinates":[-82.699923,27.82629]}},{"properties":{"name":"Intervest Bank","city":"Clearwater","zip":"33756","assets":"$217,116,000","url":null,"street":"625 Court Street","id":"aeuwxaf0tvvr","geo_precision":"range","state":"Florida"},"type":"Feature","geometry":{"type":"Point","coordinates":[-82.797409,27.961865]}},{"properties":{"name":"Old Harbor Bank","city":"Clearwater","zip":"33759","assets":"$209,048,000","url":null,"street":"2605 Enterprise Road East, Suite 100","id":"aeuwxak7a0y1","geo_precision":"street","state":"Florida"},"type":"Feature","geometry":{"type":"Point","coordinates":[-82.730273,28.010488]}},{"properties":{"name":"USAmeriBank","city":"Largo","zip":"33770","assets":"$2,181,182,000","url":"http://www.usameribank.com:80/","street":"1125 East Bay Drive","id":"aeuwxa9p1jsv","geo_precision":"range","state":"Florida"},"type":"Feature","geometry":{"type":"Point","coordinates":[-82.775327,27.916576]}},{"properties":{"name":"Premier Community Bank of Florida","city":"Largo","zip":"33770","assets":"$364,614,000","url":"http://www.pcb-net.com:80/","street":"350 East Bay Drive","id":"aeuwxa994qj1","geo_precision":"range","state":"Florida"},"type":"Feature","geometry":{"type":"Point","coordinates":[-82.782185,27.916624]}},{"properties":{"name":"Community Bank of Pinellas","city":"Seminole","zip":"33772","assets":"$308,631,000","url":null,"street":"7700 Seminole Boulevard","id":"aeuwxaii8yf5","geo_precision":"range","state":"Florida"},"type":"Feature","geometry":{"type":"Point","coordinates":[-82.787092,27.842965]}},{"properties":{"name":"First Community Bank of America","city":"Pinellas Park","zip":"33782","assets":"$452,283,000","url":null,"street":"9001 Belcher Road","id":"aeuwxaf303s5","geo_precision":"range","state":"Florida"},"type":"Feature","geometry":{"type":"Point","coordinates":[-82.736993,27.855613]}},{"properties":{"name":"First Community Bank Corp. of America","city":"Pinellas Park","zip":"33782","assets":null,"url":"http://www.efirstcommbank.com/","street":"9001 Belcher Road","id":"aeuwxaf8etnw","geo_precision":"range","state":"FL"},"type":"Feature","geometry":{"type":"Point","coordinates":[-82.736993,27.855613]}},{"properties":{"name":"Barnett Bank of Polk County","city":"Lakeland","zip":"33802","assets":"$1,062,082,000","url":null,"street":"331 South Florida Avenue","id":"aeuwxah6oa4s","geo_precision":"range","state":"Florida"},"type":"Feature","geometry":{"type":"Point","coordinates":[-81.840746,27.894649]}},{"properties":{"name":"The Huntington National Bank of Lakeland","city":"Lakeland","zip":"33802","assets":"$530,239,000","url":null,"street":"115 South Missouri Avenue","id":"aeuwxab1ga0q","geo_precision":"range","state":"Florida"},"type":"Feature","geometry":{"type":"Point","coordinates":[-81.958307,28.043071]}},{"properties":{"name":"Community &amp; Southern Bank","city":"Lakeland","zip":"33803","assets":"$206,149,000","url":"http://www.communitysouthernbank.com:80/","street":"3234 South Florida Avenue","id":"aeuwxa8hayrn","geo_precision":"range","state":"Florida"},"type":"Feature","geometry":{"type":"Point","coordinates":[-81.956922,28.006127]}},{"properties":{"name":"SunTrust Bank, Mid-Florida, National Association","city":"Lakeland","zip":"33815","assets":"$1,040,164,000","url":null,"street":"210 South Florida Avenue","id":"aeuwxabe4x6h","geo_precision":"range","state":"Florida"},"type":"Feature","geometry":{"type":"Point","coordinates":[-81.817703,27.5444]}},{"properties":{"name":"Citrus and Chemical Bank","city":"Bartow","zip":"33830","assets":"$868,266,000","url":null,"street":"600 North Broadway","id":"aeuwxae5ec7a","geo_precision":"range","state":"Florida"},"type":"Feature","geometry":{"type":"Point","coordinates":[-81.843434,27.900712]}},{"properties":{"name":"Citrus &amp; Chemical Bank","city":"BARTOW","zip":"33830","assets":null,"url":null,"street":"600 N BROADWAY AVE","id":"aeuwxajoqied","geo_precision":"range","state":"FL"},"type":"Feature","geometry":{"type":"Point","coordinates":[-81.843434,27.900712]}},{"properties":{"name":"The First Bankers of Polk County","city":"Haines City","zip":"33844","assets":"$180,304,000","url":null,"street":"Sixth Street And Jones Avenue","id":"aeuwxacqbka5","geo_precision":"street","state":"Florida"},"type":"Feature","geometry":{"type":"Point","coordinates":[-81.628065,28.107643]}},{"properties":{"name":"Barnett Bank of Highlands County","city":"Sebring","zip":"33870","assets":"$432,254,000","url":null,"street":"60 South Ridgewood Drive","id":"aeuwxaf0qt1u","geo_precision":"street","state":"Florida"},"type":"Feature","geometry":{"type":"Point","coordinates":[-81.441141,27.495434]}},{"properties":{"name":"Heartland National Bank","city":"Sebring","zip":"33870","assets":"$305,361,000","url":"http://www.heartlandnb.com:80/","street":"320 U.S. Highway 27 North","id":"aeuwxaa4z95o","geo_precision":"street","state":"Florida"},"type":"Feature","geometry":{"type":"Point","coordinates":[-81.480443,27.48544]}},{"properties":{"name":"Huntington Federal Savings Bank","city":"Sebring","zip":"33870","assets":"$275,178,000","url":"http://www.huntingtonfederal.com:80/","street":"126 West Center Avenue","id":"aeuwxag0e1f9","geo_precision":"range","state":"Florida"},"type":"Feature","geometry":{"type":"Point","coordinates":[-81.441771,27.495602]}},{"properties":{"name":"Sun Bank/South Central Florida, National Association","city":"Highlands County","zip":"33870","assets":"$206,245,000","url":null,"street":"3601 U.S. 27 North","id":"aeuwxacd8f2m","geo_precision":"range","state":"Florida"},"type":"Feature","geometry":{"type":"Point","coordinates":[-81.727042,28.045002]}},{"properties":{"name":"Highlands Independent Bank","city":"Sebring","zip":"33871","assets":"$270,363,000","url":"http://www.highlandsindependentbank.com:80/","street":"2600 U.S. Highway 27, North","id":"aeuwxaepibrt","geo_precision":"street","state":"Florida"},"type":"Feature","geometry":{"type":"Point","coordinates":[-81.728395,28.044929]}},{"properties":{"name":"Wauchula State Bank","city":"Wauchula","zip":"33873","assets":"$594,572,000","url":"http://www.wauchulastatebank.com:80/","street":"106 East Main Street","id":"aeuwxadx5jzh","geo_precision":"range","state":"Florida"},"type":"Feature","geometry":{"type":"Point","coordinates":[-81.8114,27.547561]}},{"properties":{"name":"Exchange Bank of Polk County, National Association","city":"Winter Haven","zip":"33880","assets":"$189,867,000","url":null,"street":"250 Magnolia Avenue, S.W.","id":"aeuwxa9o0s4c","geo_precision":"zip","state":"Florida"},"type":"Feature","geometry":{"type":"Point","coordinates":[-81.727024,27.952802]}},{"properties":{"name":"CenterState Bank of Florida","city":"Winter Haven","zip":"33880","assets":"$181,447,000","url":"http://www.centerstatebank.com:80/","street":"1101 First Street South","id":"aeuwxab6cn4k","geo_precision":"range","state":"Florida"},"type":"Feature","geometry":{"type":"Point","coordinates":[-81.726851,28.013381]}},{"properties":{"name":"Haven Federal Savings and Loan Association","city":"Winter Haven","zip":"33880","assets":"$179,578,000","url":null,"street":"250 2nd Street Sw","id":"aeuwxail2jeu","geo_precision":"range","state":"Florida"},"type":"Feature","geometry":{"type":"Point","coordinates":[-81.72898,28.020761]}},{"properties":{"name":"Centerstate Banks of Florida, Inc.","city":"Winter Haven","zip":"33880","assets":null,"url":"http://www.csflbanks.com/","street":"200 Ave B NW Ste 104","id":"aeuwxahn8klo","geo_precision":"range","state":"FL"},"type":"Feature","geometry":{"type":"Point","coordinates":[-81.724766,28.020294]}},{"properties":{"name":"CenterState Bank of Florida, National Association","city":"Winter Haven","zip":"33881","assets":"$2,328,789,000","url":"http://www.centerstatebank.com:80/","street":"7722 State Road 544","id":"aeuwxai5qnxu","geo_precision":"street","state":"Florida"},"type":"Feature","geometry":{"type":"Point","coordinates":[-81.755682,28.046272]}},{"properties":{"name":"Meritor Savings Bank, F.A.","city":"Winter Haven","zip":"33881","assets":"$935,065,000","url":null,"street":"203 Avenue A Nw","id":"aeuwxai19q7q","geo_precision":"range","state":"Florida"},"type":"Feature","geometry":{"type":"Point","coordinates":[-81.727371,28.023062]}},{"properties":{"name":"Meritor Savings, FA","city":"Winter Haven","zip":"33881","assets":"$847,633,000","url":null,"street":"203 Avenue A Nw","id":"aeuwxaenaakm","geo_precision":"range","state":"Florida"},"type":"Feature","geometry":{"type":"Point","coordinates":[-81.727371,28.023062]}},{"properties":{"name":"Society First Federal Savings Bank","city":"Fort Myers","zip":"33901","assets":"$1,295,800,000","url":null,"street":"2201 Second Street","id":"aeuwxa77kued","geo_precision":"range","state":"Florida"},"type":"Feature","geometry":{"type":"Point","coordinates":[-81.868676,26.64249]}},{"properties":{"name":"The First National Bank in Fort Myers","city":"Fort Myers","zip":"33901","assets":"$553,594,000","url":null,"street":"2400 First Street","id":"aeuwxab7z6ww","geo_precision":"range","state":"Florida"},"type":"Feature","geometry":{"type":"Point","coordinates":[-81.867409,26.645706]}},{"properties":{"name":"SouthTrust Bank of Southwest Florida National Association","city":"Fort Myers","zip":"33901","assets":"$444,327,000","url":null,"street":"1530 Heitman Street","id":"aeuwxajh8eub","geo_precision":"range","state":"Florida"},"type":"Feature","geometry":{"type":"Point","coordinates":[-81.871958,26.642139]}},{"properties":{"name":"Barnett Bank of Lee County, National Association","city":"Fort Myers","zip":"33902","assets":"$963,390,000","url":null,"street":"3210 Cleveland Avenue","id":"aeuwxaflz1mh","geo_precision":"range","state":"Florida"},"type":"Feature","geometry":{"type":"Point","coordinates":[-81.872271,26.618535]}},{"properties":{"name":"Citizens and Southern National Bank of Lee County","city":"Fort Myers","zip":"33902","assets":"$948,832,000","url":null,"street":"2400 First Street","id":"aeuwxac2c3uv","geo_precision":"range","state":"Florida"},"type":"Feature","geometry":{"type":"Point","coordinates":[-81.867409,26.645706]}},{"properties":{"name":"Lee County Bank","city":"Fort Myers","zip":"33902","assets":"$249,211,000","url":null,"street":"First And Monroe Streets","id":"aeuwxaf3m198","geo_precision":"street","state":"Florida"},"type":"Feature","geometry":{"type":"Point","coordinates":[-81.871325,26.642875]}},{"properties":{"name":"Cape Coral National Bank","city":"Cape Coral","zip":"33904","assets":"$390,022,000","url":null,"street":"2724 Del Prado Boulevard","id":"aeuwxactwujh","geo_precision":"range","state":"Florida"},"type":"Feature","geometry":{"type":"Point","coordinates":[-81.941415,26.60094]}},{"properties":{"name":"IronStone Bank","city":"Fort Myers","zip":"33907","assets":"$2,748,725,000","url":null,"street":"13525 Bell Tower Dr","id":"aeuwxaerl6x4","geo_precision":"street","state":"Florida"},"type":"Feature","geometry":{"type":"Point","coordinates":[-81.964353,26.556262]}},{"properties":{"name":"SunTrust Bank, Southwest Florida","city":"Fort Myers","zip":"33907","assets":"$1,665,130,000","url":null,"street":"12751 New Brittany Boulevard","id":"aeuwxajckgup","geo_precision":"range","state":"Florida"},"type":"Feature","geometry":{"type":"Point","coordinates":[-81.880754,26.557329]}},{"properties":{"name":"Busey Bank, National Association","city":"Fort Myers","zip":"33907","assets":"$420,075,000","url":null,"street":"7980 Summerlin Lakes Drive","id":"aeuwxa8fmlxu","geo_precision":"street","state":"Florida"},"type":"Feature","geometry":{"type":"Point","coordinates":[-81.888247,26.525691]}},{"properties":{"name":"First Community Bank of Southwest Florida","city":"Fort Myers","zip":"33907","assets":"$290,432,000","url":"http://www.fcb-yourbank.com:80/","street":"1565 Red Cedar Drive","id":"aeuwxagixcyx","geo_precision":"range","state":"Florida"},"type":"Feature","geometry":{"type":"Point","coordinates":[-81.88206,26.58435]}},{"properties":{"name":"Edison National Bank","city":"Fort Myers","zip":"33907","assets":"$229,005,000","url":"http://www.edisonnationalbank.com:80/","street":"13000 South Cleveland Avenue","id":"aeuwxaerqhpb","geo_precision":"range","state":"Florida"},"type":"Feature","geometry":{"type":"Point","coordinates":[-81.871755,26.551844]}},{"properties":{"name":"Old Florida Bank","city":"Fort Myers","zip":"33912","assets":"$275,766,000","url":"http://www.oldflbank.com:80/","street":"6321 Daniels Parkway","id":"aeuwxa8zthfl","geo_precision":"street","state":"Florida"},"type":"Feature","geometry":{"type":"Point","coordinates":[-81.858376,26.546059]}},{"properties":{"name":"FineMark National Bank &amp; Trust","city":"Fort Myers","zip":"33919","assets":"$460,540,000","url":"http://www.finemarkbank.com:80/","street":"12681 Creekside Lane","id":"aeuwxaktcnr7","geo_precision":"range","state":"Florida"},"type":"Feature","geometry":{"type":"Point","coordinates":[-81.894925,26.558133]}},{"properties":{"name":"Florida Gulf Bank","city":"Fort Myers","zip":"33919","assets":"$376,484,000","url":"http://www.floridagulfbank.com:80/","street":"9101 College Pointe Court","id":"aeuwxahot3r7","geo_precision":"range","state":"Florida"},"type":"Feature","geometry":{"type":"Point","coordinates":[-81.905619,26.556417]}},{"properties":{"name":"Busey Bank Florida","city":"Fort Myers","zip":"33919","assets":"$245,663,000","url":"http://www.busey.com:80/","street":"7900 Summerlin Lake Drive","id":"aeuwxad9xs28","geo_precision":"street","state":"Florida"},"type":"Feature","geometry":{"type":"Point","coordinates":[-81.888452,26.529802]}},{"properties":{"name":"First National Bank of Florida at Bonita Springs","city":"Bonita Springs","zip":"33923","assets":"$255,756,000","url":null,"street":"Tamiami Trail","id":"aeuwxajkhmqu","geo_precision":"street","state":"Florida"},"type":"Feature","geometry":{"type":"Point","coordinates":[-82.195928,27.026373]}},{"properties":{"name":"Barnett Bank of Naples","city":"Naples","zip":"33940","assets":"$848,785,000","url":null,"street":"796 5th Avenue South","id":"aeuwxa8d7n0n","geo_precision":"range","state":"Florida"},"type":"Feature","geometry":{"type":"Point","coordinates":[-81.623558,26.625014]}},{"properties":{"name":"Citizens and Southern National Bank of Collier County","city":"Naples","zip":"33940","assets":"$371,161,000","url":null,"street":"691 5th Avenue South","id":"aeuwxakohiy9","geo_precision":"range","state":"Florida"},"type":"Feature","geometry":{"type":"Point","coordinates":[-81.623672,26.621653]}},{"properties":{"name":"Citizens National Bank of Naples","city":"Naples","zip":"33940","assets":"$312,873,000","url":null,"street":"811 Anchor Rode Drive","id":"aeuwxafyg7wm","geo_precision":"street","state":"Florida"},"type":"Feature","geometry":{"type":"Point","coordinates":[-82.03267,26.445058]}},{"properties":{"name":"Fifth Third Bank, Florida","city":"Naples","zip":"33941","assets":"$703,477,000","url":"http://www.53.com:80/","street":"4099 Tamiami Trail North","id":"aeuwxabek5ea","geo_precision":"street","state":"Florida"},"type":"Feature","geometry":{"type":"Point","coordinates":[-82.078076,26.96727]}},{"properties":{"name":"Sun Bank/Naples, National Association","city":"Naples","zip":"33941","assets":"$323,400,000","url":null,"street":"3055 North Tamiami Trail","id":"aeuwxahdb2mu","geo_precision":"range","state":"Florida"},"type":"Feature","geometry":{"type":"Point","coordinates":[-81.902505,26.713779]}},{"properties":{"name":"Bancflorida, A Federal Savings Bank","city":"Naples","zip":"33942","assets":"$1,566,663,000","url":null,"street":"5801 Pelican Bay Blvd","id":"aeuwxafgb8g2","geo_precision":"street","state":"Florida"},"type":"Feature","geometry":{"type":"Point","coordinates":[-81.98234,26.54927]}},{"properties":{"name":"First Federal Savings Bank of Charlotte County","city":"Port Charlotte","zip":"33948","assets":"$380,756,000","url":null,"street":"1600 Tamiami Trail","id":"aeuwxa9hp6na","geo_precision":"range","state":"Florida"},"type":"Feature","geometry":{"type":"Point","coordinates":[-82.133961,27.00732]}},{"properties":{"name":"Sun Bank and Trust/Charlotte County, National Association","city":"Port Charlotte","zip":"33948","assets":"$358,064,000","url":null,"street":"18501 Murdock Circle","id":"aeuwxadkzffv","geo_precision":"zip","state":"Florida"},"type":"Feature","geometry":{"type":"Point","coordinates":[-82.20688,26.94099]}},{"properties":{"name":"F &amp; C Bancshares Inc","city":"PORT CHARLOTTE","zip":"33948","assets":null,"url":null,"street":"19020 MURDOCK CIR","id":"aeuwxakv717r","geo_precision":"zip","state":"FL"},"type":"Feature","geometry":{"type":"Point","coordinates":[-82.20688,26.94099]}},{"properties":{"name":"Charlotte State Bank &amp; Trust","city":"Port Charlotte","zip":"33953","assets":"$259,483,000","url":"http://www.charlottestatebankandtrust.com:80/","street":"1100 Tamiami Trail","id":"aeuwxan6v96s","geo_precision":"range","state":"Florida"},"type":"Feature","geometry":{"type":"Point","coordinates":[-82.148791,27.014177]}},{"properties":{"name":"Sanibel Captiva Community Bank","city":"Sanibel","zip":"33957","assets":"$226,537,000","url":"http://www.sancapbank.com:80/","street":"2475 Library Way","id":"aeuwxaak9qze","geo_precision":"range","state":"Florida"},"type":"Feature","geometry":{"type":"Point","coordinates":[-82.079508,26.438118]}},{"properties":{"name":"Encore National Bank","city":"Port Charlotte","zip":"33980","assets":"$257,691,000","url":"http://www.encorenationalbank.com:80/","street":"2120 Kings Highway","id":"aeuwxac5y4au","geo_precision":"range","state":"Florida"},"type":"Feature","geometry":{"type":"Point","coordinates":[-82.057165,26.998879]}},{"properties":{"name":"Riverside Bank of The Gulf Coast","city":"Cape Coral","zip":"33990","assets":"$523,673,000","url":null,"street":"2107 Santa Barbara Boulevard","id":"aeuwxa7dqdk7","geo_precision":"range","state":"Florida"},"type":"Feature","geometry":{"type":"Point","coordinates":[-81.97315,26.61355]}},{"properties":{"name":"Orion Bank","city":"Naples","zip":"34102","assets":"$2,612,515,000","url":null,"street":"2150 Goodlette Road North","id":"aeuwxaaoogr2","geo_precision":"range","state":"Florida"},"type":"Feature","geometry":{"type":"Point","coordinates":[-81.791483,26.171685]}},{"properties":{"name":"TIB Financial Corp.","city":"Naples","zip":"34102","assets":null,"url":"http://www.tibbank.com","street":"599 9th Street North Suite 101","id":"aeuwxajbeux3","geo_precision":"range","state":"FL"},"type":"Feature","geometry":{"type":"Point","coordinates":[-81.794776,26.141883]}},{"properties":{"name":"Community Bank of Naples, National Association","city":"Naples","zip":"34103","assets":"$406,417,000","url":null,"street":"5150 North Tamiami Trail","id":"aeuwxacshn0j","geo_precision":"range","state":"Florida"},"type":"Feature","geometry":{"type":"Point","coordinates":[-81.800311,26.209217]}},{"properties":{"name":"Gulf Coast National Bank","city":"Naples","zip":"34103","assets":"$393,923,000","url":null,"street":"3838 North Tamiami Trail","id":"aeuwxa8twa68","geo_precision":"range","state":"Florida"},"type":"Feature","geometry":{"type":"Point","coordinates":[-81.799916,26.19145]}},{"properties":{"name":"First American Bank, National Association","city":"Naples","zip":"34103","assets":"$188,393,000","url":"http://www.firstamericanbankfl.com:80/","street":"811 Anchor Rode Drive","id":"aeuwxaji3dve","geo_precision":"range","state":"Florida"},"type":"Feature","geometry":{"type":"Point","coordinates":[-81.800122,26.188448]}},{"properties":{"name":"First National Bank of the Gulf Coast","city":"Naples","zip":"34105","assets":"$460,317,000","url":"http://www.fnbofgc.com:80/","street":"3560 Kraft Road","id":"aeuwxanbp8sm","geo_precision":"range","state":"Florida"},"type":"Feature","geometry":{"type":"Point","coordinates":[-81.811964,26.319522]}},{"properties":{"name":"Encore Bank, National Association- bought by cadence bank","city":"Naples","zip":"34108","assets":"$1,292,268,000","url":"http://www.encorebank.com:80/","street":"10600 Tamiami Trail, N, Suite 604","id":"aeuwxacp493u","geo_precision":"street","state":"Florida"},"type":"Feature","geometry":{"type":"Point","coordinates":[-81.800421,26.211242]}},{"properties":{"name":"Tib Bank","city":"Naples","zip":"34109","assets":"$1,730,150,000","url":null,"street":"6435 Naples Boulevard","id":"aeuwxah7426q","geo_precision":"street","state":"Florida"},"type":"Feature","geometry":{"type":"Point","coordinates":[-81.768283,26.218961]}},{"properties":{"name":"Bank of Florida - Southwest","city":"Naples","zip":"34110","assets":"$640,894,000","url":null,"street":"1185 Immokalee Road","id":"aeuwxamipt9b","geo_precision":"street","state":"Florida"},"type":"Feature","geometry":{"type":"Point","coordinates":[-81.417181,26.400973]}},{"properties":{"name":"Bank of Florida Corporation","city":"Naples","zip":"34110","assets":null,"url":"http://www.bankofflorida.com","street":"1185 Immokalee Road","id":"aeuwxaklaz06","geo_precision":"street","state":"FL"},"type":"Feature","geometry":{"type":"Point","coordinates":[-81.417181,26.400973]}},{"properties":{"name":"Southern Community Bank of Southwest Florida","city":"Bonita Springs","zip":"34135","assets":"$192,501,000","url":"http://www.southernbanksw.net:80/","street":"9021 Bonita Springs Road, S.E.","id":"aeuwxai8r4j1","geo_precision":"street","state":"Florida"},"type":"Feature","geometry":{"type":"Point","coordinates":[-81.804463,26.3656]}},{"properties":{"name":"Florida Community Bank","city":"Immokalee","zip":"34142","assets":"$835,701,000","url":null,"street":"1400 North 15th Street","id":"aeuwxaka0h54","geo_precision":"range","state":"Florida"},"type":"Feature","geometry":{"type":"Point","coordinates":[-81.43398,26.438415]}},{"properties":{"name":"Citizens Community Bank of Florida","city":"Marco Island","zip":"34145","assets":"$178,057,000","url":null,"street":"605 East Elkcam Circle","id":"aeuwxakwzfi4","geo_precision":"range","state":"Florida"},"type":"Feature","geometry":{"type":"Point","coordinates":[-81.721451,25.954533]}},{"properties":{"name":"Horizon Bank","city":"Bradenton","zip":"34203","assets":"$187,819,000","url":"http://www.horizonbankne.com:80/","street":"900 53rd Avenue East","id":"aeuwxah31wog","geo_precision":"street","state":"Florida"},"type":"Feature","geometry":{"type":"Point","coordinates":[-82.555945,27.447647]}},{"properties":{"name":"First America Bank","city":"Bradenton","zip":"34205","assets":"$248,232,000","url":"http://www.firstamericabank.com:80/","street":"2811 Manatee Avenue W","id":"aeuwxa795n3m","geo_precision":"range","state":"Florida"},"type":"Feature","geometry":{"type":"Point","coordinates":[-82.590677,27.495542]}},{"properties":{"name":"First Priority Bank","city":"Bradenton","zip":"34207","assets":"$258,610,000","url":"http://www.fpbk.com:80/","street":"4702 Cortez Road West","id":"aeuwxaah24x6","geo_precision":"range","state":"Florida"},"type":"Feature","geometry":{"type":"Point","coordinates":[-82.610262,27.462645]}},{"properties":{"name":"Flagship National Bank","city":"Bradenton","zip":"34207","assets":"$177,563,000","url":null,"street":"6004 26th Street West","id":"aeuwxaa94su9","geo_precision":"range","state":"Florida"},"type":"Feature","geometry":{"type":"Point","coordinates":[-82.587781,27.435286]}},{"properties":{"name":"1st National Bank &amp; Trust","city":"Bradenton","zip":"34209","assets":"$465,010,000","url":"http://www.firstnbt.com:80/","street":"5817 Manatee Avenue West","id":"aeuwxafiiwo2","geo_precision":"street","state":"Florida"},"type":"Feature","geometry":{"type":"Point","coordinates":[-82.620046,27.495987]}},{"properties":{"name":"C1 Bank","city":"Lakewood Ranch","zip":"34211","assets":"$826,854,000","url":"http://www.communitybanknow.com:80/","street":"2025 Lakewood Ranch Boulevard","id":"aeuwxagocwgt","geo_precision":"street","state":"Florida"},"type":"Feature","geometry":{"type":"Point","coordinates":[-82.428345,27.432225]}},{"properties":{"name":"Englewood Bank &amp; Trust","city":"Englewood","zip":"34223","assets":"$193,085,000","url":"http://www.englewoodbank.com:80/","street":"1111 South Mccall Road","id":"aeuwxadxw7gj","geo_precision":"zip","state":"Florida"},"type":"Feature","geometry":{"type":"Point","coordinates":[-82.404959,27.143931]}},{"properties":{"name":"Peninsula Bank","city":"Englewood","zip":"34224","assets":"$630,179,000","url":"http://www.peninsulabankmd.com:80/","street":"3100 South Mccall Road","id":"aeuwxaiapfze","geo_precision":"zip","state":"Florida"},"type":"Feature","geometry":{"type":"Point","coordinates":[-82.400124,27.064882]}},{"properties":{"name":"SunTrust Bank, Gulf Coast","city":"Sarasota","zip":"34230","assets":"$2,202,616,000","url":null,"street":"1777 Main Street","id":"aeuwxa7v3yyc","geo_precision":"street","state":"Florida"},"type":"Feature","geometry":{"type":"Point","coordinates":[-82.533014,27.336463]}},{"properties":{"name":"Ellis Bank &amp; Trust Company, National Association","city":"Sarasota","zip":"34230","assets":"$465,270,000","url":null,"street":"Main Street At Orange Avenue","id":"aeuwxac24rik","geo_precision":"street","state":"Florida"},"type":"Feature","geometry":{"type":"Point","coordinates":[-82.543144,27.335901]}},{"properties":{"name":"SouthTrust Bank of the Suncoast","city":"Sarasota","zip":"34230","assets":"$367,773,000","url":null,"street":"240 North Washington Boulevard","id":"aeuwxadju2nm","geo_precision":"range","state":"Florida"},"type":"Feature","geometry":{"type":"Point","coordinates":[-82.530906,27.336926]}},{"properties":{"name":"Barnett Bank of Southwest Florida","city":"Sarasota","zip":"34236","assets":"$1,837,696,000","url":null,"street":"240 South Pineapple Avenue","id":"aeuwxab1xg2x","geo_precision":"range","state":"Florida"},"type":"Feature","geometry":{"type":"Point","coordinates":[-82.540476,27.334214]}},{"properties":{"name":"Century Bank, a Federal Savings Bank","city":"Sarasota","zip":"34236","assets":"$755,923,000","url":null,"street":"1680 Fruitville Road","id":"aeuwxancxk9n","geo_precision":"range","state":"Florida"},"type":"Feature","geometry":{"type":"Point","coordinates":[-82.536906,27.338797]}},{"properties":{"name":"Provident Bank of Florida","city":"Sarasota","zip":"34236","assets":"$669,792,000","url":null,"street":"1549 Ringling Boulevard","id":"aeuwxa85kdao","geo_precision":"range","state":"Florida"},"type":"Feature","geometry":{"type":"Point","coordinates":[-82.539591,27.334787]}},{"properties":{"name":"People's Community Bank of the West Coast","city":"Sarasota","zip":"34236","assets":"$324,015,000","url":null,"street":"25 South Links Avenue","id":"aeuwxakjvm6j","geo_precision":"street","state":"Florida"},"type":"Feature","geometry":{"type":"Point","coordinates":[-82.53302,27.333824]}},{"properties":{"name":"LandMark Bank of Florida","city":"Sarasota","zip":"34236","assets":"$266,482,000","url":null,"street":"544 South Washington Boulevard","id":"aeuwxaf4tqyd","geo_precision":"range","state":"Florida"},"type":"Feature","geometry":{"type":"Point","coordinates":[-82.531041,27.331947]}},{"properties":{"name":"Northern Trust Bank of Florida/Sarasota, National Association","city":"Sarasota","zip":"34236","assets":"$203,929,000","url":null,"street":"1515 Ringling Boulevard","id":"aeuwxacwxrgo","geo_precision":"range","state":"Florida"},"type":"Feature","geometry":{"type":"Point","coordinates":[-82.538884,27.334981]}},{"properties":{"name":"Sarasota Bank","city":"Sarasota","zip":"34236","assets":"$186,965,000","url":"http://www.sarasotabank.com:80/","street":"Two North Tamiami Trail","id":"aeuwxab92x7h","geo_precision":"street","state":"Florida"},"type":"Feature","geometry":{"type":"Point","coordinates":[-82.546928,27.349086]}},{"properties":{"name":"Gateway Bank of Southwest Florida","city":"Sarasota","zip":"34236","assets":"$185,639,000","url":"http://www.gatewaybankswfl.com:80/","street":"1100 S. Tamiami Trail","id":"aeuwxaivdsei","geo_precision":"street","state":"Florida"},"type":"Feature","geometry":{"type":"Point","coordinates":[-82.546931,27.350185]}},{"properties":{"name":"West Coast Guaranty Bank, National Association","city":"Sarasota","zip":"34239","assets":"$273,795,000","url":null,"street":"3700 South Tamiami Trail","id":"aeuwxa96y9xo","geo_precision":"range","state":"Florida"},"type":"Feature","geometry":{"type":"Point","coordinates":[-82.530444,27.300566]}},{"properties":{"name":"Gold Bank","city":"Bradenton","zip":"34280","assets":"$910,419,000","url":"http://www.ambankfl.com:80/","street":"4502 Cortez Road West","id":"aeuwxaj68yug","geo_precision":"range","state":"Florida"},"type":"Feature","geometry":{"type":"Point","coordinates":[-82.608017,27.46263]}},{"properties":{"name":"First National Bank of Venice","city":"Venice","zip":"34284","assets":"$365,409,000","url":null,"street":"200 Nokomis Avenue South","id":"aeuwxa8h8xwx","geo_precision":"range","state":"Florida"},"type":"Feature","geometry":{"type":"Point","coordinates":[-82.445458,27.098439]}},{"properties":{"name":"Bank One, Florida","city":"Venice","zip":"34284","assets":"$201,608,000","url":null,"street":"1320 Venice Avenue East","id":"aeuwxalp2nmj","geo_precision":"range","state":"Florida"},"type":"Feature","geometry":{"type":"Point","coordinates":[-82.420263,27.099788]}},{"properties":{"name":"Florida Shores Bank - Southwest","city":"Venice","zip":"34285","assets":"$344,027,000","url":null,"street":"500 U. S. Highway 41 Bypass North","id":"aeuwxajk32jq","geo_precision":"street","state":"Florida"},"type":"Feature","geometry":{"type":"Point","coordinates":[-82.444291,27.098423]}},{"properties":{"name":"Presidential Bank, Fsb","city":"Sarasota","zip":"34326","assets":"$259,724,000","url":"http://www.presidential.com:80/","street":"1520 Ringling Blvd","id":"aeuwxacdwfp5","geo_precision":"range","state":"Florida"},"type":"Feature","geometry":{"type":"Point","coordinates":[-82.539014,27.334828]}},{"properties":{"name":"BRANNEN BANK","city":"Inverness","zip":"34450","assets":"$421,962,000","url":"http://www.brannenbanks.com:80/","street":"320 Highway 41 South","id":"aeuwxamvocaa","geo_precision":"range","state":"Florida"},"type":"Feature","geometry":{"type":"Point","coordinates":[-82.323875,28.831013]}},{"properties":{"name":"Barnett Bank of Citrus County, National Association","city":"Inverness","zip":"34450","assets":"$189,699,000","url":null,"street":"1500 U.S. 41 North","id":"aeuwxamx3qcd","geo_precision":"zip","state":"Florida"},"type":"Feature","geometry":{"type":"Point","coordinates":[-82.282224,28.834011]}},{"properties":{"name":"Brannen Banks of Florida Inc","city":"INVERNESS","zip":"34450","assets":null,"url":null,"street":"320 US HIGHWAY 41 S","id":"aeuwxaienhl5","geo_precision":"range","state":"FL"},"type":"Feature","geometry":{"type":"Point","coordinates":[-82.323875,28.831013]}},{"properties":{"name":"First Federal Savings Bank of Citrus County","city":"Inverness","zip":"34451","assets":"$226,755,000","url":null,"street":"800 Main St","id":"aeuwxae2mg13","geo_precision":"range","state":"Florida"},"type":"Feature","geometry":{"type":"Point","coordinates":[-82.338951,28.836001]}},{"properties":{"name":"SunTrust Bank, North Central Florida","city":"Ocala","zip":"34470","assets":"$1,070,982,000","url":null,"street":"203 East Silver Springs Boulevard","id":"aeuwxaaofkl2","geo_precision":"range","state":"Florida"},"type":"Feature","geometry":{"type":"Point","coordinates":[-82.133924,29.187181]}},{"properties":{"name":"Mid-State FSB","city":"Ocala","zip":"34470","assets":"$734,520,000","url":null,"street":"3232 S W College Road","id":"aeuwxaj2o2fr","geo_precision":"range","state":"Florida"},"type":"Feature","geometry":{"type":"Point","coordinates":[-82.178454,29.156786]}},{"properties":{"name":"Alarion Bank","city":"Ocala","zip":"34470","assets":"$281,751,000","url":"http://www.alarionbank.com:80/","street":"One Northeast First Avenue","id":"aeuwxaea513h","geo_precision":"street","state":"Florida"},"type":"Feature","geometry":{"type":"Point","coordinates":[-82.136015,29.187087]}},{"properties":{"name":"Gateway Bank of Central Florida","city":"Ocala","zip":"34470","assets":"$180,465,000","url":"http://www.gatewaybankcfl.com:80/","street":"1632 East Silver Springs Boulevard","id":"aeuwxa6zoru6","geo_precision":"range","state":"Florida"},"type":"Feature","geometry":{"type":"Point","coordinates":[-82.111154,29.18688]}},{"properties":{"name":"Community Bank and Trust of Florida","city":"Ocala","zip":"34471","assets":"$547,975,000","url":"http://www.cbtfl.com:80/","street":"1603 Southwest 19th Avenue","id":"aeuwxamt7f18","geo_precision":"range","state":"Florida"},"type":"Feature","geometry":{"type":"Point","coordinates":[-82.155971,29.171823]}},{"properties":{"name":"Ocala National Bank","city":"Ocala","zip":"34471","assets":"$219,424,000","url":null,"street":"3001 Se Maricamp Road","id":"aeuwxaisnj5m","geo_precision":"range","state":"Florida"},"type":"Feature","geometry":{"type":"Point","coordinates":[-82.096438,29.165627]}},{"properties":{"name":"Community Bank and Trust of Florida (Ocala)","city":"Ocala,","zip":"34471","assets":null,"url":null,"street":"1603 SW 19th Ave","id":"aeuwxaa3hedi","geo_precision":"range","state":"FL"},"type":"Feature","geometry":{"type":"Point","coordinates":[-82.155971,29.171823]}},{"properties":{"name":"SouthTrust Bank of Central Florida","city":"Ocala","zip":"34474","assets":"$312,272,000","url":null,"street":"2001 S.W. 17th Street","id":"aeuwxaamsxo6","geo_precision":"street","state":"Florida"},"type":"Feature","geometry":{"type":"Point","coordinates":[-82.140564,29.171682]}},{"properties":{"name":"SunTrust Bank, Nature Coast","city":"Brooksville","zip":"34601","assets":"$1,717,694,000","url":null,"street":"1 East Jefferson Street","id":"aeuwxai2kvgu","geo_precision":"range","state":"Florida"},"type":"Feature","geometry":{"type":"Point","coordinates":[-82.387858,28.555619]}},{"properties":{"name":"Sun Bank and Trust Company","city":"Brooksville","zip":"34601","assets":"$1,094,453,000","url":null,"street":"1 East Jefferson Street","id":"aeuwxacozpxf","geo_precision":"range","state":"Florida"},"type":"Feature","geometry":{"type":"Point","coordinates":[-82.387858,28.555619]}},{"properties":{"name":"Barnett Bank of the Suncoast, National Association","city":"Brooksville","zip":"34613","assets":"$783,843,000","url":null,"street":"9223 Cortez Boulevard","id":"aeuwxagr6zie","geo_precision":"street","state":"Florida"},"type":"Feature","geometry":{"type":"Point","coordinates":[-82.564531,28.520944]}},{"properties":{"name":"Barnett Bank of Pasco County","city":"Port Richey","zip":"34668","assets":"$1,095,203,000","url":null,"street":"10220 U.S. Highway 19","id":"aeuwxaja8dmq","geo_precision":"street","state":"Florida"},"type":"Feature","geometry":{"type":"Point","coordinates":[-82.724256,28.271274]}},{"properties":{"name":"Anderen Bank","city":"Palm Harbor","zip":"34685","assets":"$198,744,000","url":"http://www.anderenbank.com:80/","street":"3412 East Lake Road","id":"aeuwxagu4tk7","geo_precision":"street","state":"Florida"},"type":"Feature","geometry":{"type":"Point","coordinates":[-82.698948,28.089461]}},{"properties":{"name":"First Savings Bank of Florida, F.S.B.","city":"Tarpon Springs","zip":"34689","assets":"$783,552,000","url":null,"street":"101 Federal Place","id":"aeuwxa9r5cw6","geo_precision":"street","state":"Florida"},"type":"Feature","geometry":{"type":"Point","coordinates":[-82.671867,28.037941]}},{"properties":{"name":"First Federal Savings and Loan Association of Osceola County","city":"Kissimmee","zip":"34741","assets":"$323,205,000","url":null,"street":"200 Broadway","id":"aeuwxajz1rwy","geo_precision":"range","state":"Florida"},"type":"Feature","geometry":{"type":"Point","coordinates":[-81.405544,28.294065]}},{"properties":{"name":"Centerstate Bank Central Florida, National Association","city":"Kissimmee","zip":"34744","assets":"$294,380,000","url":null,"street":"920 North Bermuda Avenue","id":"aeuwxabmylvq","geo_precision":"street","state":"Florida"},"type":"Feature","geometry":{"type":"Point","coordinates":[-81.418737,28.335162]}},{"properties":{"name":"First Federal Savings Bank of Lake County","city":"Leesburg","zip":"34748","assets":"$1,112,429,000","url":"http://www.1stfederal.com:80/","street":"800 North Boulevard West","id":"aeuwxag79seq","geo_precision":"range","state":"Florida"},"type":"Feature","geometry":{"type":"Point","coordinates":[-81.877128,28.817203]}},{"properties":{"name":"Sun First National Bank of Lake County","city":"Leesburg","zip":"34748","assets":"$176,237,000","url":null,"street":"900 North Fourteenth Street","id":"aeuwxaijyavg","geo_precision":"range","state":"Florida"},"type":"Feature","geometry":{"type":"Point","coordinates":[-81.887407,28.821956]}},{"properties":{"name":"Citizens National Bank of Leesburg","city":"Leesburg","zip":"34749","assets":"$536,330,000","url":null,"street":"1211 North Boulevard West","id":"aeuwxaer4cdw","geo_precision":"range","state":"Florida"},"type":"Feature","geometry":{"type":"Point","coordinates":[-81.881821,28.820187]}},{"properties":{"name":"Public Bank","city":"Saint Cloud","zip":"34769","assets":"$431,897,000","url":"http://www.publicbank.org:80/","street":"2500 13th Street","id":"aeuwxamwkjf2","geo_precision":"range","state":"Florida"},"type":"Feature","geometry":{"type":"Point","coordinates":[-81.296978,28.246091]}},{"properties":{"name":"Suntrust Bank, Treasure Coast, National Association","city":"Fort Pierce","zip":"34950","assets":"$798,689,000","url":null,"street":"111 Orange Avenue","id":"aeuwxa7l2arj","geo_precision":"range","state":"Florida"},"type":"Feature","geometry":{"type":"Point","coordinates":[-80.322129,27.448009]}},{"properties":{"name":"Barnett Bank of the Treasure Coast","city":"Port St. Lucie","zip":"34952","assets":"$618,771,000","url":null,"street":"900 East Prima Vista Boulevard","id":"aeuwxa993w3o","geo_precision":"range","state":"Florida"},"type":"Feature","geometry":{"type":"Point","coordinates":[-80.321781,27.32638]}},{"properties":{"name":"Barnett Bank of St. Lucie County","city":"St. Lucie County","zip":"34952","assets":"$247,324,000","url":null,"street":"900 East Prima Vista Boulevard","id":"aeuwxam745jy","geo_precision":"range","state":"Florida"},"type":"Feature","geometry":{"type":"Point","coordinates":[-80.321781,27.32638]}},{"properties":{"name":"First Peoples Bank","city":"Port Saint Lucie","zip":"34952","assets":"$225,035,000","url":null,"street":"1301 S.E. Port Saint Lucie Boulevard","id":"aeuwxa7g1n3a","geo_precision":"street","state":"Florida"},"type":"Feature","geometry":{"type":"Point","coordinates":[-80.28644,27.32333]}},{"properties":{"name":"Riverside National Bank of Florida","city":"Fort Pierce","zip":"34954","assets":"$3,393,818,000","url":null,"street":"2211 Okeechobee Road","id":"aeuwxa8bvk5u","geo_precision":"range","state":"Florida"},"type":"Feature","geometry":{"type":"Point","coordinates":[-80.34621,27.440089]}},{"properties":{"name":"Harbor Community Bank, FSB","city":"Indiantown","zip":"34956","assets":"$182,257,000","url":"http://www.harborcb.com:80/","street":"15588 Southwest Warfield Boulevard","id":"aeuwxa9ewgyk","geo_precision":"range","state":"Florida"},"type":"Feature","geometry":{"type":"Point","coordinates":[-80.464698,27.019237]}},{"properties":{"name":"Big Lake National Bank","city":"Okeechobee","zip":"34974","assets":"$331,464,000","url":"http://www.biglakenationalbank.com:80/","street":"1409 South Parrott Avenue","id":"aeuwxahjpuh0","geo_precision":"street","state":"Florida"},"type":"Feature","geometry":{"type":"Point","coordinates":[-80.829894,27.232235]}},{"properties":{"name":"Seacoast Banking Corporation of Florida","city":"Stuart","zip":"34994","assets":null,"url":"http://www.seacoastcorp.com/","street":"815 Colorado Avenue","id":"aeuwxalvnwx7","geo_precision":"range","state":"FL"},"type":"Feature","geometry":{"type":"Point","coordinates":[-80.252828,27.192226]}},{"properties":{"name":"Seacoast National Bank","city":"Stuart","zip":"34995","assets":"$2,167,409,000","url":"http://www.seacoastnational.com:80/","street":"815 Colorado Avenue","id":"aeuwxa8dwtcs","geo_precision":"range","state":"Florida"},"type":"Feature","geometry":{"type":"Point","coordinates":[-80.252828,27.192226]}},{"properties":{"name":"Gulfstream Business Bank","city":"Stuart","zip":"34996","assets":"$542,499,000","url":"http://www.gsbb.com:80/","street":"2400 Se Monterey Road, Suite 100","id":"aeuwxahh9ix4","geo_precision":"street","state":"Florida"},"type":"Feature","geometry":{"type":"Point","coordinates":[-80.220624,27.201019]}},{"properties":{"name":"Ocean Bankshares, Inc.","city":"Miami","zip":"33126-5597","assets":null,"url":"http://www.oceanbank.com","street":"780 NW 42nd Ave.","id":"aeuwxailgu2h","geo_precision":"range","state":"FL"},"type":"Feature","geometry":{"type":"Point","coordinates":[-80.264084,25.778789]}},{"properties":{"name":"Riverside Banking Company","city":"Fort Pierce","zip":"34950-6552","assets":null,"url":"http://www.riversidenb.com","street":"2211 Okeechobee Rd.","id":"aeuwxa7k37sh","geo_precision":"range","state":"FL"},"type":"Feature","geometry":{"type":"Point","coordinates":[-80.34621,27.440089]}},{"properties":{"name":"Alarion Bank (Ocala)","city":"Ocala","zip":null,"assets":"$253,477,000","url":null,"street":"1 NE 1st Ave","id":"aeuwxah0qitu","geo_precision":"range","state":"FL"},"type":"Feature","geometry":{"type":"Point","coordinates":[-82.136015,29.187087]}},{"properties":{"name":"First Bank (Clewiston )","city":"Clewiston","zip":null,"assets":"$249,104,000","url":"http://www.first1bank.net","street":null,"id":"aeuwxallggoi","geo_precision":"city","state":"FL"},"type":"Feature","geometry":{"type":"Point","coordinates":[-81.090897,26.630066]}},{"properties":{"name":"Independent National Bank (Ocala)","city":"Ocala","zip":null,"assets":"$214,211,000","url":null,"street":"60 SW 17th St","id":"aeuwxalcx5fi","geo_precision":"range","state":"FL"},"type":"Feature","geometry":{"type":"Point","coordinates":[-82.138426,29.171554]}},{"properties":{"name":"Perkins State Bank (Williston)","city":"Williston","zip":null,"assets":"$177,293,000","url":null,"street":null,"id":"aeuwxa83wla8","geo_precision":"city","state":"FL"},"type":"Feature","geometry":{"type":"Point","coordinates":[-82.635652,29.354149]}},{"properties":{"name":"Bayview Financial (Coral Gables)","city":"Coral Gables","zip":null,"assets":null,"url":null,"street":null,"id":"aeuwxams4zj9","geo_precision":"city","state":"FL"},"type":"Feature","geometry":{"type":"Point","coordinates":[-82.742879,28.053073]}},{"properties":{"name":"First Florida Credit Union","city":"City Jacksonville","zip":"32203","assets":"$359,824,790","url":"WWW.FIRSTFLORIDA.ORG","street":"P.O. Box 43310","id":"aeuwxaens8ig","geo_precision":"street","state":"FL"},"type":"Feature","geometry":{"type":"Point","coordinates":[-81.783987,30.233532]}},{"properties":{"name":"121FCU","city":"City Jacksonville","zip":"32245","assets":"$419,251,459","url":"WWW.121fcu.org","street":"P.O. Box 16688","id":"aeuwxaewp0p9","geo_precision":"street","state":"FL"},"type":"Feature","geometry":{"type":"Point","coordinates":[-81.783987,30.233532]}},{"properties":{"name":"Duval FCU","city":"City Jacksonville","zip":"32254","assets":"$55,161,140","url":"http://www.duvalfcu.org/","street":"500 Mcduff Ave., South","id":"aeuwxaebk56p","geo_precision":"street","state":"FL"},"type":"Feature","geometry":{"type":"Point","coordinates":[-81.705548,30.329824]}},{"properties":{"name":"Southeast Corporate FCU","city":"TALLAHASSEE","zip":"32303","assets":null,"url":"http://www.secorp.org","street":"3555 COMMONWEALTH BLVD","id":"aeuwxan9qysl","geo_precision":"range","state":"FL"},"type":"Feature","geometry":{"type":"Point","coordinates":[-84.35688,30.475643]}},{"properties":{"name":"Florida Commerce CU","city":"TALLAHASSEE","zip":"32308","assets":"$332,871,441","url":"WWW.FLORIDACOMMERCE.ORG","street":"2330 MAHAN DRIVE","id":"aeuwxadczqk0","geo_precision":"range","state":"FL"},"type":"Feature","geometry":{"type":"Point","coordinates":[-84.24318,30.454564]}},{"properties":{"name":"Credit Union 24 Inc","city":"Tallahassee","zip":"32309","assets":null,"url":"http://www.cu24.com","street":"2252 Killearn Center Blvd. Suite 300","id":"aeuwxabkooo5","geo_precision":"street","state":"FL"},"type":"Feature","geometry":{"type":"Point","coordinates":[-84.24445,30.512528]}},{"properties":{"name":"FOCUS CU","city":"CHATTAHOOCHEE","zip":"32324","assets":"$113,584,258","url":"WWW.FOCUSCU.ORG","street":"P.O. BOX 835","id":"aeuwxaegeo07","geo_precision":"street","state":"FL"},"type":"Feature","geometry":{"type":"Point","coordinates":[-83.887078,30.45262]}},{"properties":{"name":"Gulf Winds FCU","city":"Pensacola","zip":"32534","assets":"$308,036,927","url":"WWW.GWFCU.ORG","street":"220 E. Nine Mile Rd","id":"aeuwxaa5n3ep","geo_precision":"street","state":"FL"},"type":"Feature","geometry":{"type":"Point","coordinates":[-87.273812,30.533306]}},{"properties":{"name":"Eglin Federal CU","city":"Walton Beach","zip":"32547","assets":"$1,231,050,110","url":"WWW.EGLINFCU.ORG","street":"9788 838 Eglin Pkwy NE 250 Fm 2821 Ft.","id":"aeuwxafzsb1b","geo_precision":"street","state":"FL"},"type":"Feature","geometry":{"type":"Point","coordinates":[-86.593213,30.441231]}},{"properties":{"name":"Members First of Florida","city":"PENSACOLA","zip":"32591","assets":"$127,785,407","url":"WWW.MEMBERSFIRSTFL.ORG","street":"P. O. BOX 12983","id":"aeuwxafl982d","geo_precision":"street","state":"FL"},"type":"Feature","geometry":{"type":"Point","coordinates":[-87.242824,30.413047]}},{"properties":{"name":"Campus USA Credit Union (FL)","city":"Gainesville","zip":"32614","assets":"$1, 163,720,551","url":"WWW.CAMPUSCU.COM","street":"P.O. Box 147029","id":"aeuwxabd41n0","geo_precision":"zip","state":"FL"},"type":"Feature","geometry":{"type":"Point","coordinates":[-82.353862,29.681312]}},{"properties":{"name":"Insight Credit Union","city":"ORLANDO","zip":"32802","assets":"$436,349,160","url":"https://insightcreditunion.com/","street":"PO BOX 4900","id":"aeuwxah0u675","geo_precision":"street","state":"FL"},"type":"Feature","geometry":{"type":"Point","coordinates":[-81.361669,28.493923]}},{"properties":{"name":"Orlando Federal CU","city":"Orlando","zip":"32805","assets":"$156,818,139","url":"WWW.ORLANDOFCU.ORG","street":"1117 S. Westmoreland","id":"aeuwxai6rz3x","geo_precision":"street","state":"FL"},"type":"Feature","geometry":{"type":"Point","coordinates":[-81.393166,28.541983]}},{"properties":{"name":"Martin Federal CU","city":"Orlando","zip":"32809","assets":"$127,973,556","url":"WWW.MARTINFCU.ORG","street":"1727 Orlando Central Parkway","id":"aeuwxaitt06p","geo_precision":"range","state":"FL"},"type":"Feature","geometry":{"type":"Point","coordinates":[-81.399664,28.463561]}},{"properties":{"name":"Community Credit Union (FL)","city":"Rockledge","zip":"32955","assets":"$340,742,774","url":"www.ccuflorida.org","street":"1030 S Us 1 Hwy","id":"aeuwxahf46bq","geo_precision":"range","state":"FL"},"type":"Feature","geometry":{"type":"Point","coordinates":[-80.728618,28.34424]}},{"properties":{"name":"JetStream FCU","city":"MIAMI LAKES","zip":"33014","assets":"$103,923,004","url":"WWW.JETSTREAMFCU.ORG","street":"P.O. BOX 5487","id":"aeuwxalg0kuq","geo_precision":"zip","state":"FL"},"type":"Feature","geometry":{"type":"Point","coordinates":[-80.302463,25.904128]}},{"properties":{"name":"POWER FINANCIAL","city":"PEMBROKE PINES","zip":"33028","assets":"$519,262,701","url":"WWW.POWERFI.ORG","street":"2020 NW 150 AVENUE","id":"aeuwxalfynw4","geo_precision":"range","state":"FL"},"type":"Feature","geometry":{"type":"Point","coordinates":[-80.347586,26.026751]}},{"properties":{"name":"Keys Federal Credit Union","city":"Key West","zip":"33040","assets":"$196,298,760","url":"WWW.KEYSFCU.ORG","street":"P.O. Box 1898","id":"aeuwxa7x89gk","geo_precision":"zip","state":"FL"},"type":"Feature","geometry":{"type":"Point","coordinates":[-81.738424,24.567091]}},{"properties":{"name":"University CU - FL","city":"Miami","zip":"33143","assets":"$183,175,764","url":"www.myunicu.coop","street":"6250 SW 57th Ave","id":"aeuwxa7dnyfy","geo_precision":"street","state":"FL"},"type":"Feature","geometry":{"type":"Point","coordinates":[-80.306299,25.716728]}},{"properties":{"name":"DADE COUNTY FEDERAL CREDIT","city":"Miami","zip":"33172","assets":"$505,578,247","url":"WWW.DCFCU.ORG","street":"1500 NW 107 Avenue","id":"aeuwxai5kdug","geo_precision":"range","state":"FL"},"type":"Feature","geometry":{"type":"Point","coordinates":[-80.368769,25.78711]}},{"properties":{"name":"Compass Financial Federal Credit Union","city":"Medley","zip":"33178","assets":null,"url":null,"street":"9960 NW 10016th Way Suite 5","id":"aeuwxahw012u","geo_precision":"range","state":"FL"},"type":"Feature","geometry":{"type":"Point","coordinates":[-80.205834,25.865971]}},{"properties":{"name":"South Florida Educational FCU","city":"MIAMI","zip":"33183","assets":"$724,852,403","url":"SFEFCU.ORG","street":"7800 SW 117TH AVENUE","id":"aeuwxacmjv7q","geo_precision":"range","state":"FL"},"type":"Feature","geometry":{"type":"Point","coordinates":[-80.382111,25.696199]}},{"properties":{"name":"City County CU Of Fort Lauderdale","city":"Lauderdale","zip":"33302","assets":"$279,520,665","url":"WWW.CITYCOUNTYCU.ORG","street":"P.O. Box 14548 Ft.","id":"aeuwxa8uvwt2","geo_precision":"street","state":"FL"},"type":"Feature","geometry":{"type":"Point","coordinates":[-80.214269,26.050266]}},{"properties":{"name":"FIRST CHOICE (FL)","city":"WEST PALM BEACH","zip":"33406","assets":"$145,236,466","url":"WWW.FIRSTCHOICECU.ORG","street":"1055 S CONGRESS AVENUE","id":"aeuwxalf170u","geo_precision":"range","state":"FL"},"type":"Feature","geometry":{"type":"Point","coordinates":[-80.088376,26.662009]}},{"properties":{"name":"USF FCU","city":"TAMPA","zip":"33612","assets":"$333,329,132","url":"WWW.USFFCU.ORG","street":"13302 USF PALM DRIVE","id":"aeuwxaeepimn","geo_precision":"range","state":"FL"},"type":"Feature","geometry":{"type":"Point","coordinates":[-82.413306,28.065664]}},{"properties":{"name":"Tampa Bay FCU","city":"TAMPA","zip":"33673","assets":"$223,293,386","url":"WWW.TAMPABAYFEDERAL.COM","street":"P.O. BOX 7492","id":"aeuwxa8k0gby","geo_precision":"street","state":"FL"},"type":"Feature","geometry":{"type":"Point","coordinates":[-82.584402,28.022026]}},{"properties":{"name":"Suncoast Schools Federal Credit Union","city":"Tampa","zip":"33680","assets":"$5,017,032,849","url":"WWW.SUNCOASTFCU.ORG","street":"P.O. Box 11904","id":"aeuwxal5130d","geo_precision":"street","state":"FL"},"type":"Feature","geometry":{"type":"Point","coordinates":[-82.584402,28.022026]}},{"properties":{"name":"Grow Financial Federal Credit Union","city":"Tampa","zip":"33689","assets":"$1,822,487,765","url":"WWW.growFinancial.org","street":"9976 P.O. Box 89909","id":"aeuwxaaa959r","geo_precision":"street","state":"FL"},"type":"Feature","geometry":{"type":"Point","coordinates":[-82.584402,28.022026]}},{"properties":{"name":"PSCU (PublicService)","city":"St. Petersburg","zip":"33716","assets":null,"url":"www.pscu.com","street":"Corporate Headquarters 560 Carillon Parkway","id":"aeuwxabyf2oo","geo_precision":"street","state":"FL"},"type":"Feature","geometry":{"type":"Point","coordinates":[-82.668523,27.888253]}},{"properties":{"name":"Publix Employees FCU","city":"Lakeland","zip":"33802","assets":"$507,170,105","url":"WWW.PEFCU.COM","street":"23020 P.O. Box 1000","id":"aeuwxajohrus","geo_precision":"street","state":"FL"},"type":"Feature","geometry":{"type":"Point","coordinates":[-81.573331,28.006308]}},{"properties":{"name":"Magnify (Community First)","city":"MULBERRY","zip":"33860","assets":"$102,852,917","url":"http://www.magnifycu.org/","street":"P.O. BOX 427","id":"aeuwxaltx9ou","geo_precision":"street","state":"FL"},"type":"Feature","geometry":{"type":"Point","coordinates":[-81.573331,28.006308]}},{"properties":{"name":"McCoy Federal Credit Union","city":"Orlando","zip":"593806","assets":"$387,882,586","url":"WWW.MCCOYFCU.ORG","street":"P.O. Box 593806","id":"aeuwxahcdm4m","geo_precision":"street","state":"FL"},"type":"Feature","geometry":{"type":"Point","coordinates":[-81.361669,28.493923]}},{"properties":{"name":"VyStar CU (Jacksonville)","city":"Jacksonville","zip":"32232-5085","assets":"$4,755,193,144","url":"WWW.VYSTARCU.ORG","street":"P.O. Box 45085","id":"aeuwxaa3hmw3","geo_precision":"street","state":"FL"},"type":"Feature","geometry":{"type":"Point","coordinates":[-81.783987,30.233532]}},{"properties":{"name":"Coastline Federal CU","city":"Jacksonville","zip":"32247-7410","assets":"$138,802,524","url":"WWW.COASTLINEFCU.ORG","street":"1115 PO Box 47410","id":"aeuwxaggna72","geo_precision":"street","state":"FL"},"type":"Feature","geometry":{"type":"Point","coordinates":[-81.785131,30.233515]}},{"properties":{"name":"Jacksonville Police FCU","city":"Jacksonville","zip":"32257-6109","assets":"$72,000,000","url":null,"street":"4675 Sunbeam Rd.","id":"aeuwxa79tpfb","geo_precision":"range","state":"FL"},"type":"Feature","geometry":{"type":"Point","coordinates":[-81.592463,30.206138]}},{"properties":{"name":"United Solutions Co.","city":"Tallahassee","zip":"32314-5496","assets":null,"url":"www.unitedsolutions.coop","street":"PO Box 5496","id":"aeuwxai0jist","geo_precision":"street","state":"FL"},"type":"Feature","geometry":{"type":"Point","coordinates":[-84.209383,30.388672]}},{"properties":{"name":"Innovations FCU","city":"PANAMA CITY","zip":"32406-5529","assets":"$150,371,301","url":"WWW.INNOVATIONSFCU.ORG","street":"P O BOX 15529","id":"aeuwxa9zvpy0","geo_precision":"street","state":"FL"},"type":"Feature","geometry":{"type":"Point","coordinates":[-86.096938,30.308929]}},{"properties":{"name":"EASTERN FINANCIAL","city":"MIRAMAR","zip":"33027-322","assets":"$1,994,537,761","url":"WWW.EFFCU.COM","street":"3700 LAKESIDE DRIVE","id":"aeuwxacssac2","geo_precision":"range","state":"FL"},"type":"Feature","geometry":{"type":"Point","coordinates":[-80.346062,25.976007]}},{"properties":{"name":"GOLD COAST","city":"WEST PALM BEACH","zip":"33416-6719","assets":"$105,852,749","url":"GCFCU.ORG","street":"PO BOX 16719","id":"aeuwxakmpxz2","geo_precision":"street","state":"FL"},"type":"Feature","geometry":{"type":"Point","coordinates":[-80.61473,26.849839]}},{"properties":{"name":"IBM Southeast EFCU","city":"BOCA RATON","zip":"33431-0890","assets":"$820,783,651","url":"https://www.ibmsecu.org","street":"P.O. BOX 5090","id":"aeuwxaf6oh1t","geo_precision":"street","state":"FL"},"type":"Feature","geometry":{"type":"Point","coordinates":[-80.05691,26.700678]}},{"properties":{"name":"GTE Federal Credit Union","city":"Tampa","zip":null,"assets":"$2,157,267,115","url":"WWW.GTEFCU.ORG","street":null,"id":"aeuwxag0npuf","geo_precision":"city","state":"FL"},"type":"Feature","geometry":{"type":"Point","coordinates":[-82.582035,27.996097]}},{"properties":{"name":"Florida CU","city":"Gainesville","zip":null,"assets":"$449,469,820","url":"WWW.FLCU.ORG","street":null,"id":"aeuwxab82vh5","geo_precision":"city","state":"FL"},"type":"Feature","geometry":{"type":"Point","coordinates":[-82.345739,29.68041]}},{"properties":{"name":"BrightStar CU","city":"Ft. Lauderdale","zip":null,"assets":"$334,028,451","url":"WWW.BSCU.ORG","street":null,"id":"aeuwxa8h2vg8","geo_precision":"city","state":"FL"},"type":"Feature","geometry":{"type":"Point","coordinates":[-80.208381,26.166474]}},{"properties":{"name":"Jax Metro Credit Union","city":"Jacksonville","zip":null,"assets":"$331,772,080","url":"WWW.JAXFCU.ORG","street":"340 P.O. Box 2357","id":"aeuwxaladh1s","geo_precision":"unmatched","state":"FL"},"type":"Feature","geometry":null},{"properties":{"name":"SEFCU FL","city":"Jacksonville","zip":null,"assets":"$301,833,117","url":"www.secufl.org","street":null,"id":"aeuwxab8ayzs","geo_precision":"unmatched","state":"FL"},"type":"Feature","geometry":null},{"properties":{"name":"Railroad &amp; Industrial FCU","city":"Tampa","zip":null,"assets":"$292,930,627","url":"WWW.RIFCU.ORG","street":null,"id":"aeuwxan4jfc9","geo_precision":"city","state":"FL"},"type":"Feature","geometry":{"type":"Point","coordinates":[-82.582035,27.996097]}},{"properties":{"name":"SunState Federal CU","city":"Gainesville","zip":null,"assets":"$245,877,938","url":"WWW.SUNSTATEFCU.ORG","street":null,"id":"aeuwxadua5d1","geo_precision":"city","state":"FL"},"type":"Feature","geometry":{"type":"Point","coordinates":[-82.345739,29.68041]}},{"properties":{"name":"Velocity Community Credit Union","city":"Palm Beach Gardens","zip":null,"assets":"$234,266,201","url":"www.velocitycommunity.org","street":"2801 PGA Boulevard","id":"aeuwxaby3xwl","geo_precision":"range","state":"FL"},"type":"Feature","geometry":{"type":"Point","coordinates":[-80.076394,26.84483]}},{"properties":{"name":"Bay Gulf Credit Union","city":"Tampa","zip":null,"assets":"$146,327,916","url":"WWW.BAYGULF.COM","street":null,"id":"aeuwxaj8uy9b","geo_precision":"city","state":"FL"},"type":"Feature","geometry":{"type":"Point","coordinates":[-82.582035,27.996097]}},{"properties":{"name":"Miami Federal CU","city":"Miami","zip":null,"assets":"$26,413,672","url":"www.miamifcu.org","street":null,"id":"aeuwxajlwblf","geo_precision":"city","state":"FL"},"type":"Feature","geometry":{"type":"Point","coordinates":[-80.193659,25.774266]}},{"properties":{"name":"Ctrl FL HealthCare FCU","city":null,"zip":null,"assets":null,"url":null,"street":null,"id":"aeuwxafmyzr0","geo_precision":"unmatched","state":"FL"},"type":"Feature","geometry":null},{"properties":{"name":"Harvesters FCU (FL)","city":null,"zip":null,"assets":null,"url":null,"street":null,"id":"aeuwxaldb4fu","geo_precision":"unmatched","state":"FL"},"type":"Feature","geometry":null},{"properties":{"name":"1st CU of Gainesville (inactive)","city":"Gainesville","zip":"32602","assets":"$44,320,385","url":"www.1stcu.com","street":"P.O. Box 2339","id":"aeuwxa8gh7m7","geo_precision":"zip","state":"FL"},"type":"Feature","geometry":{"type":"Point","coordinates":[-82.396567,29.629887]}},{"properties":{"name":"First Commerce CU","city":"Tallahassee","zip":"32314","assets":"$362,000,000","url":"www.floridacommercecu.org","street":"P.O. Box","id":"aeuwxacm0l2h","geo_precision":"street","state":"FL"},"type":"Feature","geometry":{"type":"Point","coordinates":[-83.887078,30.45262]}},{"properties":{"name":"Orlando FCU","city":"Orlando","zip":"32805","assets":"$171,457,551","url":"www.orlandofcu.org","street":"1117 s. Westmoreland Dr.","id":"aeuwxab3ff4e","geo_precision":"street","state":"FL"},"type":"Feature","geometry":{"type":"Point","coordinates":[-81.393166,28.541983]}},{"properties":{"name":"City &amp; Police","city":"Jacksonville","zip":"32257-6109","assets":"$72,474,208","url":"www.cityfcu.com","street":"4675 Sunbeam Rd","id":"aeuwxahwo702","geo_precision":"range","state":"FL"},"type":"Feature","geometry":{"type":"Point","coordinates":[-81.592463,30.206138]}},{"properties":{"name":"Ocean Bank","city":"Miami","zip":"33126-5538","assets":"$3,200,000,000","url":"www.oceanbank.com","street":"780 NW 42nd Ave","id":"aeuwxa8hg32l","geo_precision":"range","state":"FL"},"type":"Feature","geometry":{"type":"Point","coordinates":[-80.264084,25.778789]}}],"is_temporal":false,"author":{"url":"","metadata":"","contact_name":"","contact_address":"","source":"","contact_phone":""},"source":"","pagination":{"sort":null,"start":0,"total":606,"limit":1000000},"state":"complete","tags":"","published":"2014-08-16T20:20:02-04:00","id":365255}