{"type":"FeatureCollection","data_type":"Dataset","url_type":null,"permissions":[{"permissions":{"download":true,"view":true},"group_id":"everyone"}],"classification":null,"title":"Sears Portrait List Comparison","count":157,"stream_id":365628,"contributor":{"url":"http://geocommons.com/users/74498","name":"mterranova"},"data_attributes":null,"calculation_params":null,"icon_link":null,"link":"http://geocommons.com/overlays/365628.json","extent":[-80.0766,39.4425,-68.01,46.7007],"geometry_types":["point"],"unique_name":null,"name":"Sears Portrait List Comparison","feature_count":157,"description":"","next_feature":null,"is_raster":false,"short_classification":"Y","stats":{"latitude":{"max":46.7014165,"variance":1.70760259129347,"mean":41.6220826682927,"stdev":1.30675268941505,"min":39.454451,"median":41.4606354},"longitude":{"max":-68.0095885,"variance":5.20943026641309,"mean":-74.2712379203252,"stdev":2.28241763628243,"min":-80.1038718,"median":-74.071397}},"features":[{"properties":{"city":"Watertown","latitude":null,"store name":"Arsenal Mall","geo_score":1.0,"zip code":"2472","longitude":null,"id":"aevtewkad3o8","address":"485 Arsenal Street","geo_precision":"range","state":"MA","developer":"No Sears Portrait"},"type":"Feature","geometry":{"type":"Point","coordinates":[-71.156,42.362599]}},{"properties":{"city":"Bangor","latitude":null,"store name":"Bangor Mall","geo_score":1.0,"zip code":"4401","longitude":null,"id":"aevtewiicn1d","address":"557 Stillwater Avenue","geo_precision":"range","state":"ME","developer":"No Sears Portrait"},"type":"Feature","geometry":{"type":"Point","coordinates":[-68.755175,44.828438]}},{"properties":{"city":"Springfield","latitude":null,"store name":"Bright Nights","geo_score":1.0,"zip code":"1103","longitude":null,"id":"aevtewfqd90j","address":"1350 Main Street","geo_precision":"range","state":"MA","developer":"No Sears Portrait"},"type":"Feature","geometry":{"type":"Point","coordinates":[-72.589345,42.10201]}},{"properties":{"city":"East Brunswick","latitude":null,"store name":"Brunswick Square","geo_score":0.82,"zip code":"8816","longitude":null,"id":"aevtews2njab","address":"755 New Jersey 18","geo_precision":"range","state":"NJ","developer":"No Sears Portrait"},"type":"Feature","geometry":{"type":"Point","coordinates":[-74.382254,40.427319]}},{"properties":{"city":"Syracuse","latitude":null,"store name":"Carousel Center","geo_score":0.714,"zip code":"13290","longitude":null,"id":"aevtewsp64ot","address":"Harborside dr","geo_precision":"street","state":"NY","developer":"No Sears Portrait"},"type":"Feature","geometry":{"type":"Point","coordinates":[-76.173954,43.072088]}},{"properties":{"city":"Waterford","latitude":null,"store name":"Crystal Mall","geo_score":1.0,"zip code":"6385","longitude":null,"id":"aevtewn31xy5","address":"850 Hartford Turnpike","geo_precision":"range","state":"CT","developer":"No Sears Portrait"},"type":"Feature","geometry":{"type":"Point","coordinates":[-72.141065,41.374832]}},{"properties":{"city":"North Attleboro","latitude":null,"store name":"Emerald Square","geo_score":1.0,"zip code":"2760","longitude":null,"id":"aevtewps8cqk","address":"999 South Washington St","geo_precision":"range","state":"MA","developer":"No Sears Portrait"},"type":"Feature","geometry":{"type":"Point","coordinates":[-71.345119,41.951148]}},{"properties":{"city":"Fort Drum","latitude":null,"store name":"Fort Drum","geo_score":0.857,"zip code":"13602","longitude":null,"id":"aevtewo4cyh2","address":"Enduring Freedom Dr","geo_precision":"zip","state":"NY","developer":"No Sears Portrait"},"type":"Feature","geometry":{"type":"Point","coordinates":[-75.754468,44.032457]}},{"properties":{"city":"Newington","latitude":null,"store name":"Fox Run","geo_score":0.346,"zip code":"3801","longitude":null,"id":"aevtewe4qqfu","address":"50 Fox Run Road","geo_precision":"street","state":"NH","developer":"No Sears Portrait"},"type":"Feature","geometry":{"type":"Point","coordinates":[-70.988019,43.432708]}},{"properties":{"city":"Middletown","latitude":null,"store name":"Galleria at Crystal Run","geo_score":1.0,"zip code":"10941","longitude":null,"id":"aevtewfk3aku","address":"1 Ballard rd","geo_precision":"range","state":"NY","developer":"No Sears Portrait"},"type":"Feature","geometry":{"type":"Point","coordinates":[-74.361196,41.465241]}},{"properties":{"city":"Cranston","latitude":null,"store name":"Garden City Center","geo_score":0.727,"zip code":"02920","longitude":null,"id":"aevtewjcb5qd","address":"Route 2","geo_precision":"street","state":"RI","developer":"No Sears Portrait"},"type":"Feature","geometry":{"type":"Point","coordinates":[-71.459019,41.765159]}},{"properties":{"city":"Hadley","latitude":null,"store name":"Hampshire Mall","geo_score":1.0,"zip code":"1035","longitude":null,"id":"aevtewrgbkw6","address":"341 Russell Street","geo_precision":"range","state":"MA","developer":"No Sears Portrait"},"type":"Feature","geometry":{"type":"Point","coordinates":[-72.551442,42.357291]}},{"properties":{"city":"Whitehall","latitude":null,"store name":"Lehigh Valley Mall","geo_score":1.0,"zip code":"18052","longitude":null,"id":"aevtewr8io1z","address":"St Paul St","geo_precision":"street","state":"PA","developer":"No Sears Portrait"},"type":"Feature","geometry":{"type":"Point","coordinates":[-75.472279,40.631105]}},{"properties":{"city":"Salem","latitude":null,"store name":"Mall at Rockingham Park","geo_score":0.607,"zip code":"3079","longitude":null,"id":"aevtewqee6gb","address":"99 Rockingham Park Blvd","geo_precision":"street","state":"NH","developer":"No Sears Portrait"},"type":"Feature","geometry":{"type":"Point","coordinates":[-71.220395,42.776421]}},{"properties":{"city":"Westbury","latitude":null,"store name":"Mall at The Source","geo_score":1.0,"zip code":"11590","longitude":null,"id":"aevtewmo9x6f","address":"1504 Old Country Road","geo_precision":"range","state":"NY","developer":"No Sears Portrait"},"type":"Feature","geometry":{"type":"Point","coordinates":[-73.593333,40.747084]}},{"properties":{"city":"Manchester","latitude":null,"store name":"Mall of New Hampshire","geo_score":1.0,"zip code":"3103","longitude":null,"id":"aevtewtfw1s5","address":"1500 South Willow St","geo_precision":"range","state":"NH","developer":"No Sears Portrait"},"type":"Feature","geometry":{"type":"Point","coordinates":[-71.435833,42.956489]}},{"properties":{"city":"Edison","latitude":null,"store name":"Menlo Park Mall","geo_score":1.0,"zip code":"8837","longitude":null,"id":"aevtewmhb9mc","address":"55 Parsonage Road","geo_precision":"range","state":"NJ","developer":"No Sears Portrait"},"type":"Feature","geometry":{"type":"Point","coordinates":[-74.333741,40.548068]}},{"properties":{"city":"Jersey City","latitude":null,"store name":"Newport Centre","geo_score":1.0,"zip code":"7310","longitude":null,"id":"aevtewfg2ftu","address":"30 Mall Drive West","geo_precision":"range","state":"NJ","developer":"No Sears Portrait"},"type":"Feature","geometry":{"type":"Point","coordinates":[-74.039326,40.729517]}},{"properties":{"city":"Peabody","latitude":null,"store name":"Northshore Mall","geo_score":0.902,"zip code":"1960","longitude":null,"id":"aevteweuv1yv","address":"210 Andover St","geo_precision":"street","state":"MA","developer":"No Sears Portrait"},"type":"Feature","geometry":{"type":"Point","coordinates":[-70.94377,42.544806]}},{"properties":{"city":"West Nyack","latitude":null,"store name":"Palisades Center","geo_score":1.0,"zip code":"10994","longitude":null,"id":"aevtewtadmoq","address":"1000 Palisades Center Drive","geo_precision":"range","state":"NY","developer":"No Sears Portrait"},"type":"Feature","geometry":{"type":"Point","coordinates":[-73.955551,41.099897]}},{"properties":{"city":"Nashua","latitude":null,"store name":"Pheasant Lane","geo_score":1.0,"zip code":"3060","longitude":null,"id":"aevtewebpks3","address":"310 Daniel Webster Hwy","geo_precision":"range","state":"NH","developer":"No Sears Portrait"},"type":"Feature","geometry":{"type":"Point","coordinates":[-71.440764,42.702758]}},{"properties":{"city":"Rockaway","latitude":null,"store name":"Rockaway Townsquare","geo_score":1.0,"zip code":"7866","longitude":null,"id":"aevtewlgwduh","address":"301 Mount Hope Ave","geo_precision":"range","state":"NJ","developer":"No Sears Portrait"},"type":"Feature","geometry":{"type":"Point","coordinates":[-74.533665,40.916781]}},{"properties":{"city":"Garden City","latitude":null,"store name":"Roosevelt Field","geo_score":1.0,"zip code":"11530","longitude":null,"id":"aevtewe2hxyf","address":"630 Old Country Rd","geo_precision":"range","state":"NY","developer":"No Sears Portrait"},"type":"Feature","geometry":{"type":"Point","coordinates":[-73.611203,40.743649]}},{"properties":{"city":"Flushing","latitude":null,"store name":"Sky View Center","geo_score":0.854,"zip code":"11354","longitude":null,"id":"aevtewkx15a7","address":"40-24 College Point Boulevard","geo_precision":"range","state":"NY","developer":"No Sears Portrait"},"type":"Feature","geometry":{"type":"Point","coordinates":[-73.834272,40.758173]}},{"properties":{"city":"New York","latitude":null,"store name":"The Shops at The Plaza","geo_score":0.935,"zip code":"10019","longitude":null,"id":"aevtewtflnim","address":"1 W 58th Street","geo_precision":"range","state":"NY","developer":"No Sears Portrait"},"type":"Feature","geometry":{"type":"Point","coordinates":[-73.976703,40.764996]}},{"properties":{"city":"White Plains","latitude":null,"store name":"The Westchester","geo_score":1.0,"zip code":"10601","longitude":null,"id":"aevtewj83xr3","address":"125 Westchester Ave","geo_precision":"range","state":"NY","developer":"No Sears Portrait"},"type":"Feature","geometry":{"type":"Point","coordinates":[-73.757931,41.032571]}},{"properties":{"city":"Huntington Station","latitude":null,"store name":"Walt Whitman Mall","geo_score":1.0,"zip code":"11746","longitude":null,"id":"aevtewrubwou","address":"160 Walt Whitman Rd","geo_precision":"range","state":"NY","developer":"No Sears Portrait"},"type":"Feature","geometry":{"type":"Point","coordinates":[-73.412393,40.824833]}},{"properties":{"city":"York","latitude":null,"store name":"West Manchester Mall","geo_score":0.585,"zip code":"17404","longitude":null,"id":"aevtewq7tuu4","address":"1800 Loucks Road","geo_precision":"zip","state":"PA","developer":"No Sears Portrait"},"type":"Feature","geometry":{"type":"Point","coordinates":[-76.577982,39.934957]}},{"properties":{"city":"Horseheads","latitude":42.158994,"store name":"Arnot Mall","geo_score":1.0,"zip code":"14845","longitude":-76.8758537,"id":"aevtewna09om","address":"3300 Chambers Rd","geo_precision":"range","state":"NY","developer":"Sears - Non Noerr Location"},"type":"Feature","geometry":{"type":"Point","coordinates":[-76.877031,42.155046]}},{"properties":{"city":"Presque Isle","latitude":46.7014165,"store name":"Aroostook Centre Mall","geo_score":0.854,"zip code":"4769","longitude":-68.0095885,"id":"aevtewtl0qcz","address":"830 Main St Unit 4","geo_precision":"range","state":"ME","developer":"Sears - Non Noerr Location"},"type":"Feature","geometry":{"type":"Point","coordinates":[-68.01002,46.700738]}},{"properties":{"city":"Reading","latitude":40.3382579,"store name":"Berkshire Mall","geo_score":1.0,"zip code":"19610","longitude":-75.9721578,"id":"aevtewj9davd","address":"1665 State Hill Rd","geo_precision":"range","state":"PA","developer":"Sears - Non Noerr Location"},"type":"Feature","geometry":{"type":"Point","coordinates":[-75.972733,40.338391]}},{"properties":{"city":"Buffalo","latitude":42.985805,"store name":"Boulevard Mall","geo_score":1.0,"zip code":"14226","longitude":-78.821113,"id":"aevtewnycea5","address":"1261 Niagara Falls Blvd","geo_precision":"range","state":"NY","developer":"Sears - Non Noerr Location"},"type":"Feature","geometry":{"type":"Point","coordinates":[-78.822538,42.988834]}},{"properties":{"city":"Waterbury","latitude":41.5483584,"store name":"Brass Mill Center","geo_score":1.0,"zip code":"6706","longitude":-73.0270503,"id":"aevtewosueur","address":"425 Union Street","geo_precision":"range","state":"CT","developer":"Sears - Non Noerr Location"},"type":"Feature","geometry":{"type":"Point","coordinates":[-73.026882,41.548377]}},{"properties":{"city":"Manchester","latitude":41.8076801,"store name":"Buckland Hills Mall","geo_score":0.52,"zip code":"6042","longitude":-72.5486648,"id":"aevtewphxpxn","address":"190 Buckland Hills Dr","geo_precision":"street","state":"CT","developer":"Sears - Non Noerr Location"},"type":"Feature","geometry":{"type":"Point","coordinates":[-72.568595,41.744561]}},{"properties":{"city":"Camp Hill","latitude":40.2219809,"store name":"Capital City Mall","geo_score":0.807,"zip code":"17011","longitude":-76.9342721,"id":"aevtewg5h7ja","address":"3595 Capital City Mall Dr","geo_precision":"street","state":"PA","developer":"Sears - Non Noerr Location"},"type":"Feature","geometry":{"type":"Point","coordinates":[-76.928046,40.22353]}},{"properties":{"city":"Chambersburg","latitude":39.9591424,"store name":"Chambersburg Mall","geo_score":1.0,"zip code":"17202","longitude":-77.5781294,"id":"aevtewkm8g1b","address":"400 Chambersburg Mall","geo_precision":"range","state":"PA","developer":"Sears - Non Noerr Location"},"type":"Feature","geometry":{"type":"Point","coordinates":[-77.575835,39.960198]}},{"properties":{"city":"Lakewood","latitude":42.097937,"store name":"Chautauqua Mall","geo_score":1.0,"zip code":"14750","longitude":-79.302269,"id":"aevtewmh5svr","address":"318 e Fairmount Ave","geo_precision":"range","state":"NY","developer":"Sears - Non Noerr Location"},"type":"Feature","geometry":{"type":"Point","coordinates":[-79.30227,42.099101]}},{"properties":{"city":"Albany","latitude":42.708599,"store name":"Colonie Mall","geo_score":0.902,"zip code":"12205","longitude":-73.819733,"id":"aevtewfkk6pz","address":"1425 Central Ave","geo_precision":"street","state":"NY","developer":"Sears - Non Noerr Location"},"type":"Feature","geometry":{"type":"Point","coordinates":[-73.821283,42.70745]}},{"properties":{"city":"Bloomsburg","latitude":41.0173646,"store name":"Columbia Mall","geo_score":0.679,"zip code":"17815","longitude":-76.4904462,"id":"aevtewjp6yi9","address":"225 Columbia Mall Dr, Ste 7","geo_precision":"street","state":"PA","developer":"Sears - Non Noerr Location"},"type":"Feature","geometry":{"type":"Point","coordinates":[-76.446925,41.000631]}},{"properties":{"city":"Milford","latitude":41.2360454,"store name":"Connecticut Post Mall","geo_score":1.0,"zip code":"6460","longitude":-73.0357313,"id":"aevtewhvhmgq","address":"1201 Boston Post Road","geo_precision":"range","state":"CT","developer":"Sears - Non Noerr Location"},"type":"Feature","geometry":{"type":"Point","coordinates":[-73.04135,41.234572]}},{"properties":{"city":"Brunswick","latitude":43.9066556,"store name":"Cooks Corner","geo_score":1.0,"zip code":"4011","longitude":-69.9157241,"id":"aevtewk65o7v","address":"8 Gurnet Rd","geo_precision":"range","state":"ME","developer":"Sears - Non Noerr Location"},"type":"Feature","geometry":{"type":"Point","coordinates":[-69.915563,43.906237]}},{"properties":{"city":"Philadelphia","latitude":40.0476925,"store name":"Cottman Shopping Mall","geo_score":0.908,"zip code":"19152","longitude":-75.0599073,"id":"aevtewdjxdq7","address":"7300 Bustleton Ave Ste 1","geo_precision":"range","state":"PA","developer":"Sears - Non Noerr Location"},"type":"Feature","geometry":{"type":"Point","coordinates":[-75.058284,40.049687]}},{"properties":{"city":"Yonkers","latitude":40.9199758,"store name":"Cross County Center","geo_score":0.736,"zip code":"10704","longitude":-73.859549,"id":"aevtewmpdw4w","address":"87n Cross County Ctr","geo_precision":"street","state":"NY","developer":"Sears - Non Noerr Location"},"type":"Feature","geometry":{"type":"Point","coordinates":[-73.856989,40.931638]}},{"properties":{"city":"Danbury","latitude":41.38143,"store name":"Danbury Fair Mall","geo_score":0.688,"zip code":"6810","longitude":-73.4780789,"id":"aevtewlaockk","address":"7 Backus Avenue","geo_precision":"range","state":"CT","developer":"Sears - Non Noerr Location"},"type":"Feature","geometry":{"type":"Point","coordinates":[-73.525903,41.458789]}},{"properties":{"city":"Woodbury","latitude":39.829273,"store name":"Deptford Mall","geo_score":0.688,"zip code":"8096","longitude":-75.0979739,"id":"aevtewnvs37h","address":"1750 Deptford Center Rd, Ste a","geo_precision":"street","state":"NJ","developer":"Sears - Non Noerr Location"},"type":"Feature","geometry":{"type":"Point","coordinates":[-75.154254,39.836712]}},{"properties":{"city":"Rutland","latitude":43.5788644,"store name":"Diamond Run Mall","geo_score":1.0,"zip code":"5701","longitude":-72.9657618,"id":"aevtewp156ot","address":"82 Diamond Run Mall Pl","geo_precision":"range","state":"VT","developer":"Sears - Non Noerr Location"},"type":"Feature","geometry":{"type":"Point","coordinates":[-72.965444,43.579131]}},{"properties":{"city":"Buffalo","latitude":42.973109,"store name":"Eastern Hills Mall","geo_score":0.806,"zip code":"14221","longitude":-78.693192,"id":"aevtewq3wd53","address":"4545 Transit Rd","geo_precision":"street","state":"NY","developer":"Sears - Non Noerr Location"},"type":"Feature","geometry":{"type":"Point","coordinates":[-78.696925,42.981468]}},{"properties":{"city":"Victor","latitude":43.03088,"store name":"Eastview Mall","geo_score":0.752,"zip code":"14564","longitude":-77.443749,"id":"aevtewnhlfov","address":"200 Eastview Mall","geo_precision":"street","state":"NY","developer":"Sears - Non Noerr Location"},"type":"Feature","geometry":{"type":"Point","coordinates":[-77.438701,43.025722]}},{"properties":{"city":"Enfield","latitude":41.995498,"store name":"Enfield Square Mall","geo_score":0.902,"zip code":"6082","longitude":-72.583232,"id":"aevtewfhrf0e","address":"90 Elm Street","geo_precision":"street","state":"CT","developer":"Sears - Non Noerr Location"},"type":"Feature","geometry":{"type":"Point","coordinates":[-72.585692,41.997795]}},{"properties":{"city":"Exton","latitude":40.0329951,"store name":"Exton Square Mall","geo_score":0.56,"zip code":"19341","longitude":-75.6262469,"id":"aevtewlkk8nc","address":"222 Exton Square Mall","geo_precision":"street","state":"PA","developer":"Sears - Non Noerr Location"},"type":"Feature","geometry":{"type":"Point","coordinates":[-75.649031,40.013509]}},{"properties":{"city":"Auburn","latitude":42.928246,"store name":"Fingerlakes Mall","geo_score":0.922,"zip code":"13021","longitude":-76.610932,"id":"aevtewqej8d2","address":"1579 Clark Street Road","geo_precision":"range","state":"NY","developer":"Sears - Non Noerr Location"},"type":"Feature","geometry":{"type":"Point","coordinates":[-76.639872,42.926928]}},{"properties":{"city":"Freehold","latitude":40.2553757,"store name":"Freehold Raceway Mall","geo_score":0.854,"zip code":"7728","longitude":-74.3000984,"id":"aevtewg3p5k5","address":"3710 Us Highway 9 Unit 11","geo_precision":"range","state":"NJ","developer":"Sears - Non Noerr Location"},"type":"Feature","geometry":{"type":"Point","coordinates":[-74.2856,40.249722]}},{"properties":{"city":"White Plains","latitude":41.0319104,"store name":"Galleria Mall","geo_score":1.0,"zip code":"10601","longitude":-73.7707211,"id":"aevtewjgn205","address":"100 Main Street","geo_precision":"range","state":"NY","developer":"Sears - Non Noerr Location"},"type":"Feature","geometry":{"type":"Point","coordinates":[-73.771494,41.031874]}},{"properties":{"city":"York","latitude":39.9878421,"store name":"Galleria Mall","geo_score":1.0,"zip code":"17402","longitude":-76.6725858,"id":"aevtewfo6bd4","address":"2800 Whiteford Rd","geo_precision":"range","state":"PA","developer":"Sears - Non Noerr Location"},"type":"Feature","geometry":{"type":"Point","coordinates":[-76.674624,39.987537]}},{"properties":{"city":"Media","latitude":39.9163353,"store name":"Granite Run Mall","geo_score":0.963,"zip code":"19063","longitude":-75.4322106,"id":"aevtewjlbqer","address":"1067 w Baltimore Pike","geo_precision":"range","state":"PA","developer":"Sears - Non Noerr Location"},"type":"Feature","geometry":{"type":"Point","coordinates":[-75.434286,39.913759]}},{"properties":{"city":"Clay","latitude":43.185727,"store name":"Great Northern Mall","geo_score":0.927,"zip code":"13041","longitude":-76.2286733,"id":"aevtewg835td","address":"4081 State Route 31","geo_precision":"range","state":"NY","developer":"Sears - Non Noerr Location"},"type":"Feature","geometry":{"type":"Point","coordinates":[-76.231428,43.18565]}},{"properties":{"city":"Valley Stream","latitude":40.6678902,"store name":"Green Acres Mall","geo_score":0.732,"zip code":"11581","longitude":-73.7099666,"id":"aevtewt324ru","address":"1150 Green Acres Mall","geo_precision":"street","state":"NY","developer":"Sears - Non Noerr Location"},"type":"Feature","geometry":{"type":"Point","coordinates":[-73.714833,40.661176]}},{"properties":{"city":"Hanover","latitude":42.1463361,"store name":"Hanover Mall","geo_score":0.67,"zip code":"2339","longitude":-70.8455311,"id":"aevtewdp1gi5","address":"1775 Washington St, Ste A102","geo_precision":"street","state":"MA","developer":"Sears - Non Noerr Location"},"type":"Feature","geometry":{"type":"Point","coordinates":[-70.808133,42.110202]}},{"properties":{"city":"Kingston","latitude":41.966399,"store name":"Hudson Valley Mall","geo_score":0.743,"zip code":"12401","longitude":-73.983221,"id":"aevtewi9n1bj","address":"1300 Ulster Ave, Ste 360","geo_precision":"street","state":"NY","developer":"Sears - Non Noerr Location"},"type":"Feature","geometry":{"type":"Point","coordinates":[-73.996202,41.944635]}},{"properties":{"city":"East Northport","latitude":40.839459,"store name":"Huntington Square","geo_score":1.0,"zip code":"11731","longitude":-73.315501,"id":"aevtewml9fc0","address":"4000 Jericho Tpke","geo_precision":"range","state":"NY","developer":"Sears - Non Noerr Location"},"type":"Feature","geometry":{"type":"Point","coordinates":[-73.321294,40.839328]}},{"properties":{"city":"Rochester","latitude":43.199596,"store name":"Irondequoit Mall","geo_score":0.433,"zip code":"14622","longitude":-77.568567,"id":"aevtews5s5oz","address":"200 Medley Centre Pkwy","geo_precision":"street","state":"NY","developer":"Sears - Non Noerr Location"},"type":"Feature","geometry":{"type":"Point","coordinates":[-77.601632,43.251661]}},{"properties":{"city":"Harrisburg","latitude":40.302123,"store name":"Jonestown Road","geo_score":1.0,"zip code":"17109","longitude":-76.816227,"id":"aevtewie39s3","address":"4600 Jonestown Road","geo_precision":"range","state":"PA","developer":"Sears - Non Noerr Location"},"type":"Feature","geometry":{"type":"Point","coordinates":[-76.813713,40.301798]}},{"properties":{"city":"King Of Prussia","latitude":40.0856392,"store name":"King Of Prussia Plaza","geo_score":1.0,"zip code":"19406","longitude":-75.3916632,"id":"aevtewkv3ggt","address":"160 n Gulph Rd","geo_precision":"range","state":"PA","developer":"Sears - Non Noerr Location"},"type":"Feature","geometry":{"type":"Point","coordinates":[-75.391153,40.085802]}},{"properties":{"city":"Brooklyn","latitude":40.6103496,"store name":"Kings Plaza","geo_score":0.902,"zip code":"11234","longitude":-73.9210396,"id":"aevtewmz47jw","address":"5200 Kings Plaza","geo_precision":"range","state":"NY","developer":"Sears - Non Noerr Location"},"type":"Feature","geometry":{"type":"Point","coordinates":[-73.927144,40.635653]}},{"properties":{"city":"New Hyde Park","latitude":40.7540117,"store name":"Lake Success Sc","geo_score":1.0,"zip code":"11040","longitude":-73.6935856,"id":"aevtewn9q5y3","address":"1400 Union Turnpike","geo_precision":"range","state":"NY","developer":"Sears - Non Noerr Location"},"type":"Feature","geometry":{"type":"Point","coordinates":[-73.690993,40.754293]}},{"properties":{"city":"Muncy","latitude":41.2428103,"store name":"Lycoming Mall","geo_score":0.619,"zip code":"17756","longitude":-76.8261371,"id":"aevtewo2l0aw","address":"300 Lycoming Mall Cir, Ste 100","geo_precision":"street","state":"PA","developer":"Sears - Non Noerr Location"},"type":"Feature","geometry":{"type":"Point","coordinates":[-76.832937,41.246224]}},{"properties":{"city":"South Portland","latitude":43.6329281,"store name":"Maine Mall s c","geo_score":1.0,"zip code":"4106","longitude":-70.3391992,"id":"aevtewjl4l7q","address":"400 Maine Mall Rd","geo_precision":"range","state":"ME","developer":"Sears - Non Noerr Location"},"type":"Feature","geometry":{"type":"Point","coordinates":[-70.335613,43.637079]}},{"properties":{"city":"Rochester","latitude":43.0808373,"store name":"Market Place Mall","geo_score":0.649,"zip code":"14623","longitude":-77.6336039,"id":"aevtews3ge3b","address":"10 Miracle Mile Drive","geo_precision":"range","state":"NY","developer":"Sears - Non Noerr Location"},"type":"Feature","geometry":{"type":"Point","coordinates":[-77.543092,43.119553]}},{"properties":{"city":"Buffalo","latitude":42.7850709,"store name":"Mckinley Mall","geo_score":0.475,"zip code":"14219","longitude":-78.8075709,"id":"aevtewp4m2p0","address":"3701 Mckinley Pkwy","geo_precision":"street","state":"NY","developer":"Sears - Non Noerr Location"},"type":"Feature","geometry":{"type":"Point","coordinates":[-78.856404,42.884415]}},{"properties":{"city":"Meriden","latitude":41.5506327,"store name":"Meriden Square","geo_score":0.883,"zip code":"6451","longitude":-72.8036034,"id":"aevtewnskjy9","address":"470 Lewis Ave Ste 1","geo_precision":"range","state":"CT","developer":"Sears - Non Noerr Location"},"type":"Feature","geometry":{"type":"Point","coordinates":[-72.803605,41.550627]}},{"properties":{"city":"Erie","latitude":42.0695731,"store name":"Millcreek Mall","geo_score":0.422,"zip code":"16565","longitude":-80.1038718,"id":"aevtewej7t3k","address":"800 Millcreek Mall","geo_precision":"street","state":"PA","developer":"Sears - Non Noerr Location"},"type":"Feature","geometry":{"type":"Point","coordinates":[-80.076638,42.083053]}},{"properties":{"city":"Moorestown","latitude":39.9413854,"store name":"Moorestown Mall","geo_score":0.878,"zip code":"8057","longitude":-74.9636528,"id":"aevtewo7eofd","address":"400 w Route 38","geo_precision":"range","state":"NJ","developer":"Sears - Non Noerr Location"},"type":"Feature","geometry":{"type":"Point","coordinates":[-74.963235,39.946261]}},{"properties":{"city":"Nanuet","latitude":41.097792,"store name":"Nanuet Mall","geo_score":0.78,"zip code":"10954","longitude":-74.0150965,"id":"aevtewmpgo3w","address":"75 w Route 59 Ste 100","geo_precision":"range","state":"NY","developer":"Sears - Non Noerr Location"},"type":"Feature","geometry":{"type":"Point","coordinates":[-74.015459,41.097785]}},{"properties":{"city":"Natick","latitude":42.301247,"store name":"Natick Mall","geo_score":1.0,"zip code":"1760","longitude":-71.3815325,"id":"aevtewo7wgyt","address":"1235 Worcester St","geo_precision":"range","state":"MA","developer":"Sears - Non Noerr Location"},"type":"Feature","geometry":{"type":"Point","coordinates":[-71.385694,42.299049]}},{"properties":{"city":"Bensalem","latitude":40.141577,"store name":"Neshaminy Mall","geo_score":0.721,"zip code":"19020","longitude":-74.9558566,"id":"aevtewe8l3il","address":"100 Neshaminy Mall","geo_precision":"street","state":"PA","developer":"Sears - Non Noerr Location"},"type":"Feature","geometry":{"type":"Point","coordinates":[-74.925191,40.13361]}},{"properties":{"city":"Newburgh","latitude":41.517576,"store name":"Newburgh Mall","geo_score":0.58,"zip code":"12550","longitude":-74.071397,"id":"aevteweygib0","address":"1401 Route 300 Ste 1","geo_precision":"street","state":"NY","developer":"Sears - Non Noerr Location"},"type":"Feature","geometry":{"type":"Point","coordinates":[-74.028438,41.50342]}},{"properties":{"city":"North Dartmouth","latitude":41.6430408,"store name":"North Dartmouth Mall","geo_score":1.0,"zip code":"2747","longitude":-70.9927545,"id":"aevtewl3y9eu","address":"100 n Dartmouth Mall","geo_precision":"range","state":"MA","developer":"Sears - Non Noerr Location"},"type":"Feature","geometry":{"type":"Point","coordinates":[-70.993433,41.642884]}},{"properties":{"city":"Hanover","latitude":39.8206207,"store name":"North Hanover Mall","geo_score":0.897,"zip code":"17331","longitude":-76.9960352,"id":"aevtewdin7ve","address":"1155 Carlisle St Ste 5","geo_precision":"range","state":"PA","developer":"Sears - Non Noerr Location"},"type":"Feature","geometry":{"type":"Point","coordinates":[-76.997248,39.822785]}},{"properties":{"city":"Johnson City","latitude":42.1270048,"store name":"Oakdale Mall","geo_score":0.879,"zip code":"13790","longitude":-75.9749814,"id":"aevtewktstfq","address":"601-635 Harry l Dr Ste 56","geo_precision":"range","state":"NY","developer":"Sears - Non Noerr Location"},"type":"Feature","geometry":{"type":"Point","coordinates":[-75.974119,42.124709]}},{"properties":{"city":"Asbury Park","latitude":40.2280955,"store name":"Ocean Branch Seaview Sq","geo_score":0.808,"zip code":"7712","longitude":-74.04729,"id":"aevtewo8514k","address":"2341 State Route 66","geo_precision":"street","state":"NJ","developer":"Sears - Non Noerr Location"},"type":"Feature","geometry":{"type":"Point","coordinates":[-74.053626,40.229276]}},{"properties":{"city":"Paramus","latitude":40.9571259,"store name":"Paramus Park","geo_score":1.0,"zip code":"7652","longitude":-74.0668344,"id":"aevtewqoqbg6","address":"585 From Road","geo_precision":"range","state":"NJ","developer":"Sears - Non Noerr Location"},"type":"Feature","geometry":{"type":"Point","coordinates":[-74.066761,40.952101]}},{"properties":{"city":"Lancaster","latitude":40.0649622,"store name":"Park City Center","geo_score":1.0,"zip code":"17601","longitude":-76.3374476,"id":"aevtewhtw3yh","address":"200 Park City Center","geo_precision":"range","state":"PA","developer":"Sears - Non Noerr Location"},"type":"Feature","geometry":{"type":"Point","coordinates":[-76.340209,40.064482]}},{"properties":{"city":"Phillipsburg","latitude":40.6815664,"store name":"Phillipsburg Mall","geo_score":0.637,"zip code":"8865","longitude":-75.1478852,"id":"aevtewnk4j4k","address":"1200 Us Highway 22, Ste 100","geo_precision":"street","state":"NJ","developer":"Sears - Non Noerr Location"},"type":"Feature","geometry":{"type":"Point","coordinates":[-75.159362,40.676006]}},{"properties":{"city":"Warwick","latitude":41.7226568,"store name":"Rhode Island Mall","geo_score":0.878,"zip code":"2886","longitude":-71.4815046,"id":"aevtewlckeai","address":"650 Bald Hill Rd","geo_precision":"range","state":"RI","developer":"Sears - Non Noerr Location"},"type":"Feature","geometry":{"type":"Point","coordinates":[-71.484375,41.720049]}},{"properties":{"city":"Schenectady","latitude":42.809376,"store name":"Rotterdam Square","geo_score":1.0,"zip code":"12306","longitude":-73.987045,"id":"aevtewqfjs2p","address":"93 w Campbell Road","geo_precision":"range","state":"NY","developer":"Sears - Non Noerr Location"},"type":"Feature","geometry":{"type":"Point","coordinates":[-73.991396,42.806142]}},{"properties":{"city":"Frackville","latitude":40.7706392,"store name":"Schuylkill Mall","geo_score":0.61,"zip code":"17931","longitude":-76.2366949,"id":"aevtewledf1i","address":"100 Schuylkill Mall","geo_precision":"range","state":"PA","developer":"Sears - Non Noerr Location"},"type":"Feature","geometry":{"type":"Point","coordinates":[-76.187699,40.7189]}},{"properties":{"city":"West Hartford","latitude":41.7263451,"store name":"Sears","geo_score":0.962,"zip code":"6110","longitude":-72.7590882,"id":"aevtewjl68tg","address":"1445 New Britain Ave","geo_precision":"range","state":"CT","developer":"Sears - Non Noerr Location"},"type":"Feature","geometry":{"type":"Point","coordinates":[-72.75739,41.726999]}},{"properties":{"city":"Dedham","latitude":42.2547394,"store name":"Sears","geo_score":1.0,"zip code":"2026","longitude":-71.1697471,"id":"aevtewszl3j2","address":"300 Providence Hwy","geo_precision":"range","state":"MA","developer":"Sears - Non Noerr Location"},"type":"Feature","geometry":{"type":"Point","coordinates":[-71.216198,42.146074]}},{"properties":{"city":"Springfield","latitude":42.1423993,"store name":"Sears","geo_score":1.0,"zip code":"1129","longitude":-72.4901775,"id":"aevtewtwziwp","address":"1585 Boston Road","geo_precision":"range","state":"MA","developer":"Sears - Non Noerr Location"},"type":"Feature","geometry":{"type":"Point","coordinates":[-72.485227,42.144818]}},{"properties":{"city":"Augusta","latitude":44.3165464,"store name":"Sears","geo_score":1.0,"zip code":"4330","longitude":-69.8121952,"id":"aevtewgn5pna","address":"10 Whitten Rd","geo_precision":"range","state":"ME","developer":"Sears - Non Noerr Location"},"type":"Feature","geometry":{"type":"Point","coordinates":[-69.812365,44.316128]}},{"properties":{"city":"Hackensack","latitude":40.8925087,"store name":"Sears","geo_score":1.0,"zip code":"7601","longitude":-74.0392992,"id":"aevtewlb9ynl","address":"436 Main Street","geo_precision":"range","state":"NJ","developer":"Sears - Non Noerr Location"},"type":"Feature","geometry":{"type":"Point","coordinates":[-74.039298,40.892922]}},{"properties":{"city":"Mays Landing","latitude":39.454451,"store name":"Sears","geo_score":0.732,"zip code":"8330","longitude":-74.646243,"id":"aevtewp8xzxc","address":"4409 Black Horse Pike, Hamilton Township","geo_precision":"street","state":"NJ","developer":"Sears - Non Noerr Location"},"type":"Feature","geometry":{"type":"Point","coordinates":[-74.733426,39.442481]}},{"properties":{"city":"Middletown","latitude":40.402959,"store name":"Sears","geo_score":1.0,"zip code":"7748","longitude":-74.1267419,"id":"aevtewgf7gg6","address":"1500 State Route 35","geo_precision":"range","state":"NJ","developer":"Sears - Non Noerr Location"},"type":"Feature","geometry":{"type":"Point","coordinates":[-74.125854,40.40373]}},{"properties":{"city":"New Brunswick","latitude":40.4831204,"store name":"Sears","geo_score":1.0,"zip code":"8901","longitude":-74.4184965,"id":"aevtewi33tnk","address":"51 Us Highway 1","geo_precision":"range","state":"NJ","developer":"Sears - Non Noerr Location"},"type":"Feature","geometry":{"type":"Point","coordinates":[-74.417281,40.484453]}},{"properties":{"city":"Brooklyn","latitude":40.6447293,"store name":"Sears","geo_score":0.973,"zip code":"11226","longitude":-73.956216,"id":"aevtewjzq90d","address":"2307 Beverley Rd","geo_precision":"range","state":"NY","developer":"Sears - Non Noerr Location"},"type":"Feature","geometry":{"type":"Point","coordinates":[-73.956085,40.644758]}},{"properties":{"city":"Garden City","latitude":40.7316118,"store name":"Sears","geo_score":1.0,"zip code":"11530","longitude":-73.6362906,"id":"aevtewkazyaj","address":"1111 Franklin Avenue","geo_precision":"range","state":"NY","developer":"Sears - Non Noerr Location"},"type":"Feature","geometry":{"type":"Point","coordinates":[-73.636809,40.732415]}},{"properties":{"city":"Hicksville","latitude":40.7733311,"store name":"Sears","geo_score":0.808,"zip code":"11801","longitude":-73.5267428,"id":"aevtewhjmozb","address":"195 North Broadway","geo_precision":"street","state":"NY","developer":"Sears - Non Noerr Location"},"type":"Feature","geometry":{"type":"Point","coordinates":[-73.527977,40.773711]}},{"properties":{"city":"Rego Park","latitude":40.731311,"store name":"Sears","geo_score":0.707,"zip code":"11374","longitude":-73.862104,"id":"aevtewkz427q","address":"9605 Queens Blvd","geo_precision":"street","state":"NY","developer":"Sears - Non Noerr Location"},"type":"Feature","geometry":{"type":"Point","coordinates":[-73.866711,40.731773]}},{"properties":{"city":"Rochester","latitude":43.2047666,"store name":"Sears","geo_score":0.667,"zip code":"14626","longitude":-77.6959009,"id":"aevtewqs39iq","address":"317 Greece Ridge Center, Dr","geo_precision":"street","state":"NY","developer":"Sears - Non Noerr Location"},"type":"Feature","geometry":{"type":"Point","coordinates":[-77.688852,43.209821]}},{"properties":{"city":"Lebanon","latitude":40.3198783,"store name":"Sears","geo_score":1.0,"zip code":"17042","longitude":-76.424012,"id":"aevtewj4bcn6","address":"1301 Quentin Road","geo_precision":"range","state":"PA","developer":"Sears - Non Noerr Location"},"type":"Feature","geometry":{"type":"Point","coordinates":[-76.424022,40.319915]}},{"properties":{"city":"Watchung","latitude":40.643959,"store name":"Sears Roebuck And Co","geo_score":1.0,"zip code":"7069","longitude":-74.4100069,"id":"aevtewrx2zbw","address":"1640 Us Highway 22","geo_precision":"range","state":"NJ","developer":"Sears - Non Noerr Location"},"type":"Feature","geometry":{"type":"Point","coordinates":[-74.409947,40.645666]}},{"properties":{"city":"Syracuse","latitude":43.040767,"store name":"Shoppingtown Mall","geo_score":1.0,"zip code":"13214","longitude":-76.06631,"id":"aevtewh0h5yi","address":"3649 Erie Blvd e","geo_precision":"range","state":"NY","developer":"Sears - Non Noerr Location"},"type":"Feature","geometry":{"type":"Point","coordinates":[-76.066426,43.039809]}},{"properties":{"city":"Taunton","latitude":41.8616945,"store name":"Silver City Galleria","geo_score":1.0,"zip code":"2780","longitude":-71.0525376,"id":"aevtewisi2ax","address":"8 Galleria Mall Dr","geo_precision":"range","state":"MA","developer":"Sears - Non Noerr Location"},"type":"Feature","geometry":{"type":"Point","coordinates":[-71.054531,41.86479]}},{"properties":{"city":"Bay Shore","latitude":40.740242,"store name":"South Shore Mall","geo_score":1.0,"zip code":"11706","longitude":-73.245969,"id":"aevtewjlbzt7","address":"1701 Sunrise Hwy","geo_precision":"range","state":"NY","developer":"Sears - Non Noerr Location"},"type":"Feature","geometry":{"type":"Point","coordinates":[-73.25645,40.733968]}},{"properties":{"city":"Massena","latitude":44.9531913,"store name":"St Lawrence Center","geo_score":0.675,"zip code":"13662","longitude":-74.85413,"id":"aevtewrm4l9t","address":"6129 Saint Lawrence Ctr","geo_precision":"street","state":"NY","developer":"Sears - Non Noerr Location"},"type":"Feature","geometry":{"type":"Point","coordinates":[-74.902833,44.943261]}},{"properties":{"city":"Staten Island","latitude":40.579692,"store name":"Staten Island Mall","geo_score":1.0,"zip code":"10314","longitude":-74.166809,"id":"aevtewr0uoup","address":"283 Platinum Ave","geo_precision":"range","state":"NY","developer":"Sears - Non Noerr Location"},"type":"Feature","geometry":{"type":"Point","coordinates":[-74.169019,40.579355]}},{"properties":{"city":"Concord","latitude":43.2225835,"store name":"Steeplegate Mall","geo_score":0.902,"zip code":"3301","longitude":-71.4867043,"id":"aevtewqxgirk","address":"270 Loudon Road","geo_precision":"street","state":"NH","developer":"Sears - Non Noerr Location"},"type":"Feature","geometry":{"type":"Point","coordinates":[-71.49042,43.223701]}},{"properties":{"city":"Stroudsburg","latitude":40.9896415,"store name":"Stroud Mall","geo_score":0.593,"zip code":"18360","longitude":-75.2243061,"id":"aevtewk7lp0v","address":"600 Stroud Mall","geo_precision":"street","state":"PA","developer":"Sears - Non Noerr Location"},"type":"Feature","geometry":{"type":"Point","coordinates":[-75.197144,40.983892]}},{"properties":{"city":"Niagara Falls","latitude":43.088599,"store name":"Summit Park Mall","geo_score":1.0,"zip code":"14304","longitude":-78.938804,"id":"aevtewkdrju4","address":"6929 Williams Rd","geo_precision":"range","state":"NY","developer":"Sears - Non Noerr Location"},"type":"Feature","geometry":{"type":"Point","coordinates":[-78.940699,43.088004]}},{"properties":{"city":"Massapequa","latitude":40.685181,"store name":"Sunrise Mall","geo_score":0.819,"zip code":"11758","longitude":-73.433612,"id":"aevtewl7v3wm","address":"800 Sunrise Mall","geo_precision":"street","state":"NY","developer":"Sears - Non Noerr Location"},"type":"Feature","geometry":{"type":"Point","coordinates":[-73.434467,40.6854]}},{"properties":{"city":"Holbrook","latitude":40.7702028,"store name":"Sunvet Mall","geo_score":1.0,"zip code":"11741","longitude":-73.0635916,"id":"aevtewqaawrh","address":"5801 Sunrise Hwy, Ste 38a Space 18","geo_precision":"street","state":"NY","developer":"Sears - Non Noerr Location"},"type":"Feature","geometry":{"type":"Point","coordinates":[-73.077342,40.765948]}},{"properties":{"city":"Selingsrove","latitude":40.8254809,"store name":"Susquehanna Valley Mall","geo_score":0.681,"zip code":"17870","longitude":-76.845605,"id":"aevtewptnwlu","address":"1 Susquehanna Valley Mall, Rd","geo_precision":"street","state":"PA","developer":"Sears - Non Noerr Location"},"type":"Feature","geometry":{"type":"Point","coordinates":[-76.843443,40.832632]}},{"properties":{"city":"Swansea","latitude":41.7549769,"store name":"Swansea Mall","geo_score":0.657,"zip code":"2777","longitude":-71.218828,"id":"aevtewt8x4we","address":"262 Swansea Mall Dr, Ste 100","geo_precision":"street","state":"MA","developer":"Sears - Non Noerr Location"},"type":"Feature","geometry":{"type":"Point","coordinates":[-71.213803,41.749752]}},{"properties":{"city":"Leominster","latitude":42.5245888,"store name":"The Mall At Whitney Field","geo_score":1.0,"zip code":"1453","longitude":-71.7400236,"id":"aevtewqpg4oo","address":"100 Commercial Rd","geo_precision":"range","state":"MA","developer":"Sears - Non Noerr Location"},"type":"Feature","geometry":{"type":"Point","coordinates":[-71.742589,42.532235]}},{"properties":{"city":"Rockaway","latitude":40.9015368,"store name":"Townsquare Mall","geo_score":0.694,"zip code":"7866","longitude":-74.5457952,"id":"aevtewerofra","address":"319 Mount Hope Ave, Ste a","geo_precision":"street","state":"NJ","developer":"Sears - Non Noerr Location"},"type":"Feature","geometry":{"type":"Point","coordinates":[-74.518419,40.908664]}},{"properties":{"city":"South Burlingto","latitude":44.464895,"store name":"University Mall","geo_score":0.994,"zip code":"5403","longitude":-73.184211,"id":"aevtewfbl3gu","address":"155 Dorset St","geo_precision":"range","state":"VT","developer":"Sears - Non Noerr Location"},"type":"Feature","geometry":{"type":"Point","coordinates":[-73.181234,44.465566]}},{"properties":{"city":"Scranton","latitude":41.4606354,"store name":"Viewmont Mall","geo_score":1.0,"zip code":"18508","longitude":-75.6566116,"id":"aevtewtn39nm","address":"81 Viewmont Mall","geo_precision":"range","state":"PA","developer":"Sears - Non Noerr Location"},"type":"Feature","geometry":{"type":"Point","coordinates":[-75.657035,41.460832]}},{"properties":{"city":"Woonsocket","latitude":42.016315,"store name":"Walnut Hill Plaza","geo_score":0.786,"zip code":"2895","longitude":-71.477014,"id":"aevtewfnvvio","address":"1500 Diamond Hill Rd, Side 1","geo_precision":"street","state":"RI","developer":"Sears - Non Noerr Location"},"type":"Feature","geometry":{"type":"Point","coordinates":[-71.48513,41.995991]}},{"properties":{"city":"Brockton","latitude":42.094592,"store name":"West Gate Mall","geo_score":1.0,"zip code":"2301","longitude":-71.0496018,"id":"aevtewtt96ui","address":"200 Westgate Dr","geo_precision":"range","state":"MA","developer":"Sears - Non Noerr Location"},"type":"Feature","geometry":{"type":"Point","coordinates":[-71.049511,42.095934]}},{"properties":{"city":"Whitehall","latitude":40.6352273,"store name":"Whitehall Mall","geo_score":1.0,"zip code":"18052","longitude":-75.4821013,"id":"aevtewleened","address":"1259 Whitehall Mall","geo_precision":"range","state":"PA","developer":"Sears - Non Noerr Location"},"type":"Feature","geometry":{"type":"Point","coordinates":[-75.486353,40.633303]}},{"properties":{"city":"Willow Grove","latitude":40.1400802,"store name":"Willow Grove Park Mall","geo_score":1.0,"zip code":"19090","longitude":-75.1233422,"id":"aevtewpv4iss","address":"2500 w Moreland Rd","geo_precision":"range","state":"PA","developer":"Sears - Non Noerr Location"},"type":"Feature","geometry":{"type":"Point","coordinates":[-75.121428,40.143978]}},{"properties":{"city":"Wayne","latitude":40.8901337,"store name":"Willowbrook Mall","geo_score":1.0,"zip code":"7470","longitude":-74.2612481,"id":"aevtewm0t6th","address":"50 Us Highway 46","geo_precision":"range","state":"NJ","developer":"Sears - Non Noerr Location"},"type":"Feature","geometry":{"type":"Point","coordinates":[-74.263021,40.892586]}},{"properties":{"city":"Saratoga Spring","latitude":43.101312,"store name":"Wilton Mall","geo_score":0.823,"zip code":"12866","longitude":-73.739171,"id":"aevtewtehfhv","address":"3065 Route 50","geo_precision":"range","state":"NY","developer":"Sears - Non Noerr Location"},"type":"Feature","geometry":{"type":"Point","coordinates":[-73.743476,43.103078]}},{"properties":{"city":"Woodbridge","latitude":40.5539885,"store name":"Woodbridge Center","geo_score":0.767,"zip code":"7095","longitude":-74.3001746,"id":"aevtewgojok2","address":"250 Woodbridge Ctr","geo_precision":"street","state":"NJ","developer":"Sears - Non Noerr Location"},"type":"Feature","geometry":{"type":"Point","coordinates":[-74.304071,40.552199]}},{"properties":{"city":"Wilkes Barre","latitude":41.2498143,"store name":"Wyoming Valley Mall","geo_score":0.952,"zip code":"18702","longitude":-75.8426216,"id":"aevtewjckckx","address":"88 Wyoming Valley Mall Rd","geo_precision":"range","state":"PA","developer":"Sears - Non Noerr Location"},"type":"Feature","geometry":{"type":"Point","coordinates":[-75.842278,41.250144]}},{"properties":{"city":"Queensbury","latitude":43.326835,"store name":"Aviation Mall","geo_score":0.806,"zip code":"12804","longitude":-73.676618,"id":"aevtewn0fmhs","address":"578 Aviation Rd","geo_precision":"street","state":"NY","developer":"Sears - Noerr Non-Simon"},"type":"Feature","geometry":{"type":"Point","coordinates":[-73.690868,43.329343]}},{"properties":{"city":"Lanesboro","latitude":42.4885474,"store name":"Berkshire Mall","geo_score":0.727,"zip code":"1237","longitude":-73.2027137,"id":"aevtewt8pow0","address":"655 Cheshire Rd","geo_precision":"street","state":"MA","developer":"Sears - Noerr Non-Simon"},"type":"Feature","geometry":{"type":"Point","coordinates":[-73.215628,42.515657]}},{"properties":{"city":"Burlington","latitude":40.0416285,"store name":"Burlington Center","geo_score":0.633,"zip code":"8016","longitude":-74.8258209,"id":"aevtewp25ojs","address":"2501 Mount Holly Rd, Ste 100","geo_precision":"street","state":"NJ","developer":"Sears - Noerr Non-Simon"},"type":"Feature","geometry":{"type":"Point","coordinates":[-74.835106,40.070895]}},{"properties":{"city":"Cambridge","latitude":42.3681484,"store name":"Cambridge Galleria","geo_score":1.0,"zip code":"2141","longitude":-71.0761474,"id":"aevtewlr5ou1","address":"100 Cambridgeside Place","geo_precision":"range","state":"MA","developer":"Sears - Noerr Non-Simon"},"type":"Feature","geometry":{"type":"Point","coordinates":[-71.075565,42.367002]}},{"properties":{"city":"Plattsburgh","latitude":44.7051437,"store name":"Champlain Center North","geo_score":1.0,"zip code":"12901","longitude":-73.4972083,"id":"aevtewkiifwb","address":"10 Smithfield Blvd","geo_precision":"range","state":"NY","developer":"Sears - Noerr Non-Simon"},"type":"Feature","geometry":{"type":"Point","coordinates":[-73.497169,44.705203]}},{"properties":{"city":"Middletown","latitude":41.4537948,"store name":"Crystal Run Mall","geo_score":1.0,"zip code":"10941","longitude":-74.36843,"id":"aevtewilyq2v","address":"1 North Galleria Drive","geo_precision":"range","state":"NY","developer":"Sears - Noerr Non-Simon"},"type":"Feature","geometry":{"type":"Point","coordinates":[-74.371783,41.455467]}},{"properties":{"city":"Holyoke","latitude":42.167072,"store name":"Holyoke Mall At Ingleside","geo_score":1.0,"zip code":"1040","longitude":-72.640056,"id":"aevtewklgraz","address":"50 Holyoke St","geo_precision":"range","state":"MA","developer":"Sears - Noerr Non-Simon"},"type":"Feature","geometry":{"type":"Point","coordinates":[-72.640165,42.172916]}},{"properties":{"city":"Kingston","latitude":41.9754145,"store name":"Independence Mall","geo_score":1.0,"zip code":"2364","longitude":-70.7142731,"id":"aevtewtj93ct","address":"101 Independence Mall Way","geo_precision":"range","state":"MA","developer":"Sears - Noerr Non-Simon"},"type":"Feature","geometry":{"type":"Point","coordinates":[-70.711251,41.974856]}},{"properties":{"city":"Poughkeepsie","latitude":41.6306702,"store name":"Poughkeepsie Galleria","geo_score":0.854,"zip code":"12601","longitude":-73.9161027,"id":"aevtewkuntto","address":"790 South Road","geo_precision":"range","state":"NY","developer":"Sears - Noerr Non-Simon"},"type":"Feature","geometry":{"type":"Point","coordinates":[-73.917459,41.621794]}},{"properties":{"city":"Ithaca","latitude":42.483327,"store name":"Pyramid Mall","geo_score":1.0,"zip code":"14850","longitude":-76.490933,"id":"aevtewo24uvo","address":"40 Catherwood Rd","geo_precision":"range","state":"NY","developer":"Sears - Noerr Non-Simon"},"type":"Feature","geometry":{"type":"Point","coordinates":[-76.485711,42.483717]}},{"properties":{"city":"Watertown","latitude":43.9751461,"store name":"Salmon Run Mall","geo_score":0.679,"zip code":"13601","longitude":-75.9531184,"id":"aevtewmfxco0","address":"21182 Salmon Run Mall, Loop w Ste a","geo_precision":"street","state":"NY","developer":"Sears - Noerr Non-Simon"},"type":"Feature","geometry":{"type":"Point","coordinates":[-75.908024,43.974644]}},{"properties":{"city":"New Hartford","latitude":43.0837767,"store name":"Sangertown Square","geo_score":0.585,"zip code":"13413","longitude":-75.3162279,"id":"aevtewh9n8gs","address":"1 Sagertown Sq","geo_precision":"zip","state":"NY","developer":"Sears - Noerr Non-Simon"},"type":"Feature","geometry":{"type":"Point","coordinates":[-75.290911,43.067369]}},{"properties":{"city":"Buffalo","latitude":42.9113403,"store name":"Walden Galleria","geo_score":0.659,"zip code":"14225","longitude":-78.7634336,"id":"aevtews215xy","address":"2000 Walden Ave","geo_precision":"street","state":"NY","developer":"Sears - Noerr Non-Simon"},"type":"Feature","geometry":{"type":"Point","coordinates":[-78.777509,42.944939]}},{"properties":{"city":"Auburn","latitude":42.2033843,"store name":"Auburn Mall","geo_score":0.747,"zip code":"1501","longitude":-71.8359518,"id":"aevtewjfi64r","address":"385 Southbridge St Ste 1","geo_precision":"street","state":"MA","developer":"Sears - Noerr Simon"},"type":"Feature","geometry":{"type":"Point","coordinates":[-71.832236,42.2079]}},{"properties":{"city":"Burlington","latitude":42.5229963,"store name":"Burlington Mall","geo_score":0.585,"zip code":"1803","longitude":-71.2514713,"id":"aevtewdj3wb4","address":"1100 Middlesex Turnpike","geo_precision":"zip","state":"MA","developer":"Sears - Noerr Simon"},"type":"Feature","geometry":{"type":"Point","coordinates":[-71.201539,42.504844]}},{"properties":{"city":"Hyannis","latitude":41.6675383,"store name":"Cape Cod Mall","geo_score":0.585,"zip code":"2601","longitude":-70.296322,"id":"aevtewt4t9ow","address":"793 Iyannough Rd","geo_precision":"zip","state":"MA","developer":"Sears - Noerr Simon"},"type":"Feature","geometry":{"type":"Point","coordinates":[-70.228631,41.705666]}},{"properties":{"city":"Yorktown Hgts","latitude":41.3256673,"store name":"Jefferson Valley Mall","geo_score":0.982,"zip code":"10598","longitude":-73.8056128,"id":"aevtewnjzlk1","address":"600 Lee Blvd","geo_precision":"range","state":"NY","developer":"Sears - Noerr Simon"},"type":"Feature","geometry":{"type":"Point","coordinates":[-73.811095,41.329487]}},{"properties":{"city":"Livingston","latitude":40.776561,"store name":"Livingston Mall","geo_score":0.878,"zip code":"7039","longitude":-74.353565,"id":"aevtewtgc3fm","address":"112 Eisenhower Pkwy","geo_precision":"range","state":"NJ","developer":"Sears - Noerr Simon"},"type":"Feature","geometry":{"type":"Point","coordinates":[-74.35345,40.782889]}},{"properties":{"city":"North Wales","latitude":40.2374816,"store name":"Montgomery Mall","geo_score":1.0,"zip code":"19454","longitude":-75.246432,"id":"aevtewklrlqg","address":"600 Montgomery Mall","geo_precision":"range","state":"PA","developer":"Sears - Noerr Simon"},"type":"Feature","geometry":{"type":"Point","coordinates":[-75.246241,40.237718]}},{"properties":{"city":"Toms River","latitude":39.9789649,"store name":"Ocean County Mall","geo_score":1.0,"zip code":"8753","longitude":-74.182643,"id":"aevtewr2lre9","address":"1201 Hooper Avenue","geo_precision":"range","state":"NJ","developer":"Sears - Noerr Simon"},"type":"Feature","geometry":{"type":"Point","coordinates":[-74.182549,39.979285]}},{"properties":{"city":"Langhorne","latitude":40.1835399,"store name":"Oxford Valley Mall","geo_score":0.713,"zip code":"19047","longitude":-74.8809366,"id":"aevtewr7hghp","address":"2300 e Lincoln Hwy Ste 3","geo_precision":"street","state":"PA","developer":"Sears - Noerr Simon"},"type":"Feature","geometry":{"type":"Point","coordinates":[-74.901247,40.165372]}},{"properties":{"city":"Lawrenceville","latitude":40.3016375,"store name":"Quaker Bridge","geo_score":0.931,"zip code":"8648","longitude":-74.7361013,"id":"aevtewio65hg","address":"150 Quaker Bridge Mall","geo_precision":"range","state":"NJ","developer":"Sears - Noerr Simon"},"type":"Feature","geometry":{"type":"Point","coordinates":[-74.684951,40.290912]}},{"properties":{"city":"Lake Grove","latitude":40.8632255,"store name":"Smith Haven Mall","geo_score":1.0,"zip code":"11755","longitude":-73.1277967,"id":"aevtewqqxvre","address":"4 Smith Haven Mall","geo_precision":"range","state":"NY","developer":"Sears - Noerr Simon"},"type":"Feature","geometry":{"type":"Point","coordinates":[-73.127841,40.863222]}},{"properties":{"city":"Marlborough","latitude":42.3547765,"store name":"Solomon Pond Mall","geo_score":0.369,"zip code":"1752","longitude":-71.6116186,"id":"aevtewftk75x","address":"521 Donald Lynch Blvd","geo_precision":"street","state":"MA","developer":"Sears - Noerr Simon"},"type":"Feature","geometry":{"type":"Point","coordinates":[-71.362538,42.306349]}},{"properties":{"city":"Braintree","latitude":42.2201403,"store name":"South Shore Plaza","geo_score":0.861,"zip code":"2184","longitude":-71.0267006,"id":"aevtewjd4o5q","address":"250 Granite St Ste 8520","geo_precision":"range","state":"MA","developer":"Sears - Noerr Simon"},"type":"Feature","geometry":{"type":"Point","coordinates":[-71.028615,42.221083]}},{"properties":{"city":"Saugus","latitude":42.4596694,"store name":"Square One Mall","geo_score":0.878,"zip code":"1906","longitude":-71.0247033,"id":"aevtewjq2w4v","address":"1325 Broadway","geo_precision":"range","state":"MA","developer":"Sears - Noerr Simon"},"type":"Feature","geometry":{"type":"Point","coordinates":[-71.023547,42.453501]}},{"properties":{"city":"","latitude":"No Sears Portrait","store name":"","geo_score":0.0,"zip code":"","longitude":"","id":"aevtewk0cpkc","address":"","geo_precision":"","state":"","developer":"28"},"type":"Feature","geometry":null},{"properties":{"city":"","latitude":"Sears - Non Noerr Location","store name":"","geo_score":0.0,"zip code":"","longitude":"","id":"aevtewlpmlr9","address":"","geo_precision":"","state":"","developer":"97"},"type":"Feature","geometry":null},{"properties":{"city":"","latitude":"Sears - Noerr Non-Simon","store name":"","geo_score":0.0,"zip code":"","longitude":"","id":"aevtewha07x0","address":"","geo_precision":"","state":"","developer":"13"},"type":"Feature","geometry":null},{"properties":{"city":"","latitude":"Sears - Noerr Simon","store name":"","geo_score":0.0,"zip code":"","longitude":"","id":"aevtewm144pf","address":"","geo_precision":"","state":"","developer":"13"},"type":"Feature","geometry":null},{"properties":{"city":"","latitude":"Total Noerr Locations","store name":"","geo_score":0.0,"zip code":"","longitude":"","id":"aevtewi1g0nc","address":"","geo_precision":"","state":"","developer":"54"},"type":"Feature","geometry":null},{"properties":{"city":"","latitude":"Total Sears Locations","store name":"","geo_score":0.0,"zip code":"","longitude":"","id":"aevtewnpubz0","address":"","geo_precision":"","state":"","developer":"123"},"type":"Feature","geometry":null}],"is_temporal":false,"author":{"url":"","metadata":"","contact_name":"","contact_address":"","source":"","contact_phone":""},"source":"","pagination":{"sort":null,"start":0,"total":157,"limit":1000000},"state":"complete","tags":"","published":"2014-08-16T20:45:48-04:00","id":365628}