{"type":"FeatureCollection","data_type":"Dataset","url_type":null,"permissions":[{"permissions":{"download":true,"view":true},"group_id":"everyone"}],"classification":null,"title":"Sears Portrait List Comparison-Sears Non-Noerr Location","count":97,"stream_id":365638,"contributor":{"url":"http://geocommons.com/users/74498","name":"mterranova"},"data_attributes":null,"calculation_params":null,"icon_link":null,"link":"http://geocommons.com/overlays/365638.json","extent":[-80.0766,39.4425,-68.01,46.7007],"geometry_types":["point"],"unique_name":null,"name":"Sears Portrait List Comparison-Sears Non-Noerr Location","feature_count":97,"description":"","next_feature":null,"is_raster":false,"short_classification":"Y","stats":{"latitude":{"max":46.7014165,"variance":1.75460486881976,"mean":41.5444303175258,"stdev":1.32461498890046,"min":39.454451,"median":41.2360454},"longitude":{"max":-68.0095885,"variance":5.33940943038359,"mean":-74.4694982082474,"stdev":2.31071621589143,"min":-80.1038718,"median":-74.166809}},"features":[{"properties":{"city":"Horseheads","latitude":42.158994,"store name":"Arnot Mall","geo_score":1.0,"zip code":"14845","longitude":-76.8758537,"id":"aevtvft4eouy","address":"3300 Chambers Rd","geo_precision":"range","state":"NY","developer":"Sears - Non Noerr Location"},"type":"Feature","geometry":{"type":"Point","coordinates":[-76.877031,42.155046]}},{"properties":{"city":"Presque Isle","latitude":46.7014165,"store name":"Aroostook Centre Mall","geo_score":0.854,"zip code":"4769","longitude":-68.0095885,"id":"aevtvft3fa92","address":"830 Main St Unit 4","geo_precision":"range","state":"ME","developer":"Sears - Non Noerr Location"},"type":"Feature","geometry":{"type":"Point","coordinates":[-68.01002,46.700738]}},{"properties":{"city":"Reading","latitude":40.3382579,"store name":"Berkshire Mall","geo_score":1.0,"zip code":"19610","longitude":-75.9721578,"id":"aevtvg73wmh0","address":"1665 State Hill Rd","geo_precision":"range","state":"PA","developer":"Sears - Non Noerr Location"},"type":"Feature","geometry":{"type":"Point","coordinates":[-75.972733,40.338391]}},{"properties":{"city":"Buffalo","latitude":42.985805,"store name":"Boulevard Mall","geo_score":1.0,"zip code":"14226","longitude":-78.821113,"id":"aevtvg2ibsgj","address":"1261 Niagara Falls Blvd","geo_precision":"range","state":"NY","developer":"Sears - Non Noerr Location"},"type":"Feature","geometry":{"type":"Point","coordinates":[-78.822538,42.988834]}},{"properties":{"city":"Waterbury","latitude":41.5483584,"store name":"Brass Mill Center","geo_score":1.0,"zip code":"6706","longitude":-73.0270503,"id":"aevtvfvsojzz","address":"425 Union Street","geo_precision":"range","state":"CT","developer":"Sears - Non Noerr Location"},"type":"Feature","geometry":{"type":"Point","coordinates":[-73.026882,41.548377]}},{"properties":{"city":"Manchester","latitude":41.8076801,"store name":"Buckland Hills Mall","geo_score":0.52,"zip code":"6042","longitude":-72.5486648,"id":"aevtvfw3ld0g","address":"190 Buckland Hills Dr","geo_precision":"street","state":"CT","developer":"Sears - Non Noerr Location"},"type":"Feature","geometry":{"type":"Point","coordinates":[-72.568595,41.744561]}},{"properties":{"city":"Camp Hill","latitude":40.2219809,"store name":"Capital City Mall","geo_score":0.807,"zip code":"17011","longitude":-76.9342721,"id":"aevtvfvjkw8q","address":"3595 Capital City Mall Dr","geo_precision":"street","state":"PA","developer":"Sears - Non Noerr Location"},"type":"Feature","geometry":{"type":"Point","coordinates":[-76.928046,40.22353]}},{"properties":{"city":"Chambersburg","latitude":39.9591424,"store name":"Chambersburg Mall","geo_score":1.0,"zip code":"17202","longitude":-77.5781294,"id":"aevtvg1oioig","address":"400 Chambersburg Mall","geo_precision":"range","state":"PA","developer":"Sears - Non Noerr Location"},"type":"Feature","geometry":{"type":"Point","coordinates":[-77.575835,39.960198]}},{"properties":{"city":"Lakewood","latitude":42.097937,"store name":"Chautauqua Mall","geo_score":1.0,"zip code":"14750","longitude":-79.302269,"id":"aevtvg0qpl4o","address":"318 e Fairmount Ave","geo_precision":"range","state":"NY","developer":"Sears - Non Noerr Location"},"type":"Feature","geometry":{"type":"Point","coordinates":[-79.30227,42.099101]}},{"properties":{"city":"Albany","latitude":42.708599,"store name":"Colonie Mall","geo_score":0.902,"zip code":"12205","longitude":-73.819733,"id":"aevtvg4so50v","address":"1425 Central Ave","geo_precision":"street","state":"NY","developer":"Sears - Non Noerr Location"},"type":"Feature","geometry":{"type":"Point","coordinates":[-73.821283,42.70745]}},{"properties":{"city":"Bloomsburg","latitude":41.0173646,"store name":"Columbia Mall","geo_score":0.679,"zip code":"17815","longitude":-76.4904462,"id":"aevtvftdar9k","address":"225 Columbia Mall Dr, Ste 7","geo_precision":"street","state":"PA","developer":"Sears - Non Noerr Location"},"type":"Feature","geometry":{"type":"Point","coordinates":[-76.446925,41.000631]}},{"properties":{"city":"Milford","latitude":41.2360454,"store name":"Connecticut Post Mall","geo_score":1.0,"zip code":"6460","longitude":-73.0357313,"id":"aevtvfry6mvy","address":"1201 Boston Post Road","geo_precision":"range","state":"CT","developer":"Sears - Non Noerr Location"},"type":"Feature","geometry":{"type":"Point","coordinates":[-73.04135,41.234572]}},{"properties":{"city":"Brunswick","latitude":43.9066556,"store name":"Cooks Corner","geo_score":1.0,"zip code":"4011","longitude":-69.9157241,"id":"aevtvftlafx8","address":"8 Gurnet Rd","geo_precision":"range","state":"ME","developer":"Sears - Non Noerr Location"},"type":"Feature","geometry":{"type":"Point","coordinates":[-69.915563,43.906237]}},{"properties":{"city":"Philadelphia","latitude":40.0476925,"store name":"Cottman Shopping Mall","geo_score":0.908,"zip code":"19152","longitude":-75.0599073,"id":"aevtvg23vlar","address":"7300 Bustleton Ave Ste 1","geo_precision":"range","state":"PA","developer":"Sears - Non Noerr Location"},"type":"Feature","geometry":{"type":"Point","coordinates":[-75.058284,40.049687]}},{"properties":{"city":"Yonkers","latitude":40.9199758,"store name":"Cross County Center","geo_score":0.736,"zip code":"10704","longitude":-73.859549,"id":"aevtvg6et5ro","address":"87n Cross County Ctr","geo_precision":"street","state":"NY","developer":"Sears - Non Noerr Location"},"type":"Feature","geometry":{"type":"Point","coordinates":[-73.856989,40.931638]}},{"properties":{"city":"Danbury","latitude":41.38143,"store name":"Danbury Fair Mall","geo_score":0.688,"zip code":"6810","longitude":-73.4780789,"id":"aevtvfxlunzp","address":"7 Backus Avenue","geo_precision":"range","state":"CT","developer":"Sears - Non Noerr Location"},"type":"Feature","geometry":{"type":"Point","coordinates":[-73.525903,41.458789]}},{"properties":{"city":"Woodbury","latitude":39.829273,"store name":"Deptford Mall","geo_score":0.688,"zip code":"8096","longitude":-75.0979739,"id":"aevtvfx4nyfa","address":"1750 Deptford Center Rd, Ste a","geo_precision":"street","state":"NJ","developer":"Sears - Non Noerr Location"},"type":"Feature","geometry":{"type":"Point","coordinates":[-75.154254,39.836712]}},{"properties":{"city":"Rutland","latitude":43.5788644,"store name":"Diamond Run Mall","geo_score":1.0,"zip code":"5701","longitude":-72.9657618,"id":"aevtvg1fk7z8","address":"82 Diamond Run Mall Pl","geo_precision":"range","state":"VT","developer":"Sears - Non Noerr Location"},"type":"Feature","geometry":{"type":"Point","coordinates":[-72.965444,43.579131]}},{"properties":{"city":"Buffalo","latitude":42.973109,"store name":"Eastern Hills Mall","geo_score":0.806,"zip code":"14221","longitude":-78.693192,"id":"aevtvft6s46a","address":"4545 Transit Rd","geo_precision":"street","state":"NY","developer":"Sears - Non Noerr Location"},"type":"Feature","geometry":{"type":"Point","coordinates":[-78.696925,42.981468]}},{"properties":{"city":"Victor","latitude":43.03088,"store name":"Eastview Mall","geo_score":0.752,"zip code":"14564","longitude":-77.443749,"id":"aevtvfz8rm36","address":"200 Eastview Mall","geo_precision":"street","state":"NY","developer":"Sears - Non Noerr Location"},"type":"Feature","geometry":{"type":"Point","coordinates":[-77.438701,43.025722]}},{"properties":{"city":"Enfield","latitude":41.995498,"store name":"Enfield Square Mall","geo_score":0.902,"zip code":"6082","longitude":-72.583232,"id":"aevtvfxul7p4","address":"90 Elm Street","geo_precision":"street","state":"CT","developer":"Sears - Non Noerr Location"},"type":"Feature","geometry":{"type":"Point","coordinates":[-72.585692,41.997795]}},{"properties":{"city":"Exton","latitude":40.0329951,"store name":"Exton Square Mall","geo_score":0.56,"zip code":"19341","longitude":-75.6262469,"id":"aevtvfwlrrou","address":"222 Exton Square Mall","geo_precision":"street","state":"PA","developer":"Sears - Non Noerr Location"},"type":"Feature","geometry":{"type":"Point","coordinates":[-75.649031,40.013509]}},{"properties":{"city":"Auburn","latitude":42.928246,"store name":"Fingerlakes Mall","geo_score":0.922,"zip code":"13021","longitude":-76.610932,"id":"aevtvfv6whjb","address":"1579 Clark Street Road","geo_precision":"range","state":"NY","developer":"Sears - Non Noerr Location"},"type":"Feature","geometry":{"type":"Point","coordinates":[-76.639872,42.926928]}},{"properties":{"city":"Freehold","latitude":40.2553757,"store name":"Freehold Raceway Mall","geo_score":0.854,"zip code":"7728","longitude":-74.3000984,"id":"aevtvg1hza9w","address":"3710 Us Highway 9 Unit 11","geo_precision":"range","state":"NJ","developer":"Sears - Non Noerr Location"},"type":"Feature","geometry":{"type":"Point","coordinates":[-74.2856,40.249722]}},{"properties":{"city":"White Plains","latitude":41.0319104,"store name":"Galleria Mall","geo_score":1.0,"zip code":"10601","longitude":-73.7707211,"id":"aevtvfy9pqd1","address":"100 Main Street","geo_precision":"range","state":"NY","developer":"Sears - Non Noerr Location"},"type":"Feature","geometry":{"type":"Point","coordinates":[-73.771494,41.031874]}},{"properties":{"city":"York","latitude":39.9878421,"store name":"Galleria Mall","geo_score":1.0,"zip code":"17402","longitude":-76.6725858,"id":"aevtvg45nhd0","address":"2800 Whiteford Rd","geo_precision":"range","state":"PA","developer":"Sears - Non Noerr Location"},"type":"Feature","geometry":{"type":"Point","coordinates":[-76.674624,39.987537]}},{"properties":{"city":"Media","latitude":39.9163353,"store name":"Granite Run Mall","geo_score":0.963,"zip code":"19063","longitude":-75.4322106,"id":"aevtvg4a48qx","address":"1067 w Baltimore Pike","geo_precision":"range","state":"PA","developer":"Sears - Non Noerr Location"},"type":"Feature","geometry":{"type":"Point","coordinates":[-75.434286,39.913759]}},{"properties":{"city":"Clay","latitude":43.185727,"store name":"Great Northern Mall","geo_score":0.927,"zip code":"13041","longitude":-76.2286733,"id":"aevtvg2b16gv","address":"4081 State Route 31","geo_precision":"range","state":"NY","developer":"Sears - Non Noerr Location"},"type":"Feature","geometry":{"type":"Point","coordinates":[-76.231428,43.18565]}},{"properties":{"city":"Valley Stream","latitude":40.6678902,"store name":"Green Acres Mall","geo_score":0.732,"zip code":"11581","longitude":-73.7099666,"id":"aevtvfw5kr8r","address":"1150 Green Acres Mall","geo_precision":"street","state":"NY","developer":"Sears - Non Noerr Location"},"type":"Feature","geometry":{"type":"Point","coordinates":[-73.714833,40.661176]}},{"properties":{"city":"Hanover","latitude":42.1463361,"store name":"Hanover Mall","geo_score":0.67,"zip code":"2339","longitude":-70.8455311,"id":"aevtvg3230s4","address":"1775 Washington St, Ste A102","geo_precision":"street","state":"MA","developer":"Sears - Non Noerr Location"},"type":"Feature","geometry":{"type":"Point","coordinates":[-70.808133,42.110202]}},{"properties":{"city":"Kingston","latitude":41.966399,"store name":"Hudson Valley Mall","geo_score":0.743,"zip code":"12401","longitude":-73.983221,"id":"aevtvg5sq5us","address":"1300 Ulster Ave, Ste 360","geo_precision":"street","state":"NY","developer":"Sears - Non Noerr Location"},"type":"Feature","geometry":{"type":"Point","coordinates":[-73.996202,41.944635]}},{"properties":{"city":"East Northport","latitude":40.839459,"store name":"Huntington Square","geo_score":1.0,"zip code":"11731","longitude":-73.315501,"id":"aevtvfyy6fkd","address":"4000 Jericho Tpke","geo_precision":"range","state":"NY","developer":"Sears - Non Noerr Location"},"type":"Feature","geometry":{"type":"Point","coordinates":[-73.321294,40.839328]}},{"properties":{"city":"Rochester","latitude":43.199596,"store name":"Irondequoit Mall","geo_score":0.433,"zip code":"14622","longitude":-77.568567,"id":"aevtvg6l2ihs","address":"200 Medley Centre Pkwy","geo_precision":"street","state":"NY","developer":"Sears - Non Noerr Location"},"type":"Feature","geometry":{"type":"Point","coordinates":[-77.601632,43.251661]}},{"properties":{"city":"Harrisburg","latitude":40.302123,"store name":"Jonestown Road","geo_score":1.0,"zip code":"17109","longitude":-76.816227,"id":"aevtvg7h6ej7","address":"4600 Jonestown Road","geo_precision":"range","state":"PA","developer":"Sears - Non Noerr Location"},"type":"Feature","geometry":{"type":"Point","coordinates":[-76.813713,40.301798]}},{"properties":{"city":"King Of Prussia","latitude":40.0856392,"store name":"King Of Prussia Plaza","geo_score":1.0,"zip code":"19406","longitude":-75.3916632,"id":"aevtvfz12ubu","address":"160 n Gulph Rd","geo_precision":"range","state":"PA","developer":"Sears - Non Noerr Location"},"type":"Feature","geometry":{"type":"Point","coordinates":[-75.391153,40.085802]}},{"properties":{"city":"Brooklyn","latitude":40.6103496,"store name":"Kings Plaza","geo_score":0.902,"zip code":"11234","longitude":-73.9210396,"id":"aevtvfypbfp7","address":"5200 Kings Plaza","geo_precision":"range","state":"NY","developer":"Sears - Non Noerr Location"},"type":"Feature","geometry":{"type":"Point","coordinates":[-73.927144,40.635653]}},{"properties":{"city":"New Hyde Park","latitude":40.7540117,"store name":"Lake Success Sc","geo_score":1.0,"zip code":"11040","longitude":-73.6935856,"id":"aevtvg3io9wj","address":"1400 Union Turnpike","geo_precision":"range","state":"NY","developer":"Sears - Non Noerr Location"},"type":"Feature","geometry":{"type":"Point","coordinates":[-73.690993,40.754293]}},{"properties":{"city":"Muncy","latitude":41.2428103,"store name":"Lycoming Mall","geo_score":0.619,"zip code":"17756","longitude":-76.8261371,"id":"aevtvg4vndq8","address":"300 Lycoming Mall Cir, Ste 100","geo_precision":"street","state":"PA","developer":"Sears - Non Noerr Location"},"type":"Feature","geometry":{"type":"Point","coordinates":[-76.832937,41.246224]}},{"properties":{"city":"South Portland","latitude":43.6329281,"store name":"Maine Mall s c","geo_score":1.0,"zip code":"4106","longitude":-70.3391992,"id":"aevtvg6ws5u8","address":"400 Maine Mall Rd","geo_precision":"range","state":"ME","developer":"Sears - Non Noerr Location"},"type":"Feature","geometry":{"type":"Point","coordinates":[-70.335613,43.637079]}},{"properties":{"city":"Rochester","latitude":43.0808373,"store name":"Market Place Mall","geo_score":0.649,"zip code":"14623","longitude":-77.6336039,"id":"aevtvg6hkjur","address":"10 Miracle Mile Drive","geo_precision":"range","state":"NY","developer":"Sears - Non Noerr Location"},"type":"Feature","geometry":{"type":"Point","coordinates":[-77.543092,43.119553]}},{"properties":{"city":"Buffalo","latitude":42.7850709,"store name":"Mckinley Mall","geo_score":0.475,"zip code":"14219","longitude":-78.8075709,"id":"aevtvfw1qavw","address":"3701 Mckinley Pkwy","geo_precision":"street","state":"NY","developer":"Sears - Non Noerr Location"},"type":"Feature","geometry":{"type":"Point","coordinates":[-78.856404,42.884415]}},{"properties":{"city":"Meriden","latitude":41.5506327,"store name":"Meriden Square","geo_score":0.883,"zip code":"6451","longitude":-72.8036034,"id":"aevtvg2vqyr2","address":"470 Lewis Ave Ste 1","geo_precision":"range","state":"CT","developer":"Sears - Non Noerr Location"},"type":"Feature","geometry":{"type":"Point","coordinates":[-72.803605,41.550627]}},{"properties":{"city":"Erie","latitude":42.0695731,"store name":"Millcreek Mall","geo_score":0.422,"zip code":"16565","longitude":-80.1038718,"id":"aevtvg2cm90q","address":"800 Millcreek Mall","geo_precision":"street","state":"PA","developer":"Sears - Non Noerr Location"},"type":"Feature","geometry":{"type":"Point","coordinates":[-80.076638,42.083053]}},{"properties":{"city":"Moorestown","latitude":39.9413854,"store name":"Moorestown Mall","geo_score":0.878,"zip code":"8057","longitude":-74.9636528,"id":"aevtvfr6u0j8","address":"400 w Route 38","geo_precision":"range","state":"NJ","developer":"Sears - Non Noerr Location"},"type":"Feature","geometry":{"type":"Point","coordinates":[-74.963235,39.946261]}},{"properties":{"city":"Nanuet","latitude":41.097792,"store name":"Nanuet Mall","geo_score":0.78,"zip code":"10954","longitude":-74.0150965,"id":"aevtvg61ry5p","address":"75 w Route 59 Ste 100","geo_precision":"range","state":"NY","developer":"Sears - Non Noerr Location"},"type":"Feature","geometry":{"type":"Point","coordinates":[-74.015459,41.097785]}},{"properties":{"city":"Natick","latitude":42.301247,"store name":"Natick Mall","geo_score":1.0,"zip code":"1760","longitude":-71.3815325,"id":"aevtvg4fu806","address":"1235 Worcester St","geo_precision":"range","state":"MA","developer":"Sears - Non Noerr Location"},"type":"Feature","geometry":{"type":"Point","coordinates":[-71.385694,42.299049]}},{"properties":{"city":"Bensalem","latitude":40.141577,"store name":"Neshaminy Mall","geo_score":0.721,"zip code":"19020","longitude":-74.9558566,"id":"aevtvfu0jowa","address":"100 Neshaminy Mall","geo_precision":"street","state":"PA","developer":"Sears - Non Noerr Location"},"type":"Feature","geometry":{"type":"Point","coordinates":[-74.925191,40.13361]}},{"properties":{"city":"Newburgh","latitude":41.517576,"store name":"Newburgh Mall","geo_score":0.58,"zip code":"12550","longitude":-74.071397,"id":"aevtvg6ybcij","address":"1401 Route 300 Ste 1","geo_precision":"street","state":"NY","developer":"Sears - Non Noerr Location"},"type":"Feature","geometry":{"type":"Point","coordinates":[-74.028438,41.50342]}},{"properties":{"city":"North Dartmouth","latitude":41.6430408,"store name":"North Dartmouth Mall","geo_score":1.0,"zip code":"2747","longitude":-70.9927545,"id":"aevtvfsuwne6","address":"100 n Dartmouth Mall","geo_precision":"range","state":"MA","developer":"Sears - Non Noerr Location"},"type":"Feature","geometry":{"type":"Point","coordinates":[-70.993433,41.642884]}},{"properties":{"city":"Hanover","latitude":39.8206207,"store name":"North Hanover Mall","geo_score":0.897,"zip code":"17331","longitude":-76.9960352,"id":"aevtvfreo4bh","address":"1155 Carlisle St Ste 5","geo_precision":"range","state":"PA","developer":"Sears - Non Noerr Location"},"type":"Feature","geometry":{"type":"Point","coordinates":[-76.997248,39.822785]}},{"properties":{"city":"Johnson City","latitude":42.1270048,"store name":"Oakdale Mall","geo_score":0.879,"zip code":"13790","longitude":-75.9749814,"id":"aevtvfztmm0m","address":"601-635 Harry l Dr Ste 56","geo_precision":"range","state":"NY","developer":"Sears - Non Noerr Location"},"type":"Feature","geometry":{"type":"Point","coordinates":[-75.974119,42.124709]}},{"properties":{"city":"Asbury Park","latitude":40.2280955,"store name":"Ocean Branch Seaview Sq","geo_score":0.808,"zip code":"7712","longitude":-74.04729,"id":"aevtvfwmzj4m","address":"2341 State Route 66","geo_precision":"street","state":"NJ","developer":"Sears - Non Noerr Location"},"type":"Feature","geometry":{"type":"Point","coordinates":[-74.053626,40.229276]}},{"properties":{"city":"Paramus","latitude":40.9571259,"store name":"Paramus Park","geo_score":1.0,"zip code":"7652","longitude":-74.0668344,"id":"aevtvfzumhvh","address":"585 From Road","geo_precision":"range","state":"NJ","developer":"Sears - Non Noerr Location"},"type":"Feature","geometry":{"type":"Point","coordinates":[-74.066761,40.952101]}},{"properties":{"city":"Lancaster","latitude":40.0649622,"store name":"Park City Center","geo_score":1.0,"zip code":"17601","longitude":-76.3374476,"id":"aevtvfrf7n96","address":"200 Park City Center","geo_precision":"range","state":"PA","developer":"Sears - Non Noerr Location"},"type":"Feature","geometry":{"type":"Point","coordinates":[-76.340209,40.064482]}},{"properties":{"city":"Phillipsburg","latitude":40.6815664,"store name":"Phillipsburg Mall","geo_score":0.637,"zip code":"8865","longitude":-75.1478852,"id":"aevtvfvdxpqi","address":"1200 Us Highway 22, Ste 100","geo_precision":"street","state":"NJ","developer":"Sears - Non Noerr Location"},"type":"Feature","geometry":{"type":"Point","coordinates":[-75.159362,40.676006]}},{"properties":{"city":"Warwick","latitude":41.7226568,"store name":"Rhode Island Mall","geo_score":0.878,"zip code":"2886","longitude":-71.4815046,"id":"aevtvg0nkm0d","address":"650 Bald Hill Rd","geo_precision":"range","state":"RI","developer":"Sears - Non Noerr Location"},"type":"Feature","geometry":{"type":"Point","coordinates":[-71.484375,41.720049]}},{"properties":{"city":"Schenectady","latitude":42.809376,"store name":"Rotterdam Square","geo_score":1.0,"zip code":"12306","longitude":-73.987045,"id":"aevtvg6xcjvn","address":"93 w Campbell Road","geo_precision":"range","state":"NY","developer":"Sears - Non Noerr Location"},"type":"Feature","geometry":{"type":"Point","coordinates":[-73.991396,42.806142]}},{"properties":{"city":"Frackville","latitude":40.7706392,"store name":"Schuylkill Mall","geo_score":0.61,"zip code":"17931","longitude":-76.2366949,"id":"aevtvg1ag0sb","address":"100 Schuylkill Mall","geo_precision":"range","state":"PA","developer":"Sears - Non Noerr Location"},"type":"Feature","geometry":{"type":"Point","coordinates":[-76.187699,40.7189]}},{"properties":{"city":"West Hartford","latitude":41.7263451,"store name":"Sears","geo_score":0.962,"zip code":"6110","longitude":-72.7590882,"id":"aevtvft8ho5p","address":"1445 New Britain Ave","geo_precision":"range","state":"CT","developer":"Sears - Non Noerr Location"},"type":"Feature","geometry":{"type":"Point","coordinates":[-72.75739,41.726999]}},{"properties":{"city":"Dedham","latitude":42.2547394,"store name":"Sears","geo_score":1.0,"zip code":"2026","longitude":-71.1697471,"id":"aevtvg3faya4","address":"300 Providence Hwy","geo_precision":"range","state":"MA","developer":"Sears - Non Noerr Location"},"type":"Feature","geometry":{"type":"Point","coordinates":[-71.216198,42.146074]}},{"properties":{"city":"Springfield","latitude":42.1423993,"store name":"Sears","geo_score":1.0,"zip code":"1129","longitude":-72.4901775,"id":"aevtvg0n0hdu","address":"1585 Boston Road","geo_precision":"range","state":"MA","developer":"Sears - Non Noerr Location"},"type":"Feature","geometry":{"type":"Point","coordinates":[-72.485227,42.144818]}},{"properties":{"city":"Augusta","latitude":44.3165464,"store name":"Sears","geo_score":1.0,"zip code":"4330","longitude":-69.8121952,"id":"aevtvfy0yo6v","address":"10 Whitten Rd","geo_precision":"range","state":"ME","developer":"Sears - Non Noerr Location"},"type":"Feature","geometry":{"type":"Point","coordinates":[-69.812365,44.316128]}},{"properties":{"city":"Hackensack","latitude":40.8925087,"store name":"Sears","geo_score":1.0,"zip code":"7601","longitude":-74.0392992,"id":"aevtvg76zrk1","address":"436 Main Street","geo_precision":"range","state":"NJ","developer":"Sears - Non Noerr Location"},"type":"Feature","geometry":{"type":"Point","coordinates":[-74.039298,40.892922]}},{"properties":{"city":"Mays Landing","latitude":39.454451,"store name":"Sears","geo_score":0.732,"zip code":"8330","longitude":-74.646243,"id":"aevtvfyqxb20","address":"4409 Black Horse Pike, Hamilton Township","geo_precision":"street","state":"NJ","developer":"Sears - Non Noerr Location"},"type":"Feature","geometry":{"type":"Point","coordinates":[-74.733426,39.442481]}},{"properties":{"city":"Middletown","latitude":40.402959,"store name":"Sears","geo_score":1.0,"zip code":"7748","longitude":-74.1267419,"id":"aevtvg6cmhod","address":"1500 State Route 35","geo_precision":"range","state":"NJ","developer":"Sears - Non Noerr Location"},"type":"Feature","geometry":{"type":"Point","coordinates":[-74.125854,40.40373]}},{"properties":{"city":"New Brunswick","latitude":40.4831204,"store name":"Sears","geo_score":1.0,"zip code":"8901","longitude":-74.4184965,"id":"aevtvg05croa","address":"51 Us Highway 1","geo_precision":"range","state":"NJ","developer":"Sears - Non Noerr Location"},"type":"Feature","geometry":{"type":"Point","coordinates":[-74.417281,40.484453]}},{"properties":{"city":"Brooklyn","latitude":40.6447293,"store name":"Sears","geo_score":0.973,"zip code":"11226","longitude":-73.956216,"id":"aevtvg4v5284","address":"2307 Beverley Rd","geo_precision":"range","state":"NY","developer":"Sears - Non Noerr Location"},"type":"Feature","geometry":{"type":"Point","coordinates":[-73.956085,40.644758]}},{"properties":{"city":"Garden City","latitude":40.7316118,"store name":"Sears","geo_score":1.0,"zip code":"11530","longitude":-73.6362906,"id":"aevtvfyxf4k3","address":"1111 Franklin Avenue","geo_precision":"range","state":"NY","developer":"Sears - Non Noerr Location"},"type":"Feature","geometry":{"type":"Point","coordinates":[-73.636809,40.732415]}},{"properties":{"city":"Hicksville","latitude":40.7733311,"store name":"Sears","geo_score":0.808,"zip code":"11801","longitude":-73.5267428,"id":"aevtvfwadx0f","address":"195 North Broadway","geo_precision":"street","state":"NY","developer":"Sears - Non Noerr Location"},"type":"Feature","geometry":{"type":"Point","coordinates":[-73.527977,40.773711]}},{"properties":{"city":"Rego Park","latitude":40.731311,"store name":"Sears","geo_score":0.707,"zip code":"11374","longitude":-73.862104,"id":"aevtvfv24gvr","address":"9605 Queens Blvd","geo_precision":"street","state":"NY","developer":"Sears - Non Noerr Location"},"type":"Feature","geometry":{"type":"Point","coordinates":[-73.866711,40.731773]}},{"properties":{"city":"Rochester","latitude":43.2047666,"store name":"Sears","geo_score":0.667,"zip code":"14626","longitude":-77.6959009,"id":"aevtvg79tbc4","address":"317 Greece Ridge Center, Dr","geo_precision":"street","state":"NY","developer":"Sears - Non Noerr Location"},"type":"Feature","geometry":{"type":"Point","coordinates":[-77.688852,43.209821]}},{"properties":{"city":"Lebanon","latitude":40.3198783,"store name":"Sears","geo_score":1.0,"zip code":"17042","longitude":-76.424012,"id":"aevtvfseaueh","address":"1301 Quentin Road","geo_precision":"range","state":"PA","developer":"Sears - Non Noerr Location"},"type":"Feature","geometry":{"type":"Point","coordinates":[-76.424022,40.319915]}},{"properties":{"city":"Watchung","latitude":40.643959,"store name":"Sears Roebuck And Co","geo_score":1.0,"zip code":"7069","longitude":-74.4100069,"id":"aevtvfzqksy4","address":"1640 Us Highway 22","geo_precision":"range","state":"NJ","developer":"Sears - Non Noerr Location"},"type":"Feature","geometry":{"type":"Point","coordinates":[-74.409947,40.645666]}},{"properties":{"city":"Syracuse","latitude":43.040767,"store name":"Shoppingtown Mall","geo_score":1.0,"zip code":"13214","longitude":-76.06631,"id":"aevtvfsd0uej","address":"3649 Erie Blvd e","geo_precision":"range","state":"NY","developer":"Sears - Non Noerr Location"},"type":"Feature","geometry":{"type":"Point","coordinates":[-76.066426,43.039809]}},{"properties":{"city":"Taunton","latitude":41.8616945,"store name":"Silver City Galleria","geo_score":1.0,"zip code":"2780","longitude":-71.0525376,"id":"aevtvftdqzu7","address":"8 Galleria Mall Dr","geo_precision":"range","state":"MA","developer":"Sears - Non Noerr Location"},"type":"Feature","geometry":{"type":"Point","coordinates":[-71.054531,41.86479]}},{"properties":{"city":"Bay Shore","latitude":40.740242,"store name":"South Shore Mall","geo_score":1.0,"zip code":"11706","longitude":-73.245969,"id":"aevtvfvxbuc0","address":"1701 Sunrise Hwy","geo_precision":"range","state":"NY","developer":"Sears - Non Noerr Location"},"type":"Feature","geometry":{"type":"Point","coordinates":[-73.25645,40.733968]}},{"properties":{"city":"Massena","latitude":44.9531913,"store name":"St Lawrence Center","geo_score":0.675,"zip code":"13662","longitude":-74.85413,"id":"aevtvfvmsuj7","address":"6129 Saint Lawrence Ctr","geo_precision":"street","state":"NY","developer":"Sears - Non Noerr Location"},"type":"Feature","geometry":{"type":"Point","coordinates":[-74.902833,44.943261]}},{"properties":{"city":"Staten Island","latitude":40.579692,"store name":"Staten Island Mall","geo_score":1.0,"zip code":"10314","longitude":-74.166809,"id":"aevtvg4bw1f3","address":"283 Platinum Ave","geo_precision":"range","state":"NY","developer":"Sears - Non Noerr Location"},"type":"Feature","geometry":{"type":"Point","coordinates":[-74.169019,40.579355]}},{"properties":{"city":"Concord","latitude":43.2225835,"store name":"Steeplegate Mall","geo_score":0.902,"zip code":"3301","longitude":-71.4867043,"id":"aevtvg00rmjs","address":"270 Loudon Road","geo_precision":"street","state":"NH","developer":"Sears - Non Noerr Location"},"type":"Feature","geometry":{"type":"Point","coordinates":[-71.49042,43.223701]}},{"properties":{"city":"Stroudsburg","latitude":40.9896415,"store name":"Stroud Mall","geo_score":0.593,"zip code":"18360","longitude":-75.2243061,"id":"aevtvfypjpio","address":"600 Stroud Mall","geo_precision":"street","state":"PA","developer":"Sears - Non Noerr Location"},"type":"Feature","geometry":{"type":"Point","coordinates":[-75.197144,40.983892]}},{"properties":{"city":"Niagara Falls","latitude":43.088599,"store name":"Summit Park Mall","geo_score":1.0,"zip code":"14304","longitude":-78.938804,"id":"aevtvft28tc8","address":"6929 Williams Rd","geo_precision":"range","state":"NY","developer":"Sears - Non Noerr Location"},"type":"Feature","geometry":{"type":"Point","coordinates":[-78.940699,43.088004]}},{"properties":{"city":"Massapequa","latitude":40.685181,"store name":"Sunrise Mall","geo_score":0.819,"zip code":"11758","longitude":-73.433612,"id":"aevtvg7ecbdc","address":"800 Sunrise Mall","geo_precision":"street","state":"NY","developer":"Sears - Non Noerr Location"},"type":"Feature","geometry":{"type":"Point","coordinates":[-73.434467,40.6854]}},{"properties":{"city":"Holbrook","latitude":40.7702028,"store name":"Sunvet Mall","geo_score":1.0,"zip code":"11741","longitude":-73.0635916,"id":"aevtvfznbtgt","address":"5801 Sunrise Hwy, Ste 38a Space 18","geo_precision":"street","state":"NY","developer":"Sears - Non Noerr Location"},"type":"Feature","geometry":{"type":"Point","coordinates":[-73.077342,40.765948]}},{"properties":{"city":"Selingsrove","latitude":40.8254809,"store name":"Susquehanna Valley Mall","geo_score":0.681,"zip code":"17870","longitude":-76.845605,"id":"aevtvg3dv16i","address":"1 Susquehanna Valley Mall, Rd","geo_precision":"street","state":"PA","developer":"Sears - Non Noerr Location"},"type":"Feature","geometry":{"type":"Point","coordinates":[-76.843443,40.832632]}},{"properties":{"city":"Swansea","latitude":41.7549769,"store name":"Swansea Mall","geo_score":0.657,"zip code":"2777","longitude":-71.218828,"id":"aevtvfsqrk34","address":"262 Swansea Mall Dr, Ste 100","geo_precision":"street","state":"MA","developer":"Sears - Non Noerr Location"},"type":"Feature","geometry":{"type":"Point","coordinates":[-71.213803,41.749752]}},{"properties":{"city":"Leominster","latitude":42.5245888,"store name":"The Mall At Whitney Field","geo_score":1.0,"zip code":"1453","longitude":-71.7400236,"id":"aevtvg19y1bt","address":"100 Commercial Rd","geo_precision":"range","state":"MA","developer":"Sears - Non Noerr Location"},"type":"Feature","geometry":{"type":"Point","coordinates":[-71.742589,42.532235]}},{"properties":{"city":"Rockaway","latitude":40.9015368,"store name":"Townsquare Mall","geo_score":0.694,"zip code":"7866","longitude":-74.5457952,"id":"aevtvfw6asy6","address":"319 Mount Hope Ave, Ste a","geo_precision":"street","state":"NJ","developer":"Sears - Non Noerr Location"},"type":"Feature","geometry":{"type":"Point","coordinates":[-74.518419,40.908664]}},{"properties":{"city":"South Burlingto","latitude":44.464895,"store name":"University Mall","geo_score":0.994,"zip code":"5403","longitude":-73.184211,"id":"aevtvfy9cj7d","address":"155 Dorset St","geo_precision":"range","state":"VT","developer":"Sears - Non Noerr Location"},"type":"Feature","geometry":{"type":"Point","coordinates":[-73.181234,44.465566]}},{"properties":{"city":"Scranton","latitude":41.4606354,"store name":"Viewmont Mall","geo_score":1.0,"zip code":"18508","longitude":-75.6566116,"id":"aevtvfzxv0wq","address":"81 Viewmont Mall","geo_precision":"range","state":"PA","developer":"Sears - Non Noerr Location"},"type":"Feature","geometry":{"type":"Point","coordinates":[-75.657035,41.460832]}},{"properties":{"city":"Woonsocket","latitude":42.016315,"store name":"Walnut Hill Plaza","geo_score":0.786,"zip code":"2895","longitude":-71.477014,"id":"aevtvg11oqxf","address":"1500 Diamond Hill Rd, Side 1","geo_precision":"street","state":"RI","developer":"Sears - Non Noerr Location"},"type":"Feature","geometry":{"type":"Point","coordinates":[-71.48513,41.995991]}},{"properties":{"city":"Brockton","latitude":42.094592,"store name":"West Gate Mall","geo_score":1.0,"zip code":"2301","longitude":-71.0496018,"id":"aevtvfyu17j3","address":"200 Westgate Dr","geo_precision":"range","state":"MA","developer":"Sears - Non Noerr Location"},"type":"Feature","geometry":{"type":"Point","coordinates":[-71.049511,42.095934]}},{"properties":{"city":"Whitehall","latitude":40.6352273,"store name":"Whitehall Mall","geo_score":1.0,"zip code":"18052","longitude":-75.4821013,"id":"aevtvfz8n7g5","address":"1259 Whitehall Mall","geo_precision":"range","state":"PA","developer":"Sears - Non Noerr Location"},"type":"Feature","geometry":{"type":"Point","coordinates":[-75.486353,40.633303]}},{"properties":{"city":"Willow Grove","latitude":40.1400802,"store name":"Willow Grove Park Mall","geo_score":1.0,"zip code":"19090","longitude":-75.1233422,"id":"aevtvfvp8e5y","address":"2500 w Moreland Rd","geo_precision":"range","state":"PA","developer":"Sears - Non Noerr Location"},"type":"Feature","geometry":{"type":"Point","coordinates":[-75.121428,40.143978]}},{"properties":{"city":"Wayne","latitude":40.8901337,"store name":"Willowbrook Mall","geo_score":1.0,"zip code":"7470","longitude":-74.2612481,"id":"aevtvg1qe0d5","address":"50 Us Highway 46","geo_precision":"range","state":"NJ","developer":"Sears - Non Noerr Location"},"type":"Feature","geometry":{"type":"Point","coordinates":[-74.263021,40.892586]}},{"properties":{"city":"Saratoga Spring","latitude":43.101312,"store name":"Wilton Mall","geo_score":0.823,"zip code":"12866","longitude":-73.739171,"id":"aevtvg0dt7wr","address":"3065 Route 50","geo_precision":"range","state":"NY","developer":"Sears - Non Noerr Location"},"type":"Feature","geometry":{"type":"Point","coordinates":[-73.743476,43.103078]}},{"properties":{"city":"Woodbridge","latitude":40.5539885,"store name":"Woodbridge Center","geo_score":0.767,"zip code":"7095","longitude":-74.3001746,"id":"aevtvfxxk5n0","address":"250 Woodbridge Ctr","geo_precision":"street","state":"NJ","developer":"Sears - Non Noerr Location"},"type":"Feature","geometry":{"type":"Point","coordinates":[-74.304071,40.552199]}},{"properties":{"city":"Wilkes Barre","latitude":41.2498143,"store name":"Wyoming Valley Mall","geo_score":0.952,"zip code":"18702","longitude":-75.8426216,"id":"aevtvfy1l2c8","address":"88 Wyoming Valley Mall Rd","geo_precision":"range","state":"PA","developer":"Sears - Non Noerr Location"},"type":"Feature","geometry":{"type":"Point","coordinates":[-75.842278,41.250144]}}],"is_temporal":false,"author":{"url":"","metadata":"","contact_name":"","contact_address":"","source":"","contact_phone":""},"source":"","pagination":{"sort":null,"start":0,"total":97,"limit":1000000},"state":"complete","tags":"","published":"2014-08-16T20:46:08-04:00","id":365638}