{"type":"FeatureCollection","data_type":"Dataset","url_type":null,"permissions":[{"permissions":{"download":true,"view":true},"group_id":"everyone"}],"classification":null,"title":"Virginia Business Incubators","count":32,"stream_id":36645,"contributor":{"url":"http://geocommons.com/users/159","name":"ajturner"},"data_attributes":null,"calculation_params":null,"icon_link":null,"link":"http://geocommons.com/overlays/36645.json","extent":[-82.7999,36.6044,-76.2743,38.964],"geometry_types":["point"],"unique_name":null,"name":"Virginia Business Incubators","feature_count":32,"description":"The purpose of this dataset is to show the locations of local business incubators in Virginia.\n\nbusiness incubation is a support process that: \n* Nurtures individuals in the pre-startup stage; \n* Supports the successful development of start-up and fledgling companies \n* Aids in accelerating the development of small businesses by providing an array of targeted resources and services. \n\nAs a statewide organization, VBIA’s goal is to bring together as many of the elements of the business incubation support network and to provide a forum that advances the successful implementation of Virginia’s business incubation process. To that end, VBIA seeks to provide creater public awareness of the economic benefits of business incubation by involving incubation professionals, economic developers, sponsors, clients and graduates in an on-going campaign to provide public information and awareness of incubation programs across the Commonwealth. \n~Virginia Business Incubation Association \n\nBusiness incubation is a business support process that accelerates the successful development of start-up and fledgling companies by providing entrepreneurs with an array of targeted resources and services. These services are usually developed or orchestrated by incubator management and offered both in the business incubator and through its network of contacts. A business incubator’s main goal is to produce successful firms that will leave the program financially viable and freestanding. These incubator graduates have the potential to create jobs, revitalize neighborhoods, commercialize new technologies, and strengthen local and national economies. ","next_feature":null,"is_raster":false,"short_classification":"Y","stats":{"Zip":{"max":24641.0,"mean":20293.09375,"variance":61942439.765121,"stdev":7870.35194671248,"min":0.0,"median":23219.0},"Label":{"max":32,"mean":16.5,"variance":88.0,"stdev":9.38083151964686,"min":1,"median":17},"Ver":{"max":1,"mean":1.0,"variance":0.0,"stdev":0.0,"min":1,"median":1}},"features":[{"properties":{"City":"Richmond","Name":"AdvanTech Incubator","Zip":23219.0,"Address2":null,"Label":1,"Ver":1,"State":"VA","id":"a62fyg7ix4a2","Web":"www.advantechva.org","Address":"501 E. Franklin St"},"type":"Feature","geometry":{"type":"Point","coordinates":[-77.4389536662295,37.5409505865468]}},{"properties":{"City":"Richmond","Name":"BizWorks Enterprise Center","Zip":23237.0,"Address2":null,"Label":2,"Ver":1,"State":"VA","id":"a62fyg79dhch","Web":"www.bizworkscenter.org","Address":"2545 Bellwood Road"},"type":"Feature","geometry":{"type":"Point","coordinates":[-77.4329731747346,37.4100092990809]}},{"properties":{"City":"Charlottesville","Name":"Charlottesville Technology Incubator","Zip":22092.0,"Address2":null,"Label":3,"Ver":1,"State":"VA","id":"a62fyg2vdb2h","Web":"www.cvilletechincubator.org","Address":"501 East Main Street"},"type":"Feature","geometry":{"type":"Point","coordinates":[-78.4784440270161,38.0298310348947]}},{"properties":{"City":"Springfield","Name":"Community Business Partnership","Zip":22150.0,"Address2":"Suite C","Label":4,"Ver":1,"State":"VA","id":"a62fygbhqjcn","Web":"www.cbponline.org","Address":"7001 Loisdale Road"},"type":"Feature","geometry":{"type":"Point","coordinates":[-77.1824850099136,38.7652426311345]}},{"properties":{"City":"Danville","Name":"Dan River Business Development Center","Zip":24540.0,"Address2":null,"Label":5,"Ver":1,"State":"VA","id":"a62fygedl7g8","Web":"www.drbdc.com","Address":"300 Ringgold Industrial Parkway"},"type":"Feature","geometry":{"type":"Point","coordinates":[-79.3443022836058,36.6044146116744]}},{"properties":{"City":"Norfolk","Name":"Empowerment 2010, Inc. Small Business Incubator and Resource Center","Zip":23504.0,"Address2":null,"Label":6,"Ver":1,"State":"VA","id":"a62fyg9l51nr","Web":"www.empowerment2010.org","Address":"1130 Tabb Street"},"type":"Feature","geometry":{"type":"Point","coordinates":[-76.274304658625,36.852528566338]}},{"properties":{"City":"Fairfax","Name":"Fairfax Innovation Center","Zip":22030.0,"Address2":"Suite 200","Label":7,"Ver":1,"State":"VA","id":"a62fyg92ijav","Web":"www.fairfaxinnovationcenter.org","Address":"4031 University Drive"},"type":"Feature","geometry":{"type":"Point","coordinates":[-77.3050895821682,38.8445268612375]}},{"properties":{"City":"Franklin","Name":"Franklin Business Incubator","Zip":23851.0,"Address2":"Suite 300","Label":8,"Ver":1,"State":"VA","id":"a62fygdvbl0g","Web":"www.franklinsouthamptonva.com","Address":"601 N. Mechanic Street"},"type":"Feature","geometry":{"type":"Point","coordinates":[-76.9242177095393,36.6808120180635]}},{"properties":{"City":"Hampton","Name":"Hampton Roads Technology Incubator System","Zip":23666.0,"Address2":null,"Label":9,"Ver":1,"State":"VA","id":"a62fyggdw10m","Web":"www.hrtis.org ","Address":"144 Research Drive"},"type":"Feature","geometry":{"type":"Point","coordinates":[-76.3937436173365,37.0806595855104]}},{"properties":{"City":"Hampton","Name":"Hampton University Business Incubator","Zip":23663.0,"Address2":null,"Label":10,"Ver":1,"State":"VA","id":"a62fyg8p21yj","Web":"www.hamptonu.edu/HUBAC/bus_inc/","Address":"6 W. County Street"},"type":"Feature","geometry":{"type":"Point","coordinates":[-76.3214561126213,37.0195506536195]}},{"properties":{"City":"Reston","Name":"INC.Spire","Zip":20190.0,"Address2":null,"Label":11,"Ver":1,"State":"VA","id":"a62fyg8m9lij","Web":"www.restonchamber.com","Address":"1763 Fountain Drive"},"type":"Feature","geometry":{"type":"Point","coordinates":[-77.355946242925,38.9640467589315]}},{"properties":{"City":"Fairfax","Name":"International Accelerator","Zip":22030.0,"Address2":"Suite 200","Label":12,"Ver":1,"State":"VA","id":"a62fygguf94t","Web":"www.masonenterprisecenter.org/intl","Address":"4031 University Drive"},"type":"Feature","geometry":{"type":"Point","coordinates":[-77.3050895821682,38.8445268612375]}},{"properties":{"City":"Williamsburg","Name":"James City County Technology Incubator","Zip":23188.0,"Address2":"Suite 2A","Label":13,"Ver":1,"State":"VA","id":"a62fyg5b3y4t","Web":"www.incubatoramerica.com","Address":"5300 Palmer Lane"},"type":"Feature","geometry":{"type":"Point","coordinates":[-76.7327160766201,37.2855970895474]}},{"properties":{"City":"Vienna","Name":"Korea Business Development Center","Zip":22182.0,"Address2":null,"Label":14,"Ver":1,"State":"VA?","id":"a62fyg7dcmmg","Web":"www.sbc-kbdc.com","Address":"1952 Gallows Road"},"type":"Feature","geometry":{"type":"Point","coordinates":[-77.2275590300221,38.912002993096]}},{"properties":{"City":"Lynchburg","Name":"Lynchburg Business Development Center","Zip":24502.0,"Address2":null,"Label":15,"Ver":1,"State":"VA","id":"a62fygbm115t","Web":"www.lbdc.com","Address":"147 Mill Ridge Road"},"type":"Feature","geometry":{"type":"Point","coordinates":[-79.2227499181256,37.3736497094362]}},{"properties":{"City":"Richmond","Name":"MBL Small Business Incubator","Zip":23261.0,"Address2":"P.O. Box 26751","Label":17,"Ver":1,"State":"VA","id":"a62fyg712gr4","Web":"www.thembl.org","Address":"115 East Marshall Street"},"type":"Feature","geometry":{"type":"Point","coordinates":[-77.4400958052066,37.5459058509283]}},{"properties":{"City":"Manasses","Name":"Mason Enterprise Center @ Prince William, GMU","Zip":20110.0,"Address2":"MSN 1J2, Bull Run Hall 147","Label":16,"Ver":1,"State":"VA","id":"a62fygd07gdt","Web":"www.masonenterprisecenter.org","Address":"10900 University Blvd"},"type":"Feature","geometry":{"type":"Point","coordinates":[-77.5221769268208,38.7547025769511]}},{"properties":{"City":"Radford","Name":"New River Valley Competitiveness Center","Zip":24141.0,"Address2":null,"Label":18,"Ver":1,"State":"VA","id":"a62fyg6zljeh","Web":"www.nrvdc.org/nrvcc.html","Address":"6508 Valley Center Drive"},"type":"Feature","geometry":{"type":"Point","coordinates":[-80.5446273961126,37.1474522326267]}},{"properties":{"City":"Verona","Name":"NewBiz Virginia","Zip":24482.0,"Address2":"Ste. 114","Label":19,"Ver":1,"State":"VA","id":"a62fyghna4u2","Web":"www.newbizva.org","Address":"50 Lodge Ln."},"type":"Feature","geometry":{"type":"Point","coordinates":[-79.0000328175695,38.1947487086277]}},{"properties":{"City":"Blackstone","Name":"Nottoway County Small Business Incubator @ Pickett Park","Zip":0.0,"Address2":null,"Label":20,"Ver":1,"State":"VA","id":"a62fyg9onwl4","Web":"www.ncvc.com","Address":"1279 W. 10th St., Pickett Park"},"type":"Feature","geometry":{"type":"Point","coordinates":[-77.950676846489,37.0643641473523]}},{"properties":{"City":"Duffield","Name":"Pioneer Center for Business Opportunity","Zip":0.0,"Address2":null,"Label":21,"Ver":1,"State":"VA","id":"a62fygh6hewz","Web":"www.pcbo.org Norton Facility","Address":"Post Office Box 408"},"type":"Feature","geometry":{"type":"Point","coordinates":[-82.7999381879708,36.7130167399327]}},{"properties":{"City":"Richlands","Name":"Richlands Business Incubator","Zip":24641.0,"Address2":null,"Label":22,"Ver":1,"State":"VA","id":"a62fyg68m6zc","Web":"www.rbi.tazewellcounty.org/","Address":"1928 Front St."},"type":"Feature","geometry":{"type":"Point","coordinates":[-81.8012500676534,37.0942843142545]}},{"properties":{"City":"Charlottesville","Name":"Spinner Technologies, Inc.","Zip":22902.0,"Address2":"Suite 210","Label":23,"Ver":1,"State":"VA","id":"a62fyg5afzz2","Web":"www.spinnertech.com","Address":"250 West Main Street"},"type":"Feature","geometry":{"type":"Point","coordinates":[-78.4837770066499,38.0309192145501]}},{"properties":{"City":"Monterey","Name":"The Highland Center","Zip":0.0,"Address2":null,"Label":24,"Ver":1,"State":"VA","id":"a62fyg4c4n7v","Web":"www.thehighlandcenter.org","Address":"P.O. Box 556"},"type":"Feature","geometry":{"type":"Point","coordinates":[-79.5867940222569,38.4098898674244]}},{"properties":{"City":"Floyd","Name":"The Jacksonville Center","Zip":24091.0,"Address2":null,"Label":25,"Ver":1,"State":"VA","id":"a62fyggycv2c","Web":"www.jacksonvillecenter.org","Address":"220 Parkway Ln., South"},"type":"Feature","geometry":{"type":"Point","coordinates":[-80.3175036176128,36.906577820299]}},{"properties":{"City":"Galax","Name":"The Southwest Regional Enterprise Center at Crossroads Institute","Zip":24333.0,"Address2":null,"Label":26,"Ver":1,"State":"VA","id":"a62fyghk0bww","Web":"www.crossroadsva.org","Address":"1117 E. Stuart Drive"},"type":"Feature","geometry":{"type":"Point","coordinates":[-80.9299509127864,36.6578163537742]}},{"properties":{"City":"Blacksburg","Name":"VT KnowledgeWorks @ Virginia Tech Corporate Research Center","Zip":24060.0,"Address2":"Suite 1000","Label":30,"Ver":1,"State":"VA","id":"a62fyg4ijem5","Web":"www.vtknowledgeworks.com","Address":"2201 Kraft Dr."},"type":"Feature","geometry":{"type":"Point","coordinates":[-80.4082721900301,37.2004312933727]}},{"properties":{"City":"Richmond","Name":"Virginia Biosciences Development Center","Zip":23219.0,"Address2":null,"Label":27,"Ver":1,"State":"VA","id":"a62fygezdtxd","Web":"www.vabiotech.com/bioincubator","Address":"800 East Leigh St."},"type":"Feature","geometry":{"type":"Point","coordinates":[-77.4315072798269,37.5442960644958]}},{"properties":{"City":"Abingdon","Name":"Virginia Highlands Small Business Incubator","Zip":0.0,"Address2":null,"Label":28,"Ver":1,"State":"VA","id":"a62fyg8llr3n","Web":"www.vhsbi.com","Address":"851 French Moore Jr. Blvd."},"type":"Feature","geometry":{"type":"Point","coordinates":[-82.0006039693197,36.6963161830226]}},{"properties":{"City":"Harrisonburg","Name":"Virginia Technology Incubator","Zip":22802.0,"Address2":null,"Label":29,"Ver":1,"State":"VA","id":"a62fyg7df6pf","Web":"www.vti-ltd.com","Address":"1400 Technology Drive"},"type":"Feature","geometry":{"type":"Point","coordinates":[-78.852687896289,38.4649949784324]}},{"properties":{"City":"Martinsville","Name":"West Piedmont Business Development Center","Zip":24112.0,"Address2":null,"Label":31,"Ver":1,"State":"VA","id":"a62fygifddzb","Web":"www.wpbdc.org","Address":"22 East Church Street"},"type":"Feature","geometry":{"type":"Point","coordinates":[-79.8724920978543,36.690803485809]}},{"properties":{"City":"West Point","Name":"West Point Downtown Business Center","Zip":23181.0,"Address2":"P.O. Box 152","Label":32,"Ver":1,"State":"VA","id":"a62fygca9355","Web":null,"Address":"621 Main Street"},"type":"Feature","geometry":{"type":"Point","coordinates":[-76.7961272729061,37.5311479764275]}}],"is_temporal":false,"author":{"url":"http://gis.vedp.org/","metadata":"http://gis.vedp.org/meta/bizincubators.htm","contact_name":"Trent Park","contact_address":"901 East Byrd Street, 18th Fl West\nP.O. Box 798\nRichmond, Virginia 23218-0798\nUSA\n\nTPark@yesvirginia.org","source":"Virginia Econmic Development Partnership","contact_phone":"804-545-5685"},"source":"http://gis.vedp.org/","pagination":{"sort":null,"start":0,"total":32,"limit":1000000},"state":"complete","tags":"business,businesses,company,development,economic,entrepreneurial,equipment,firm,incubation,incubator,investment,office,resources,support,technical,vbia","published":"2010-03-10T17:00:00Z","id":36645}