{"type":"FeatureCollection","data_type":"Dataset","url_type":null,"permissions":[{"permissions":{"download":true,"view":true},"group_id":"everyone"}],"classification":null,"title":"30-90","count":39,"stream_id":366543,"contributor":{"url":"http://geocommons.com/users/74787","name":"stevendosanjh"},"data_attributes":null,"calculation_params":null,"icon_link":null,"link":"http://geocommons.com/overlays/366543.json","extent":[-123.504,43.4907,-64.5478,49.8833],"geometry_types":["point"],"unique_name":null,"name":"30-90","feature_count":39,"description":"","next_feature":null,"is_raster":false,"short_classification":"Y","stats":{"latitude":{"max":49.883288,"variance":5.33679385929268,"mean":45.5317365384615,"stdev":2.31015018111219,"min":43.490723,"median":43.858019},"order":{"max":9999,"variance":0.0,"mean":9999.0,"stdev":0.0,"min":9999,"median":9999},"longitude":{"max":-64.5478,"variance":386.927872541661,"mean":-84.8754981794872,"stdev":19.6704822651012,"min":-123.503876,"median":-79.665735},"identifying number":{"max":10927922,"variance":6066.83130904184,"mean":10927795.8974359,"stdev":77.8898665362949,"min":10927667,"median":10927796}},"features":[{"properties":{"delete":null,"city":"Brampton","category":"30 to 90","subcategory":null,"latitude":43.78484,"photo url":null,"title":"A38","directions":"FALSE","order":9999,"street1":null,"zipcode":"L6P 0G3","photo height":null,"freeform address":"Brampton, ON, L6P 0G3, CA","street2":null,"country":"CA","website":null,"description":null,"photo width":null,"neighborhood":null,"photo description":null,"identifying number":10927667,"longitude":-79.687044,"link":"http://www.communitywalk.com/map/1605311#0004Y[hc","id":"aez25t7ke9so","phone number":null,"state":"ON","photo title":null},"type":"Feature","geometry":{"type":"Point","coordinates":[-79.687044,43.78484]}},{"properties":{"delete":null,"city":"Richmond Hill","category":"30 to 90","subcategory":null,"latitude":43.858019,"photo url":null,"title":"A50","directions":"FALSE","order":9999,"street1":null,"zipcode":"L4C 8R5","photo height":null,"freeform address":"Richmond Hill, ON, L4C 8R5, CA","street2":null,"country":"CA","website":null,"description":null,"photo width":null,"neighborhood":null,"photo description":null,"identifying number":10927680,"longitude":-79.420629,"link":"http://www.communitywalk.com/map/1605311#0004Y[i0","id":"aez25t364gha","phone number":null,"state":"ON","photo title":null},"type":"Feature","geometry":{"type":"Point","coordinates":[-79.420629,43.858019]}},{"properties":{"delete":null,"city":"Markham","category":"30 to 90","subcategory":null,"latitude":43.868712,"photo url":null,"title":"A51","directions":"FALSE","order":9999,"street1":null,"zipcode":"L6B 0SB","photo height":null,"freeform address":"Markham, ON, L6B 0SB, CA","street2":null,"country":"CA","website":null,"description":null,"photo width":null,"neighborhood":null,"photo description":null,"identifying number":10927681,"longitude":-79.225378,"link":"http://www.communitywalk.com/map/1605311#0004Y[i1","id":"aez25tc46m0n","phone number":null,"state":"ON","photo title":null},"type":"Feature","geometry":{"type":"Point","coordinates":[-79.225378,43.868712]}},{"properties":{"delete":null,"city":"Toronto","category":"30 to 90","subcategory":null,"latitude":43.763475,"photo url":null,"title":"A56","directions":"FALSE","order":9999,"street1":null,"zipcode":"M1G 1R9","photo height":null,"freeform address":"Toronto, ON, M1G 1R9, CA","street2":null,"country":"CA","website":null,"description":null,"photo width":null,"neighborhood":null,"photo description":null,"identifying number":10927686,"longitude":-79.204755,"link":"http://www.communitywalk.com/map/1605311#0004Y[i6","id":"aez25t9hzkc8","phone number":null,"state":"ON","photo title":null},"type":"Feature","geometry":{"type":"Point","coordinates":[-79.204755,43.763475]}},{"properties":{"delete":null,"city":"Mississauga","category":"30 to 90","subcategory":null,"latitude":43.59204,"photo url":null,"title":"A59","directions":"FALSE","order":9999,"street1":null,"zipcode":"L5B 3Y5","photo height":null,"freeform address":"Mississauga, ON, L5B 3Y5, CA","street2":null,"country":"CA","website":null,"description":null,"photo width":null,"neighborhood":null,"photo description":null,"identifying number":10927689,"longitude":-79.635999,"link":"http://www.communitywalk.com/map/1605311#0004Y[i9","id":"aez25tbb4bmx","phone number":null,"state":"ON","photo title":null},"type":"Feature","geometry":{"type":"Point","coordinates":[-79.635999,43.59204]}},{"properties":{"delete":null,"city":"Toronto","category":"30 to 90","subcategory":null,"latitude":43.765171,"photo url":null,"title":"A67","directions":"FALSE","order":9999,"street1":null,"zipcode":"M3A 3A7","photo height":null,"freeform address":"Toronto, ON, M3A 3A7, CA","street2":null,"country":"CA","website":null,"description":null,"photo width":null,"neighborhood":null,"photo description":null,"identifying number":10927705,"longitude":-79.34462,"link":"http://www.communitywalk.com/map/1605311#0004Y[iI","id":"aez25t3e3p3c","phone number":null,"state":"ON","photo title":null},"type":"Feature","geometry":{"type":"Point","coordinates":[-79.34462,43.765171]}},{"properties":{"delete":null,"city":"Brampton","category":"30 to 90","subcategory":null,"latitude":43.66474,"photo url":null,"title":"A76","directions":"FALSE","order":9999,"street1":null,"zipcode":"L6Y 4Y6","photo height":null,"freeform address":"Brampton, ON, L6Y 4Y6, CA","street2":null,"country":"CA","website":null,"description":null,"photo width":null,"neighborhood":null,"photo description":null,"identifying number":10927715,"longitude":-79.776259,"link":"http://www.communitywalk.com/map/1605311#0004Y[iS","id":"aez25t4qv3uf","phone number":null,"state":"ON","photo title":null},"type":"Feature","geometry":{"type":"Point","coordinates":[-79.776259,43.66474]}},{"properties":{"delete":null,"city":"Mississauga","category":"30 to 90","subcategory":null,"latitude":43.599407,"photo url":null,"title":"A82","directions":"FALSE","order":9999,"street1":null,"zipcode":"L5V 2Y5","photo height":null,"freeform address":"Mississauga, ON, L5V 2Y5, CA","street2":null,"country":"CA","website":null,"description":null,"photo width":null,"neighborhood":null,"photo description":null,"identifying number":10927720,"longitude":-79.708786,"link":"http://www.communitywalk.com/map/1605311#0004Y[iX","id":"aez25sxgz6vb","phone number":null,"state":"ON","photo title":null},"type":"Feature","geometry":{"type":"Point","coordinates":[-79.708786,43.599407]}},{"properties":{"delete":null,"city":"Brampton","category":"30 to 90","subcategory":null,"latitude":43.657389,"photo url":null,"title":"A85","directions":"FALSE","order":9999,"street1":null,"zipcode":"L6Y 4E4","photo height":null,"freeform address":"Brampton, ON, L6Y 4E4, CA","street2":null,"country":"CA","website":null,"description":null,"photo width":null,"neighborhood":null,"photo description":null,"identifying number":10927723,"longitude":-79.732626,"link":"http://www.communitywalk.com/map/1605311#0004Y[i[","id":"aez25sxhppy0","phone number":null,"state":"ON","photo title":null},"type":"Feature","geometry":{"type":"Point","coordinates":[-79.732626,43.657389]}},{"properties":{"delete":null,"city":"Milton","category":"30 to 90","subcategory":null,"latitude":43.490723,"photo url":null,"title":"A86","directions":"FALSE","order":9999,"street1":null,"zipcode":"L9T 0P3","photo height":null,"freeform address":"Milton, ON, L9T 0P3, CA","street2":null,"country":"CA","website":null,"description":null,"photo width":null,"neighborhood":null,"photo description":null,"identifying number":10927724,"longitude":-79.874659,"link":"http://www.communitywalk.com/map/1605311#0004Y[i\\","id":"aez25sye342l","phone number":null,"state":"ON","photo title":null},"type":"Feature","geometry":{"type":"Point","coordinates":[-79.874659,43.490723]}},{"properties":{"delete":null,"city":"Mississauga","category":"30 to 90","subcategory":null,"latitude":43.553617,"photo url":null,"title":"A98","directions":"FALSE","order":9999,"street1":null,"zipcode":"L5M 6P5","photo height":null,"freeform address":"Mississauga, ON, L5M 6P5, CA","street2":null,"country":"CA","website":null,"description":null,"photo width":null,"neighborhood":null,"photo description":null,"identifying number":10927737,"longitude":-79.756285,"link":"http://www.communitywalk.com/map/1605311#0004Y[ii","id":"aez25swlnwch","phone number":null,"state":"ON","photo title":null},"type":"Feature","geometry":{"type":"Point","coordinates":[-79.756285,43.553617]}},{"properties":{"delete":null,"city":"Mississauga","category":"30 to 90","subcategory":null,"latitude":43.596906,"photo url":null,"title":"A105","directions":"FALSE","order":9999,"street1":null,"zipcode":"L5R 2P9","photo height":null,"freeform address":"Mississauga, ON, L5R 2P9, CA","street2":null,"country":"CA","website":null,"description":null,"photo width":null,"neighborhood":null,"photo description":null,"identifying number":10927743,"longitude":-79.665735,"link":"http://www.communitywalk.com/map/1605311#0004Y[io","id":"aez25t6r3c9g","phone number":null,"state":"ON","photo title":null},"type":"Feature","geometry":{"type":"Point","coordinates":[-79.665735,43.596906]}},{"properties":{"delete":null,"city":"Brampton","category":"30 to 90","subcategory":null,"latitude":43.645745,"photo url":null,"title":"A113","directions":"FALSE","order":9999,"street1":null,"zipcode":"L6Y 5A4","photo height":null,"freeform address":"Brampton, ON, L6Y 5A4, CA","street2":null,"country":"CA","website":null,"description":null,"photo width":null,"neighborhood":null,"photo description":null,"identifying number":10927752,"longitude":-79.733503,"link":"http://www.communitywalk.com/map/1605311#0004Y[j8","id":"aez25t3e8oav","phone number":null,"state":"ON","photo title":null},"type":"Feature","geometry":{"type":"Point","coordinates":[-79.733503,43.645745]}},{"properties":{"delete":null,"city":"Toronto","category":"30 to 90","subcategory":null,"latitude":43.676729,"photo url":null,"title":"A114","directions":"FALSE","order":9999,"street1":null,"zipcode":"M9R 2K9","photo height":null,"freeform address":"Toronto, ON, M9R 2K9, CA","street2":null,"country":"CA","website":null,"description":null,"photo width":null,"neighborhood":null,"photo description":null,"identifying number":10927753,"longitude":-79.565788,"link":"http://www.communitywalk.com/map/1605311#0004Y[j9","id":"aez25t7rflik","phone number":null,"state":"ON","photo title":null},"type":"Feature","geometry":{"type":"Point","coordinates":[-79.565788,43.676729]}},{"properties":{"delete":null,"city":"Brampton","category":"30 to 90","subcategory":null,"latitude":43.664646,"photo url":null,"title":"A115","directions":"FALSE","order":9999,"street1":null,"zipcode":"L6Y 4Z2","photo height":null,"freeform address":"Brampton, ON, L6Y 4Z2, CA","street2":null,"country":"CA","website":null,"description":null,"photo width":null,"neighborhood":null,"photo description":null,"identifying number":10927754,"longitude":-79.775207,"link":"http://www.communitywalk.com/map/1605311#0004Y[j:","id":"aez25t01x1r2","phone number":null,"state":"ON","photo title":null},"type":"Feature","geometry":{"type":"Point","coordinates":[-79.775207,43.664646]}},{"properties":{"delete":null,"city":"Mississauga","category":"30 to 90","subcategory":null,"latitude":43.576768,"photo url":null,"title":"A119","directions":"FALSE","order":9999,"street1":null,"zipcode":"L5B 4E3","photo height":null,"freeform address":"Mississauga, ON, L5B 4E3, CA","street2":null,"country":"CA","website":null,"description":null,"photo width":null,"neighborhood":null,"photo description":null,"identifying number":10927758,"longitude":-79.642842,"link":"http://www.communitywalk.com/map/1605311#0004Y[jq","id":"aez25t6xrme8","phone number":null,"state":"ON","photo title":null},"type":"Feature","geometry":{"type":"Point","coordinates":[-79.642842,43.576768]}},{"properties":{"delete":null,"city":"Brampton","category":"30 to 90","subcategory":null,"latitude":43.702737,"photo url":null,"title":"A128","directions":"FALSE","order":9999,"street1":null,"zipcode":"L7A 2X2","photo height":null,"freeform address":"Brampton, ON, L7A 2X2, CA","street2":null,"country":"CA","website":null,"description":null,"photo width":null,"neighborhood":null,"photo description":null,"identifying number":10927776,"longitude":-79.809538,"link":"http://www.communitywalk.com/map/1605311#0004Y[jP","id":"aez25t4b59fw","phone number":null,"state":"ON","photo title":null},"type":"Feature","geometry":{"type":"Point","coordinates":[-79.809538,43.702737]}},{"properties":{"delete":null,"city":"Milton","category":"30 to 90","subcategory":null,"latitude":43.512004,"photo url":null,"title":"A160","directions":"FALSE","order":9999,"street1":null,"zipcode":"L9T 0G5","photo height":null,"freeform address":"Milton, ON, L9T 0G5, CA","street2":null,"country":"CA","website":null,"description":null,"photo width":null,"neighborhood":null,"photo description":null,"identifying number":10927779,"longitude":-79.854532,"link":"http://www.communitywalk.com/map/1605311#0004Y[jS","id":"aez25t26j683","phone number":null,"state":"ON","photo title":null},"type":"Feature","geometry":{"type":"Point","coordinates":[-79.854532,43.512004]}},{"properties":{"delete":null,"city":"Markham","category":"30 to 90","subcategory":null,"latitude":43.824564,"photo url":null,"title":"A148","directions":"FALSE","order":9999,"street1":null,"zipcode":"L3R 3N2","photo height":null,"freeform address":"Markham, ON, L3R 3N2, CA","street2":null,"country":"CA","website":null,"description":null,"photo width":null,"neighborhood":null,"photo description":null,"identifying number":10927787,"longitude":-79.315131,"link":"http://www.communitywalk.com/map/1605311#0004Y[j[","id":"aez25sxfxpok","phone number":null,"state":"ON","photo title":null},"type":"Feature","geometry":{"type":"Point","coordinates":[-79.315131,43.824564]}},{"properties":{"delete":null,"city":"Mississauga","category":"30 to 90","subcategory":null,"latitude":43.605692,"photo url":null,"title":"A157","directions":"FALSE","order":9999,"street1":null,"zipcode":"L4Z 4H2","photo height":null,"freeform address":"Mississauga, ON, L4Z 4H2, CA","street2":null,"country":"CA","website":null,"description":null,"photo width":null,"neighborhood":null,"photo description":null,"identifying number":10927796,"longitude":-79.640737,"link":"http://www.communitywalk.com/map/1605311#0004Y[jd","id":"aez25swp3qg5","phone number":null,"state":"ON","photo title":null},"type":"Feature","geometry":{"type":"Point","coordinates":[-79.640737,43.605692]}},{"properties":{"delete":null,"city":"Surrey","category":"30 to 90","subcategory":null,"latitude":49.171934,"photo url":null,"title":"A170","directions":"FALSE","order":9999,"street1":null,"zipcode":"V3R 3Z1","photo height":null,"freeform address":"Surrey, BC, V3R 3Z1, CA","street2":null,"country":"CA","website":null,"description":null,"photo width":null,"neighborhood":null,"photo description":null,"identifying number":10927799,"longitude":-122.811192,"link":"http://www.communitywalk.com/map/1605311#0004Y[jg","id":"aez25t3xx65s","phone number":null,"state":"BC","photo title":null},"type":"Feature","geometry":{"type":"Point","coordinates":[-122.811192,49.171934]}},{"properties":{"delete":null,"city":"Coquitlam","category":"30 to 90","subcategory":null,"latitude":49.281762,"photo url":null,"title":"A171","directions":"FALSE","order":9999,"street1":null,"zipcode":"V3B 0A7","photo height":null,"freeform address":"Coquitlam, BC, V3B 0A7, CA","street2":null,"country":"CA","website":null,"description":null,"photo width":null,"neighborhood":null,"photo description":null,"identifying number":10927800,"longitude":-122.791313,"link":"http://www.communitywalk.com/map/1605311#0004Y[jh","id":"aez25t3hddbq","phone number":null,"state":"BC","photo title":null},"type":"Feature","geometry":{"type":"Point","coordinates":[-122.791313,49.281762]}},{"properties":{"delete":null,"city":"New Westminster","category":"30 to 90","subcategory":null,"latitude":49.212833,"photo url":null,"title":"A175","directions":"FALSE","order":9999,"street1":null,"zipcode":"V3M 2J2","photo height":null,"freeform address":"New Westminster, BC, V3M 2J2, CA","street2":null,"country":"CA","website":null,"description":null,"photo width":null,"neighborhood":null,"photo description":null,"identifying number":10927804,"longitude":-122.925388,"link":"http://www.communitywalk.com/map/1605311#0004Y[jl","id":"aez25ta28qe8","phone number":null,"state":"BC","photo title":null},"type":"Feature","geometry":{"type":"Point","coordinates":[-122.925388,49.212833]}},{"properties":{"delete":null,"city":"Markham","category":"30 to 90","subcategory":null,"latitude":43.849176,"photo url":null,"title":"A161","directions":"FALSE","order":9999,"street1":null,"zipcode":"L3S 4J4","photo height":null,"freeform address":"Markham, ON, L3S 4J4, CA","street2":null,"country":"CA","website":null,"description":null,"photo width":null,"neighborhood":null,"photo description":null,"identifying number":10927809,"longitude":-79.271542,"link":"http://www.communitywalk.com/map/1605311#0004Y[k1","id":"aez25t0jc2em","phone number":null,"state":"ON","photo title":null},"type":"Feature","geometry":{"type":"Point","coordinates":[-79.271542,43.849176]}},{"properties":{"delete":null,"city":"Richmond","category":"30 to 90","subcategory":null,"latitude":49.179297,"photo url":null,"title":"A194","directions":"FALSE","order":9999,"street1":null,"zipcode":"V6X 4C1","photo height":null,"freeform address":"Richmond, BC, V6X 4C1, CA","street2":null,"country":"CA","website":null,"description":null,"photo width":null,"neighborhood":null,"photo description":null,"identifying number":10927823,"longitude":-123.107782,"link":"http://www.communitywalk.com/map/1605311#0004Y[kp","id":"aez25t77m695","phone number":null,"state":"BC","photo title":null},"type":"Feature","geometry":{"type":"Point","coordinates":[-123.107782,49.179297]}},{"properties":{"delete":null,"city":"Surrey","category":"30 to 90","subcategory":null,"latitude":49.109798,"photo url":null,"title":"A184","directions":"FALSE","order":9999,"street1":null,"zipcode":"V3X 1V8","photo height":null,"freeform address":"Surrey, BC, V3X 1V8, CA","street2":null,"country":"CA","website":null,"description":null,"photo width":null,"neighborhood":null,"photo description":null,"identifying number":10927832,"longitude":-122.873075,"link":"http://www.communitywalk.com/map/1605311#0004Y[kH","id":"aez25sxx8sub","phone number":null,"state":"BC","photo title":null},"type":"Feature","geometry":{"type":"Point","coordinates":[-122.873075,49.109798]}},{"properties":{"delete":null,"city":"Winnipeg","category":"30 to 90","subcategory":null,"latitude":49.883288,"photo url":null,"title":"A202","directions":"FALSE","order":9999,"street1":null,"zipcode":"R3K 1W2","photo height":null,"freeform address":"Winnipeg, MB, R3K 1W2, CA","street2":null,"country":"CA","website":null,"description":null,"photo width":null,"neighborhood":null,"photo description":null,"identifying number":10927850,"longitude":-97.306675,"link":"http://www.communitywalk.com/map/1605311#0004Y[kZ","id":"aez25t450kba","phone number":null,"state":"MB","photo title":null},"type":"Feature","geometry":{"type":"Point","coordinates":[-97.306675,49.883288]}},{"properties":{"delete":null,"city":"Winnipeg","category":"30 to 90","subcategory":null,"latitude":49.882012,"photo url":null,"title":"A208","directions":"FALSE","order":9999,"street1":null,"zipcode":"R3G 2V8","photo height":null,"freeform address":"Winnipeg, MB, R3G 2V8, CA","street2":null,"country":"CA","website":null,"description":null,"photo width":null,"neighborhood":null,"photo description":null,"identifying number":10927856,"longitude":-97.184529,"link":"http://www.communitywalk.com/map/1605311#0004Y[k`","id":"aez25szlh4qk","phone number":null,"state":"MB","photo title":null},"type":"Feature","geometry":{"type":"Point","coordinates":[-97.184529,49.882012]}},{"properties":{"delete":null,"city":"Victoria","category":"30 to 90","subcategory":null,"latitude":48.457181,"photo url":null,"title":"A235","directions":"FALSE","order":9999,"street1":null,"zipcode":"V9B 6W6","photo height":null,"freeform address":"Victoria, BC, V9B 6W6, CA","street2":null,"country":"CA","website":null,"description":null,"photo width":null,"neighborhood":null,"photo description":null,"identifying number":10927865,"longitude":-123.503876,"link":"http://www.communitywalk.com/map/1605311#0004Y[ki","id":"aez25t29y1ut","phone number":null,"state":"BC","photo title":null},"type":"Feature","geometry":{"type":"Point","coordinates":[-123.503876,48.457181]}},{"properties":{"delete":null,"city":"Dieppe","category":"30 to 90","subcategory":null,"latitude":46.099521,"photo url":null,"title":"A253","directions":"FALSE","order":9999,"street1":null,"zipcode":"E1A 1Z8","photo height":null,"freeform address":"Dieppe, NB, E1A 1Z8, CA","street2":null,"country":"CA","website":null,"description":null,"photo width":null,"neighborhood":null,"photo description":null,"identifying number":10927883,"longitude":-64.75536,"link":"http://www.communitywalk.com/map/1605311#0004Y[l;","id":"aez25t0kimsx","phone number":null,"state":"NB","photo title":null},"type":"Feature","geometry":{"type":"Point","coordinates":[-64.75536,46.099521]}},{"properties":{"delete":null,"city":"Salisbury","category":"30 to 90","subcategory":null,"latitude":46.022201,"photo url":null,"title":"A255","directions":"FALSE","order":9999,"street1":null,"zipcode":"E4J 2M3","photo height":null,"freeform address":"Salisbury, NB, E4J 2M3, CA","street2":null,"country":"CA","website":null,"description":null,"photo width":null,"neighborhood":null,"photo description":null,"identifying number":10927885,"longitude":-65.059371,"link":"http://www.communitywalk.com/map/1605311#0004Y[l=","id":"aez25swuoxdn","phone number":null,"state":"NB","photo title":null},"type":"Feature","geometry":{"type":"Point","coordinates":[-65.059371,46.022201]}},{"properties":{"delete":null,"city":"Notre-Dame","category":"30 to 90","subcategory":null,"latitude":46.258038,"photo url":null,"title":"A256","directions":"FALSE","order":9999,"street1":null,"zipcode":"E4V 3G6","photo height":null,"freeform address":"Notre-Dame, NB, E4V 3G6, CA","street2":null,"country":"CA","website":null,"description":null,"photo width":null,"neighborhood":null,"photo description":null,"identifying number":10927886,"longitude":-64.794103,"link":"http://www.communitywalk.com/map/1605311#0004Y[lq","id":"aez25tbj0gmc","phone number":null,"state":"NB","photo title":null},"type":"Feature","geometry":{"type":"Point","coordinates":[-64.794103,46.258038]}},{"properties":{"delete":null,"city":"Riverview","category":"30 to 90","subcategory":null,"latitude":46.043362,"photo url":null,"title":"A241","directions":"FALSE","order":9999,"street1":null,"zipcode":"E1B 4C5","photo height":null,"freeform address":"Riverview, NB, E1B 4C5, CA","street2":null,"country":"CA","website":null,"description":null,"photo width":null,"neighborhood":null,"photo description":null,"identifying number":10927890,"longitude":-64.805924,"link":"http://www.communitywalk.com/map/1605311#0004Y[lB","id":"aez25szimltv","phone number":null,"state":"NB","photo title":null},"type":"Feature","geometry":{"type":"Point","coordinates":[-64.805924,46.043362]}},{"properties":{"delete":null,"city":"Moncton","category":"30 to 90","subcategory":null,"latitude":46.105057,"photo url":null,"title":"A247","directions":"FALSE","order":9999,"street1":null,"zipcode":"E1A 2T9","photo height":null,"freeform address":"Moncton, NB, E1A 2T9, CA","street2":null,"country":"CA","website":null,"description":null,"photo width":null,"neighborhood":null,"photo description":null,"identifying number":10927896,"longitude":-64.767391,"link":"http://www.communitywalk.com/map/1605311#0004Y[lH","id":"aez25sz64d0h","phone number":null,"state":"NB","photo title":null},"type":"Feature","geometry":{"type":"Point","coordinates":[-64.767391,46.105057]}},{"properties":{"delete":null,"city":"Moncton","category":"30 to 90","subcategory":null,"latitude":46.11885,"photo url":null,"title":"A248","directions":"FALSE","order":9999,"street1":null,"zipcode":"E1A 3N4","photo height":null,"freeform address":"Moncton, NB, E1A 3N4, CA","street2":null,"country":"CA","website":null,"description":null,"photo width":null,"neighborhood":null,"photo description":null,"identifying number":10927897,"longitude":-64.765883,"link":"http://www.communitywalk.com/map/1605311#0004Y[lI","id":"aez25t3vr9l3","phone number":null,"state":"NB","photo title":null},"type":"Feature","geometry":{"type":"Point","coordinates":[-64.765883,46.11885]}},{"properties":{"delete":null,"city":"Shediac","category":"30 to 90","subcategory":null,"latitude":46.211124,"photo url":null,"title":"A263","directions":"FALSE","order":9999,"street1":null,"zipcode":"E4P 8Z6","photo height":null,"freeform address":"Shediac, NB, E4P 8Z6, CA","street2":null,"country":"CA","website":null,"description":null,"photo width":null,"neighborhood":null,"photo description":null,"identifying number":10927901,"longitude":-64.5478,"link":"http://www.communitywalk.com/map/1605311#0004Y[lM","id":"aez25t9x9l7o","phone number":null,"state":"NB","photo title":null},"type":"Feature","geometry":{"type":"Point","coordinates":[-64.5478,46.211124]}},{"properties":{"delete":null,"city":"Moncton","category":"30 to 90","subcategory":null,"latitude":46.094124,"photo url":null,"title":"A264","directions":"FALSE","order":9999,"street1":null,"zipcode":"E1C 6C3","photo height":null,"freeform address":"Moncton, NB, E1C 6C3, CA","street2":null,"country":"CA","website":null,"description":null,"photo width":null,"neighborhood":null,"photo description":null,"identifying number":10927902,"longitude":-64.793193,"link":"http://www.communitywalk.com/map/1605311#0004Y[lN","id":"aez25sy0lex1","phone number":null,"state":"NB","photo title":null},"type":"Feature","geometry":{"type":"Point","coordinates":[-64.793193,46.094124]}},{"properties":{"delete":null,"city":"Dieppe","category":"30 to 90","subcategory":null,"latitude":46.091302,"photo url":null,"title":"A277","directions":"FALSE","order":9999,"street1":null,"zipcode":"E1A 2C9","photo height":null,"freeform address":"Dieppe, NB, E1A 2C9, CA","street2":null,"country":"CA","website":null,"description":null,"photo width":null,"neighborhood":null,"photo description":null,"identifying number":10927915,"longitude":-64.699962,"link":"http://www.communitywalk.com/map/1605311#0004Y[l[","id":"aez25t952epx","phone number":null,"state":"NB","photo title":null},"type":"Feature","geometry":{"type":"Point","coordinates":[-64.699962,46.091302]}},{"properties":{"delete":null,"city":"Burnaby","category":"30 to 90","subcategory":null,"latitude":49.262941,"photo url":null,"title":"A284","directions":"FALSE","order":9999,"street1":null,"zipcode":"V5C 0B4","photo height":null,"freeform address":"Burnaby, BC, V5C 0B4, CA","street2":null,"country":"CA","website":null,"description":null,"photo width":null,"neighborhood":null,"photo description":null,"identifying number":10927922,"longitude":-123.010017,"link":"http://www.communitywalk.com/map/1605311#0004Y[lb","id":"aez25t3bqmu0","phone number":null,"state":"BC","photo title":null},"type":"Feature","geometry":{"type":"Point","coordinates":[-123.010017,49.262941]}}],"is_temporal":false,"author":{"url":"","metadata":"","contact_name":"","contact_address":"","source":"","contact_phone":""},"source":"","pagination":{"sort":null,"start":0,"total":39,"limit":1000000},"state":"complete","tags":"","published":"2014-08-16T21:54:29-04:00","id":366543}