{"type":"FeatureCollection","data_type":"Dataset","url_type":null,"permissions":[{"permissions":{"download":true,"view":true},"group_id":"everyone"}],"classification":null,"title":"Provincial Data","count":960,"stream_id":367069,"contributor":{"url":"http://geocommons.com/users/74729","name":"adalisay"},"data_attributes":null,"calculation_params":null,"icon_link":null,"link":"http://geocommons.com/overlays/367069.json","extent":[0.0,0.0,0.0,0.0],"geometry_types":[],"unique_name":null,"name":"Provincial Data","feature_count":960,"description":"","next_feature":null,"is_raster":false,"short_classification":"Y","stats":{"average wage":{"max":544.42,"variance":3235.22621373365,"mean":238.534736842105,"stdev":56.8790489875987,"min":140.72,"median":227.07},"region code":{"max":42,"variance":139.268665276329,"mean":12.4625,"stdev":11.8012145678455,"min":1,"median":9},"year":{"max":2012,"variance":11.9290928050052,"mean":2006.5,"stdev":3.45385187942465,"min":2001,"median":2007}},"features":[{"properties":{"average wage":243.54,"region":"Cordillera Administrative Region","geo_score":0.0,"year":2001,"region code":14,"id":"af0hi1kobj7o","geo_precision":"unmatched"},"type":"Feature","geometry":null},{"properties":{"average wage":240.86,"region":"Cordillera Administrative Region","geo_score":0.0,"year":2002,"region code":14,"id":"af0hi1jfa5n8","geo_precision":"unmatched"},"type":"Feature","geometry":null},{"properties":{"average wage":220.92,"region":"Cordillera Administrative Region","geo_score":0.0,"year":2003,"region code":14,"id":"af0hi17zt7nf","geo_precision":"unmatched"},"type":"Feature","geometry":null},{"properties":{"average wage":247.71,"region":"Cordillera Administrative Region","geo_score":0.0,"year":2004,"region code":14,"id":"af0hi1fn3pls","geo_precision":"unmatched"},"type":"Feature","geometry":null},{"properties":{"average wage":249.25,"region":"Cordillera Administrative Region","geo_score":0.0,"year":2005,"region code":14,"id":"af0hi1kc8sm0","geo_precision":"unmatched"},"type":"Feature","geometry":null},{"properties":{"average wage":236.08,"region":"Cordillera Administrative Region","geo_score":0.0,"year":2006,"region code":14,"id":"af0hi1k0l2j8","geo_precision":"unmatched"},"type":"Feature","geometry":null},{"properties":{"average wage":279.92,"region":"Cordillera Administrative Region","geo_score":0.0,"year":2007,"region code":14,"id":"af0hi1asyu7p","geo_precision":"unmatched"},"type":"Feature","geometry":null},{"properties":{"average wage":292.88,"region":"Cordillera Administrative Region","geo_score":0.0,"year":2008,"region code":14,"id":"af0hi16uwt57","geo_precision":"unmatched"},"type":"Feature","geometry":null},{"properties":{"average wage":307.62,"region":"Cordillera Administrative Region","geo_score":0.0,"year":2009,"region code":14,"id":"af0hi1fwhgsa","geo_precision":"unmatched"},"type":"Feature","geometry":null},{"properties":{"average wage":278.99,"region":"Cordillera Administrative Region","geo_score":0.0,"year":2010,"region code":14,"id":"af0hi1i223jg","geo_precision":"unmatched"},"type":"Feature","geometry":null},{"properties":{"average wage":314.73,"region":"Cordillera Administrative Region","geo_score":0.0,"year":2011,"region code":14,"id":"af0hi18gf08c","geo_precision":"unmatched"},"type":"Feature","geometry":null},{"properties":{"average wage":null,"region":"Cordillera Administrative Region","geo_score":0.0,"year":2012,"region code":14,"id":"af0hi18me2iz","geo_precision":"unmatched"},"type":"Feature","geometry":null},{"properties":{"average wage":182.25,"region":"Caraga","geo_score":0.0,"year":2001,"region code":16,"id":"af0hi1htzp4h","geo_precision":"unmatched"},"type":"Feature","geometry":null},{"properties":{"average wage":193.65,"region":"Caraga","geo_score":0.0,"year":2002,"region code":16,"id":"af0hi18x4ee2","geo_precision":"unmatched"},"type":"Feature","geometry":null},{"properties":{"average wage":189.45,"region":"Caraga","geo_score":0.0,"year":2003,"region code":16,"id":"af0hi188mq2x","geo_precision":"unmatched"},"type":"Feature","geometry":null},{"properties":{"average wage":198.46,"region":"Caraga","geo_score":0.0,"year":2004,"region code":16,"id":"af0hi1e1sfve","geo_precision":"unmatched"},"type":"Feature","geometry":null},{"properties":{"average wage":206.09,"region":"Caraga","geo_score":0.0,"year":2005,"region code":16,"id":"af0hi1kzy9qa","geo_precision":"unmatched"},"type":"Feature","geometry":null},{"properties":{"average wage":203.25,"region":"Caraga","geo_score":0.0,"year":2006,"region code":16,"id":"af0hi1ctlc0s","geo_precision":"unmatched"},"type":"Feature","geometry":null},{"properties":{"average wage":213.49,"region":"Caraga","geo_score":0.0,"year":2007,"region code":16,"id":"af0hi1dl4fo6","geo_precision":"unmatched"},"type":"Feature","geometry":null},{"properties":{"average wage":220.99,"region":"Caraga","geo_score":0.0,"year":2008,"region code":16,"id":"af0hi1911o0r","geo_precision":"unmatched"},"type":"Feature","geometry":null},{"properties":{"average wage":237.89,"region":"Caraga","geo_score":0.0,"year":2009,"region code":16,"id":"af0hi1hbw49v","geo_precision":"unmatched"},"type":"Feature","geometry":null},{"properties":{"average wage":248.39,"region":"Caraga","geo_score":0.0,"year":2010,"region code":16,"id":"af0hi1k7c4aw","geo_precision":"unmatched"},"type":"Feature","geometry":null},{"properties":{"average wage":265.77,"region":"Caraga","geo_score":0.0,"year":2011,"region code":16,"id":"af0hi1csevoa","geo_precision":"unmatched"},"type":"Feature","geometry":null},{"properties":{"average wage":null,"region":"Caraga","geo_score":0.0,"year":2012,"region code":16,"id":"af0hi1hjqtfq","geo_precision":"unmatched"},"type":"Feature","geometry":null},{"properties":{"average wage":196.28,"region":"Caraga","geo_score":0.0,"year":2001,"region code":16,"id":"af0hi1f5j4sg","geo_precision":"unmatched"},"type":"Feature","geometry":null},{"properties":{"average wage":191.67,"region":"Caraga","geo_score":0.0,"year":2002,"region code":16,"id":"af0hi1m98pa1","geo_precision":"unmatched"},"type":"Feature","geometry":null},{"properties":{"average wage":187.72,"region":"Caraga","geo_score":0.0,"year":2003,"region code":16,"id":"af0hi1hncori","geo_precision":"unmatched"},"type":"Feature","geometry":null},{"properties":{"average wage":202.73,"region":"Caraga","geo_score":0.0,"year":2004,"region code":16,"id":"af0hi1c45219","geo_precision":"unmatched"},"type":"Feature","geometry":null},{"properties":{"average wage":216.08,"region":"Caraga","geo_score":0.0,"year":2005,"region code":16,"id":"af0hi1j7iuyj","geo_precision":"unmatched"},"type":"Feature","geometry":null},{"properties":{"average wage":232.01,"region":"Caraga","geo_score":0.0,"year":2006,"region code":16,"id":"af0hi1evytp5","geo_precision":"unmatched"},"type":"Feature","geometry":null},{"properties":{"average wage":229.12,"region":"Caraga","geo_score":0.0,"year":2007,"region code":16,"id":"af0hi16lxk3o","geo_precision":"unmatched"},"type":"Feature","geometry":null},{"properties":{"average wage":224.76,"region":"Caraga","geo_score":0.0,"year":2008,"region code":16,"id":"af0hi18etvfx","geo_precision":"unmatched"},"type":"Feature","geometry":null},{"properties":{"average wage":243.1,"region":"Caraga","geo_score":0.0,"year":2009,"region code":16,"id":"af0hi1d8vmkn","geo_precision":"unmatched"},"type":"Feature","geometry":null},{"properties":{"average wage":251.81,"region":"Caraga","geo_score":0.0,"year":2010,"region code":16,"id":"af0hi1jbhipe","geo_precision":"unmatched"},"type":"Feature","geometry":null},{"properties":{"average wage":279.89,"region":"Caraga","geo_score":0.0,"year":2011,"region code":16,"id":"af0hi1lt6hzk","geo_precision":"unmatched"},"type":"Feature","geometry":null},{"properties":{"average wage":null,"region":"Caraga","geo_score":0.0,"year":2012,"region code":16,"id":"af0hi1cd3qku","geo_precision":"unmatched"},"type":"Feature","geometry":null},{"properties":{"average wage":174.66,"region":"Region VI - Western Visayas","geo_score":0.0,"year":2001,"region code":6,"id":"af0hi17myd6b","geo_precision":"unmatched"},"type":"Feature","geometry":null},{"properties":{"average wage":210.44,"region":"Region VI - Western Visayas","geo_score":0.0,"year":2002,"region code":6,"id":"af0hi1gfm7mj","geo_precision":"unmatched"},"type":"Feature","geometry":null},{"properties":{"average wage":188.75,"region":"Region VI - Western Visayas","geo_score":0.0,"year":2003,"region code":6,"id":"af0hi1923cbl","geo_precision":"unmatched"},"type":"Feature","geometry":null},{"properties":{"average wage":175.65,"region":"Region VI - Western Visayas","geo_score":0.0,"year":2004,"region code":6,"id":"af0hi1bbd1xx","geo_precision":"unmatched"},"type":"Feature","geometry":null},{"properties":{"average wage":198.94,"region":"Region VI - Western Visayas","geo_score":0.0,"year":2005,"region code":6,"id":"af0hi1g2y48g","geo_precision":"unmatched"},"type":"Feature","geometry":null},{"properties":{"average wage":337.99,"region":"Region VI - Western Visayas","geo_score":0.0,"year":2006,"region code":6,"id":"af0hi1kt0oym","geo_precision":"unmatched"},"type":"Feature","geometry":null},{"properties":{"average wage":210.85,"region":"Region VI - Western Visayas","geo_score":0.0,"year":2007,"region code":6,"id":"af0hi1hhry7n","geo_precision":"unmatched"},"type":"Feature","geometry":null},{"properties":{"average wage":222.14,"region":"Region VI - Western Visayas","geo_score":0.0,"year":2008,"region code":6,"id":"af0hi1g0m5iq","geo_precision":"unmatched"},"type":"Feature","geometry":null},{"properties":{"average wage":221.55,"region":"Region VI - Western Visayas","geo_score":0.0,"year":2009,"region code":6,"id":"af0hi17t3fpw","geo_precision":"unmatched"},"type":"Feature","geometry":null},{"properties":{"average wage":246.53,"region":"Region VI - Western Visayas","geo_score":0.0,"year":2010,"region code":6,"id":"af0hi1bdbh1n","geo_precision":"unmatched"},"type":"Feature","geometry":null},{"properties":{"average wage":260.67,"region":"Region VI - Western Visayas","geo_score":0.0,"year":2011,"region code":6,"id":"af0hi1g2hu8e","geo_precision":"unmatched"},"type":"Feature","geometry":null},{"properties":{"average wage":null,"region":"Region VI - Western Visayas","geo_score":0.0,"year":2012,"region code":6,"id":"af0hi17hhmqx","geo_precision":"unmatched"},"type":"Feature","geometry":null},{"properties":{"average wage":196.37,"region":"Region V- Bicol","geo_score":0.0,"year":2001,"region code":5,"id":"af0hi1mc99f3","geo_precision":"unmatched"},"type":"Feature","geometry":null},{"properties":{"average wage":199.28,"region":"Region V- Bicol","geo_score":0.0,"year":2002,"region code":5,"id":"af0hi1cnncxh","geo_precision":"unmatched"},"type":"Feature","geometry":null},{"properties":{"average wage":208.55,"region":"Region V- Bicol","geo_score":0.0,"year":2003,"region code":5,"id":"af0hi16px9k5","geo_precision":"unmatched"},"type":"Feature","geometry":null},{"properties":{"average wage":198.49,"region":"Region V- Bicol","geo_score":0.0,"year":2004,"region code":5,"id":"af0hi1cf3chy","geo_precision":"unmatched"},"type":"Feature","geometry":null},{"properties":{"average wage":204.83,"region":"Region V- Bicol","geo_score":0.0,"year":2005,"region code":5,"id":"af0hi1ff0fv4","geo_precision":"unmatched"},"type":"Feature","geometry":null},{"properties":{"average wage":217.97,"region":"Region V- Bicol","geo_score":0.0,"year":2006,"region code":5,"id":"af0hi1igafm4","geo_precision":"unmatched"},"type":"Feature","geometry":null},{"properties":{"average wage":217.13,"region":"Region V- Bicol","geo_score":0.0,"year":2007,"region code":5,"id":"af0hi1bmf7z3","geo_precision":"unmatched"},"type":"Feature","geometry":null},{"properties":{"average wage":239.08,"region":"Region V- Bicol","geo_score":0.0,"year":2008,"region code":5,"id":"af0hi1gdzx3j","geo_precision":"unmatched"},"type":"Feature","geometry":null},{"properties":{"average wage":242.8,"region":"Region V- Bicol","geo_score":0.0,"year":2009,"region code":5,"id":"af0hi1chrx8d","geo_precision":"unmatched"},"type":"Feature","geometry":null},{"properties":{"average wage":244.76,"region":"Region V- Bicol","geo_score":0.0,"year":2010,"region code":5,"id":"af0hi18f4x6a","geo_precision":"unmatched"},"type":"Feature","geometry":null},{"properties":{"average wage":258.66,"region":"Region V- Bicol","geo_score":0.0,"year":2011,"region code":5,"id":"af0hi1fch1fe","geo_precision":"unmatched"},"type":"Feature","geometry":null},{"properties":{"average wage":null,"region":"Region V- Bicol","geo_score":0.0,"year":2012,"region code":5,"id":"af0hi1c89xm6","geo_precision":"unmatched"},"type":"Feature","geometry":null},{"properties":{"average wage":205.77,"region":"Region VI - Western Visayas","geo_score":0.0,"year":2001,"region code":6,"id":"af0hi1jl16j7","geo_precision":"unmatched"},"type":"Feature","geometry":null},{"properties":{"average wage":221.08,"region":"Region VI - Western Visayas","geo_score":0.0,"year":2002,"region code":6,"id":"af0hi1f0ngi6","geo_precision":"unmatched"},"type":"Feature","geometry":null},{"properties":{"average wage":186.27,"region":"Region VI - Western Visayas","geo_score":0.0,"year":2003,"region code":6,"id":"af0hi1fmac0q","geo_precision":"unmatched"},"type":"Feature","geometry":null},{"properties":{"average wage":174.71,"region":"Region VI - Western Visayas","geo_score":0.0,"year":2004,"region code":6,"id":"af0hi19rm9ks","geo_precision":"unmatched"},"type":"Feature","geometry":null},{"properties":{"average wage":185.39,"region":"Region VI - Western Visayas","geo_score":0.0,"year":2005,"region code":6,"id":"af0hi18dny7s","geo_precision":"unmatched"},"type":"Feature","geometry":null},{"properties":{"average wage":271.76,"region":"Region VI - Western Visayas","geo_score":0.0,"year":2006,"region code":6,"id":"af0hi19try0w","geo_precision":"unmatched"},"type":"Feature","geometry":null},{"properties":{"average wage":187.15,"region":"Region VI - Western Visayas","geo_score":0.0,"year":2007,"region code":6,"id":"af0hi1glx12w","geo_precision":"unmatched"},"type":"Feature","geometry":null},{"properties":{"average wage":198.01,"region":"Region VI - Western Visayas","geo_score":0.0,"year":2008,"region code":6,"id":"af0hi1kc5w9b","geo_precision":"unmatched"},"type":"Feature","geometry":null},{"properties":{"average wage":220.94,"region":"Region VI - Western Visayas","geo_score":0.0,"year":2009,"region code":6,"id":"af0hi1fn680q","geo_precision":"unmatched"},"type":"Feature","geometry":null},{"properties":{"average wage":252.67,"region":"Region VI - Western Visayas","geo_score":0.0,"year":2010,"region code":6,"id":"af0hi1ht4s86","geo_precision":"unmatched"},"type":"Feature","geometry":null},{"properties":{"average wage":262.2,"region":"Region VI - Western Visayas","geo_score":0.0,"year":2011,"region code":6,"id":"af0hi1c4a6un","geo_precision":"unmatched"},"type":"Feature","geometry":null},{"properties":{"average wage":null,"region":"Region VI - Western Visayas","geo_score":0.0,"year":2012,"region code":6,"id":"af0hi1lsgayg","geo_precision":"unmatched"},"type":"Feature","geometry":null},{"properties":{"average wage":173.57,"region":"Autonomous Region in Muslim Mindanao","geo_score":0.0,"year":2001,"region code":15,"id":"af0hi1h9ta7o","geo_precision":"unmatched"},"type":"Feature","geometry":null},{"properties":{"average wage":175.05,"region":"Autonomous Region in Muslim Mindanao","geo_score":0.0,"year":2002,"region code":15,"id":"af0hi1gol3c0","geo_precision":"unmatched"},"type":"Feature","geometry":null},{"properties":{"average wage":174.91,"region":"Autonomous Region in Muslim Mindanao","geo_score":0.0,"year":2003,"region code":15,"id":"af0hi1iw6bpj","geo_precision":"unmatched"},"type":"Feature","geometry":null},{"properties":{"average wage":169.83,"region":"Autonomous Region in Muslim Mindanao","geo_score":0.0,"year":2004,"region code":15,"id":"af0hi1ixqakp","geo_precision":"unmatched"},"type":"Feature","geometry":null},{"properties":{"average wage":168.37,"region":"Autonomous Region in Muslim Mindanao","geo_score":0.0,"year":2005,"region code":15,"id":"af0hi1hg8221","geo_precision":"unmatched"},"type":"Feature","geometry":null},{"properties":{"average wage":190.27,"region":"Autonomous Region in Muslim Mindanao","geo_score":0.0,"year":2006,"region code":15,"id":"af0hi1kcm0tl","geo_precision":"unmatched"},"type":"Feature","geometry":null},{"properties":{"average wage":187.6,"region":"Autonomous Region in Muslim Mindanao","geo_score":0.0,"year":2007,"region code":15,"id":"af0hi1evqope","geo_precision":"unmatched"},"type":"Feature","geometry":null},{"properties":{"average wage":189.89,"region":"Autonomous Region in Muslim Mindanao","geo_score":0.0,"year":2008,"region code":15,"id":"af0hi19v0z11","geo_precision":"unmatched"},"type":"Feature","geometry":null},{"properties":{"average wage":185.37,"region":"Autonomous Region in Muslim Mindanao","geo_score":0.0,"year":2009,"region code":15,"id":"af0hi1d3fd85","geo_precision":"unmatched"},"type":"Feature","geometry":null},{"properties":{"average wage":201.3,"region":"Autonomous Region in Muslim Mindanao","geo_score":0.0,"year":2010,"region code":15,"id":"af0hi1eni23t","geo_precision":"unmatched"},"type":"Feature","geometry":null},{"properties":{"average wage":216.95,"region":"Autonomous Region in Muslim Mindanao","geo_score":0.0,"year":2011,"region code":15,"id":"af0hi17729ko","geo_precision":"unmatched"},"type":"Feature","geometry":null},{"properties":{"average wage":null,"region":"Autonomous Region in Muslim Mindanao","geo_score":0.0,"year":2012,"region code":15,"id":"af0hi1afapnw","geo_precision":"unmatched"},"type":"Feature","geometry":null},{"properties":{"average wage":232.51,"region":"Region III - Central Luzon","geo_score":0.0,"year":2001,"region code":3,"id":"af0hi1edxpy0","geo_precision":"unmatched"},"type":"Feature","geometry":null},{"properties":{"average wage":216.58,"region":"Region III - Central Luzon","geo_score":0.0,"year":2002,"region code":3,"id":"af0hi16sfhyo","geo_precision":"unmatched"},"type":"Feature","geometry":null},{"properties":{"average wage":231.31,"region":"Region III - Central Luzon","geo_score":0.0,"year":2003,"region code":3,"id":"af0hi1lvkp24","geo_precision":"unmatched"},"type":"Feature","geometry":null},{"properties":{"average wage":237.77,"region":"Region III - Central Luzon","geo_score":0.0,"year":2004,"region code":3,"id":"af0hi1kznxbx","geo_precision":"unmatched"},"type":"Feature","geometry":null},{"properties":{"average wage":243.37,"region":"Region III - Central Luzon","geo_score":0.0,"year":2005,"region code":3,"id":"af0hi16bnj1e","geo_precision":"unmatched"},"type":"Feature","geometry":null},{"properties":{"average wage":263.45,"region":"Region III - Central Luzon","geo_score":0.0,"year":2006,"region code":3,"id":"af0hi1f7xoq6","geo_precision":"unmatched"},"type":"Feature","geometry":null},{"properties":{"average wage":280.91,"region":"Region III - Central Luzon","geo_score":0.0,"year":2007,"region code":3,"id":"af0hi1boido2","geo_precision":"unmatched"},"type":"Feature","geometry":null},{"properties":{"average wage":269.11,"region":"Region III - Central Luzon","geo_score":0.0,"year":2008,"region code":3,"id":"af0hi175k2wr","geo_precision":"unmatched"},"type":"Feature","geometry":null},{"properties":{"average wage":303.56,"region":"Region III - Central Luzon","geo_score":0.0,"year":2009,"region code":3,"id":"af0hi1abrbuo","geo_precision":"unmatched"},"type":"Feature","geometry":null},{"properties":{"average wage":334.74,"region":"Region III - Central Luzon","geo_score":0.0,"year":2010,"region code":3,"id":"af0hi1jffeto","geo_precision":"unmatched"},"type":"Feature","geometry":null},{"properties":{"average wage":343.04,"region":"Region III - Central Luzon","geo_score":0.0,"year":2011,"region code":3,"id":"af0hi19ywfm4","geo_precision":"unmatched"},"type":"Feature","geometry":null},{"properties":{"average wage":null,"region":"Region III - Central Luzon","geo_score":0.0,"year":2012,"region code":3,"id":"af0hi1goe334","geo_precision":"unmatched"},"type":"Feature","geometry":null},{"properties":{"average wage":286.72,"region":"Region II - Cagayan Valley","geo_score":0.0,"year":2001,"region code":2,"id":"af0hi18g9rec","geo_precision":"unmatched"},"type":"Feature","geometry":null},{"properties":{"average wage":285.38,"region":"Region II - Cagayan Valley","geo_score":0.0,"year":2002,"region code":2,"id":"af0hi1hn4m0k","geo_precision":"unmatched"},"type":"Feature","geometry":null},{"properties":{"average wage":315.23,"region":"Region II - Cagayan Valley","geo_score":0.0,"year":2003,"region code":2,"id":"af0hi1e9tir0","geo_precision":"unmatched"},"type":"Feature","geometry":null},{"properties":{"average wage":271.48,"region":"Region II - Cagayan Valley","geo_score":0.0,"year":2004,"region code":2,"id":"af0hi1g8cu9g","geo_precision":"unmatched"},"type":"Feature","geometry":null},{"properties":{"average wage":218.86,"region":"Region II - Cagayan Valley","geo_score":0.0,"year":2005,"region code":2,"id":"af0hi1kayha4","geo_precision":"unmatched"},"type":"Feature","geometry":null},{"properties":{"average wage":243.94,"region":"Region II - Cagayan Valley","geo_score":0.0,"year":2006,"region code":2,"id":"af0hi199hmx3","geo_precision":"unmatched"},"type":"Feature","geometry":null},{"properties":{"average wage":339.47,"region":"Region II - Cagayan Valley","geo_score":0.0,"year":2007,"region code":2,"id":"af0hi1lecmpm","geo_precision":"unmatched"},"type":"Feature","geometry":null},{"properties":{"average wage":281.55,"region":"Region II - Cagayan Valley","geo_score":0.0,"year":2008,"region code":2,"id":"af0hi1e9cak6","geo_precision":"unmatched"},"type":"Feature","geometry":null},{"properties":{"average wage":544.42,"region":"Region II - Cagayan Valley","geo_score":0.0,"year":2009,"region code":2,"id":"af0hi1hz7vu2","geo_precision":"unmatched"},"type":"Feature","geometry":null},{"properties":{"average wage":424.66,"region":"Region II - Cagayan Valley","geo_score":0.0,"year":2010,"region code":2,"id":"af0hi17fsx33","geo_precision":"unmatched"},"type":"Feature","geometry":null},{"properties":{"average wage":390.69,"region":"Region II - Cagayan Valley","geo_score":0.0,"year":2011,"region code":2,"id":"af0hi16so3qr","geo_precision":"unmatched"},"type":"Feature","geometry":null},{"properties":{"average wage":null,"region":"Region II - Cagayan Valley","geo_score":0.0,"year":2012,"region code":2,"id":"af0hi1jzv7f8","geo_precision":"unmatched"},"type":"Feature","geometry":null},{"properties":{"average wage":224.67,"region":"Region IVA - CALABARZON","geo_score":0.0,"year":2001,"region code":41,"id":"af0hi18uaxsf","geo_precision":"unmatched"},"type":"Feature","geometry":null},{"properties":{"average wage":231.62,"region":"Region IVA - CALABARZON","geo_score":0.0,"year":2002,"region code":41,"id":"af0hi1dct67p","geo_precision":"unmatched"},"type":"Feature","geometry":null},{"properties":{"average wage":239.35,"region":"Region IVA - CALABARZON","geo_score":0.0,"year":2003,"region code":41,"id":"af0hi1fhv5re","geo_precision":"unmatched"},"type":"Feature","geometry":null},{"properties":{"average wage":249.02,"region":"Region IVA - CALABARZON","geo_score":0.0,"year":2004,"region code":41,"id":"af0hi1i60qgs","geo_precision":"unmatched"},"type":"Feature","geometry":null},{"properties":{"average wage":262.18,"region":"Region IVA - CALABARZON","geo_score":0.0,"year":2005,"region code":41,"id":"af0hi1gxc4ki","geo_precision":"unmatched"},"type":"Feature","geometry":null},{"properties":{"average wage":272.31,"region":"Region IVA - CALABARZON","geo_score":0.0,"year":2006,"region code":41,"id":"af0hi1id8l4w","geo_precision":"unmatched"},"type":"Feature","geometry":null},{"properties":{"average wage":295.3,"region":"Region IVA - CALABARZON","geo_score":0.0,"year":2007,"region code":41,"id":"af0hi1ljpj2x","geo_precision":"unmatched"},"type":"Feature","geometry":null},{"properties":{"average wage":293.75,"region":"Region IVA - CALABARZON","geo_score":0.0,"year":2008,"region code":41,"id":"af0hi18rgdip","geo_precision":"unmatched"},"type":"Feature","geometry":null},{"properties":{"average wage":307.2,"region":"Region IVA - CALABARZON","geo_score":0.0,"year":2009,"region code":41,"id":"af0hi1gj0lh3","geo_precision":"unmatched"},"type":"Feature","geometry":null},{"properties":{"average wage":330.85,"region":"Region IVA - CALABARZON","geo_score":0.0,"year":2010,"region code":41,"id":"af0hi1ho9x2m","geo_precision":"unmatched"},"type":"Feature","geometry":null},{"properties":{"average wage":341.72,"region":"Region IVA - CALABARZON","geo_score":0.0,"year":2011,"region code":41,"id":"af0hi1mcl4pb","geo_precision":"unmatched"},"type":"Feature","geometry":null},{"properties":{"average wage":null,"region":"Region IVA - CALABARZON","geo_score":0.0,"year":2012,"region code":41,"id":"af0hi1dqud2e","geo_precision":"unmatched"},"type":"Feature","geometry":null},{"properties":{"average wage":276.76,"region":"Cordillera Administrative Region","geo_score":0.0,"year":2001,"region code":14,"id":"af0hi1j7hh4w","geo_precision":"unmatched"},"type":"Feature","geometry":null},{"properties":{"average wage":289.7,"region":"Cordillera Administrative Region","geo_score":0.0,"year":2002,"region code":14,"id":"af0hi1bx81gt","geo_precision":"unmatched"},"type":"Feature","geometry":null},{"properties":{"average wage":283.75,"region":"Cordillera Administrative Region","geo_score":0.0,"year":2003,"region code":14,"id":"af0hi1d6xdxk","geo_precision":"unmatched"},"type":"Feature","geometry":null},{"properties":{"average wage":279.11,"region":"Cordillera Administrative Region","geo_score":0.0,"year":2004,"region code":14,"id":"af0hi1kws94x","geo_precision":"unmatched"},"type":"Feature","geometry":null},{"properties":{"average wage":286.44,"region":"Cordillera Administrative Region","geo_score":0.0,"year":2005,"region code":14,"id":"af0hi19kj156","geo_precision":"unmatched"},"type":"Feature","geometry":null},{"properties":{"average wage":328.02,"region":"Cordillera Administrative Region","geo_score":0.0,"year":2006,"region code":14,"id":"af0hi1ezumpf","geo_precision":"unmatched"},"type":"Feature","geometry":null},{"properties":{"average wage":331.93,"region":"Cordillera Administrative Region","geo_score":0.0,"year":2007,"region code":14,"id":"af0hi19zw9tf","geo_precision":"unmatched"},"type":"Feature","geometry":null},{"properties":{"average wage":348.73,"region":"Cordillera Administrative Region","geo_score":0.0,"year":2008,"region code":14,"id":"af0hi1jyrlqv","geo_precision":"unmatched"},"type":"Feature","geometry":null},{"properties":{"average wage":352.81,"region":"Cordillera Administrative Region","geo_score":0.0,"year":2009,"region code":14,"id":"af0hi1iz2xag","geo_precision":"unmatched"},"type":"Feature","geometry":null},{"properties":{"average wage":369.14,"region":"Cordillera Administrative Region","geo_score":0.0,"year":2010,"region code":14,"id":"af0hi18g4ewp","geo_precision":"unmatched"},"type":"Feature","geometry":null},{"properties":{"average wage":379.82,"region":"Cordillera Administrative Region","geo_score":0.0,"year":2011,"region code":14,"id":"af0hi17xa6wc","geo_precision":"unmatched"},"type":"Feature","geometry":null},{"properties":{"average wage":null,"region":"Cordillera Administrative Region","geo_score":0.0,"year":2012,"region code":14,"id":"af0hi1de7wip","geo_precision":"unmatched"},"type":"Feature","geometry":null},{"properties":{"average wage":198.11,"region":"Region VII - Central Visayas","geo_score":0.0,"year":2001,"region code":7,"id":"af0hi18iakzj","geo_precision":"unmatched"},"type":"Feature","geometry":null},{"properties":{"average wage":183.75,"region":"Region VII - Central Visayas","geo_score":0.0,"year":2002,"region code":7,"id":"af0hi17nim4s","geo_precision":"unmatched"},"type":"Feature","geometry":null},{"properties":{"average wage":189.01,"region":"Region VII - Central Visayas","geo_score":0.0,"year":2003,"region code":7,"id":"af0hi175dndu","geo_precision":"unmatched"},"type":"Feature","geometry":null},{"properties":{"average wage":189.99,"region":"Region VII - Central Visayas","geo_score":0.0,"year":2004,"region code":7,"id":"af0hi1gqcwdc","geo_precision":"unmatched"},"type":"Feature","geometry":null},{"properties":{"average wage":196.16,"region":"Region VII - Central Visayas","geo_score":0.0,"year":2005,"region code":7,"id":"af0hi1kdbyir","geo_precision":"unmatched"},"type":"Feature","geometry":null},{"properties":{"average wage":198.35,"region":"Region VII - Central Visayas","geo_score":0.0,"year":2006,"region code":7,"id":"af0hi17j1n1y","geo_precision":"unmatched"},"type":"Feature","geometry":null},{"properties":{"average wage":206.21,"region":"Region VII - Central Visayas","geo_score":0.0,"year":2007,"region code":7,"id":"af0hi1mecx7u","geo_precision":"unmatched"},"type":"Feature","geometry":null},{"properties":{"average wage":210.8,"region":"Region VII - Central Visayas","geo_score":0.0,"year":2008,"region code":7,"id":"af0hi1adeluo","geo_precision":"unmatched"},"type":"Feature","geometry":null},{"properties":{"average wage":232.87,"region":"Region VII - Central Visayas","geo_score":0.0,"year":2009,"region code":7,"id":"af0hi1lbj28r","geo_precision":"unmatched"},"type":"Feature","geometry":null},{"properties":{"average wage":245.97,"region":"Region VII - Central Visayas","geo_score":0.0,"year":2010,"region code":7,"id":"af0hi19n53ch","geo_precision":"unmatched"},"type":"Feature","geometry":null},{"properties":{"average wage":260.5,"region":"Region VII - Central Visayas","geo_score":0.0,"year":2011,"region code":7,"id":"af0hi1dv7vw2","geo_precision":"unmatched"},"type":"Feature","geometry":null},{"properties":{"average wage":null,"region":"Region VII - Central Visayas","geo_score":0.0,"year":2012,"region code":7,"id":"af0hi1djhset","geo_precision":"unmatched"},"type":"Feature","geometry":null},{"properties":{"average wage":147.33,"region":"Region X - Northern Mindanao","geo_score":0.0,"year":2001,"region code":10,"id":"af0hi1h1es2n","geo_precision":"unmatched"},"type":"Feature","geometry":null},{"properties":{"average wage":156.8,"region":"Region X - Northern Mindanao","geo_score":0.0,"year":2002,"region code":10,"id":"af0hi1kawv22","geo_precision":"unmatched"},"type":"Feature","geometry":null},{"properties":{"average wage":158.58,"region":"Region X - Northern Mindanao","geo_score":0.0,"year":2003,"region code":10,"id":"af0hi1b5yudk","geo_precision":"unmatched"},"type":"Feature","geometry":null},{"properties":{"average wage":175.06,"region":"Region X - Northern Mindanao","geo_score":0.0,"year":2004,"region code":10,"id":"af0hi1hwdl7a","geo_precision":"unmatched"},"type":"Feature","geometry":null},{"properties":{"average wage":174.88,"region":"Region X - Northern Mindanao","geo_score":0.0,"year":2005,"region code":10,"id":"af0hi1azhbmj","geo_precision":"unmatched"},"type":"Feature","geometry":null},{"properties":{"average wage":176.47,"region":"Region X - Northern Mindanao","geo_score":0.0,"year":2006,"region code":10,"id":"af0hi1gymty9","geo_precision":"unmatched"},"type":"Feature","geometry":null},{"properties":{"average wage":177.74,"region":"Region X - Northern Mindanao","geo_score":0.0,"year":2007,"region code":10,"id":"af0hi1fnn3md","geo_precision":"unmatched"},"type":"Feature","geometry":null},{"properties":{"average wage":186.77,"region":"Region X - Northern Mindanao","geo_score":0.0,"year":2008,"region code":10,"id":"af0hi1abj103","geo_precision":"unmatched"},"type":"Feature","geometry":null},{"properties":{"average wage":204.53,"region":"Region X - Northern Mindanao","geo_score":0.0,"year":2009,"region code":10,"id":"af0hi1hua33a","geo_precision":"unmatched"},"type":"Feature","geometry":null},{"properties":{"average wage":207.29,"region":"Region X - Northern Mindanao","geo_score":0.0,"year":2010,"region code":10,"id":"af0hi16edycr","geo_precision":"unmatched"},"type":"Feature","geometry":null},{"properties":{"average wage":216.04,"region":"Region X - Northern Mindanao","geo_score":0.0,"year":2011,"region code":10,"id":"af0hi1hjcb3z","geo_precision":"unmatched"},"type":"Feature","geometry":null},{"properties":{"average wage":null,"region":"Region X - Northern Mindanao","geo_score":0.0,"year":2012,"region code":10,"id":"af0hi1dsgpkg","geo_precision":"unmatched"},"type":"Feature","geometry":null},{"properties":{"average wage":242.45,"region":"Region III - Central Luzon","geo_score":0.0,"year":2001,"region code":3,"id":"af0hi1f5islx","geo_precision":"unmatched"},"type":"Feature","geometry":null},{"properties":{"average wage":244.46,"region":"Region III - Central Luzon","geo_score":0.0,"year":2002,"region code":3,"id":"af0hi1j8sljr","geo_precision":"unmatched"},"type":"Feature","geometry":null},{"properties":{"average wage":251.09,"region":"Region III - Central Luzon","geo_score":0.0,"year":2003,"region code":3,"id":"af0hi17nn4tl","geo_precision":"unmatched"},"type":"Feature","geometry":null},{"properties":{"average wage":250.28,"region":"Region III - Central Luzon","geo_score":0.0,"year":2004,"region code":3,"id":"af0hi17pt3z5","geo_precision":"unmatched"},"type":"Feature","geometry":null},{"properties":{"average wage":266.3,"region":"Region III - Central Luzon","geo_score":0.0,"year":2005,"region code":3,"id":"af0hi19eh9zm","geo_precision":"unmatched"},"type":"Feature","geometry":null},{"properties":{"average wage":274.84,"region":"Region III - Central Luzon","geo_score":0.0,"year":2006,"region code":3,"id":"af0hi1e1z86t","geo_precision":"unmatched"},"type":"Feature","geometry":null},{"properties":{"average wage":296.6,"region":"Region III - Central Luzon","geo_score":0.0,"year":2007,"region code":3,"id":"af0hi1hhrzec","geo_precision":"unmatched"},"type":"Feature","geometry":null},{"properties":{"average wage":307.28,"region":"Region III - Central Luzon","geo_score":0.0,"year":2008,"region code":3,"id":"af0hi1ltct40","geo_precision":"unmatched"},"type":"Feature","geometry":null},{"properties":{"average wage":329.36,"region":"Region III - Central Luzon","geo_score":0.0,"year":2009,"region code":3,"id":"af0hi18gnllw","geo_precision":"unmatched"},"type":"Feature","geometry":null},{"properties":{"average wage":340.86,"region":"Region III - Central Luzon","geo_score":0.0,"year":2010,"region code":3,"id":"af0hi1iodivs","geo_precision":"unmatched"},"type":"Feature","geometry":null},{"properties":{"average wage":360.54,"region":"Region III - Central Luzon","geo_score":0.0,"year":2011,"region code":3,"id":"af0hi194c7nb","geo_precision":"unmatched"},"type":"Feature","geometry":null},{"properties":{"average wage":null,"region":"Region III - Central Luzon","geo_score":0.0,"year":2012,"region code":3,"id":"af0hi1j46a4x","geo_precision":"unmatched"},"type":"Feature","geometry":null},{"properties":{"average wage":158.87,"region":"Region II - Cagayan Valley","geo_score":0.0,"year":2001,"region code":2,"id":"af0hi1fqo2mh","geo_precision":"unmatched"},"type":"Feature","geometry":null},{"properties":{"average wage":170.83,"region":"Region II - Cagayan Valley","geo_score":0.0,"year":2002,"region code":2,"id":"af0hi1gby42b","geo_precision":"unmatched"},"type":"Feature","geometry":null},{"properties":{"average wage":194.15,"region":"Region II - Cagayan Valley","geo_score":0.0,"year":2003,"region code":2,"id":"af0hi1ciq8iy","geo_precision":"unmatched"},"type":"Feature","geometry":null},{"properties":{"average wage":208.29,"region":"Region II - Cagayan Valley","geo_score":0.0,"year":2004,"region code":2,"id":"af0hi1cr86ci","geo_precision":"unmatched"},"type":"Feature","geometry":null},{"properties":{"average wage":218.76,"region":"Region II - Cagayan Valley","geo_score":0.0,"year":2005,"region code":2,"id":"af0hi1kx7jgp","geo_precision":"unmatched"},"type":"Feature","geometry":null},{"properties":{"average wage":225.59,"region":"Region II - Cagayan Valley","geo_score":0.0,"year":2006,"region code":2,"id":"af0hi1hqvg46","geo_precision":"unmatched"},"type":"Feature","geometry":null},{"properties":{"average wage":217.87,"region":"Region II - Cagayan Valley","geo_score":0.0,"year":2007,"region code":2,"id":"af0hi17ld31u","geo_precision":"unmatched"},"type":"Feature","geometry":null},{"properties":{"average wage":227.73,"region":"Region II - Cagayan Valley","geo_score":0.0,"year":2008,"region code":2,"id":"af0hi1ebh9io","geo_precision":"unmatched"},"type":"Feature","geometry":null},{"properties":{"average wage":241.33,"region":"Region II - Cagayan Valley","geo_score":0.0,"year":2009,"region code":2,"id":"af0hi1cgml7r","geo_precision":"unmatched"},"type":"Feature","geometry":null},{"properties":{"average wage":274.59,"region":"Region II - Cagayan Valley","geo_score":0.0,"year":2010,"region code":2,"id":"af0hi1cwefpr","geo_precision":"unmatched"},"type":"Feature","geometry":null},{"properties":{"average wage":275.25,"region":"Region II - Cagayan Valley","geo_score":0.0,"year":2011,"region code":2,"id":"af0hi1mdwqck","geo_precision":"unmatched"},"type":"Feature","geometry":null},{"properties":{"average wage":null,"region":"Region II - Cagayan Valley","geo_score":0.0,"year":2012,"region code":2,"id":"af0hi1ad02ek","geo_precision":"unmatched"},"type":"Feature","geometry":null},{"properties":{"average wage":182.24,"region":"Region V- Bicol","geo_score":0.0,"year":2001,"region code":5,"id":"af0hi16oyvoy","geo_precision":"unmatched"},"type":"Feature","geometry":null},{"properties":{"average wage":194.22,"region":"Region V- Bicol","geo_score":0.0,"year":2002,"region code":5,"id":"af0hi1j6ri63","geo_precision":"unmatched"},"type":"Feature","geometry":null},{"properties":{"average wage":194.87,"region":"Region V- Bicol","geo_score":0.0,"year":2003,"region code":5,"id":"af0hi1a3danx","geo_precision":"unmatched"},"type":"Feature","geometry":null},{"properties":{"average wage":177.44,"region":"Region V- Bicol","geo_score":0.0,"year":2004,"region code":5,"id":"af0hi193aw8w","geo_precision":"unmatched"},"type":"Feature","geometry":null},{"properties":{"average wage":180.4,"region":"Region V- Bicol","geo_score":0.0,"year":2005,"region code":5,"id":"af0hi19ws4m6","geo_precision":"unmatched"},"type":"Feature","geometry":null},{"properties":{"average wage":201.69,"region":"Region V- Bicol","geo_score":0.0,"year":2006,"region code":5,"id":"af0hi18dbaxv","geo_precision":"unmatched"},"type":"Feature","geometry":null},{"properties":{"average wage":194.76,"region":"Region V- Bicol","geo_score":0.0,"year":2007,"region code":5,"id":"af0hi1it621r","geo_precision":"unmatched"},"type":"Feature","geometry":null},{"properties":{"average wage":218.3,"region":"Region V- Bicol","geo_score":0.0,"year":2008,"region code":5,"id":"af0hi1ieo8ly","geo_precision":"unmatched"},"type":"Feature","geometry":null},{"properties":{"average wage":225.91,"region":"Region V- Bicol","geo_score":0.0,"year":2009,"region code":5,"id":"af0hi1bvtl94","geo_precision":"unmatched"},"type":"Feature","geometry":null},{"properties":{"average wage":248.47,"region":"Region V- Bicol","geo_score":0.0,"year":2010,"region code":5,"id":"af0hi1evk537","geo_precision":"unmatched"},"type":"Feature","geometry":null},{"properties":{"average wage":266.65,"region":"Region V- Bicol","geo_score":0.0,"year":2011,"region code":5,"id":"af0hi1aedl1b","geo_precision":"unmatched"},"type":"Feature","geometry":null},{"properties":{"average wage":null,"region":"Region V- Bicol","geo_score":0.0,"year":2012,"region code":5,"id":"af0hi1gz6mfh","geo_precision":"unmatched"},"type":"Feature","geometry":null},{"properties":{"average wage":178.92,"region":"Region V- Bicol","geo_score":0.0,"year":2001,"region code":5,"id":"af0hi16qruhr","geo_precision":"unmatched"},"type":"Feature","geometry":null},{"properties":{"average wage":185.61,"region":"Region V- Bicol","geo_score":0.0,"year":2002,"region code":5,"id":"af0hi1ah92rq","geo_precision":"unmatched"},"type":"Feature","geometry":null},{"properties":{"average wage":202.02,"region":"Region V- Bicol","geo_score":0.0,"year":2003,"region code":5,"id":"af0hi1a76vtx","geo_precision":"unmatched"},"type":"Feature","geometry":null},{"properties":{"average wage":199.1,"region":"Region V- Bicol","geo_score":0.0,"year":2004,"region code":5,"id":"af0hi1cmbput","geo_precision":"unmatched"},"type":"Feature","geometry":null},{"properties":{"average wage":203.68,"region":"Region V- Bicol","geo_score":0.0,"year":2005,"region code":5,"id":"af0hi1f49xf2","geo_precision":"unmatched"},"type":"Feature","geometry":null},{"properties":{"average wage":221.37,"region":"Region V- Bicol","geo_score":0.0,"year":2006,"region code":5,"id":"af0hi1ihtcdc","geo_precision":"unmatched"},"type":"Feature","geometry":null},{"properties":{"average wage":212.29,"region":"Region V- Bicol","geo_score":0.0,"year":2007,"region code":5,"id":"af0hi1kmrhmi","geo_precision":"unmatched"},"type":"Feature","geometry":null},{"properties":{"average wage":232.61,"region":"Region V- Bicol","geo_score":0.0,"year":2008,"region code":5,"id":"af0hi1ef18ww","geo_precision":"unmatched"},"type":"Feature","geometry":null},{"properties":{"average wage":243.58,"region":"Region V- Bicol","geo_score":0.0,"year":2009,"region code":5,"id":"af0hi1bmqqk3","geo_precision":"unmatched"},"type":"Feature","geometry":null},{"properties":{"average wage":254.62,"region":"Region V- Bicol","geo_score":0.0,"year":2010,"region code":5,"id":"af0hi1dwr42v","geo_precision":"unmatched"},"type":"Feature","geometry":null},{"properties":{"average wage":275.9,"region":"Region V- Bicol","geo_score":0.0,"year":2011,"region code":5,"id":"af0hi1ga4h2i","geo_precision":"unmatched"},"type":"Feature","geometry":null},{"properties":{"average wage":null,"region":"Region V- Bicol","geo_score":0.0,"year":2012,"region code":5,"id":"af0hi1btx631","geo_precision":"unmatched"},"type":"Feature","geometry":null},{"properties":{"average wage":200.95,"region":"Region X - Northern Mindanao","geo_score":0.0,"year":2001,"region code":10,"id":"af0hi1fwd0sh","geo_precision":"unmatched"},"type":"Feature","geometry":null},{"properties":{"average wage":192.1,"region":"Region X - Northern Mindanao","geo_score":0.0,"year":2002,"region code":10,"id":"af0hi1k59gwy","geo_precision":"unmatched"},"type":"Feature","geometry":null},{"properties":{"average wage":250.52,"region":"Region X - Northern Mindanao","geo_score":0.0,"year":2003,"region code":10,"id":"af0hi1bnkucj","geo_precision":"unmatched"},"type":"Feature","geometry":null},{"properties":{"average wage":220.58,"region":"Region X - Northern Mindanao","geo_score":0.0,"year":2004,"region code":10,"id":"af0hi16oqdwb","geo_precision":"unmatched"},"type":"Feature","geometry":null},{"properties":{"average wage":257.58,"region":"Region X - Northern Mindanao","geo_score":0.0,"year":2005,"region code":10,"id":"af0hi1f1ehyb","geo_precision":"unmatched"},"type":"Feature","geometry":null},{"properties":{"average wage":229.57,"region":"Region X - Northern Mindanao","geo_score":0.0,"year":2006,"region code":10,"id":"af0hi1l5x9tl","geo_precision":"unmatched"},"type":"Feature","geometry":null},{"properties":{"average wage":262.68,"region":"Region X - Northern Mindanao","geo_score":0.0,"year":2007,"region code":10,"id":"af0hi1enh66h","geo_precision":"unmatched"},"type":"Feature","geometry":null},{"properties":{"average wage":261.56,"region":"Region X - Northern Mindanao","geo_score":0.0,"year":2008,"region code":10,"id":"af0hi1jbryjt","geo_precision":"unmatched"},"type":"Feature","geometry":null},{"properties":{"average wage":246.23,"region":"Region X - Northern Mindanao","geo_score":0.0,"year":2009,"region code":10,"id":"af0hi1lap5lp","geo_precision":"unmatched"},"type":"Feature","geometry":null},{"properties":{"average wage":292.36,"region":"Region X - Northern Mindanao","geo_score":0.0,"year":2010,"region code":10,"id":"af0hi1kpj44b","geo_precision":"unmatched"},"type":"Feature","geometry":null},{"properties":{"average wage":304.06,"region":"Region X - Northern Mindanao","geo_score":0.0,"year":2011,"region code":10,"id":"af0hi1m8gh5y","geo_precision":"unmatched"},"type":"Feature","geometry":null},{"properties":{"average wage":null,"region":"Region X - Northern Mindanao","geo_score":0.0,"year":2012,"region code":10,"id":"af0hi1cei0pp","geo_precision":"unmatched"},"type":"Feature","geometry":null},{"properties":{"average wage":158.16,"region":"Region VI - Western Visayas","geo_score":0.0,"year":2001,"region code":6,"id":"af0hi1as6je8","geo_precision":"unmatched"},"type":"Feature","geometry":null},{"properties":{"average wage":175.23,"region":"Region VI - Western Visayas","geo_score":0.0,"year":2002,"region code":6,"id":"af0hi1ay5er7","geo_precision":"unmatched"},"type":"Feature","geometry":null},{"properties":{"average wage":158.29,"region":"Region VI - Western Visayas","geo_score":0.0,"year":2003,"region code":6,"id":"af0hi183ly5f","geo_precision":"unmatched"},"type":"Feature","geometry":null},{"properties":{"average wage":152.33,"region":"Region VI - Western Visayas","geo_score":0.0,"year":2004,"region code":6,"id":"af0hi1geuxvm","geo_precision":"unmatched"},"type":"Feature","geometry":null},{"properties":{"average wage":158.9,"region":"Region VI - Western Visayas","geo_score":0.0,"year":2005,"region code":6,"id":"af0hi19q4sux","geo_precision":"unmatched"},"type":"Feature","geometry":null},{"properties":{"average wage":159.13,"region":"Region VI - Western Visayas","geo_score":0.0,"year":2006,"region code":6,"id":"af0hi1bja98k","geo_precision":"unmatched"},"type":"Feature","geometry":null},{"properties":{"average wage":156.16,"region":"Region VI - Western Visayas","geo_score":0.0,"year":2007,"region code":6,"id":"af0hi1ge490w","geo_precision":"unmatched"},"type":"Feature","geometry":null},{"properties":{"average wage":164.92,"region":"Region VI - Western Visayas","geo_score":0.0,"year":2008,"region code":6,"id":"af0hi1cfqeu7","geo_precision":"unmatched"},"type":"Feature","geometry":null},{"properties":{"average wage":199.88,"region":"Region VI - Western Visayas","geo_score":0.0,"year":2009,"region code":6,"id":"af0hi19zgeqx","geo_precision":"unmatched"},"type":"Feature","geometry":null},{"properties":{"average wage":198.68,"region":"Region VI - Western Visayas","geo_score":0.0,"year":2010,"region code":6,"id":"af0hi1ix7ckb","geo_precision":"unmatched"},"type":"Feature","geometry":null},{"properties":{"average wage":210.57,"region":"Region VI - Western Visayas","geo_score":0.0,"year":2011,"region code":6,"id":"af0hi1cvt6sy","geo_precision":"unmatched"},"type":"Feature","geometry":null},{"properties":{"average wage":null,"region":"Region VI - Western Visayas","geo_score":0.0,"year":2012,"region code":6,"id":"af0hi1945the","geo_precision":"unmatched"},"type":"Feature","geometry":null},{"properties":{"average wage":201.55,"region":"Region V- Bicol","geo_score":0.0,"year":2001,"region code":5,"id":"af0hi1j7rpp2","geo_precision":"unmatched"},"type":"Feature","geometry":null},{"properties":{"average wage":204.38,"region":"Region V- Bicol","geo_score":0.0,"year":2002,"region code":5,"id":"af0hi178q6ob","geo_precision":"unmatched"},"type":"Feature","geometry":null},{"properties":{"average wage":252.74,"region":"Region V- Bicol","geo_score":0.0,"year":2003,"region code":5,"id":"af0hi17jqjcq","geo_precision":"unmatched"},"type":"Feature","geometry":null},{"properties":{"average wage":254.6,"region":"Region V- Bicol","geo_score":0.0,"year":2004,"region code":5,"id":"af0hi1cb3lt1","geo_precision":"unmatched"},"type":"Feature","geometry":null},{"properties":{"average wage":259.54,"region":"Region V- Bicol","geo_score":0.0,"year":2005,"region code":5,"id":"af0hi1j6bia4","geo_precision":"unmatched"},"type":"Feature","geometry":null},{"properties":{"average wage":254.53,"region":"Region V- Bicol","geo_score":0.0,"year":2006,"region code":5,"id":"af0hi19xkhy7","geo_precision":"unmatched"},"type":"Feature","geometry":null},{"properties":{"average wage":243.99,"region":"Region V- Bicol","geo_score":0.0,"year":2007,"region code":5,"id":"af0hi1awygqx","geo_precision":"unmatched"},"type":"Feature","geometry":null},{"properties":{"average wage":277.21,"region":"Region V- Bicol","geo_score":0.0,"year":2008,"region code":5,"id":"af0hi1esnmgo","geo_precision":"unmatched"},"type":"Feature","geometry":null},{"properties":{"average wage":289.95,"region":"Region V- Bicol","geo_score":0.0,"year":2009,"region code":5,"id":"af0hi1ezzwmg","geo_precision":"unmatched"},"type":"Feature","geometry":null},{"properties":{"average wage":316.33,"region":"Region V- Bicol","geo_score":0.0,"year":2010,"region code":5,"id":"af0hi19vnvpf","geo_precision":"unmatched"},"type":"Feature","geometry":null},{"properties":{"average wage":304.24,"region":"Region V- Bicol","geo_score":0.0,"year":2011,"region code":5,"id":"af0hi18wxbmq","geo_precision":"unmatched"},"type":"Feature","geometry":null},{"properties":{"average wage":null,"region":"Region V- Bicol","geo_score":0.0,"year":2012,"region code":5,"id":"af0hi16rh6ku","geo_precision":"unmatched"},"type":"Feature","geometry":null},{"properties":{"average wage":263.57,"region":"Region IVA - CALABARZON","geo_score":0.0,"year":2001,"region code":41,"id":"af0hi1iatfvq","geo_precision":"unmatched"},"type":"Feature","geometry":null},{"properties":{"average wage":269.19,"region":"Region IVA - CALABARZON","geo_score":0.0,"year":2002,"region code":41,"id":"af0hi186gapk","geo_precision":"unmatched"},"type":"Feature","geometry":null},{"properties":{"average wage":275.53,"region":"Region IVA - CALABARZON","geo_score":0.0,"year":2003,"region code":41,"id":"af0hi1icy4bi","geo_precision":"unmatched"},"type":"Feature","geometry":null},{"properties":{"average wage":289.77,"region":"Region IVA - CALABARZON","geo_score":0.0,"year":2004,"region code":41,"id":"af0hi1inog38","geo_precision":"unmatched"},"type":"Feature","geometry":null},{"properties":{"average wage":294.8,"region":"Region IVA - CALABARZON","geo_score":0.0,"year":2005,"region code":41,"id":"af0hi1flpagn","geo_precision":"unmatched"},"type":"Feature","geometry":null},{"properties":{"average wage":316.87,"region":"Region IVA - CALABARZON","geo_score":0.0,"year":2006,"region code":41,"id":"af0hi1kigtka","geo_precision":"unmatched"},"type":"Feature","geometry":null},{"properties":{"average wage":329.71,"region":"Region IVA - CALABARZON","geo_score":0.0,"year":2007,"region code":41,"id":"af0hi1ikclew","geo_precision":"unmatched"},"type":"Feature","geometry":null},{"properties":{"average wage":349.77,"region":"Region IVA - CALABARZON","geo_score":0.0,"year":2008,"region code":41,"id":"af0hi1lqwnz6","geo_precision":"unmatched"},"type":"Feature","geometry":null},{"properties":{"average wage":362.58,"region":"Region IVA - CALABARZON","geo_score":0.0,"year":2009,"region code":41,"id":"af0hi17hsz9z","geo_precision":"unmatched"},"type":"Feature","geometry":null},{"properties":{"average wage":373.05,"region":"Region IVA - CALABARZON","geo_score":0.0,"year":2010,"region code":41,"id":"af0hi1bijt33","geo_precision":"unmatched"},"type":"Feature","geometry":null},{"properties":{"average wage":381.11,"region":"Region IVA - CALABARZON","geo_score":0.0,"year":2011,"region code":41,"id":"af0hi19urubi","geo_precision":"unmatched"},"type":"Feature","geometry":null},{"properties":{"average wage":null,"region":"Region IVA - CALABARZON","geo_score":0.0,"year":2012,"region code":41,"id":"af0hi1al0dqk","geo_precision":"unmatched"},"type":"Feature","geometry":null},{"properties":{"average wage":182.4,"region":"Region VII - Central Visayas","geo_score":0.0,"year":2001,"region code":7,"id":"af0hi1khli8q","geo_precision":"unmatched"},"type":"Feature","geometry":null},{"properties":{"average wage":195.7,"region":"Region VII - Central Visayas","geo_score":0.0,"year":2002,"region code":7,"id":"af0hi1dxbfbk","geo_precision":"unmatched"},"type":"Feature","geometry":null},{"properties":{"average wage":206.86,"region":"Region VII - Central Visayas","geo_score":0.0,"year":2003,"region code":7,"id":"af0hi1cvzodm","geo_precision":"unmatched"},"type":"Feature","geometry":null},{"properties":{"average wage":210.57,"region":"Region VII - Central Visayas","geo_score":0.0,"year":2004,"region code":7,"id":"af0hi1ccnyma","geo_precision":"unmatched"},"type":"Feature","geometry":null},{"properties":{"average wage":218.56,"region":"Region VII - Central Visayas","geo_score":0.0,"year":2005,"region code":7,"id":"af0hi1ekfv95","geo_precision":"unmatched"},"type":"Feature","geometry":null},{"properties":{"average wage":234.75,"region":"Region VII - Central Visayas","geo_score":0.0,"year":2006,"region code":7,"id":"af0hi1mivi83","geo_precision":"unmatched"},"type":"Feature","geometry":null},{"properties":{"average wage":242.16,"region":"Region VII - Central Visayas","geo_score":0.0,"year":2007,"region code":7,"id":"af0hi1a41k7h","geo_precision":"unmatched"},"type":"Feature","geometry":null},{"properties":{"average wage":254.82,"region":"Region VII - Central Visayas","geo_score":0.0,"year":2008,"region code":7,"id":"af0hi16n6vpk","geo_precision":"unmatched"},"type":"Feature","geometry":null},{"properties":{"average wage":268.78,"region":"Region VII - Central Visayas","geo_score":0.0,"year":2009,"region code":7,"id":"af0hi1ds1hel","geo_precision":"unmatched"},"type":"Feature","geometry":null},{"properties":{"average wage":292.87,"region":"Region VII - Central Visayas","geo_score":0.0,"year":2010,"region code":7,"id":"af0hi1k9vr18","geo_precision":"unmatched"},"type":"Feature","geometry":null},{"properties":{"average wage":303.0,"region":"Region VII - Central Visayas","geo_score":0.0,"year":2011,"region code":7,"id":"af0hi1lw01p9","geo_precision":"unmatched"},"type":"Feature","geometry":null},{"properties":{"average wage":null,"region":"Region VII - Central Visayas","geo_score":0.0,"year":2012,"region code":7,"id":"af0hi1f33laq","geo_precision":"unmatched"},"type":"Feature","geometry":null},{"properties":{"average wage":174.85,"region":"Region XI - Davao","geo_score":0.0,"year":2001,"region code":11,"id":"af0hi16t95y2","geo_precision":"unmatched"},"type":"Feature","geometry":null},{"properties":{"average wage":174.32,"region":"Region XI - Davao","geo_score":0.0,"year":2002,"region code":11,"id":"af0hi1aar40d","geo_precision":"unmatched"},"type":"Feature","geometry":null},{"properties":{"average wage":184.15,"region":"Region XI - Davao","geo_score":0.0,"year":2003,"region code":11,"id":"af0hi194fiws","geo_precision":"unmatched"},"type":"Feature","geometry":null},{"properties":{"average wage":191.49,"region":"Region XI - Davao","geo_score":0.0,"year":2004,"region code":11,"id":"af0hi1eh9jf4","geo_precision":"unmatched"},"type":"Feature","geometry":null},{"properties":{"average wage":207.89,"region":"Region XI - Davao","geo_score":0.0,"year":2005,"region code":11,"id":"af0hi1ipr30c","geo_precision":"unmatched"},"type":"Feature","geometry":null},{"properties":{"average wage":201.03,"region":"Region XI - Davao","geo_score":0.0,"year":2006,"region code":11,"id":"af0hi1d4lo08","geo_precision":"unmatched"},"type":"Feature","geometry":null},{"properties":{"average wage":214.74,"region":"Region XI - Davao","geo_score":0.0,"year":2007,"region code":11,"id":"af0hi1gf1scb","geo_precision":"unmatched"},"type":"Feature","geometry":null},{"properties":{"average wage":227.72,"region":"Region XI - Davao","geo_score":0.0,"year":2008,"region code":11,"id":"af0hi18hum1j","geo_precision":"unmatched"},"type":"Feature","geometry":null},{"properties":{"average wage":239.44,"region":"Region XI - Davao","geo_score":0.0,"year":2009,"region code":11,"id":"af0hi18c96r6","geo_precision":"unmatched"},"type":"Feature","geometry":null},{"properties":{"average wage":261.11,"region":"Region XI - Davao","geo_score":0.0,"year":2010,"region code":11,"id":"af0hi18pjqqv","geo_precision":"unmatched"},"type":"Feature","geometry":null},{"properties":{"average wage":263.89,"region":"Region XI - Davao","geo_score":0.0,"year":2011,"region code":11,"id":"af0hi16mb794","geo_precision":"unmatched"},"type":"Feature","geometry":null},{"properties":{"average wage":null,"region":"Region XI - Davao","geo_score":0.0,"year":2012,"region code":11,"id":"af0hi1fbepcn","geo_precision":"unmatched"},"type":"Feature","geometry":null},{"properties":{"average wage":198.15,"region":"Region XI - Davao","geo_score":0.0,"year":2001,"region code":11,"id":"af0hi16m8i31","geo_precision":"unmatched"},"type":"Feature","geometry":null},{"properties":{"average wage":199.45,"region":"Region XI - Davao","geo_score":0.0,"year":2002,"region code":11,"id":"af0hi1g44fwp","geo_precision":"unmatched"},"type":"Feature","geometry":null},{"properties":{"average wage":194.39,"region":"Region XI - Davao","geo_score":0.0,"year":2003,"region code":11,"id":"af0hi17jcyuq","geo_precision":"unmatched"},"type":"Feature","geometry":null},{"properties":{"average wage":202.16,"region":"Region XI - Davao","geo_score":0.0,"year":2004,"region code":11,"id":"af0hi1ij6fa0","geo_precision":"unmatched"},"type":"Feature","geometry":null},{"properties":{"average wage":207.21,"region":"Region XI - Davao","geo_score":0.0,"year":2005,"region code":11,"id":"af0hi19mgz8k","geo_precision":"unmatched"},"type":"Feature","geometry":null},{"properties":{"average wage":215.37,"region":"Region XI - Davao","geo_score":0.0,"year":2006,"region code":11,"id":"af0hi1hbbn9h","geo_precision":"unmatched"},"type":"Feature","geometry":null},{"properties":{"average wage":226.61,"region":"Region XI - Davao","geo_score":0.0,"year":2007,"region code":11,"id":"af0hi1i06gqq","geo_precision":"unmatched"},"type":"Feature","geometry":null},{"properties":{"average wage":242.47,"region":"Region XI - Davao","geo_score":0.0,"year":2008,"region code":11,"id":"af0hi1cmt6fb","geo_precision":"unmatched"},"type":"Feature","geometry":null},{"properties":{"average wage":247.62,"region":"Region XI - Davao","geo_score":0.0,"year":2009,"region code":11,"id":"af0hi18ebqga","geo_precision":"unmatched"},"type":"Feature","geometry":null},{"properties":{"average wage":256.43,"region":"Region XI - Davao","geo_score":0.0,"year":2010,"region code":11,"id":"af0hi16zoi3u","geo_precision":"unmatched"},"type":"Feature","geometry":null},{"properties":{"average wage":278.89,"region":"Region XI - Davao","geo_score":0.0,"year":2011,"region code":11,"id":"af0hi199rxjq","geo_precision":"unmatched"},"type":"Feature","geometry":null},{"properties":{"average wage":null,"region":"Region XI - Davao","geo_score":0.0,"year":2012,"region code":11,"id":"af0hi1hj7ttq","geo_precision":"unmatched"},"type":"Feature","geometry":null},{"properties":{"average wage":186.38,"region":"Region XI - Davao","geo_score":0.0,"year":2001,"region code":11,"id":"af0hi18q15y7","geo_precision":"unmatched"},"type":"Feature","geometry":null},{"properties":{"average wage":146.58,"region":"Region XI - Davao","geo_score":0.0,"year":2002,"region code":11,"id":"af0hi1blykih","geo_precision":"unmatched"},"type":"Feature","geometry":null},{"properties":{"average wage":162.29,"region":"Region XI - Davao","geo_score":0.0,"year":2003,"region code":11,"id":"af0hi1ht6wti","geo_precision":"unmatched"},"type":"Feature","geometry":null},{"properties":{"average wage":140.72,"region":"Region XI - Davao","geo_score":0.0,"year":2004,"region code":11,"id":"af0hi1m58i74","geo_precision":"unmatched"},"type":"Feature","geometry":null},{"properties":{"average wage":148.54,"region":"Region XI - Davao","geo_score":0.0,"year":2005,"region code":11,"id":"af0hi1ek4k8a","geo_precision":"unmatched"},"type":"Feature","geometry":null},{"properties":{"average wage":165.33,"region":"Region XI - Davao","geo_score":0.0,"year":2006,"region code":11,"id":"af0hi1a0qn1l","geo_precision":"unmatched"},"type":"Feature","geometry":null},{"properties":{"average wage":174.09,"region":"Region XI - Davao","geo_score":0.0,"year":2007,"region code":11,"id":"af0hi1h2zm97","geo_precision":"unmatched"},"type":"Feature","geometry":null},{"properties":{"average wage":171.4,"region":"Region XI - Davao","geo_score":0.0,"year":2008,"region code":11,"id":"af0hi1ju1qn0","geo_precision":"unmatched"},"type":"Feature","geometry":null},{"properties":{"average wage":179.64,"region":"Region XI - Davao","geo_score":0.0,"year":2009,"region code":11,"id":"af0hi1drlfe1","geo_precision":"unmatched"},"type":"Feature","geometry":null},{"properties":{"average wage":200.83,"region":"Region XI - Davao","geo_score":0.0,"year":2010,"region code":11,"id":"af0hi19evqnc","geo_precision":"unmatched"},"type":"Feature","geometry":null},{"properties":{"average wage":219.45,"region":"Region XI - Davao","geo_score":0.0,"year":2011,"region code":11,"id":"af0hi1li714v","geo_precision":"unmatched"},"type":"Feature","geometry":null},{"properties":{"average wage":null,"region":"Region XI - Davao","geo_score":0.0,"year":2012,"region code":11,"id":"af0hi1m1ayic","geo_precision":"unmatched"},"type":"Feature","geometry":null},{"properties":{"average wage":155.09,"region":"Region VIII - Eastern Visayas","geo_score":0.0,"year":2001,"region code":8,"id":"af0hi1hn3k11","geo_precision":"unmatched"},"type":"Feature","geometry":null},{"properties":{"average wage":181.89,"region":"Region VIII - Eastern Visayas","geo_score":0.0,"year":2002,"region code":8,"id":"af0hi1exxhhl","geo_precision":"unmatched"},"type":"Feature","geometry":null},{"properties":{"average wage":183.32,"region":"Region VIII - Eastern Visayas","geo_score":0.0,"year":2003,"region code":8,"id":"af0hi17p70vl","geo_precision":"unmatched"},"type":"Feature","geometry":null},{"properties":{"average wage":192.61,"region":"Region VIII - Eastern Visayas","geo_score":0.0,"year":2004,"region code":8,"id":"af0hi1d4ixhe","geo_precision":"unmatched"},"type":"Feature","geometry":null},{"properties":{"average wage":224.24,"region":"Region VIII - Eastern Visayas","geo_score":0.0,"year":2005,"region code":8,"id":"af0hi1lsw1wb","geo_precision":"unmatched"},"type":"Feature","geometry":null},{"properties":{"average wage":186.66,"region":"Region VIII - Eastern Visayas","geo_score":0.0,"year":2006,"region code":8,"id":"af0hi1m34lub","geo_precision":"unmatched"},"type":"Feature","geometry":null},{"properties":{"average wage":334.33,"region":"Region VIII - Eastern Visayas","geo_score":0.0,"year":2007,"region code":8,"id":"af0hi1hcua2e","geo_precision":"unmatched"},"type":"Feature","geometry":null},{"properties":{"average wage":214.31,"region":"Region VIII - Eastern Visayas","geo_score":0.0,"year":2008,"region code":8,"id":"af0hi19i8k4s","geo_precision":"unmatched"},"type":"Feature","geometry":null},{"properties":{"average wage":233.3,"region":"Region VIII - Eastern Visayas","geo_score":0.0,"year":2009,"region code":8,"id":"af0hi17vm8p8","geo_precision":"unmatched"},"type":"Feature","geometry":null},{"properties":{"average wage":253.97,"region":"Region VIII - Eastern Visayas","geo_score":0.0,"year":2010,"region code":8,"id":"af0hi1ik34gm","geo_precision":"unmatched"},"type":"Feature","geometry":null},{"properties":{"average wage":258.6,"region":"Region VIII - Eastern Visayas","geo_score":0.0,"year":2011,"region code":8,"id":"af0hi16eau0n","geo_precision":"unmatched"},"type":"Feature","geometry":null},{"properties":{"average wage":null,"region":"Region VIII - Eastern Visayas","geo_score":0.0,"year":2012,"region code":8,"id":"af0hi17kfp2z","geo_precision":"unmatched"},"type":"Feature","geometry":null},{"properties":{"average wage":240.98,"region":"Cordillera Administrative Region","geo_score":0.0,"year":2001,"region code":14,"id":"af0hi1ce3fip","geo_precision":"unmatched"},"type":"Feature","geometry":null},{"properties":{"average wage":277.43,"region":"Cordillera Administrative Region","geo_score":0.0,"year":2002,"region code":14,"id":"af0hi16re5al","geo_precision":"unmatched"},"type":"Feature","geometry":null},{"properties":{"average wage":252.32,"region":"Cordillera Administrative Region","geo_score":0.0,"year":2003,"region code":14,"id":"af0hi1hbpfzk","geo_precision":"unmatched"},"type":"Feature","geometry":null},{"properties":{"average wage":254.73,"region":"Cordillera Administrative Region","geo_score":0.0,"year":2004,"region code":14,"id":"af0hi1hxlclb","geo_precision":"unmatched"},"type":"Feature","geometry":null},{"properties":{"average wage":282.46,"region":"Cordillera Administrative Region","geo_score":0.0,"year":2005,"region code":14,"id":"af0hi1lves01","geo_precision":"unmatched"},"type":"Feature","geometry":null},{"properties":{"average wage":283.73,"region":"Cordillera Administrative Region","geo_score":0.0,"year":2006,"region code":14,"id":"af0hi1c2nhtz","geo_precision":"unmatched"},"type":"Feature","geometry":null},{"properties":{"average wage":279.29,"region":"Cordillera Administrative Region","geo_score":0.0,"year":2007,"region code":14,"id":"af0hi1l3q03k","geo_precision":"unmatched"},"type":"Feature","geometry":null},{"properties":{"average wage":335.72,"region":"Cordillera Administrative Region","geo_score":0.0,"year":2008,"region code":14,"id":"af0hi1hu92mj","geo_precision":"unmatched"},"type":"Feature","geometry":null},{"properties":{"average wage":309.86,"region":"Cordillera Administrative Region","geo_score":0.0,"year":2009,"region code":14,"id":"af0hi1kyfjmc","geo_precision":"unmatched"},"type":"Feature","geometry":null},{"properties":{"average wage":322.44,"region":"Cordillera Administrative Region","geo_score":0.0,"year":2010,"region code":14,"id":"af0hi1d3iyan","geo_precision":"unmatched"},"type":"Feature","geometry":null},{"properties":{"average wage":333.52,"region":"Cordillera Administrative Region","geo_score":0.0,"year":2011,"region code":14,"id":"af0hi16db504","geo_precision":"unmatched"},"type":"Feature","geometry":null},{"properties":{"average wage":null,"region":"Cordillera Administrative Region","geo_score":0.0,"year":2012,"region code":14,"id":"af0hi1ce10ad","geo_precision":"unmatched"},"type":"Feature","geometry":null},{"properties":{"average wage":231.24,"region":"Region I - Ilocos Region","geo_score":0.0,"year":2001,"region code":1,"id":"af0hi1ji9l46","geo_precision":"unmatched"},"type":"Feature","geometry":null},{"properties":{"average wage":227.53,"region":"Region I - Ilocos Region","geo_score":0.0,"year":2002,"region code":1,"id":"af0hi1fopc1v","geo_precision":"unmatched"},"type":"Feature","geometry":null},{"properties":{"average wage":229.49,"region":"Region I - Ilocos Region","geo_score":0.0,"year":2003,"region code":1,"id":"af0hi1d1ur06","geo_precision":"unmatched"},"type":"Feature","geometry":null},{"properties":{"average wage":215.47,"region":"Region I - Ilocos Region","geo_score":0.0,"year":2004,"region code":1,"id":"af0hi1em7j3g","geo_precision":"unmatched"},"type":"Feature","geometry":null},{"properties":{"average wage":233.51,"region":"Region I - Ilocos Region","geo_score":0.0,"year":2005,"region code":1,"id":"af0hi1jxdd6c","geo_precision":"unmatched"},"type":"Feature","geometry":null},{"properties":{"average wage":236.83,"region":"Region I - Ilocos Region","geo_score":0.0,"year":2006,"region code":1,"id":"af0hi1ga51lc","geo_precision":"unmatched"},"type":"Feature","geometry":null},{"properties":{"average wage":252.63,"region":"Region I - Ilocos Region","geo_score":0.0,"year":2007,"region code":1,"id":"af0hi1h5agzy","geo_precision":"unmatched"},"type":"Feature","geometry":null},{"properties":{"average wage":269.67,"region":"Region I - Ilocos Region","geo_score":0.0,"year":2008,"region code":1,"id":"af0hi1ma0tcb","geo_precision":"unmatched"},"type":"Feature","geometry":null},{"properties":{"average wage":276.45,"region":"Region I - Ilocos Region","geo_score":0.0,"year":2009,"region code":1,"id":"af0hi1iiu31x","geo_precision":"unmatched"},"type":"Feature","geometry":null},{"properties":{"average wage":291.98,"region":"Region I - Ilocos Region","geo_score":0.0,"year":2010,"region code":1,"id":"af0hi1eijsha","geo_precision":"unmatched"},"type":"Feature","geometry":null},{"properties":{"average wage":321.3,"region":"Region I - Ilocos Region","geo_score":0.0,"year":2011,"region code":1,"id":"af0hi1hgpc68","geo_precision":"unmatched"},"type":"Feature","geometry":null},{"properties":{"average wage":null,"region":"Region I - Ilocos Region","geo_score":0.0,"year":2012,"region code":1,"id":"af0hi19ky04b","geo_precision":"unmatched"},"type":"Feature","geometry":null},{"properties":{"average wage":196.43,"region":"Region I - Ilocos Region","geo_score":0.0,"year":2001,"region code":1,"id":"af0hi18lldbe","geo_precision":"unmatched"},"type":"Feature","geometry":null},{"properties":{"average wage":199.48,"region":"Region I - Ilocos Region","geo_score":0.0,"year":2002,"region code":1,"id":"af0hi1957uz4","geo_precision":"unmatched"},"type":"Feature","geometry":null},{"properties":{"average wage":180.41,"region":"Region I - Ilocos Region","geo_score":0.0,"year":2003,"region code":1,"id":"af0hi1himd1c","geo_precision":"unmatched"},"type":"Feature","geometry":null},{"properties":{"average wage":178.99,"region":"Region I - Ilocos Region","geo_score":0.0,"year":2004,"region code":1,"id":"af0hi1mkpz8k","geo_precision":"unmatched"},"type":"Feature","geometry":null},{"properties":{"average wage":219.8,"region":"Region I - Ilocos Region","geo_score":0.0,"year":2005,"region code":1,"id":"af0hi1djh0no","geo_precision":"unmatched"},"type":"Feature","geometry":null},{"properties":{"average wage":208.09,"region":"Region I - Ilocos Region","geo_score":0.0,"year":2006,"region code":1,"id":"af0hi1m0nids","geo_precision":"unmatched"},"type":"Feature","geometry":null},{"properties":{"average wage":210.22,"region":"Region I - Ilocos Region","geo_score":0.0,"year":2007,"region code":1,"id":"af0hi18562jx","geo_precision":"unmatched"},"type":"Feature","geometry":null},{"properties":{"average wage":250.87,"region":"Region I - Ilocos Region","geo_score":0.0,"year":2008,"region code":1,"id":"af0hi1gbuswi","geo_precision":"unmatched"},"type":"Feature","geometry":null},{"properties":{"average wage":251.06,"region":"Region I - Ilocos Region","geo_score":0.0,"year":2009,"region code":1,"id":"af0hi1gjnro8","geo_precision":"unmatched"},"type":"Feature","geometry":null},{"properties":{"average wage":265.78,"region":"Region I - Ilocos Region","geo_score":0.0,"year":2010,"region code":1,"id":"af0hi1j6igs3","geo_precision":"unmatched"},"type":"Feature","geometry":null},{"properties":{"average wage":258.61,"region":"Region I - Ilocos Region","geo_score":0.0,"year":2011,"region code":1,"id":"af0hi1bzz5qu","geo_precision":"unmatched"},"type":"Feature","geometry":null},{"properties":{"average wage":null,"region":"Region I - Ilocos Region","geo_score":0.0,"year":2012,"region code":1,"id":"af0hi1j3l6rx","geo_precision":"unmatched"},"type":"Feature","geometry":null},{"properties":{"average wage":179.16,"region":"Region VI - Western Visayas","geo_score":0.0,"year":2001,"region code":6,"id":"af0hi19poe01","geo_precision":"unmatched"},"type":"Feature","geometry":null},{"properties":{"average wage":183.38,"region":"Region VI - Western Visayas","geo_score":0.0,"year":2002,"region code":6,"id":"af0hi184xl8p","geo_precision":"unmatched"},"type":"Feature","geometry":null},{"properties":{"average wage":178.77,"region":"Region VI - Western Visayas","geo_score":0.0,"year":2003,"region code":6,"id":"af0hi16tkdwq","geo_precision":"unmatched"},"type":"Feature","geometry":null},{"properties":{"average wage":179.57,"region":"Region VI - Western Visayas","geo_score":0.0,"year":2004,"region code":6,"id":"af0hi16o0vxl","geo_precision":"unmatched"},"type":"Feature","geometry":null},{"properties":{"average wage":194.81,"region":"Region VI - Western Visayas","geo_score":0.0,"year":2005,"region code":6,"id":"af0hi16ro3sa","geo_precision":"unmatched"},"type":"Feature","geometry":null},{"properties":{"average wage":202.7,"region":"Region VI - Western Visayas","geo_score":0.0,"year":2006,"region code":6,"id":"af0hi19x7d98","geo_precision":"unmatched"},"type":"Feature","geometry":null},{"properties":{"average wage":211.42,"region":"Region VI - Western Visayas","geo_score":0.0,"year":2007,"region code":6,"id":"af0hi1avrqne","geo_precision":"unmatched"},"type":"Feature","geometry":null},{"properties":{"average wage":227.22,"region":"Region VI - Western Visayas","geo_score":0.0,"year":2008,"region code":6,"id":"af0hi1gztaxu","geo_precision":"unmatched"},"type":"Feature","geometry":null},{"properties":{"average wage":235.0,"region":"Region VI - Western Visayas","geo_score":0.0,"year":2009,"region code":6,"id":"af0hi1g9fx3f","geo_precision":"unmatched"},"type":"Feature","geometry":null},{"properties":{"average wage":249.6,"region":"Region VI - Western Visayas","geo_score":0.0,"year":2010,"region code":6,"id":"af0hi1e6wvju","geo_precision":"unmatched"},"type":"Feature","geometry":null},{"properties":{"average wage":266.3,"region":"Region VI - Western Visayas","geo_score":0.0,"year":2011,"region code":6,"id":"af0hi1hij90o","geo_precision":"unmatched"},"type":"Feature","geometry":null},{"properties":{"average wage":null,"region":"Region VI - Western Visayas","geo_score":0.0,"year":2012,"region code":6,"id":"af0hi1fxrt0s","geo_precision":"unmatched"},"type":"Feature","geometry":null},{"properties":{"average wage":180.31,"region":"Region II - Cagayan Valley","geo_score":0.0,"year":2001,"region code":2,"id":"af0hi1i7g506","geo_precision":"unmatched"},"type":"Feature","geometry":null},{"properties":{"average wage":175.41,"region":"Region II - Cagayan Valley","geo_score":0.0,"year":2002,"region code":2,"id":"af0hi1jad9pl","geo_precision":"unmatched"},"type":"Feature","geometry":null},{"properties":{"average wage":169.32,"region":"Region II - Cagayan Valley","geo_score":0.0,"year":2003,"region code":2,"id":"af0hi1k1wz6y","geo_precision":"unmatched"},"type":"Feature","geometry":null},{"properties":{"average wage":162.94,"region":"Region II - Cagayan Valley","geo_score":0.0,"year":2004,"region code":2,"id":"af0hi1dqpc64","geo_precision":"unmatched"},"type":"Feature","geometry":null},{"properties":{"average wage":170.96,"region":"Region II - Cagayan Valley","geo_score":0.0,"year":2005,"region code":2,"id":"af0hi18d44c0","geo_precision":"unmatched"},"type":"Feature","geometry":null},{"properties":{"average wage":171.22,"region":"Region II - Cagayan Valley","geo_score":0.0,"year":2006,"region code":2,"id":"af0hi1hlj2es","geo_precision":"unmatched"},"type":"Feature","geometry":null},{"properties":{"average wage":174.55,"region":"Region II - Cagayan Valley","geo_score":0.0,"year":2007,"region code":2,"id":"af0hi1j1jniv","geo_precision":"unmatched"},"type":"Feature","geometry":null},{"properties":{"average wage":195.01,"region":"Region II - Cagayan Valley","geo_score":0.0,"year":2008,"region code":2,"id":"af0hi1gctnhi","geo_precision":"unmatched"},"type":"Feature","geometry":null},{"properties":{"average wage":209.22,"region":"Region II - Cagayan Valley","geo_score":0.0,"year":2009,"region code":2,"id":"af0hi1ls08fi","geo_precision":"unmatched"},"type":"Feature","geometry":null},{"properties":{"average wage":214.39,"region":"Region II - Cagayan Valley","geo_score":0.0,"year":2010,"region code":2,"id":"af0hi18ps050","geo_precision":"unmatched"},"type":"Feature","geometry":null},{"properties":{"average wage":231.4,"region":"Region II - Cagayan Valley","geo_score":0.0,"year":2011,"region code":2,"id":"af0hi1e2hk5x","geo_precision":"unmatched"},"type":"Feature","geometry":null},{"properties":{"average wage":null,"region":"Region II - Cagayan Valley","geo_score":0.0,"year":2012,"region code":2,"id":"af0hi1m6i6uv","geo_precision":"unmatched"},"type":"Feature","geometry":null},{"properties":{"average wage":218.85,"region":"Cordillera Administrative Region","geo_score":0.0,"year":2001,"region code":14,"id":"af0hi19tvv34","geo_precision":"unmatched"},"type":"Feature","geometry":null},{"properties":{"average wage":254.21,"region":"Cordillera Administrative Region","geo_score":0.0,"year":2002,"region code":14,"id":"af0hi184rcj6","geo_precision":"unmatched"},"type":"Feature","geometry":null},{"properties":{"average wage":234.54,"region":"Cordillera Administrative Region","geo_score":0.0,"year":2003,"region code":14,"id":"af0hi1a4nric","geo_precision":"unmatched"},"type":"Feature","geometry":null},{"properties":{"average wage":234.9,"region":"Cordillera Administrative Region","geo_score":0.0,"year":2004,"region code":14,"id":"af0hi1md8g6l","geo_precision":"unmatched"},"type":"Feature","geometry":null},{"properties":{"average wage":231.96,"region":"Cordillera Administrative Region","geo_score":0.0,"year":2005,"region code":14,"id":"af0hi1euccoy","geo_precision":"unmatched"},"type":"Feature","geometry":null},{"properties":{"average wage":235.83,"region":"Cordillera Administrative Region","geo_score":0.0,"year":2006,"region code":14,"id":"af0hi1jr8bz3","geo_precision":"unmatched"},"type":"Feature","geometry":null},{"properties":{"average wage":240.14,"region":"Cordillera Administrative Region","geo_score":0.0,"year":2007,"region code":14,"id":"af0hi1m2vh9y","geo_precision":"unmatched"},"type":"Feature","geometry":null},{"properties":{"average wage":260.96,"region":"Cordillera Administrative Region","geo_score":0.0,"year":2008,"region code":14,"id":"af0hi1bac2rg","geo_precision":"unmatched"},"type":"Feature","geometry":null},{"properties":{"average wage":250.13,"region":"Cordillera Administrative Region","geo_score":0.0,"year":2009,"region code":14,"id":"af0hi1fya4y9","geo_precision":"unmatched"},"type":"Feature","geometry":null},{"properties":{"average wage":258.0,"region":"Cordillera Administrative Region","geo_score":0.0,"year":2010,"region code":14,"id":"af0hi1axbd5c","geo_precision":"unmatched"},"type":"Feature","geometry":null},{"properties":{"average wage":306.79,"region":"Cordillera Administrative Region","geo_score":0.0,"year":2011,"region code":14,"id":"af0hi1axvba0","geo_precision":"unmatched"},"type":"Feature","geometry":null},{"properties":{"average wage":null,"region":"Cordillera Administrative Region","geo_score":0.0,"year":2012,"region code":14,"id":"af0hi1knmulj","geo_precision":"unmatched"},"type":"Feature","geometry":null},{"properties":{"average wage":210.25,"region":"Region I - Ilocos Region","geo_score":0.0,"year":2001,"region code":1,"id":"af0hi1irdpol","geo_precision":"unmatched"},"type":"Feature","geometry":null},{"properties":{"average wage":225.27,"region":"Region I - Ilocos Region","geo_score":0.0,"year":2002,"region code":1,"id":"af0hi1cmeo9k","geo_precision":"unmatched"},"type":"Feature","geometry":null},{"properties":{"average wage":224.62,"region":"Region I - Ilocos Region","geo_score":0.0,"year":2003,"region code":1,"id":"af0hi1d4w745","geo_precision":"unmatched"},"type":"Feature","geometry":null},{"properties":{"average wage":221.07,"region":"Region I - Ilocos Region","geo_score":0.0,"year":2004,"region code":1,"id":"af0hi1jmecr3","geo_precision":"unmatched"},"type":"Feature","geometry":null},{"properties":{"average wage":241.42,"region":"Region I - Ilocos Region","geo_score":0.0,"year":2005,"region code":1,"id":"af0hi1enw8in","geo_precision":"unmatched"},"type":"Feature","geometry":null},{"properties":{"average wage":231.43,"region":"Region I - Ilocos Region","geo_score":0.0,"year":2006,"region code":1,"id":"af0hi1gaccsq","geo_precision":"unmatched"},"type":"Feature","geometry":null},{"properties":{"average wage":239.93,"region":"Region I - Ilocos Region","geo_score":0.0,"year":2007,"region code":1,"id":"af0hi1i9h7zb","geo_precision":"unmatched"},"type":"Feature","geometry":null},{"properties":{"average wage":247.45,"region":"Region I - Ilocos Region","geo_score":0.0,"year":2008,"region code":1,"id":"af0hi1gxrcm8","geo_precision":"unmatched"},"type":"Feature","geometry":null},{"properties":{"average wage":271.61,"region":"Region I - Ilocos Region","geo_score":0.0,"year":2009,"region code":1,"id":"af0hi176zkzg","geo_precision":"unmatched"},"type":"Feature","geometry":null},{"properties":{"average wage":298.7,"region":"Region I - Ilocos Region","geo_score":0.0,"year":2010,"region code":1,"id":"af0hi1f9r8oh","geo_precision":"unmatched"},"type":"Feature","geometry":null},{"properties":{"average wage":298.42,"region":"Region I - Ilocos Region","geo_score":0.0,"year":2011,"region code":1,"id":"af0hi1jmzr5v","geo_precision":"unmatched"},"type":"Feature","geometry":null},{"properties":{"average wage":null,"region":"Region I - Ilocos Region","geo_score":0.0,"year":2012,"region code":1,"id":"af0hi1jwmp8v","geo_precision":"unmatched"},"type":"Feature","geometry":null},{"properties":{"average wage":245.57,"region":"Region IVA - CALABARZON","geo_score":0.0,"year":2001,"region code":41,"id":"af0hi1k1dfr8","geo_precision":"unmatched"},"type":"Feature","geometry":null},{"properties":{"average wage":261.62,"region":"Region IVA - CALABARZON","geo_score":0.0,"year":2002,"region code":41,"id":"af0hi1elodfq","geo_precision":"unmatched"},"type":"Feature","geometry":null},{"properties":{"average wage":258.36,"region":"Region IVA - CALABARZON","geo_score":0.0,"year":2003,"region code":41,"id":"af0hi1mmqh91","geo_precision":"unmatched"},"type":"Feature","geometry":null},{"properties":{"average wage":262.96,"region":"Region IVA - CALABARZON","geo_score":0.0,"year":2004,"region code":41,"id":"af0hi1m2vl3y","geo_precision":"unmatched"},"type":"Feature","geometry":null},{"properties":{"average wage":278.8,"region":"Region IVA - CALABARZON","geo_score":0.0,"year":2005,"region code":41,"id":"af0hi1ibszbv","geo_precision":"unmatched"},"type":"Feature","geometry":null},{"properties":{"average wage":291.59,"region":"Region IVA - CALABARZON","geo_score":0.0,"year":2006,"region code":41,"id":"af0hi1dsued3","geo_precision":"unmatched"},"type":"Feature","geometry":null},{"properties":{"average wage":308.78,"region":"Region IVA - CALABARZON","geo_score":0.0,"year":2007,"region code":41,"id":"af0hi18n4eg4","geo_precision":"unmatched"},"type":"Feature","geometry":null},{"properties":{"average wage":323.74,"region":"Region IVA - CALABARZON","geo_score":0.0,"year":2008,"region code":41,"id":"af0hi1c1u7pe","geo_precision":"unmatched"},"type":"Feature","geometry":null},{"properties":{"average wage":336.42,"region":"Region IVA - CALABARZON","geo_score":0.0,"year":2009,"region code":41,"id":"af0hi1c17u5u","geo_precision":"unmatched"},"type":"Feature","geometry":null},{"properties":{"average wage":360.52,"region":"Region IVA - CALABARZON","geo_score":0.0,"year":2010,"region code":41,"id":"af0hi18bw3hr","geo_precision":"unmatched"},"type":"Feature","geometry":null},{"properties":{"average wage":372.35,"region":"Region IVA - CALABARZON","geo_score":0.0,"year":2011,"region code":41,"id":"af0hi1cuwiim","geo_precision":"unmatched"},"type":"Feature","geometry":null},{"properties":{"average wage":null,"region":"Region IVA - CALABARZON","geo_score":0.0,"year":2012,"region code":41,"id":"af0hi1955w02","geo_precision":"unmatched"},"type":"Feature","geometry":null},{"properties":{"average wage":196.33,"region":"Region X - Northern Mindanao","geo_score":0.0,"year":2001,"region code":10,"id":"af0hi1g1s8fh","geo_precision":"unmatched"},"type":"Feature","geometry":null},{"properties":{"average wage":210.28,"region":"Region X - Northern Mindanao","geo_score":0.0,"year":2002,"region code":10,"id":"af0hi1c0oatz","geo_precision":"unmatched"},"type":"Feature","geometry":null},{"properties":{"average wage":204.8,"region":"Region X - Northern Mindanao","geo_score":0.0,"year":2003,"region code":10,"id":"af0hi178pyat","geo_precision":"unmatched"},"type":"Feature","geometry":null},{"properties":{"average wage":218.43,"region":"Region X - Northern Mindanao","geo_score":0.0,"year":2004,"region code":10,"id":"af0hi1b315wy","geo_precision":"unmatched"},"type":"Feature","geometry":null},{"properties":{"average wage":233.2,"region":"Region X - Northern Mindanao","geo_score":0.0,"year":2005,"region code":10,"id":"af0hi1i4n2zz","geo_precision":"unmatched"},"type":"Feature","geometry":null},{"properties":{"average wage":252.37,"region":"Region X - Northern Mindanao","geo_score":0.0,"year":2006,"region code":10,"id":"af0hi1cc9nzq","geo_precision":"unmatched"},"type":"Feature","geometry":null},{"properties":{"average wage":246.42,"region":"Region X - Northern Mindanao","geo_score":0.0,"year":2007,"region code":10,"id":"af0hi16rdpv7","geo_precision":"unmatched"},"type":"Feature","geometry":null},{"properties":{"average wage":248.43,"region":"Region X - Northern Mindanao","geo_score":0.0,"year":2008,"region code":10,"id":"af0hi19nad94","geo_precision":"unmatched"},"type":"Feature","geometry":null},{"properties":{"average wage":256.12,"region":"Region X - Northern Mindanao","geo_score":0.0,"year":2009,"region code":10,"id":"af0hi18hwr8a","geo_precision":"unmatched"},"type":"Feature","geometry":null},{"properties":{"average wage":270.49,"region":"Region X - Northern Mindanao","geo_score":0.0,"year":2010,"region code":10,"id":"af0hi1gsq28a","geo_precision":"unmatched"},"type":"Feature","geometry":null},{"properties":{"average wage":282.91,"region":"Region X - Northern Mindanao","geo_score":0.0,"year":2011,"region code":10,"id":"af0hi1esz6ui","geo_precision":"unmatched"},"type":"Feature","geometry":null},{"properties":{"average wage":null,"region":"Region X - Northern Mindanao","geo_score":0.0,"year":2012,"region code":10,"id":"af0hi1a3i6qc","geo_precision":"unmatched"},"type":"Feature","geometry":null},{"properties":{"average wage":396.72,"region":"Autonomous Region in Muslim Mindanao","geo_score":0.0,"year":2001,"region code":15,"id":"af0hi17q28a1","geo_precision":"unmatched"},"type":"Feature","geometry":null},{"properties":{"average wage":376.77,"region":"Autonomous Region in Muslim Mindanao","geo_score":0.0,"year":2002,"region code":15,"id":"af0hi1dudm9b","geo_precision":"unmatched"},"type":"Feature","geometry":null},{"properties":{"average wage":348.16,"region":"Autonomous Region in Muslim Mindanao","geo_score":0.0,"year":2003,"region code":15,"id":"af0hi1gdarqn","geo_precision":"unmatched"},"type":"Feature","geometry":null},{"properties":{"average wage":369.06,"region":"Autonomous Region in Muslim Mindanao","geo_score":0.0,"year":2004,"region code":15,"id":"af0hi196p1cv","geo_precision":"unmatched"},"type":"Feature","geometry":null},{"properties":{"average wage":380.05,"region":"Autonomous Region in Muslim Mindanao","geo_score":0.0,"year":2005,"region code":15,"id":"af0hi1b9goot","geo_precision":"unmatched"},"type":"Feature","geometry":null},{"properties":{"average wage":489.27,"region":"Autonomous Region in Muslim Mindanao","geo_score":0.0,"year":2006,"region code":15,"id":"af0hi1hfksq7","geo_precision":"unmatched"},"type":"Feature","geometry":null},{"properties":{"average wage":326.47,"region":"Autonomous Region in Muslim Mindanao","geo_score":0.0,"year":2007,"region code":15,"id":"af0hi19d066s","geo_precision":"unmatched"},"type":"Feature","geometry":null},{"properties":{"average wage":323.74,"region":"Autonomous Region in Muslim Mindanao","geo_score":0.0,"year":2008,"region code":15,"id":"af0hi1hf1ddg","geo_precision":"unmatched"},"type":"Feature","geometry":null},{"properties":{"average wage":345.63,"region":"Autonomous Region in Muslim Mindanao","geo_score":0.0,"year":2009,"region code":15,"id":"af0hi16ssfyx","geo_precision":"unmatched"},"type":"Feature","geometry":null},{"properties":{"average wage":375.96,"region":"Autonomous Region in Muslim Mindanao","geo_score":0.0,"year":2010,"region code":15,"id":"af0hi16nglmk","geo_precision":"unmatched"},"type":"Feature","geometry":null},{"properties":{"average wage":385.61,"region":"Autonomous Region in Muslim Mindanao","geo_score":0.0,"year":2011,"region code":15,"id":"af0hi1ip77bf","geo_precision":"unmatched"},"type":"Feature","geometry":null},{"properties":{"average wage":null,"region":"Autonomous Region in Muslim Mindanao","geo_score":0.0,"year":2012,"region code":15,"id":"af0hi1hw6w78","geo_precision":"unmatched"},"type":"Feature","geometry":null},{"properties":{"average wage":202.33,"region":"Region VIII - Eastern Visayas","geo_score":0.0,"year":2001,"region code":8,"id":"af0hi1bg2ndc","geo_precision":"unmatched"},"type":"Feature","geometry":null},{"properties":{"average wage":204.82,"region":"Region VIII - Eastern Visayas","geo_score":0.0,"year":2002,"region code":8,"id":"af0hi1h2ef2m","geo_precision":"unmatched"},"type":"Feature","geometry":null},{"properties":{"average wage":192.82,"region":"Region VIII - Eastern Visayas","geo_score":0.0,"year":2003,"region code":8,"id":"af0hi1fbel7z","geo_precision":"unmatched"},"type":"Feature","geometry":null},{"properties":{"average wage":194.97,"region":"Region VIII - Eastern Visayas","geo_score":0.0,"year":2004,"region code":8,"id":"af0hi1l59xmz","geo_precision":"unmatched"},"type":"Feature","geometry":null},{"properties":{"average wage":211.9,"region":"Region VIII - Eastern Visayas","geo_score":0.0,"year":2005,"region code":8,"id":"af0hi1mhdetb","geo_precision":"unmatched"},"type":"Feature","geometry":null},{"properties":{"average wage":188.22,"region":"Region VIII - Eastern Visayas","geo_score":0.0,"year":2006,"region code":8,"id":"af0hi1ik1xu7","geo_precision":"unmatched"},"type":"Feature","geometry":null},{"properties":{"average wage":194.96,"region":"Region VIII - Eastern Visayas","geo_score":0.0,"year":2007,"region code":8,"id":"af0hi1kjhyvx","geo_precision":"unmatched"},"type":"Feature","geometry":null},{"properties":{"average wage":217.78,"region":"Region VIII - Eastern Visayas","geo_score":0.0,"year":2008,"region code":8,"id":"af0hi1kg9ps0","geo_precision":"unmatched"},"type":"Feature","geometry":null},{"properties":{"average wage":231.76,"region":"Region VIII - Eastern Visayas","geo_score":0.0,"year":2009,"region code":8,"id":"af0hi1badbo0","geo_precision":"unmatched"},"type":"Feature","geometry":null},{"properties":{"average wage":226.08,"region":"Region VIII - Eastern Visayas","geo_score":0.0,"year":2010,"region code":8,"id":"af0hi19qc6sj","geo_precision":"unmatched"},"type":"Feature","geometry":null},{"properties":{"average wage":246.66,"region":"Region VIII - Eastern Visayas","geo_score":0.0,"year":2011,"region code":8,"id":"af0hi1ihln7n","geo_precision":"unmatched"},"type":"Feature","geometry":null},{"properties":{"average wage":null,"region":"Region VIII - Eastern Visayas","geo_score":0.0,"year":2012,"region code":8,"id":"af0hi1hps9wi","geo_precision":"unmatched"},"type":"Feature","geometry":null},{"properties":{"average wage":196.86,"region":"Autonomous Region in Muslim Mindanao","geo_score":0.0,"year":2001,"region code":15,"id":"af0hi1lyi9v9","geo_precision":"unmatched"},"type":"Feature","geometry":null},{"properties":{"average wage":206.27,"region":"Autonomous Region in Muslim Mindanao","geo_score":0.0,"year":2002,"region code":15,"id":"af0hi1lnywks","geo_precision":"unmatched"},"type":"Feature","geometry":null},{"properties":{"average wage":242.18,"region":"Autonomous Region in Muslim Mindanao","geo_score":0.0,"year":2003,"region code":15,"id":"af0hi1g06yep","geo_precision":"unmatched"},"type":"Feature","geometry":null},{"properties":{"average wage":235.19,"region":"Autonomous Region in Muslim Mindanao","geo_score":0.0,"year":2004,"region code":15,"id":"af0hi1l9ijo9","geo_precision":"unmatched"},"type":"Feature","geometry":null},{"properties":{"average wage":248.38,"region":"Autonomous Region in Muslim Mindanao","geo_score":0.0,"year":2005,"region code":15,"id":"af0hi1awxog5","geo_precision":"unmatched"},"type":"Feature","geometry":null},{"properties":{"average wage":227.14,"region":"Autonomous Region in Muslim Mindanao","geo_score":0.0,"year":2006,"region code":15,"id":"af0hi1ea69ci","geo_precision":"unmatched"},"type":"Feature","geometry":null},{"properties":{"average wage":220.76,"region":"Autonomous Region in Muslim Mindanao","geo_score":0.0,"year":2007,"region code":15,"id":"af0hi1a6h2dt","geo_precision":"unmatched"},"type":"Feature","geometry":null},{"properties":{"average wage":200.3,"region":"Autonomous Region in Muslim Mindanao","geo_score":0.0,"year":2008,"region code":15,"id":"af0hi1f03i5k","geo_precision":"unmatched"},"type":"Feature","geometry":null},{"properties":{"average wage":249.11,"region":"Autonomous Region in Muslim Mindanao","geo_score":0.0,"year":2009,"region code":15,"id":"af0hi1emo6no","geo_precision":"unmatched"},"type":"Feature","geometry":null},{"properties":{"average wage":244.39,"region":"Autonomous Region in Muslim Mindanao","geo_score":0.0,"year":2010,"region code":15,"id":"af0hi1hqbi0y","geo_precision":"unmatched"},"type":"Feature","geometry":null},{"properties":{"average wage":257.49,"region":"Autonomous Region in Muslim Mindanao","geo_score":0.0,"year":2011,"region code":15,"id":"af0hi1dh5ja7","geo_precision":"unmatched"},"type":"Feature","geometry":null},{"properties":{"average wage":null,"region":"Autonomous Region in Muslim Mindanao","geo_score":0.0,"year":2012,"region code":15,"id":"af0hi1hw84tu","geo_precision":"unmatched"},"type":"Feature","geometry":null},{"properties":{"average wage":291.53,"region":"National Capital Region","geo_score":0.0,"year":2001,"region code":13,"id":"af0hi1ijsv6z","geo_precision":"unmatched"},"type":"Feature","geometry":null},{"properties":{"average wage":290.86,"region":"National Capital Region","geo_score":0.0,"year":2002,"region code":13,"id":"af0hi19oywi8","geo_precision":"unmatched"},"type":"Feature","geometry":null},{"properties":{"average wage":304.39,"region":"National Capital Region","geo_score":0.0,"year":2003,"region code":13,"id":"af0hi1gayk7r","geo_precision":"unmatched"},"type":"Feature","geometry":null},{"properties":{"average wage":316.28,"region":"National Capital Region","geo_score":0.0,"year":2004,"region code":13,"id":"af0hi1emq69e","geo_precision":"unmatched"},"type":"Feature","geometry":null},{"properties":{"average wage":331.76,"region":"National Capital Region","geo_score":0.0,"year":2005,"region code":13,"id":"af0hi1gy0sps","geo_precision":"unmatched"},"type":"Feature","geometry":null},{"properties":{"average wage":362.64,"region":"National Capital Region","geo_score":0.0,"year":2006,"region code":13,"id":"af0hi16uck13","geo_precision":"unmatched"},"type":"Feature","geometry":null},{"properties":{"average wage":382.0,"region":"National Capital Region","geo_score":0.0,"year":2007,"region code":13,"id":"af0hi1boxthx","geo_precision":"unmatched"},"type":"Feature","geometry":null},{"properties":{"average wage":403.4,"region":"National Capital Region","geo_score":0.0,"year":2008,"region code":13,"id":"af0hi1jtp08g","geo_precision":"unmatched"},"type":"Feature","geometry":null},{"properties":{"average wage":414.23,"region":"National Capital Region","geo_score":0.0,"year":2009,"region code":13,"id":"af0hi1jfu09y","geo_precision":"unmatched"},"type":"Feature","geometry":null},{"properties":{"average wage":438.76,"region":"National Capital Region","geo_score":0.0,"year":2010,"region code":13,"id":"af0hi1lrktv6","geo_precision":"unmatched"},"type":"Feature","geometry":null},{"properties":{"average wage":439.4,"region":"National Capital Region","geo_score":0.0,"year":2011,"region code":13,"id":"af0hi17f4rcq","geo_precision":"unmatched"},"type":"Feature","geometry":null},{"properties":{"average wage":null,"region":"National Capital Region","geo_score":0.0,"year":2012,"region code":13,"id":"af0hi1hqar8c","geo_precision":"unmatched"},"type":"Feature","geometry":null},{"properties":{"average wage":170.54,"region":"Region IVB - MIMAROPA","geo_score":0.0,"year":2001,"region code":42,"id":"af0hi1fyh4z0","geo_precision":"unmatched"},"type":"Feature","geometry":null},{"properties":{"average wage":166.21,"region":"Region IVB - MIMAROPA","geo_score":0.0,"year":2002,"region code":42,"id":"af0hi1g8wdiq","geo_precision":"unmatched"},"type":"Feature","geometry":null},{"properties":{"average wage":173.11,"region":"Region IVB - MIMAROPA","geo_score":0.0,"year":2003,"region code":42,"id":"af0hi1ewtikb","geo_precision":"unmatched"},"type":"Feature","geometry":null},{"properties":{"average wage":203.67,"region":"Region IVB - MIMAROPA","geo_score":0.0,"year":2004,"region code":42,"id":"af0hi1hdwagg","geo_precision":"unmatched"},"type":"Feature","geometry":null},{"properties":{"average wage":223.43,"region":"Region IVB - MIMAROPA","geo_score":0.0,"year":2005,"region code":42,"id":"af0hi19ss7q2","geo_precision":"unmatched"},"type":"Feature","geometry":null},{"properties":{"average wage":258.21,"region":"Region IVB - MIMAROPA","geo_score":0.0,"year":2006,"region code":42,"id":"af0hi1bg5ghs","geo_precision":"unmatched"},"type":"Feature","geometry":null},{"properties":{"average wage":244.47,"region":"Region IVB - MIMAROPA","geo_score":0.0,"year":2007,"region code":42,"id":"af0hi1fp55ck","geo_precision":"unmatched"},"type":"Feature","geometry":null},{"properties":{"average wage":232.28,"region":"Region IVB - MIMAROPA","geo_score":0.0,"year":2008,"region code":42,"id":"af0hi1fyjxad","geo_precision":"unmatched"},"type":"Feature","geometry":null},{"properties":{"average wage":270.53,"region":"Region IVB - MIMAROPA","geo_score":0.0,"year":2009,"region code":42,"id":"af0hi1m3idg9","geo_precision":"unmatched"},"type":"Feature","geometry":null},{"properties":{"average wage":314.03,"region":"Region IVB - MIMAROPA","geo_score":0.0,"year":2010,"region code":42,"id":"af0hi1lhl74a","geo_precision":"unmatched"},"type":"Feature","geometry":null},{"properties":{"average wage":342.69,"region":"Region IVB - MIMAROPA","geo_score":0.0,"year":2011,"region code":42,"id":"af0hi1fcliqk","geo_precision":"unmatched"},"type":"Feature","geometry":null},{"properties":{"average wage":null,"region":"Region IVB - MIMAROPA","geo_score":0.0,"year":2012,"region code":42,"id":"af0hi173x9ar","geo_precision":"unmatched"},"type":"Feature","geometry":null},{"properties":{"average wage":196.13,"region":"Region V- Bicol","geo_score":0.0,"year":2001,"region code":5,"id":"af0hi1a52ieh","geo_precision":"unmatched"},"type":"Feature","geometry":null},{"properties":{"average wage":211.51,"region":"Region V- Bicol","geo_score":0.0,"year":2002,"region code":5,"id":"af0hi1h0ozan","geo_precision":"unmatched"},"type":"Feature","geometry":null},{"properties":{"average wage":204.02,"region":"Region V- Bicol","geo_score":0.0,"year":2003,"region code":5,"id":"af0hi1hmdv0h","geo_precision":"unmatched"},"type":"Feature","geometry":null},{"properties":{"average wage":200.61,"region":"Region V- Bicol","geo_score":0.0,"year":2004,"region code":5,"id":"af0hi1dx920b","geo_precision":"unmatched"},"type":"Feature","geometry":null},{"properties":{"average wage":191.98,"region":"Region V- Bicol","geo_score":0.0,"year":2005,"region code":5,"id":"af0hi1d8cc2u","geo_precision":"unmatched"},"type":"Feature","geometry":null},{"properties":{"average wage":199.92,"region":"Region V- Bicol","geo_score":0.0,"year":2006,"region code":5,"id":"af0hi1hsnu7t","geo_precision":"unmatched"},"type":"Feature","geometry":null},{"properties":{"average wage":197.64,"region":"Region V- Bicol","geo_score":0.0,"year":2007,"region code":5,"id":"af0hi1esvzzn","geo_precision":"unmatched"},"type":"Feature","geometry":null},{"properties":{"average wage":211.55,"region":"Region V- Bicol","geo_score":0.0,"year":2008,"region code":5,"id":"af0hi1lu92s7","geo_precision":"unmatched"},"type":"Feature","geometry":null},{"properties":{"average wage":219.91,"region":"Region V- Bicol","geo_score":0.0,"year":2009,"region code":5,"id":"af0hi1g95i7i","geo_precision":"unmatched"},"type":"Feature","geometry":null},{"properties":{"average wage":227.25,"region":"Region V- Bicol","geo_score":0.0,"year":2010,"region code":5,"id":"af0hi1edgv7c","geo_precision":"unmatched"},"type":"Feature","geometry":null},{"properties":{"average wage":276.81,"region":"Region V- Bicol","geo_score":0.0,"year":2011,"region code":5,"id":"af0hi1e97fr2","geo_precision":"unmatched"},"type":"Feature","geometry":null},{"properties":{"average wage":null,"region":"Region V- Bicol","geo_score":0.0,"year":2012,"region code":5,"id":"af0hi18yjfvy","geo_precision":"unmatched"},"type":"Feature","geometry":null},{"properties":{"average wage":179.52,"region":"Region X - Northern Mindanao","geo_score":0.0,"year":2001,"region code":10,"id":"af0hi1f6a1fe","geo_precision":"unmatched"},"type":"Feature","geometry":null},{"properties":{"average wage":192.04,"region":"Region X - Northern Mindanao","geo_score":0.0,"year":2002,"region code":10,"id":"af0hi1e4epyx","geo_precision":"unmatched"},"type":"Feature","geometry":null},{"properties":{"average wage":176.66,"region":"Region X - Northern Mindanao","geo_score":0.0,"year":2003,"region code":10,"id":"af0hi1kzfcfo","geo_precision":"unmatched"},"type":"Feature","geometry":null},{"properties":{"average wage":174.26,"region":"Region X - Northern Mindanao","geo_score":0.0,"year":2004,"region code":10,"id":"af0hi1cpi2bb","geo_precision":"unmatched"},"type":"Feature","geometry":null},{"properties":{"average wage":190.89,"region":"Region X - Northern Mindanao","geo_score":0.0,"year":2005,"region code":10,"id":"af0hi1jvtp5r","geo_precision":"unmatched"},"type":"Feature","geometry":null},{"properties":{"average wage":300.78,"region":"Region X - Northern Mindanao","geo_score":0.0,"year":2006,"region code":10,"id":"af0hi19fsdls","geo_precision":"unmatched"},"type":"Feature","geometry":null},{"properties":{"average wage":197.5,"region":"Region X - Northern Mindanao","geo_score":0.0,"year":2007,"region code":10,"id":"af0hi1ea0ysg","geo_precision":"unmatched"},"type":"Feature","geometry":null},{"properties":{"average wage":203.22,"region":"Region X - Northern Mindanao","geo_score":0.0,"year":2008,"region code":10,"id":"af0hi18wn1bv","geo_precision":"unmatched"},"type":"Feature","geometry":null},{"properties":{"average wage":198.74,"region":"Region X - Northern Mindanao","geo_score":0.0,"year":2009,"region code":10,"id":"af0hi16b9o8y","geo_precision":"unmatched"},"type":"Feature","geometry":null},{"properties":{"average wage":224.24,"region":"Region X - Northern Mindanao","geo_score":0.0,"year":2010,"region code":10,"id":"af0hi1bhksfd","geo_precision":"unmatched"},"type":"Feature","geometry":null},{"properties":{"average wage":238.72,"region":"Region X - Northern Mindanao","geo_score":0.0,"year":2011,"region code":10,"id":"af0hi1m0ot11","geo_precision":"unmatched"},"type":"Feature","geometry":null},{"properties":{"average wage":null,"region":"Region X - Northern Mindanao","geo_score":0.0,"year":2012,"region code":10,"id":"af0hi1gvs2r7","geo_precision":"unmatched"},"type":"Feature","geometry":null},{"properties":{"average wage":223.84,"region":"Region X - Northern Mindanao","geo_score":0.0,"year":2001,"region code":10,"id":"af0hi18jkwko","geo_precision":"unmatched"},"type":"Feature","geometry":null},{"properties":{"average wage":225.97,"region":"Region X - Northern Mindanao","geo_score":0.0,"year":2002,"region code":10,"id":"af0hi1ga4866","geo_precision":"unmatched"},"type":"Feature","geometry":null},{"properties":{"average wage":219.87,"region":"Region X - Northern Mindanao","geo_score":0.0,"year":2003,"region code":10,"id":"af0hi1j2vh0d","geo_precision":"unmatched"},"type":"Feature","geometry":null},{"properties":{"average wage":220.16,"region":"Region X - Northern Mindanao","geo_score":0.0,"year":2004,"region code":10,"id":"af0hi1atfzac","geo_precision":"unmatched"},"type":"Feature","geometry":null},{"properties":{"average wage":234.47,"region":"Region X - Northern Mindanao","geo_score":0.0,"year":2005,"region code":10,"id":"af0hi1h98b9b","geo_precision":"unmatched"},"type":"Feature","geometry":null},{"properties":{"average wage":230.84,"region":"Region X - Northern Mindanao","geo_score":0.0,"year":2006,"region code":10,"id":"af0hi1gp4570","geo_precision":"unmatched"},"type":"Feature","geometry":null},{"properties":{"average wage":234.0,"region":"Region X - Northern Mindanao","geo_score":0.0,"year":2007,"region code":10,"id":"af0hi192a631","geo_precision":"unmatched"},"type":"Feature","geometry":null},{"properties":{"average wage":260.25,"region":"Region X - Northern Mindanao","geo_score":0.0,"year":2008,"region code":10,"id":"af0hi1b4m2qo","geo_precision":"unmatched"},"type":"Feature","geometry":null},{"properties":{"average wage":275.94,"region":"Region X - Northern Mindanao","geo_score":0.0,"year":2009,"region code":10,"id":"af0hi1gzmca1","geo_precision":"unmatched"},"type":"Feature","geometry":null},{"properties":{"average wage":274.04,"region":"Region X - Northern Mindanao","geo_score":0.0,"year":2010,"region code":10,"id":"af0hi17mvve9","geo_precision":"unmatched"},"type":"Feature","geometry":null},{"properties":{"average wage":294.37,"region":"Region X - Northern Mindanao","geo_score":0.0,"year":2011,"region code":10,"id":"af0hi1e6wlrs","geo_precision":"unmatched"},"type":"Feature","geometry":null},{"properties":{"average wage":null,"region":"Region X - Northern Mindanao","geo_score":0.0,"year":2012,"region code":10,"id":"af0hi1lfy9ug","geo_precision":"unmatched"},"type":"Feature","geometry":null},{"properties":{"average wage":300.5,"region":"Cordillera Administrative Region","geo_score":0.0,"year":2001,"region code":14,"id":"af0hi1kgajlp","geo_precision":"unmatched"},"type":"Feature","geometry":null},{"properties":{"average wage":322.34,"region":"Cordillera Administrative Region","geo_score":0.0,"year":2002,"region code":14,"id":"af0hi1babpvv","geo_precision":"unmatched"},"type":"Feature","geometry":null},{"properties":{"average wage":370.87,"region":"Cordillera Administrative Region","geo_score":0.0,"year":2003,"region code":14,"id":"af0hi1k2o5c1","geo_precision":"unmatched"},"type":"Feature","geometry":null},{"properties":{"average wage":304.63,"region":"Cordillera Administrative Region","geo_score":0.0,"year":2004,"region code":14,"id":"af0hi17r5ppy","geo_precision":"unmatched"},"type":"Feature","geometry":null},{"properties":{"average wage":287.32,"region":"Cordillera Administrative Region","geo_score":0.0,"year":2005,"region code":14,"id":"af0hi18tljsu","geo_precision":"unmatched"},"type":"Feature","geometry":null},{"properties":{"average wage":294.91,"region":"Cordillera Administrative Region","geo_score":0.0,"year":2006,"region code":14,"id":"af0hi1kxi6m0","geo_precision":"unmatched"},"type":"Feature","geometry":null},{"properties":{"average wage":349.55,"region":"Cordillera Administrative Region","geo_score":0.0,"year":2007,"region code":14,"id":"af0hi186k7hs","geo_precision":"unmatched"},"type":"Feature","geometry":null},{"properties":{"average wage":315.68,"region":"Cordillera Administrative Region","geo_score":0.0,"year":2008,"region code":14,"id":"af0hi1afo6w4","geo_precision":"unmatched"},"type":"Feature","geometry":null},{"properties":{"average wage":325.0,"region":"Cordillera Administrative Region","geo_score":0.0,"year":2009,"region code":14,"id":"af0hi1m6t7z9","geo_precision":"unmatched"},"type":"Feature","geometry":null},{"properties":{"average wage":455.61,"region":"Cordillera Administrative Region","geo_score":0.0,"year":2010,"region code":14,"id":"af0hi1gogum3","geo_precision":"unmatched"},"type":"Feature","geometry":null},{"properties":{"average wage":404.68,"region":"Cordillera Administrative Region","geo_score":0.0,"year":2011,"region code":14,"id":"af0hi1lyl43b","geo_precision":"unmatched"},"type":"Feature","geometry":null},{"properties":{"average wage":null,"region":"Cordillera Administrative Region","geo_score":0.0,"year":2012,"region code":14,"id":"af0hi19li42q","geo_precision":"unmatched"},"type":"Feature","geometry":null},{"properties":{"average wage":152.3,"region":"Region VI - Western Visayas","geo_score":0.0,"year":2001,"region code":6,"id":"af0hi1ik9peo","geo_precision":"unmatched"},"type":"Feature","geometry":null},{"properties":{"average wage":154.75,"region":"Region VI - Western Visayas","geo_score":0.0,"year":2002,"region code":6,"id":"af0hi1ebhc3f","geo_precision":"unmatched"},"type":"Feature","geometry":null},{"properties":{"average wage":156.39,"region":"Region VI - Western Visayas","geo_score":0.0,"year":2003,"region code":6,"id":"af0hi1a7fq06","geo_precision":"unmatched"},"type":"Feature","geometry":null},{"properties":{"average wage":164.99,"region":"Region VI - Western Visayas","geo_score":0.0,"year":2004,"region code":6,"id":"af0hi19jef8q","geo_precision":"unmatched"},"type":"Feature","geometry":null},{"properties":{"average wage":170.6,"region":"Region VI - Western Visayas","geo_score":0.0,"year":2005,"region code":6,"id":"af0hi1ml7u36","geo_precision":"unmatched"},"type":"Feature","geometry":null},{"properties":{"average wage":170.39,"region":"Region VI - Western Visayas","geo_score":0.0,"year":2006,"region code":6,"id":"af0hi19xf6d5","geo_precision":"unmatched"},"type":"Feature","geometry":null},{"properties":{"average wage":175.35,"region":"Region VI - Western Visayas","geo_score":0.0,"year":2007,"region code":6,"id":"af0hi1jys0c9","geo_precision":"unmatched"},"type":"Feature","geometry":null},{"properties":{"average wage":182.89,"region":"Region VI - Western Visayas","geo_score":0.0,"year":2008,"region code":6,"id":"af0hi1l2raht","geo_precision":"unmatched"},"type":"Feature","geometry":null},{"properties":{"average wage":200.38,"region":"Region VI - Western Visayas","geo_score":0.0,"year":2009,"region code":6,"id":"af0hi18ka7jb","geo_precision":"unmatched"},"type":"Feature","geometry":null},{"properties":{"average wage":216.96,"region":"Region VI - Western Visayas","geo_score":0.0,"year":2010,"region code":6,"id":"af0hi1epq5b6","geo_precision":"unmatched"},"type":"Feature","geometry":null},{"properties":{"average wage":227.25,"region":"Region VI - Western Visayas","geo_score":0.0,"year":2011,"region code":6,"id":"af0hi1m6nvuv","geo_precision":"unmatched"},"type":"Feature","geometry":null},{"properties":{"average wage":null,"region":"Region VI - Western Visayas","geo_score":0.0,"year":2012,"region code":6,"id":"af0hi1bl09ny","geo_precision":"unmatched"},"type":"Feature","geometry":null},{"properties":{"average wage":162.32,"region":"Region VII - Central Visayas","geo_score":0.0,"year":2001,"region code":7,"id":"af0hi1eacmjc","geo_precision":"unmatched"},"type":"Feature","geometry":null},{"properties":{"average wage":160.82,"region":"Region VII - Central Visayas","geo_score":0.0,"year":2002,"region code":7,"id":"af0hi1c8zlb5","geo_precision":"unmatched"},"type":"Feature","geometry":null},{"properties":{"average wage":175.21,"region":"Region VII - Central Visayas","geo_score":0.0,"year":2003,"region code":7,"id":"af0hi1839xto","geo_precision":"unmatched"},"type":"Feature","geometry":null},{"properties":{"average wage":165.47,"region":"Region VII - Central Visayas","geo_score":0.0,"year":2004,"region code":7,"id":"af0hi1d9jwc6","geo_precision":"unmatched"},"type":"Feature","geometry":null},{"properties":{"average wage":170.7,"region":"Region VII - Central Visayas","geo_score":0.0,"year":2005,"region code":7,"id":"af0hi1gx4j4e","geo_precision":"unmatched"},"type":"Feature","geometry":null},{"properties":{"average wage":164.09,"region":"Region VII - Central Visayas","geo_score":0.0,"year":2006,"region code":7,"id":"af0hi1baqupo","geo_precision":"unmatched"},"type":"Feature","geometry":null},{"properties":{"average wage":188.52,"region":"Region VII - Central Visayas","geo_score":0.0,"year":2007,"region code":7,"id":"af0hi1iit86h","geo_precision":"unmatched"},"type":"Feature","geometry":null},{"properties":{"average wage":185.32,"region":"Region VII - Central Visayas","geo_score":0.0,"year":2008,"region code":7,"id":"af0hi1fhev97","geo_precision":"unmatched"},"type":"Feature","geometry":null},{"properties":{"average wage":203.81,"region":"Region VII - Central Visayas","geo_score":0.0,"year":2009,"region code":7,"id":"af0hi1ky74z0","geo_precision":"unmatched"},"type":"Feature","geometry":null},{"properties":{"average wage":216.28,"region":"Region VII - Central Visayas","geo_score":0.0,"year":2010,"region code":7,"id":"af0hi17uveuf","geo_precision":"unmatched"},"type":"Feature","geometry":null},{"properties":{"average wage":232.85,"region":"Region VII - Central Visayas","geo_score":0.0,"year":2011,"region code":7,"id":"af0hi1hh1b9d","geo_precision":"unmatched"},"type":"Feature","geometry":null},{"properties":{"average wage":null,"region":"Region VII - Central Visayas","geo_score":0.0,"year":2012,"region code":7,"id":"af0hi19aewjq","geo_precision":"unmatched"},"type":"Feature","geometry":null},{"properties":{"average wage":172.89,"region":"Region XII - SOCCSKSARGEN","geo_score":0.0,"year":2001,"region code":12,"id":"af0hi1cqpqkn","geo_precision":"unmatched"},"type":"Feature","geometry":null},{"properties":{"average wage":168.68,"region":"Region XII - SOCCSKSARGEN","geo_score":0.0,"year":2002,"region code":12,"id":"af0hi19suuxn","geo_precision":"unmatched"},"type":"Feature","geometry":null},{"properties":{"average wage":167.25,"region":"Region XII - SOCCSKSARGEN","geo_score":0.0,"year":2003,"region code":12,"id":"af0hi1fzbpgh","geo_precision":"unmatched"},"type":"Feature","geometry":null},{"properties":{"average wage":169.84,"region":"Region XII - SOCCSKSARGEN","geo_score":0.0,"year":2004,"region code":12,"id":"af0hi17bjmhx","geo_precision":"unmatched"},"type":"Feature","geometry":null},{"properties":{"average wage":183.98,"region":"Region XII - SOCCSKSARGEN","geo_score":0.0,"year":2005,"region code":12,"id":"af0hi1bkndff","geo_precision":"unmatched"},"type":"Feature","geometry":null},{"properties":{"average wage":176.01,"region":"Region XII - SOCCSKSARGEN","geo_score":0.0,"year":2006,"region code":12,"id":"af0hi1h73nr7","geo_precision":"unmatched"},"type":"Feature","geometry":null},{"properties":{"average wage":177.49,"region":"Region XII - SOCCSKSARGEN","geo_score":0.0,"year":2007,"region code":12,"id":"af0hi1cg0fou","geo_precision":"unmatched"},"type":"Feature","geometry":null},{"properties":{"average wage":196.06,"region":"Region XII - SOCCSKSARGEN","geo_score":0.0,"year":2008,"region code":12,"id":"af0hi1i9tszw","geo_precision":"unmatched"},"type":"Feature","geometry":null},{"properties":{"average wage":218.45,"region":"Region XII - SOCCSKSARGEN","geo_score":0.0,"year":2009,"region code":12,"id":"af0hi1hi3kyf","geo_precision":"unmatched"},"type":"Feature","geometry":null},{"properties":{"average wage":233.87,"region":"Region XII - SOCCSKSARGEN","geo_score":0.0,"year":2010,"region code":12,"id":"af0hi1ewn6fh","geo_precision":"unmatched"},"type":"Feature","geometry":null},{"properties":{"average wage":239.81,"region":"Region XII - SOCCSKSARGEN","geo_score":0.0,"year":2011,"region code":12,"id":"af0hi1dozpus","geo_precision":"unmatched"},"type":"Feature","geometry":null},{"properties":{"average wage":null,"region":"Region XII - SOCCSKSARGEN","geo_score":0.0,"year":2012,"region code":12,"id":"af0hi1eh55t9","geo_precision":"unmatched"},"type":"Feature","geometry":null},{"properties":{"average wage":202.41,"region":"Region VIII - Eastern Visayas","geo_score":0.0,"year":2001,"region code":8,"id":"af0hi1j6t1b3","geo_precision":"unmatched"},"type":"Feature","geometry":null},{"properties":{"average wage":203.5,"region":"Region VIII - Eastern Visayas","geo_score":0.0,"year":2002,"region code":8,"id":"af0hi16xuufe","geo_precision":"unmatched"},"type":"Feature","geometry":null},{"properties":{"average wage":218.15,"region":"Region VIII - Eastern Visayas","geo_score":0.0,"year":2003,"region code":8,"id":"af0hi1llo527","geo_precision":"unmatched"},"type":"Feature","geometry":null},{"properties":{"average wage":199.29,"region":"Region VIII - Eastern Visayas","geo_score":0.0,"year":2004,"region code":8,"id":"af0hi1fa0y8d","geo_precision":"unmatched"},"type":"Feature","geometry":null},{"properties":{"average wage":205.12,"region":"Region VIII - Eastern Visayas","geo_score":0.0,"year":2005,"region code":8,"id":"af0hi1cwlykb","geo_precision":"unmatched"},"type":"Feature","geometry":null},{"properties":{"average wage":201.39,"region":"Region VIII - Eastern Visayas","geo_score":0.0,"year":2006,"region code":8,"id":"af0hi18maipr","geo_precision":"unmatched"},"type":"Feature","geometry":null},{"properties":{"average wage":215.88,"region":"Region VIII - Eastern Visayas","geo_score":0.0,"year":2007,"region code":8,"id":"af0hi17ke7og","geo_precision":"unmatched"},"type":"Feature","geometry":null},{"properties":{"average wage":241.5,"region":"Region VIII - Eastern Visayas","geo_score":0.0,"year":2008,"region code":8,"id":"af0hi1fgsfb8","geo_precision":"unmatched"},"type":"Feature","geometry":null},{"properties":{"average wage":233.95,"region":"Region VIII - Eastern Visayas","geo_score":0.0,"year":2009,"region code":8,"id":"af0hi1cwwvzs","geo_precision":"unmatched"},"type":"Feature","geometry":null},{"properties":{"average wage":253.32,"region":"Region VIII - Eastern Visayas","geo_score":0.0,"year":2010,"region code":8,"id":"af0hi1anp4uw","geo_precision":"unmatched"},"type":"Feature","geometry":null},{"properties":{"average wage":272.73,"region":"Region VIII - Eastern Visayas","geo_score":0.0,"year":2011,"region code":8,"id":"af0hi1b2oe8w","geo_precision":"unmatched"},"type":"Feature","geometry":null},{"properties":{"average wage":null,"region":"Region VIII - Eastern Visayas","geo_score":0.0,"year":2012,"region code":8,"id":"af0hi1coq2uy","geo_precision":"unmatched"},"type":"Feature","geometry":null},{"properties":{"average wage":200.2,"region":"Region III - Central Luzon","geo_score":0.0,"year":2001,"region code":3,"id":"af0hi1m588i1","geo_precision":"unmatched"},"type":"Feature","geometry":null},{"properties":{"average wage":209.63,"region":"Region III - Central Luzon","geo_score":0.0,"year":2002,"region code":3,"id":"af0hi183fvw7","geo_precision":"unmatched"},"type":"Feature","geometry":null},{"properties":{"average wage":200.33,"region":"Region III - Central Luzon","geo_score":0.0,"year":2003,"region code":3,"id":"af0hi17ab4dc","geo_precision":"unmatched"},"type":"Feature","geometry":null},{"properties":{"average wage":208.14,"region":"Region III - Central Luzon","geo_score":0.0,"year":2004,"region code":3,"id":"af0hi16w162b","geo_precision":"unmatched"},"type":"Feature","geometry":null},{"properties":{"average wage":217.73,"region":"Region III - Central Luzon","geo_score":0.0,"year":2005,"region code":3,"id":"af0hi1kioj1k","geo_precision":"unmatched"},"type":"Feature","geometry":null},{"properties":{"average wage":217.09,"region":"Region III - Central Luzon","geo_score":0.0,"year":2006,"region code":3,"id":"af0hi1dx8lm3","geo_precision":"unmatched"},"type":"Feature","geometry":null},{"properties":{"average wage":230.86,"region":"Region III - Central Luzon","geo_score":0.0,"year":2007,"region code":3,"id":"af0hi1lmd2kt","geo_precision":"unmatched"},"type":"Feature","geometry":null},{"properties":{"average wage":234.18,"region":"Region III - Central Luzon","geo_score":0.0,"year":2008,"region code":3,"id":"af0hi19ptaab","geo_precision":"unmatched"},"type":"Feature","geometry":null},{"properties":{"average wage":222.19,"region":"Region III - Central Luzon","geo_score":0.0,"year":2009,"region code":3,"id":"af0hi1h2u11c","geo_precision":"unmatched"},"type":"Feature","geometry":null},{"properties":{"average wage":241.64,"region":"Region III - Central Luzon","geo_score":0.0,"year":2010,"region code":3,"id":"af0hi1gxoq92","geo_precision":"unmatched"},"type":"Feature","geometry":null},{"properties":{"average wage":250.8,"region":"Region III - Central Luzon","geo_score":0.0,"year":2011,"region code":3,"id":"af0hi1c04sto","geo_precision":"unmatched"},"type":"Feature","geometry":null},{"properties":{"average wage":null,"region":"Region III - Central Luzon","geo_score":0.0,"year":2012,"region code":3,"id":"af0hi1ewcupb","geo_precision":"unmatched"},"type":"Feature","geometry":null},{"properties":{"average wage":187.86,"region":"Region II - Cagayan Valley","geo_score":0.0,"year":2001,"region code":2,"id":"af0hi1ir7p5u","geo_precision":"unmatched"},"type":"Feature","geometry":null},{"properties":{"average wage":197.19,"region":"Region II - Cagayan Valley","geo_score":0.0,"year":2002,"region code":2,"id":"af0hi1ahsuxi","geo_precision":"unmatched"},"type":"Feature","geometry":null},{"properties":{"average wage":193.53,"region":"Region II - Cagayan Valley","geo_score":0.0,"year":2003,"region code":2,"id":"af0hi1ipoggh","geo_precision":"unmatched"},"type":"Feature","geometry":null},{"properties":{"average wage":200.1,"region":"Region II - Cagayan Valley","geo_score":0.0,"year":2004,"region code":2,"id":"af0hi17fnbvs","geo_precision":"unmatched"},"type":"Feature","geometry":null},{"properties":{"average wage":204.08,"region":"Region II - Cagayan Valley","geo_score":0.0,"year":2005,"region code":2,"id":"af0hi1mphalz","geo_precision":"unmatched"},"type":"Feature","geometry":null},{"properties":{"average wage":221.55,"region":"Region II - Cagayan Valley","geo_score":0.0,"year":2006,"region code":2,"id":"af0hi1dy8mz0","geo_precision":"unmatched"},"type":"Feature","geometry":null},{"properties":{"average wage":222.86,"region":"Region II - Cagayan Valley","geo_score":0.0,"year":2007,"region code":2,"id":"af0hi1hzo5e3","geo_precision":"unmatched"},"type":"Feature","geometry":null},{"properties":{"average wage":241.83,"region":"Region II - Cagayan Valley","geo_score":0.0,"year":2008,"region code":2,"id":"af0hi1h31r20","geo_precision":"unmatched"},"type":"Feature","geometry":null},{"properties":{"average wage":266.01,"region":"Region II - Cagayan Valley","geo_score":0.0,"year":2009,"region code":2,"id":"af0hi1irtj4o","geo_precision":"unmatched"},"type":"Feature","geometry":null},{"properties":{"average wage":275.36,"region":"Region II - Cagayan Valley","geo_score":0.0,"year":2010,"region code":2,"id":"af0hi1j4zogf","geo_precision":"unmatched"},"type":"Feature","geometry":null},{"properties":{"average wage":311.36,"region":"Region II - Cagayan Valley","geo_score":0.0,"year":2011,"region code":2,"id":"af0hi1ewv8a4","geo_precision":"unmatched"},"type":"Feature","geometry":null},{"properties":{"average wage":null,"region":"Region II - Cagayan Valley","geo_score":0.0,"year":2012,"region code":2,"id":"af0hi1by1nlz","geo_precision":"unmatched"},"type":"Feature","geometry":null},{"properties":{"average wage":164.57,"region":"Region IVB - MIMAROPA","geo_score":0.0,"year":2001,"region code":42,"id":"af0hi1milsfw","geo_precision":"unmatched"},"type":"Feature","geometry":null},{"properties":{"average wage":181.33,"region":"Region IVB - MIMAROPA","geo_score":0.0,"year":2002,"region code":42,"id":"af0hi1a8fal9","geo_precision":"unmatched"},"type":"Feature","geometry":null},{"properties":{"average wage":174.58,"region":"Region IVB - MIMAROPA","geo_score":0.0,"year":2003,"region code":42,"id":"af0hi1g716iw","geo_precision":"unmatched"},"type":"Feature","geometry":null},{"properties":{"average wage":169.11,"region":"Region IVB - MIMAROPA","geo_score":0.0,"year":2004,"region code":42,"id":"af0hi1ciqjry","geo_precision":"unmatched"},"type":"Feature","geometry":null},{"properties":{"average wage":177.94,"region":"Region IVB - MIMAROPA","geo_score":0.0,"year":2005,"region code":42,"id":"af0hi1jfqyye","geo_precision":"unmatched"},"type":"Feature","geometry":null},{"properties":{"average wage":258.6,"region":"Region IVB - MIMAROPA","geo_score":0.0,"year":2006,"region code":42,"id":"af0hi1adwnj6","geo_precision":"unmatched"},"type":"Feature","geometry":null},{"properties":{"average wage":184.54,"region":"Region IVB - MIMAROPA","geo_score":0.0,"year":2007,"region code":42,"id":"af0hi1jobbtu","geo_precision":"unmatched"},"type":"Feature","geometry":null},{"properties":{"average wage":192.42,"region":"Region IVB - MIMAROPA","geo_score":0.0,"year":2008,"region code":42,"id":"af0hi1cw1kox","geo_precision":"unmatched"},"type":"Feature","geometry":null},{"properties":{"average wage":204.82,"region":"Region IVB - MIMAROPA","geo_score":0.0,"year":2009,"region code":42,"id":"af0hi1ac3976","geo_precision":"unmatched"},"type":"Feature","geometry":null},{"properties":{"average wage":227.01,"region":"Region IVB - MIMAROPA","geo_score":0.0,"year":2010,"region code":42,"id":"af0hi1mh8okg","geo_precision":"unmatched"},"type":"Feature","geometry":null},{"properties":{"average wage":238.24,"region":"Region IVB - MIMAROPA","geo_score":0.0,"year":2011,"region code":42,"id":"af0hi1bk31w7","geo_precision":"unmatched"},"type":"Feature","geometry":null},{"properties":{"average wage":null,"region":"Region IVB - MIMAROPA","geo_score":0.0,"year":2012,"region code":42,"id":"af0hi1ae3tgc","geo_precision":"unmatched"},"type":"Feature","geometry":null},{"properties":{"average wage":171.26,"region":"Region IVB - MIMAROPA","geo_score":0.0,"year":2001,"region code":42,"id":"af0hi1m4dytd","geo_precision":"unmatched"},"type":"Feature","geometry":null},{"properties":{"average wage":178.56,"region":"Region IVB - MIMAROPA","geo_score":0.0,"year":2002,"region code":42,"id":"af0hi1fdpmi6","geo_precision":"unmatched"},"type":"Feature","geometry":null},{"properties":{"average wage":184.71,"region":"Region IVB - MIMAROPA","geo_score":0.0,"year":2003,"region code":42,"id":"af0hi1kggr4r","geo_precision":"unmatched"},"type":"Feature","geometry":null},{"properties":{"average wage":189.57,"region":"Region IVB - MIMAROPA","geo_score":0.0,"year":2004,"region code":42,"id":"af0hi1dd494z","geo_precision":"unmatched"},"type":"Feature","geometry":null},{"properties":{"average wage":197.49,"region":"Region IVB - MIMAROPA","geo_score":0.0,"year":2005,"region code":42,"id":"af0hi1ccklj5","geo_precision":"unmatched"},"type":"Feature","geometry":null},{"properties":{"average wage":205.47,"region":"Region IVB - MIMAROPA","geo_score":0.0,"year":2006,"region code":42,"id":"af0hi1cq0j23","geo_precision":"unmatched"},"type":"Feature","geometry":null},{"properties":{"average wage":217.24,"region":"Region IVB - MIMAROPA","geo_score":0.0,"year":2007,"region code":42,"id":"af0hi19kvl3o","geo_precision":"unmatched"},"type":"Feature","geometry":null},{"properties":{"average wage":237.84,"region":"Region IVB - MIMAROPA","geo_score":0.0,"year":2008,"region code":42,"id":"af0hi1796vi2","geo_precision":"unmatched"},"type":"Feature","geometry":null},{"properties":{"average wage":248.07,"region":"Region IVB - MIMAROPA","geo_score":0.0,"year":2009,"region code":42,"id":"af0hi1dzm8h7","geo_precision":"unmatched"},"type":"Feature","geometry":null},{"properties":{"average wage":258.27,"region":"Region IVB - MIMAROPA","geo_score":0.0,"year":2010,"region code":42,"id":"af0hi1bh7zqe","geo_precision":"unmatched"},"type":"Feature","geometry":null},{"properties":{"average wage":267.99,"region":"Region IVB - MIMAROPA","geo_score":0.0,"year":2011,"region code":42,"id":"af0hi1e2r6se","geo_precision":"unmatched"},"type":"Feature","geometry":null},{"properties":{"average wage":null,"region":"Region IVB - MIMAROPA","geo_score":0.0,"year":2012,"region code":42,"id":"af0hi1c7ubjv","geo_precision":"unmatched"},"type":"Feature","geometry":null},{"properties":{"average wage":229.45,"region":"Region IVB - MIMAROPA","geo_score":0.0,"year":2001,"region code":42,"id":"af0hi1aj1ial","geo_precision":"unmatched"},"type":"Feature","geometry":null},{"properties":{"average wage":212.25,"region":"Region IVB - MIMAROPA","geo_score":0.0,"year":2002,"region code":42,"id":"af0hi1m6kkyh","geo_precision":"unmatched"},"type":"Feature","geometry":null},{"properties":{"average wage":211.7,"region":"Region IVB - MIMAROPA","geo_score":0.0,"year":2003,"region code":42,"id":"af0hi17m1rzi","geo_precision":"unmatched"},"type":"Feature","geometry":null},{"properties":{"average wage":209.5,"region":"Region IVB - MIMAROPA","geo_score":0.0,"year":2004,"region code":42,"id":"af0hi1g44ujz","geo_precision":"unmatched"},"type":"Feature","geometry":null},{"properties":{"average wage":237.09,"region":"Region IVB - MIMAROPA","geo_score":0.0,"year":2005,"region code":42,"id":"af0hi1kfx5tt","geo_precision":"unmatched"},"type":"Feature","geometry":null},{"properties":{"average wage":245.09,"region":"Region IVB - MIMAROPA","geo_score":0.0,"year":2006,"region code":42,"id":"af0hi1mmvojp","geo_precision":"unmatched"},"type":"Feature","geometry":null},{"properties":{"average wage":259.84,"region":"Region IVB - MIMAROPA","geo_score":0.0,"year":2007,"region code":42,"id":"af0hi1f9pcf6","geo_precision":"unmatched"},"type":"Feature","geometry":null},{"properties":{"average wage":230.19,"region":"Region IVB - MIMAROPA","geo_score":0.0,"year":2008,"region code":42,"id":"af0hi1h8jumq","geo_precision":"unmatched"},"type":"Feature","geometry":null},{"properties":{"average wage":260.01,"region":"Region IVB - MIMAROPA","geo_score":0.0,"year":2009,"region code":42,"id":"af0hi1jkgi4w","geo_precision":"unmatched"},"type":"Feature","geometry":null},{"properties":{"average wage":260.81,"region":"Region IVB - MIMAROPA","geo_score":0.0,"year":2010,"region code":42,"id":"af0hi1kbdts5","geo_precision":"unmatched"},"type":"Feature","geometry":null},{"properties":{"average wage":265.53,"region":"Region IVB - MIMAROPA","geo_score":0.0,"year":2011,"region code":42,"id":"af0hi1coyxwu","geo_precision":"unmatched"},"type":"Feature","geometry":null},{"properties":{"average wage":null,"region":"Region IVB - MIMAROPA","geo_score":0.0,"year":2012,"region code":42,"id":"af0hi1hl75dc","geo_precision":"unmatched"},"type":"Feature","geometry":null},{"properties":{"average wage":235.4,"region":"Region III - Central Luzon","geo_score":0.0,"year":2001,"region code":3,"id":"af0hi1k8kpom","geo_precision":"unmatched"},"type":"Feature","geometry":null},{"properties":{"average wage":237.02,"region":"Region III - Central Luzon","geo_score":0.0,"year":2002,"region code":3,"id":"af0hi1c8f2s1","geo_precision":"unmatched"},"type":"Feature","geometry":null},{"properties":{"average wage":245.6,"region":"Region III - Central Luzon","geo_score":0.0,"year":2003,"region code":3,"id":"af0hi18663xs","geo_precision":"unmatched"},"type":"Feature","geometry":null},{"properties":{"average wage":249.65,"region":"Region III - Central Luzon","geo_score":0.0,"year":2004,"region code":3,"id":"af0hi1mcl2pb","geo_precision":"unmatched"},"type":"Feature","geometry":null},{"properties":{"average wage":245.69,"region":"Region III - Central Luzon","geo_score":0.0,"year":2005,"region code":3,"id":"af0hi1lfokur","geo_precision":"unmatched"},"type":"Feature","geometry":null},{"properties":{"average wage":378.07,"region":"Region III - Central Luzon","geo_score":0.0,"year":2006,"region code":3,"id":"af0hi17i9nuu","geo_precision":"unmatched"},"type":"Feature","geometry":null},{"properties":{"average wage":284.14,"region":"Region III - Central Luzon","geo_score":0.0,"year":2007,"region code":3,"id":"af0hi1mcqkmm","geo_precision":"unmatched"},"type":"Feature","geometry":null},{"properties":{"average wage":268.83,"region":"Region III - Central Luzon","geo_score":0.0,"year":2008,"region code":3,"id":"af0hi16yw2p0","geo_precision":"unmatched"},"type":"Feature","geometry":null},{"properties":{"average wage":276.85,"region":"Region III - Central Luzon","geo_score":0.0,"year":2009,"region code":3,"id":"af0hi1f5kqc3","geo_precision":"unmatched"},"type":"Feature","geometry":null},{"properties":{"average wage":294.91,"region":"Region III - Central Luzon","geo_score":0.0,"year":2010,"region code":3,"id":"af0hi1luykcj","geo_precision":"unmatched"},"type":"Feature","geometry":null},{"properties":{"average wage":339.05,"region":"Region III - Central Luzon","geo_score":0.0,"year":2011,"region code":3,"id":"af0hi19chs9g","geo_precision":"unmatched"},"type":"Feature","geometry":null},{"properties":{"average wage":null,"region":"Region III - Central Luzon","geo_score":0.0,"year":2012,"region code":3,"id":"af0hi1gu7ob7","geo_precision":"unmatched"},"type":"Feature","geometry":null},{"properties":{"average wage":198.29,"region":"Region I - Ilocos Region","geo_score":0.0,"year":2001,"region code":1,"id":"af0hi19fttrc","geo_precision":"unmatched"},"type":"Feature","geometry":null},{"properties":{"average wage":206.88,"region":"Region I - Ilocos Region","geo_score":0.0,"year":2002,"region code":1,"id":"af0hi19p950j","geo_precision":"unmatched"},"type":"Feature","geometry":null},{"properties":{"average wage":210.77,"region":"Region I - Ilocos Region","geo_score":0.0,"year":2003,"region code":1,"id":"af0hi1iew98t","geo_precision":"unmatched"},"type":"Feature","geometry":null},{"properties":{"average wage":217.27,"region":"Region I - Ilocos Region","geo_score":0.0,"year":2004,"region code":1,"id":"af0hi1i1cwyr","geo_precision":"unmatched"},"type":"Feature","geometry":null},{"properties":{"average wage":226.68,"region":"Region I - Ilocos Region","geo_score":0.0,"year":2005,"region code":1,"id":"af0hi1clly3r","geo_precision":"unmatched"},"type":"Feature","geometry":null},{"properties":{"average wage":230.0,"region":"Region I - Ilocos Region","geo_score":0.0,"year":2006,"region code":1,"id":"af0hi16g687o","geo_precision":"unmatched"},"type":"Feature","geometry":null},{"properties":{"average wage":231.5,"region":"Region I - Ilocos Region","geo_score":0.0,"year":2007,"region code":1,"id":"af0hi1el5lku","geo_precision":"unmatched"},"type":"Feature","geometry":null},{"properties":{"average wage":237.39,"region":"Region I - Ilocos Region","geo_score":0.0,"year":2008,"region code":1,"id":"af0hi1kbjbio","geo_precision":"unmatched"},"type":"Feature","geometry":null},{"properties":{"average wage":253.54,"region":"Region I - Ilocos Region","geo_score":0.0,"year":2009,"region code":1,"id":"af0hi1jpedsz","geo_precision":"unmatched"},"type":"Feature","geometry":null},{"properties":{"average wage":276.08,"region":"Region I - Ilocos Region","geo_score":0.0,"year":2010,"region code":1,"id":"af0hi199bgyn","geo_precision":"unmatched"},"type":"Feature","geometry":null},{"properties":{"average wage":267.49,"region":"Region I - Ilocos Region","geo_score":0.0,"year":2011,"region code":1,"id":"af0hi1l6uj1w","geo_precision":"unmatched"},"type":"Feature","geometry":null},{"properties":{"average wage":null,"region":"Region I - Ilocos Region","geo_score":0.0,"year":2012,"region code":1,"id":"af0hi1jidnqe","geo_precision":"unmatched"},"type":"Feature","geometry":null},{"properties":{"average wage":221.1,"region":"Region IVA - CALABARZON","geo_score":0.0,"year":2001,"region code":41,"id":"af0hi18r92z2","geo_precision":"unmatched"},"type":"Feature","geometry":null},{"properties":{"average wage":231.91,"region":"Region IVA - CALABARZON","geo_score":0.0,"year":2002,"region code":41,"id":"af0hi1jxxqqe","geo_precision":"unmatched"},"type":"Feature","geometry":null},{"properties":{"average wage":215.26,"region":"Region IVA - CALABARZON","geo_score":0.0,"year":2003,"region code":41,"id":"af0hi1e94sxv","geo_precision":"unmatched"},"type":"Feature","geometry":null},{"properties":{"average wage":193.54,"region":"Region IVA - CALABARZON","geo_score":0.0,"year":2004,"region code":41,"id":"af0hi1ay3wcx","geo_precision":"unmatched"},"type":"Feature","geometry":null},{"properties":{"average wage":200.4,"region":"Region IVA - CALABARZON","geo_score":0.0,"year":2005,"region code":41,"id":"af0hi1irssar","geo_precision":"unmatched"},"type":"Feature","geometry":null},{"properties":{"average wage":220.64,"region":"Region IVA - CALABARZON","geo_score":0.0,"year":2006,"region code":41,"id":"af0hi1d4f5k0","geo_precision":"unmatched"},"type":"Feature","geometry":null},{"properties":{"average wage":212.36,"region":"Region IVA - CALABARZON","geo_score":0.0,"year":2007,"region code":41,"id":"af0hi16834m8","geo_precision":"unmatched"},"type":"Feature","geometry":null},{"properties":{"average wage":224.54,"region":"Region IVA - CALABARZON","geo_score":0.0,"year":2008,"region code":41,"id":"af0hi18m6own","geo_precision":"unmatched"},"type":"Feature","geometry":null},{"properties":{"average wage":245.45,"region":"Region IVA - CALABARZON","geo_score":0.0,"year":2009,"region code":41,"id":"af0hi1cw5zz7","geo_precision":"unmatched"},"type":"Feature","geometry":null},{"properties":{"average wage":255.73,"region":"Region IVA - CALABARZON","geo_score":0.0,"year":2010,"region code":41,"id":"af0hi1epa3kl","geo_precision":"unmatched"},"type":"Feature","geometry":null},{"properties":{"average wage":274.81,"region":"Region IVA - CALABARZON","geo_score":0.0,"year":2011,"region code":41,"id":"af0hi18ce48q","geo_precision":"unmatched"},"type":"Feature","geometry":null},{"properties":{"average wage":null,"region":"Region IVA - CALABARZON","geo_score":0.0,"year":2012,"region code":41,"id":"af0hi1igjx0d","geo_precision":"unmatched"},"type":"Feature","geometry":null},{"properties":{"average wage":195.49,"region":"Region II - Cagayan Valley","geo_score":0.0,"year":2001,"region code":2,"id":"af0hi1ll3qdf","geo_precision":"unmatched"},"type":"Feature","geometry":null},{"properties":{"average wage":197.46,"region":"Region II - Cagayan Valley","geo_score":0.0,"year":2002,"region code":2,"id":"af0hi1g4ane5","geo_precision":"unmatched"},"type":"Feature","geometry":null},{"properties":{"average wage":196.25,"region":"Region II - Cagayan Valley","geo_score":0.0,"year":2003,"region code":2,"id":"af0hi1kxffg7","geo_precision":"unmatched"},"type":"Feature","geometry":null},{"properties":{"average wage":211.54,"region":"Region II - Cagayan Valley","geo_score":0.0,"year":2004,"region code":2,"id":"af0hi18rlzfo","geo_precision":"unmatched"},"type":"Feature","geometry":null},{"properties":{"average wage":231.2,"region":"Region II - Cagayan Valley","geo_score":0.0,"year":2005,"region code":2,"id":"af0hi1md47fe","geo_precision":"unmatched"},"type":"Feature","geometry":null},{"properties":{"average wage":218.25,"region":"Region II - Cagayan Valley","geo_score":0.0,"year":2006,"region code":2,"id":"af0hi1bv6cxe","geo_precision":"unmatched"},"type":"Feature","geometry":null},{"properties":{"average wage":245.29,"region":"Region II - Cagayan Valley","geo_score":0.0,"year":2007,"region code":2,"id":"af0hi1b6w38h","geo_precision":"unmatched"},"type":"Feature","geometry":null},{"properties":{"average wage":241.04,"region":"Region II - Cagayan Valley","geo_score":0.0,"year":2008,"region code":2,"id":"af0hi1meo4vt","geo_precision":"unmatched"},"type":"Feature","geometry":null},{"properties":{"average wage":252.88,"region":"Region II - Cagayan Valley","geo_score":0.0,"year":2009,"region code":2,"id":"af0hi18k0q0z","geo_precision":"unmatched"},"type":"Feature","geometry":null},{"properties":{"average wage":257.76,"region":"Region II - Cagayan Valley","geo_score":0.0,"year":2010,"region code":2,"id":"af0hi1d1q24h","geo_precision":"unmatched"},"type":"Feature","geometry":null},{"properties":{"average wage":278.22,"region":"Region II - Cagayan Valley","geo_score":0.0,"year":2011,"region code":2,"id":"af0hi1louyy2","geo_precision":"unmatched"},"type":"Feature","geometry":null},{"properties":{"average wage":null,"region":"Region II - Cagayan Valley","geo_score":0.0,"year":2012,"region code":2,"id":"af0hi1c0drp2","geo_precision":"unmatched"},"type":"Feature","geometry":null},{"properties":{"average wage":289.21,"region":"Region IVA - CALABARZON","geo_score":0.0,"year":2001,"region code":41,"id":"af0hi1blp38l","geo_precision":"unmatched"},"type":"Feature","geometry":null},{"properties":{"average wage":286.52,"region":"Region IVA - CALABARZON","geo_score":0.0,"year":2002,"region code":41,"id":"af0hi1e63nyp","geo_precision":"unmatched"},"type":"Feature","geometry":null},{"properties":{"average wage":281.17,"region":"Region IVA - CALABARZON","geo_score":0.0,"year":2003,"region code":41,"id":"af0hi1e6ga6m","geo_precision":"unmatched"},"type":"Feature","geometry":null},{"properties":{"average wage":283.33,"region":"Region IVA - CALABARZON","geo_score":0.0,"year":2004,"region code":41,"id":"af0hi1flfima","geo_precision":"unmatched"},"type":"Feature","geometry":null},{"properties":{"average wage":289.67,"region":"Region IVA - CALABARZON","geo_score":0.0,"year":2005,"region code":41,"id":"af0hi189d9mh","geo_precision":"unmatched"},"type":"Feature","geometry":null},{"properties":{"average wage":320.02,"region":"Region IVA - CALABARZON","geo_score":0.0,"year":2006,"region code":41,"id":"af0hi1jybg03","geo_precision":"unmatched"},"type":"Feature","geometry":null},{"properties":{"average wage":347.33,"region":"Region IVA - CALABARZON","geo_score":0.0,"year":2007,"region code":41,"id":"af0hi19w5hky","geo_precision":"unmatched"},"type":"Feature","geometry":null},{"properties":{"average wage":364.89,"region":"Region IVA - CALABARZON","geo_score":0.0,"year":2008,"region code":41,"id":"af0hi1dui44k","geo_precision":"unmatched"},"type":"Feature","geometry":null},{"properties":{"average wage":379.18,"region":"Region IVA - CALABARZON","geo_score":0.0,"year":2009,"region code":41,"id":"af0hi1cndulx","geo_precision":"unmatched"},"type":"Feature","geometry":null},{"properties":{"average wage":384.38,"region":"Region IVA - CALABARZON","geo_score":0.0,"year":2010,"region code":41,"id":"af0hi1mdj2ro","geo_precision":"unmatched"},"type":"Feature","geometry":null},{"properties":{"average wage":403.72,"region":"Region IVA - CALABARZON","geo_score":0.0,"year":2011,"region code":41,"id":"af0hi1l3lqjk","geo_precision":"unmatched"},"type":"Feature","geometry":null},{"properties":{"average wage":null,"region":"Region IVA - CALABARZON","geo_score":0.0,"year":2012,"region code":41,"id":"af0hi1hh1egw","geo_precision":"unmatched"},"type":"Feature","geometry":null},{"properties":{"average wage":196.68,"region":"Region IVB - MIMAROPA","geo_score":0.0,"year":2001,"region code":42,"id":"af0hi1lg6gl4","geo_precision":"unmatched"},"type":"Feature","geometry":null},{"properties":{"average wage":223.79,"region":"Region IVB - MIMAROPA","geo_score":0.0,"year":2002,"region code":42,"id":"af0hi19kszxh","geo_precision":"unmatched"},"type":"Feature","geometry":null},{"properties":{"average wage":222.75,"region":"Region IVB - MIMAROPA","geo_score":0.0,"year":2003,"region code":42,"id":"af0hi1hdaud1","geo_precision":"unmatched"},"type":"Feature","geometry":null},{"properties":{"average wage":193.46,"region":"Region IVB - MIMAROPA","geo_score":0.0,"year":2004,"region code":42,"id":"af0hi1i2by5g","geo_precision":"unmatched"},"type":"Feature","geometry":null},{"properties":{"average wage":197.54,"region":"Region IVB - MIMAROPA","geo_score":0.0,"year":2005,"region code":42,"id":"af0hi1fjqe43","geo_precision":"unmatched"},"type":"Feature","geometry":null},{"properties":{"average wage":200.34,"region":"Region IVB - MIMAROPA","geo_score":0.0,"year":2006,"region code":42,"id":"af0hi1e43vz9","geo_precision":"unmatched"},"type":"Feature","geometry":null},{"properties":{"average wage":194.24,"region":"Region IVB - MIMAROPA","geo_score":0.0,"year":2007,"region code":42,"id":"af0hi1j2p0a8","geo_precision":"unmatched"},"type":"Feature","geometry":null},{"properties":{"average wage":207.18,"region":"Region IVB - MIMAROPA","geo_score":0.0,"year":2008,"region code":42,"id":"af0hi1kkpq9c","geo_precision":"unmatched"},"type":"Feature","geometry":null},{"properties":{"average wage":207.13,"region":"Region IVB - MIMAROPA","geo_score":0.0,"year":2009,"region code":42,"id":"af0hi1kzukkb","geo_precision":"unmatched"},"type":"Feature","geometry":null},{"properties":{"average wage":254.32,"region":"Region IVB - MIMAROPA","geo_score":0.0,"year":2010,"region code":42,"id":"af0hi1ezuv4e","geo_precision":"unmatched"},"type":"Feature","geometry":null},{"properties":{"average wage":269.03,"region":"Region IVB - MIMAROPA","geo_score":0.0,"year":2011,"region code":42,"id":"af0hi1gakwps","geo_precision":"unmatched"},"type":"Feature","geometry":null},{"properties":{"average wage":null,"region":"Region IVB - MIMAROPA","geo_score":0.0,"year":2012,"region code":42,"id":"af0hi1ibgsi5","geo_precision":"unmatched"},"type":"Feature","geometry":null},{"properties":{"average wage":196.14,"region":"Region VIII - Eastern Visayas","geo_score":0.0,"year":2001,"region code":8,"id":"af0hi18hxn01","geo_precision":"unmatched"},"type":"Feature","geometry":null},{"properties":{"average wage":207.95,"region":"Region VIII - Eastern Visayas","geo_score":0.0,"year":2002,"region code":8,"id":"af0hi1lm13ni","geo_precision":"unmatched"},"type":"Feature","geometry":null},{"properties":{"average wage":213.44,"region":"Region VIII - Eastern Visayas","geo_score":0.0,"year":2003,"region code":8,"id":"af0hi1akqnkl","geo_precision":"unmatched"},"type":"Feature","geometry":null},{"properties":{"average wage":226.75,"region":"Region VIII - Eastern Visayas","geo_score":0.0,"year":2004,"region code":8,"id":"af0hi17c7cuw","geo_precision":"unmatched"},"type":"Feature","geometry":null},{"properties":{"average wage":225.85,"region":"Region VIII - Eastern Visayas","geo_score":0.0,"year":2005,"region code":8,"id":"af0hi1eegd8k","geo_precision":"unmatched"},"type":"Feature","geometry":null},{"properties":{"average wage":221.24,"region":"Region VIII - Eastern Visayas","geo_score":0.0,"year":2006,"region code":8,"id":"af0hi1djlao5","geo_precision":"unmatched"},"type":"Feature","geometry":null},{"properties":{"average wage":229.93,"region":"Region VIII - Eastern Visayas","geo_score":0.0,"year":2007,"region code":8,"id":"af0hi1dfrk4j","geo_precision":"unmatched"},"type":"Feature","geometry":null},{"properties":{"average wage":237.78,"region":"Region VIII - Eastern Visayas","geo_score":0.0,"year":2008,"region code":8,"id":"af0hi1kc5lpd","geo_precision":"unmatched"},"type":"Feature","geometry":null},{"properties":{"average wage":252.92,"region":"Region VIII - Eastern Visayas","geo_score":0.0,"year":2009,"region code":8,"id":"af0hi17e2ocv","geo_precision":"unmatched"},"type":"Feature","geometry":null},{"properties":{"average wage":246.39,"region":"Region VIII - Eastern Visayas","geo_score":0.0,"year":2010,"region code":8,"id":"af0hi1ibc3vs","geo_precision":"unmatched"},"type":"Feature","geometry":null},{"properties":{"average wage":255.3,"region":"Region VIII - Eastern Visayas","geo_score":0.0,"year":2011,"region code":8,"id":"af0hi1bn8x29","geo_precision":"unmatched"},"type":"Feature","geometry":null},{"properties":{"average wage":null,"region":"Region VIII - Eastern Visayas","geo_score":0.0,"year":2012,"region code":8,"id":"af0hi1fxq92c","geo_precision":"unmatched"},"type":"Feature","geometry":null},{"properties":{"average wage":202.29,"region":"Region VII - Central Visayas","geo_score":0.0,"year":2001,"region code":7,"id":"af0hi1kpwm9n","geo_precision":"unmatched"},"type":"Feature","geometry":null},{"properties":{"average wage":232.79,"region":"Region VII - Central Visayas","geo_score":0.0,"year":2002,"region code":7,"id":"af0hi18kaae0","geo_precision":"unmatched"},"type":"Feature","geometry":null},{"properties":{"average wage":230.35,"region":"Region VII - Central Visayas","geo_score":0.0,"year":2003,"region code":7,"id":"af0hi1eowge3","geo_precision":"unmatched"},"type":"Feature","geometry":null},{"properties":{"average wage":200.82,"region":"Region VII - Central Visayas","geo_score":0.0,"year":2004,"region code":7,"id":"af0hi186zisa","geo_precision":"unmatched"},"type":"Feature","geometry":null},{"properties":{"average wage":216.05,"region":"Region VII - Central Visayas","geo_score":0.0,"year":2005,"region code":7,"id":"af0hi17bv38r","geo_precision":"unmatched"},"type":"Feature","geometry":null},{"properties":{"average wage":210.96,"region":"Region VII - Central Visayas","geo_score":0.0,"year":2006,"region code":7,"id":"af0hi1c3dkqp","geo_precision":"unmatched"},"type":"Feature","geometry":null},{"properties":{"average wage":236.91,"region":"Region VII - Central Visayas","geo_score":0.0,"year":2007,"region code":7,"id":"af0hi1lgeu9d","geo_precision":"unmatched"},"type":"Feature","geometry":null},{"properties":{"average wage":223.7,"region":"Region VII - Central Visayas","geo_score":0.0,"year":2008,"region code":7,"id":"af0hi1id3qr3","geo_precision":"unmatched"},"type":"Feature","geometry":null},{"properties":{"average wage":241.73,"region":"Region VII - Central Visayas","geo_score":0.0,"year":2009,"region code":7,"id":"af0hi1di87kv","geo_precision":"unmatched"},"type":"Feature","geometry":null},{"properties":{"average wage":273.32,"region":"Region VII - Central Visayas","geo_score":0.0,"year":2010,"region code":7,"id":"af0hi1b2zej0","geo_precision":"unmatched"},"type":"Feature","geometry":null},{"properties":{"average wage":335.47,"region":"Region VII - Central Visayas","geo_score":0.0,"year":2011,"region code":7,"id":"af0hi1mnhhg9","geo_precision":"unmatched"},"type":"Feature","geometry":null},{"properties":{"average wage":null,"region":"Region VII - Central Visayas","geo_score":0.0,"year":2012,"region code":7,"id":"af0hi1879wzo","geo_precision":"unmatched"},"type":"Feature","geometry":null},{"properties":{"average wage":188.0,"region":"Region V- Bicol","geo_score":0.0,"year":2001,"region code":5,"id":"af0hi1hxghfj","geo_precision":"unmatched"},"type":"Feature","geometry":null},{"properties":{"average wage":181.28,"region":"Region V- Bicol","geo_score":0.0,"year":2002,"region code":5,"id":"af0hi1m24582","geo_precision":"unmatched"},"type":"Feature","geometry":null},{"properties":{"average wage":195.14,"region":"Region V- Bicol","geo_score":0.0,"year":2003,"region code":5,"id":"af0hi19wadcw","geo_precision":"unmatched"},"type":"Feature","geometry":null},{"properties":{"average wage":215.09,"region":"Region V- Bicol","geo_score":0.0,"year":2004,"region code":5,"id":"af0hi1b36zh5","geo_precision":"unmatched"},"type":"Feature","geometry":null},{"properties":{"average wage":225.32,"region":"Region V- Bicol","geo_score":0.0,"year":2005,"region code":5,"id":"af0hi1aka9id","geo_precision":"unmatched"},"type":"Feature","geometry":null},{"properties":{"average wage":226.25,"region":"Region V- Bicol","geo_score":0.0,"year":2006,"region code":5,"id":"af0hi1kiqpgi","geo_precision":"unmatched"},"type":"Feature","geometry":null},{"properties":{"average wage":215.85,"region":"Region V- Bicol","geo_score":0.0,"year":2007,"region code":5,"id":"af0hi1jlqgss","geo_precision":"unmatched"},"type":"Feature","geometry":null},{"properties":{"average wage":225.76,"region":"Region V- Bicol","geo_score":0.0,"year":2008,"region code":5,"id":"af0hi191bo95","geo_precision":"unmatched"},"type":"Feature","geometry":null},{"properties":{"average wage":251.4,"region":"Region V- Bicol","geo_score":0.0,"year":2009,"region code":5,"id":"af0hi16ac217","geo_precision":"unmatched"},"type":"Feature","geometry":null},{"properties":{"average wage":263.58,"region":"Region V- Bicol","geo_score":0.0,"year":2010,"region code":5,"id":"af0hi16x92u7","geo_precision":"unmatched"},"type":"Feature","geometry":null},{"properties":{"average wage":264.76,"region":"Region V- Bicol","geo_score":0.0,"year":2011,"region code":5,"id":"af0hi19apqdm","geo_precision":"unmatched"},"type":"Feature","geometry":null},{"properties":{"average wage":null,"region":"Region V- Bicol","geo_score":0.0,"year":2012,"region code":5,"id":"af0hi1bsxsjr","geo_precision":"unmatched"},"type":"Feature","geometry":null},{"properties":{"average wage":187.9,"region":"Region XII - SOCCSKSARGEN","geo_score":0.0,"year":2001,"region code":12,"id":"af0hi1f6maqs","geo_precision":"unmatched"},"type":"Feature","geometry":null},{"properties":{"average wage":175.47,"region":"Region XII - SOCCSKSARGEN","geo_score":0.0,"year":2002,"region code":12,"id":"af0hi1je9h9d","geo_precision":"unmatched"},"type":"Feature","geometry":null},{"properties":{"average wage":194.43,"region":"Region XII - SOCCSKSARGEN","geo_score":0.0,"year":2003,"region code":12,"id":"af0hi1jhzoui","geo_precision":"unmatched"},"type":"Feature","geometry":null},{"properties":{"average wage":194.3,"region":"Region XII - SOCCSKSARGEN","geo_score":0.0,"year":2004,"region code":12,"id":"af0hi1g855df","geo_precision":"unmatched"},"type":"Feature","geometry":null},{"properties":{"average wage":201.15,"region":"Region XII - SOCCSKSARGEN","geo_score":0.0,"year":2005,"region code":12,"id":"af0hi1istk4a","geo_precision":"unmatched"},"type":"Feature","geometry":null},{"properties":{"average wage":211.78,"region":"Region XII - SOCCSKSARGEN","geo_score":0.0,"year":2006,"region code":12,"id":"af0hi1m6vtxj","geo_precision":"unmatched"},"type":"Feature","geometry":null},{"properties":{"average wage":216.31,"region":"Region XII - SOCCSKSARGEN","geo_score":0.0,"year":2007,"region code":12,"id":"af0hi1bdb37d","geo_precision":"unmatched"},"type":"Feature","geometry":null},{"properties":{"average wage":229.31,"region":"Region XII - SOCCSKSARGEN","geo_score":0.0,"year":2008,"region code":12,"id":"af0hi1h20ywx","geo_precision":"unmatched"},"type":"Feature","geometry":null},{"properties":{"average wage":239.32,"region":"Region XII - SOCCSKSARGEN","geo_score":0.0,"year":2009,"region code":12,"id":"af0hi1b25r28","geo_precision":"unmatched"},"type":"Feature","geometry":null},{"properties":{"average wage":253.96,"region":"Region XII - SOCCSKSARGEN","geo_score":0.0,"year":2010,"region code":12,"id":"af0hi1717a9u","geo_precision":"unmatched"},"type":"Feature","geometry":null},{"properties":{"average wage":267.21,"region":"Region XII - SOCCSKSARGEN","geo_score":0.0,"year":2011,"region code":12,"id":"af0hi19bero4","geo_precision":"unmatched"},"type":"Feature","geometry":null},{"properties":{"average wage":null,"region":"Region XII - SOCCSKSARGEN","geo_score":0.0,"year":2012,"region code":12,"id":"af0hi16u15mu","geo_precision":"unmatched"},"type":"Feature","geometry":null},{"properties":{"average wage":203.36,"region":"Region VIII - Eastern Visayas","geo_score":0.0,"year":2001,"region code":8,"id":"af0hi16jf9cp","geo_precision":"unmatched"},"type":"Feature","geometry":null},{"properties":{"average wage":196.65,"region":"Region VIII - Eastern Visayas","geo_score":0.0,"year":2002,"region code":8,"id":"af0hi18h8027","geo_precision":"unmatched"},"type":"Feature","geometry":null},{"properties":{"average wage":184.03,"region":"Region VIII - Eastern Visayas","geo_score":0.0,"year":2003,"region code":8,"id":"af0hi16odebb","geo_precision":"unmatched"},"type":"Feature","geometry":null},{"properties":{"average wage":185.87,"region":"Region VIII - Eastern Visayas","geo_score":0.0,"year":2004,"region code":8,"id":"af0hi18rf2lw","geo_precision":"unmatched"},"type":"Feature","geometry":null},{"properties":{"average wage":194.41,"region":"Region VIII - Eastern Visayas","geo_score":0.0,"year":2005,"region code":8,"id":"af0hi1bksjvs","geo_precision":"unmatched"},"type":"Feature","geometry":null},{"properties":{"average wage":206.22,"region":"Region VIII - Eastern Visayas","geo_score":0.0,"year":2006,"region code":8,"id":"af0hi1k5m374","geo_precision":"unmatched"},"type":"Feature","geometry":null},{"properties":{"average wage":210.03,"region":"Region VIII - Eastern Visayas","geo_score":0.0,"year":2007,"region code":8,"id":"af0hi1leb4s0","geo_precision":"unmatched"},"type":"Feature","geometry":null},{"properties":{"average wage":235.04,"region":"Region VIII - Eastern Visayas","geo_score":0.0,"year":2008,"region code":8,"id":"af0hi1jlijbw","geo_precision":"unmatched"},"type":"Feature","geometry":null},{"properties":{"average wage":249.32,"region":"Region VIII - Eastern Visayas","geo_score":0.0,"year":2009,"region code":8,"id":"af0hi1dms8gz","geo_precision":"unmatched"},"type":"Feature","geometry":null},{"properties":{"average wage":248.04,"region":"Region VIII - Eastern Visayas","geo_score":0.0,"year":2010,"region code":8,"id":"af0hi1cjfbjj","geo_precision":"unmatched"},"type":"Feature","geometry":null},{"properties":{"average wage":285.9,"region":"Region VIII - Eastern Visayas","geo_score":0.0,"year":2011,"region code":8,"id":"af0hi1bmtrgh","geo_precision":"unmatched"},"type":"Feature","geometry":null},{"properties":{"average wage":null,"region":"Region VIII - Eastern Visayas","geo_score":0.0,"year":2012,"region code":8,"id":"af0hi192rehd","geo_precision":"unmatched"},"type":"Feature","geometry":null},{"properties":{"average wage":158.42,"region":"Region XII - SOCCSKSARGEN","geo_score":0.0,"year":2001,"region code":12,"id":"af0hi185jkcm","geo_precision":"unmatched"},"type":"Feature","geometry":null},{"properties":{"average wage":194.67,"region":"Region XII - SOCCSKSARGEN","geo_score":0.0,"year":2002,"region code":12,"id":"af0hi18a9d10","geo_precision":"unmatched"},"type":"Feature","geometry":null},{"properties":{"average wage":167.9,"region":"Region XII - SOCCSKSARGEN","geo_score":0.0,"year":2003,"region code":12,"id":"af0hi1c4pnf8","geo_precision":"unmatched"},"type":"Feature","geometry":null},{"properties":{"average wage":149.92,"region":"Region XII - SOCCSKSARGEN","geo_score":0.0,"year":2004,"region code":12,"id":"af0hi1djpntc","geo_precision":"unmatched"},"type":"Feature","geometry":null},{"properties":{"average wage":153.7,"region":"Region XII - SOCCSKSARGEN","geo_score":0.0,"year":2005,"region code":12,"id":"af0hi1clkxyd","geo_precision":"unmatched"},"type":"Feature","geometry":null},{"properties":{"average wage":149.87,"region":"Region XII - SOCCSKSARGEN","geo_score":0.0,"year":2006,"region code":12,"id":"af0hi16ctsf0","geo_precision":"unmatched"},"type":"Feature","geometry":null},{"properties":{"average wage":173.32,"region":"Region XII - SOCCSKSARGEN","geo_score":0.0,"year":2007,"region code":12,"id":"af0hi17uvoav","geo_precision":"unmatched"},"type":"Feature","geometry":null},{"properties":{"average wage":183.63,"region":"Region XII - SOCCSKSARGEN","geo_score":0.0,"year":2008,"region code":12,"id":"af0hi1evf383","geo_precision":"unmatched"},"type":"Feature","geometry":null},{"properties":{"average wage":196.34,"region":"Region XII - SOCCSKSARGEN","geo_score":0.0,"year":2009,"region code":12,"id":"af0hi1cj52dv","geo_precision":"unmatched"},"type":"Feature","geometry":null},{"properties":{"average wage":216.3,"region":"Region XII - SOCCSKSARGEN","geo_score":0.0,"year":2010,"region code":12,"id":"af0hi1j10251","geo_precision":"unmatched"},"type":"Feature","geometry":null},{"properties":{"average wage":226.29,"region":"Region XII - SOCCSKSARGEN","geo_score":0.0,"year":2011,"region code":12,"id":"af0hi1db9b6v","geo_precision":"unmatched"},"type":"Feature","geometry":null},{"properties":{"average wage":null,"region":"Region XII - SOCCSKSARGEN","geo_score":0.0,"year":2012,"region code":12,"id":"af0hi19pwv82","geo_precision":"unmatched"},"type":"Feature","geometry":null},{"properties":{"average wage":399.48,"region":"Autonomous Region in Muslim Mindanao","geo_score":0.0,"year":2001,"region code":15,"id":"af0hi1fkvo3h","geo_precision":"unmatched"},"type":"Feature","geometry":null},{"properties":{"average wage":332.48,"region":"Autonomous Region in Muslim Mindanao","geo_score":0.0,"year":2002,"region code":15,"id":"af0hi17den8j","geo_precision":"unmatched"},"type":"Feature","geometry":null},{"properties":{"average wage":355.55,"region":"Autonomous Region in Muslim Mindanao","geo_score":0.0,"year":2003,"region code":15,"id":"af0hi1a5skte","geo_precision":"unmatched"},"type":"Feature","geometry":null},{"properties":{"average wage":400.0,"region":"Autonomous Region in Muslim Mindanao","geo_score":0.0,"year":2004,"region code":15,"id":"af0hi1b6dn7t","geo_precision":"unmatched"},"type":"Feature","geometry":null},{"properties":{"average wage":386.53,"region":"Autonomous Region in Muslim Mindanao","geo_score":0.0,"year":2005,"region code":15,"id":"af0hi1h3f918","geo_precision":"unmatched"},"type":"Feature","geometry":null},{"properties":{"average wage":415.92,"region":"Autonomous Region in Muslim Mindanao","geo_score":0.0,"year":2006,"region code":15,"id":"af0hi1e28zmr","geo_precision":"unmatched"},"type":"Feature","geometry":null},{"properties":{"average wage":379.61,"region":"Autonomous Region in Muslim Mindanao","geo_score":0.0,"year":2007,"region code":15,"id":"af0hi16f60a8","geo_precision":"unmatched"},"type":"Feature","geometry":null},{"properties":{"average wage":421.68,"region":"Autonomous Region in Muslim Mindanao","geo_score":0.0,"year":2008,"region code":15,"id":"af0hi1h5i43l","geo_precision":"unmatched"},"type":"Feature","geometry":null},{"properties":{"average wage":399.04,"region":"Autonomous Region in Muslim Mindanao","geo_score":0.0,"year":2009,"region code":15,"id":"af0hi177j9p4","geo_precision":"unmatched"},"type":"Feature","geometry":null},{"properties":{"average wage":431.3,"region":"Autonomous Region in Muslim Mindanao","geo_score":0.0,"year":2010,"region code":15,"id":"af0hi1l0nqd1","geo_precision":"unmatched"},"type":"Feature","geometry":null},{"properties":{"average wage":367.62,"region":"Autonomous Region in Muslim Mindanao","geo_score":0.0,"year":2011,"region code":15,"id":"af0hi1kgt0ie","geo_precision":"unmatched"},"type":"Feature","geometry":null},{"properties":{"average wage":null,"region":"Autonomous Region in Muslim Mindanao","geo_score":0.0,"year":2012,"region code":15,"id":"af0hi1glkd54","geo_precision":"unmatched"},"type":"Feature","geometry":null},{"properties":{"average wage":220.55,"region":"Caraga","geo_score":0.0,"year":2001,"region code":16,"id":"af0hi1iyt0kp","geo_precision":"unmatched"},"type":"Feature","geometry":null},{"properties":{"average wage":231.88,"region":"Caraga","geo_score":0.0,"year":2002,"region code":16,"id":"af0hi1lfcn73","geo_precision":"unmatched"},"type":"Feature","geometry":null},{"properties":{"average wage":210.31,"region":"Caraga","geo_score":0.0,"year":2003,"region code":16,"id":"af0hi1k4flgy","geo_precision":"unmatched"},"type":"Feature","geometry":null},{"properties":{"average wage":226.54,"region":"Caraga","geo_score":0.0,"year":2004,"region code":16,"id":"af0hi1fijlt0","geo_precision":"unmatched"},"type":"Feature","geometry":null},{"properties":{"average wage":223.97,"region":"Caraga","geo_score":0.0,"year":2005,"region code":16,"id":"af0hi1hmigui","geo_precision":"unmatched"},"type":"Feature","geometry":null},{"properties":{"average wage":229.26,"region":"Caraga","geo_score":0.0,"year":2006,"region code":16,"id":"af0hi1fp989k","geo_precision":"unmatched"},"type":"Feature","geometry":null},{"properties":{"average wage":229.23,"region":"Caraga","geo_score":0.0,"year":2007,"region code":16,"id":"af0hi1dubheu","geo_precision":"unmatched"},"type":"Feature","geometry":null},{"properties":{"average wage":228.42,"region":"Caraga","geo_score":0.0,"year":2008,"region code":16,"id":"af0hi1gdrgjs","geo_precision":"unmatched"},"type":"Feature","geometry":null},{"properties":{"average wage":240.6,"region":"Caraga","geo_score":0.0,"year":2009,"region code":16,"id":"af0hi1bcswl6","geo_precision":"unmatched"},"type":"Feature","geometry":null},{"properties":{"average wage":268.76,"region":"Caraga","geo_score":0.0,"year":2010,"region code":16,"id":"af0hi1h7o31r","geo_precision":"unmatched"},"type":"Feature","geometry":null},{"properties":{"average wage":304.46,"region":"Caraga","geo_score":0.0,"year":2011,"region code":16,"id":"af0hi1h3345h","geo_precision":"unmatched"},"type":"Feature","geometry":null},{"properties":{"average wage":null,"region":"Caraga","geo_score":0.0,"year":2012,"region code":16,"id":"af0hi18h03ua","geo_precision":"unmatched"},"type":"Feature","geometry":null},{"properties":{"average wage":217.07,"region":"Caraga","geo_score":0.0,"year":2001,"region code":16,"id":"af0hi1eda4yq","geo_precision":"unmatched"},"type":"Feature","geometry":null},{"properties":{"average wage":232.18,"region":"Caraga","geo_score":0.0,"year":2002,"region code":16,"id":"af0hi186vaoi","geo_precision":"unmatched"},"type":"Feature","geometry":null},{"properties":{"average wage":211.17,"region":"Caraga","geo_score":0.0,"year":2003,"region code":16,"id":"af0hi1bg58p3","geo_precision":"unmatched"},"type":"Feature","geometry":null},{"properties":{"average wage":203.56,"region":"Caraga","geo_score":0.0,"year":2004,"region code":16,"id":"af0hi1bohjio","geo_precision":"unmatched"},"type":"Feature","geometry":null},{"properties":{"average wage":211.31,"region":"Caraga","geo_score":0.0,"year":2005,"region code":16,"id":"af0hi1eau0la","geo_precision":"unmatched"},"type":"Feature","geometry":null},{"properties":{"average wage":208.88,"region":"Caraga","geo_score":0.0,"year":2006,"region code":16,"id":"af0hi1citzbg","geo_precision":"unmatched"},"type":"Feature","geometry":null},{"properties":{"average wage":218.59,"region":"Caraga","geo_score":0.0,"year":2007,"region code":16,"id":"af0hi1b9yyqv","geo_precision":"unmatched"},"type":"Feature","geometry":null},{"properties":{"average wage":240.22,"region":"Caraga","geo_score":0.0,"year":2008,"region code":16,"id":"af0hi1ktz421","geo_precision":"unmatched"},"type":"Feature","geometry":null},{"properties":{"average wage":239.86,"region":"Caraga","geo_score":0.0,"year":2009,"region code":16,"id":"af0hi1h6l3sg","geo_precision":"unmatched"},"type":"Feature","geometry":null},{"properties":{"average wage":255.41,"region":"Caraga","geo_score":0.0,"year":2010,"region code":16,"id":"af0hi1m56fpl","geo_precision":"unmatched"},"type":"Feature","geometry":null},{"properties":{"average wage":277.18,"region":"Caraga","geo_score":0.0,"year":2011,"region code":16,"id":"af0hi1i18fcw","geo_precision":"unmatched"},"type":"Feature","geometry":null},{"properties":{"average wage":null,"region":"Caraga","geo_score":0.0,"year":2012,"region code":16,"id":"af0hi1j53ft7","geo_precision":"unmatched"},"type":"Feature","geometry":null},{"properties":{"average wage":190.41,"region":"Region III - Central Luzon","geo_score":0.0,"year":2001,"region code":3,"id":"af0hi1lzea5z","geo_precision":"unmatched"},"type":"Feature","geometry":null},{"properties":{"average wage":191.65,"region":"Region III - Central Luzon","geo_score":0.0,"year":2002,"region code":3,"id":"af0hi1c6nty4","geo_precision":"unmatched"},"type":"Feature","geometry":null},{"properties":{"average wage":216.78,"region":"Region III - Central Luzon","geo_score":0.0,"year":2003,"region code":3,"id":"af0hi1kujv6q","geo_precision":"unmatched"},"type":"Feature","geometry":null},{"properties":{"average wage":217.69,"region":"Region III - Central Luzon","geo_score":0.0,"year":2004,"region code":3,"id":"af0hi1jnncba","geo_precision":"unmatched"},"type":"Feature","geometry":null},{"properties":{"average wage":208.69,"region":"Region III - Central Luzon","geo_score":0.0,"year":2005,"region code":3,"id":"af0hi1axywv0","geo_precision":"unmatched"},"type":"Feature","geometry":null},{"properties":{"average wage":222.09,"region":"Region III - Central Luzon","geo_score":0.0,"year":2006,"region code":3,"id":"af0hi1ld8yqn","geo_precision":"unmatched"},"type":"Feature","geometry":null},{"properties":{"average wage":228.19,"region":"Region III - Central Luzon","geo_score":0.0,"year":2007,"region code":3,"id":"af0hi1hoo0ov","geo_precision":"unmatched"},"type":"Feature","geometry":null},{"properties":{"average wage":238.63,"region":"Region III - Central Luzon","geo_score":0.0,"year":2008,"region code":3,"id":"af0hi1k9jcpe","geo_precision":"unmatched"},"type":"Feature","geometry":null},{"properties":{"average wage":244.04,"region":"Region III - Central Luzon","geo_score":0.0,"year":2009,"region code":3,"id":"af0hi18kejxd","geo_precision":"unmatched"},"type":"Feature","geometry":null},{"properties":{"average wage":262.66,"region":"Region III - Central Luzon","geo_score":0.0,"year":2010,"region code":3,"id":"af0hi1gzge73","geo_precision":"unmatched"},"type":"Feature","geometry":null},{"properties":{"average wage":282.93,"region":"Region III - Central Luzon","geo_score":0.0,"year":2011,"region code":3,"id":"af0hi1ikx3md","geo_precision":"unmatched"},"type":"Feature","geometry":null},{"properties":{"average wage":null,"region":"Region III - Central Luzon","geo_score":0.0,"year":2012,"region code":3,"id":"af0hi1aznihq","geo_precision":"unmatched"},"type":"Feature","geometry":null},{"properties":{"average wage":320.14,"region":"Autonomous Region in Muslim Mindanao","geo_score":0.0,"year":2001,"region code":15,"id":"af0hi174b6ms","geo_precision":"unmatched"},"type":"Feature","geometry":null},{"properties":{"average wage":351.46,"region":"Autonomous Region in Muslim Mindanao","geo_score":0.0,"year":2002,"region code":15,"id":"af0hi1jru0fl","geo_precision":"unmatched"},"type":"Feature","geometry":null},{"properties":{"average wage":364.23,"region":"Autonomous Region in Muslim Mindanao","geo_score":0.0,"year":2003,"region code":15,"id":"af0hi17rsizm","geo_precision":"unmatched"},"type":"Feature","geometry":null},{"properties":{"average wage":284.47,"region":"Autonomous Region in Muslim Mindanao","geo_score":0.0,"year":2004,"region code":15,"id":"af0hi1e740eu","geo_precision":"unmatched"},"type":"Feature","geometry":null},{"properties":{"average wage":299.84,"region":"Autonomous Region in Muslim Mindanao","geo_score":0.0,"year":2005,"region code":15,"id":"af0hi1b835f1","geo_precision":"unmatched"},"type":"Feature","geometry":null},{"properties":{"average wage":301.91,"region":"Autonomous Region in Muslim Mindanao","geo_score":0.0,"year":2006,"region code":15,"id":"af0hi1icroc2","geo_precision":"unmatched"},"type":"Feature","geometry":null},{"properties":{"average wage":301.8,"region":"Autonomous Region in Muslim Mindanao","geo_score":0.0,"year":2007,"region code":15,"id":"af0hi1glp4mz","geo_precision":"unmatched"},"type":"Feature","geometry":null},{"properties":{"average wage":303.07,"region":"Autonomous Region in Muslim Mindanao","geo_score":0.0,"year":2008,"region code":15,"id":"af0hi17qv08d","geo_precision":"unmatched"},"type":"Feature","geometry":null},{"properties":{"average wage":373.91,"region":"Autonomous Region in Muslim Mindanao","geo_score":0.0,"year":2009,"region code":15,"id":"af0hi1j8uxbk","geo_precision":"unmatched"},"type":"Feature","geometry":null},{"properties":{"average wage":399.72,"region":"Autonomous Region in Muslim Mindanao","geo_score":0.0,"year":2010,"region code":15,"id":"af0hi18e566q","geo_precision":"unmatched"},"type":"Feature","geometry":null},{"properties":{"average wage":403.0,"region":"Autonomous Region in Muslim Mindanao","geo_score":0.0,"year":2011,"region code":15,"id":"af0hi1e6q88h","geo_precision":"unmatched"},"type":"Feature","geometry":null},{"properties":{"average wage":null,"region":"Autonomous Region in Muslim Mindanao","geo_score":0.0,"year":2012,"region code":15,"id":"af0hi1d3kdcs","geo_precision":"unmatched"},"type":"Feature","geometry":null},{"properties":{"average wage":203.95,"region":"Region III - Central Luzon","geo_score":0.0,"year":2001,"region code":3,"id":"af0hi16t5ld1","geo_precision":"unmatched"},"type":"Feature","geometry":null},{"properties":{"average wage":227.07,"region":"Region III - Central Luzon","geo_score":0.0,"year":2002,"region code":3,"id":"af0hi1e9advd","geo_precision":"unmatched"},"type":"Feature","geometry":null},{"properties":{"average wage":211.15,"region":"Region III - Central Luzon","geo_score":0.0,"year":2003,"region code":3,"id":"af0hi1hkjf8d","geo_precision":"unmatched"},"type":"Feature","geometry":null},{"properties":{"average wage":216.03,"region":"Region III - Central Luzon","geo_score":0.0,"year":2004,"region code":3,"id":"af0hi1cse5bw","geo_precision":"unmatched"},"type":"Feature","geometry":null},{"properties":{"average wage":227.43,"region":"Region III - Central Luzon","geo_score":0.0,"year":2005,"region code":3,"id":"af0hi1kxwte4","geo_precision":"unmatched"},"type":"Feature","geometry":null},{"properties":{"average wage":252.58,"region":"Region III - Central Luzon","geo_score":0.0,"year":2006,"region code":3,"id":"af0hi1aa51cc","geo_precision":"unmatched"},"type":"Feature","geometry":null},{"properties":{"average wage":283.92,"region":"Region III - Central Luzon","geo_score":0.0,"year":2007,"region code":3,"id":"af0hi1kcgjc3","geo_precision":"unmatched"},"type":"Feature","geometry":null},{"properties":{"average wage":277.53,"region":"Region III - Central Luzon","geo_score":0.0,"year":2008,"region code":3,"id":"af0hi17dqqfo","geo_precision":"unmatched"},"type":"Feature","geometry":null},{"properties":{"average wage":290.1,"region":"Region III - Central Luzon","geo_score":0.0,"year":2009,"region code":3,"id":"af0hi18xu8xl","geo_precision":"unmatched"},"type":"Feature","geometry":null},{"properties":{"average wage":302.89,"region":"Region III - Central Luzon","geo_score":0.0,"year":2010,"region code":3,"id":"af0hi1kedqzt","geo_precision":"unmatched"},"type":"Feature","geometry":null},{"properties":{"average wage":313.31,"region":"Region III - Central Luzon","geo_score":0.0,"year":2011,"region code":3,"id":"af0hi1et3o30","geo_precision":"unmatched"},"type":"Feature","geometry":null},{"properties":{"average wage":null,"region":"Region III - Central Luzon","geo_score":0.0,"year":2012,"region code":3,"id":"af0hi18hmrxj","geo_precision":"unmatched"},"type":"Feature","geometry":null},{"properties":{"average wage":228.58,"region":"Region IX - Zamboanga Peninsula","geo_score":0.0,"year":2001,"region code":9,"id":"af0hi1lzo4ba","geo_precision":"unmatched"},"type":"Feature","geometry":null},{"properties":{"average wage":236.02,"region":"Region IX - Zamboanga Peninsula","geo_score":0.0,"year":2002,"region code":9,"id":"af0hi173pg4g","geo_precision":"unmatched"},"type":"Feature","geometry":null},{"properties":{"average wage":223.39,"region":"Region IX - Zamboanga Peninsula","geo_score":0.0,"year":2003,"region code":9,"id":"af0hi1kdld50","geo_precision":"unmatched"},"type":"Feature","geometry":null},{"properties":{"average wage":175.87,"region":"Region IX - Zamboanga Peninsula","geo_score":0.0,"year":2004,"region code":9,"id":"af0hi1jt8t4p","geo_precision":"unmatched"},"type":"Feature","geometry":null},{"properties":{"average wage":200.89,"region":"Region IX - Zamboanga Peninsula","geo_score":0.0,"year":2005,"region code":9,"id":"af0hi1i2rot5","geo_precision":"unmatched"},"type":"Feature","geometry":null},{"properties":{"average wage":221.2,"region":"Region IX - Zamboanga Peninsula","geo_score":0.0,"year":2006,"region code":9,"id":"af0hi1m4mvl7","geo_precision":"unmatched"},"type":"Feature","geometry":null},{"properties":{"average wage":203.12,"region":"Region IX - Zamboanga Peninsula","geo_score":0.0,"year":2007,"region code":9,"id":"af0hi1jkb2w4","geo_precision":"unmatched"},"type":"Feature","geometry":null},{"properties":{"average wage":212.3,"region":"Region IX - Zamboanga Peninsula","geo_score":0.0,"year":2008,"region code":9,"id":"af0hi1lpavd8","geo_precision":"unmatched"},"type":"Feature","geometry":null},{"properties":{"average wage":200.95,"region":"Region IX - Zamboanga Peninsula","geo_score":0.0,"year":2009,"region code":9,"id":"af0hi1hnm53t","geo_precision":"unmatched"},"type":"Feature","geometry":null},{"properties":{"average wage":207.33,"region":"Region IX - Zamboanga Peninsula","geo_score":0.0,"year":2010,"region code":9,"id":"af0hi1bffavz","geo_precision":"unmatched"},"type":"Feature","geometry":null},{"properties":{"average wage":224.47,"region":"Region IX - Zamboanga Peninsula","geo_score":0.0,"year":2011,"region code":9,"id":"af0hi16pm7xu","geo_precision":"unmatched"},"type":"Feature","geometry":null},{"properties":{"average wage":null,"region":"Region IX - Zamboanga Peninsula","geo_score":0.0,"year":2012,"region code":9,"id":"af0hi1le4efk","geo_precision":"unmatched"},"type":"Feature","geometry":null},{"properties":{"average wage":209.6,"region":"Region IX - Zamboanga Peninsula","geo_score":0.0,"year":2001,"region code":9,"id":"af0hi1eluwe1","geo_precision":"unmatched"},"type":"Feature","geometry":null},{"properties":{"average wage":210.36,"region":"Region IX - Zamboanga Peninsula","geo_score":0.0,"year":2002,"region code":9,"id":"af0hi1ggvvq3","geo_precision":"unmatched"},"type":"Feature","geometry":null},{"properties":{"average wage":214.23,"region":"Region IX - Zamboanga Peninsula","geo_score":0.0,"year":2003,"region code":9,"id":"af0hi1eq3fqw","geo_precision":"unmatched"},"type":"Feature","geometry":null},{"properties":{"average wage":229.8,"region":"Region IX - Zamboanga Peninsula","geo_score":0.0,"year":2004,"region code":9,"id":"af0hi1me0sza","geo_precision":"unmatched"},"type":"Feature","geometry":null},{"properties":{"average wage":237.74,"region":"Region IX - Zamboanga Peninsula","geo_score":0.0,"year":2005,"region code":9,"id":"af0hi18yl8ti","geo_precision":"unmatched"},"type":"Feature","geometry":null},{"properties":{"average wage":222.96,"region":"Region IX - Zamboanga Peninsula","geo_score":0.0,"year":2006,"region code":9,"id":"af0hi1f6bvcs","geo_precision":"unmatched"},"type":"Feature","geometry":null},{"properties":{"average wage":212.3,"region":"Region IX - Zamboanga Peninsula","geo_score":0.0,"year":2007,"region code":9,"id":"af0hi1foa7pm","geo_precision":"unmatched"},"type":"Feature","geometry":null},{"properties":{"average wage":230.36,"region":"Region IX - Zamboanga Peninsula","geo_score":0.0,"year":2008,"region code":9,"id":"af0hi18wvz76","geo_precision":"unmatched"},"type":"Feature","geometry":null},{"properties":{"average wage":233.88,"region":"Region IX - Zamboanga Peninsula","geo_score":0.0,"year":2009,"region code":9,"id":"af0hi1bt3jsc","geo_precision":"unmatched"},"type":"Feature","geometry":null},{"properties":{"average wage":233.83,"region":"Region IX - Zamboanga Peninsula","geo_score":0.0,"year":2010,"region code":9,"id":"af0hi185n24h","geo_precision":"unmatched"},"type":"Feature","geometry":null},{"properties":{"average wage":247.31,"region":"Region IX - Zamboanga Peninsula","geo_score":0.0,"year":2011,"region code":9,"id":"af0hi1g2bxnp","geo_precision":"unmatched"},"type":"Feature","geometry":null},{"properties":{"average wage":null,"region":"Region IX - Zamboanga Peninsula","geo_score":0.0,"year":2012,"region code":9,"id":"af0hi1d4wd0m","geo_precision":"unmatched"},"type":"Feature","geometry":null},{"properties":{"average wage":193.95,"region":"Region III - Central Luzon","geo_score":0.0,"year":2001,"region code":3,"id":"af0hi1l9pitb","geo_precision":"unmatched"},"type":"Feature","geometry":null},{"properties":{"average wage":204.5,"region":"Region III - Central Luzon","geo_score":0.0,"year":2002,"region code":3,"id":"af0hi18b171u","geo_precision":"unmatched"},"type":"Feature","geometry":null},{"properties":{"average wage":208.36,"region":"Region III - Central Luzon","geo_score":0.0,"year":2003,"region code":3,"id":"af0hi19ismjv","geo_precision":"unmatched"},"type":"Feature","geometry":null},{"properties":{"average wage":189.73,"region":"Region III - Central Luzon","geo_score":0.0,"year":2004,"region code":3,"id":"af0hi1g1qq7j","geo_precision":"unmatched"},"type":"Feature","geometry":null},{"properties":{"average wage":214.14,"region":"Region III - Central Luzon","geo_score":0.0,"year":2005,"region code":3,"id":"af0hi1hbu0ad","geo_precision":"unmatched"},"type":"Feature","geometry":null},{"properties":{"average wage":209.75,"region":"Region III - Central Luzon","geo_score":0.0,"year":2006,"region code":3,"id":"af0hi1l1ib7i","geo_precision":"unmatched"},"type":"Feature","geometry":null},{"properties":{"average wage":209.51,"region":"Region III - Central Luzon","geo_score":0.0,"year":2007,"region code":3,"id":"af0hi1cygft6","geo_precision":"unmatched"},"type":"Feature","geometry":null},{"properties":{"average wage":230.72,"region":"Region III - Central Luzon","geo_score":0.0,"year":2008,"region code":3,"id":"af0hi1g0p5x1","geo_precision":"unmatched"},"type":"Feature","geometry":null},{"properties":{"average wage":277.24,"region":"Region III - Central Luzon","geo_score":0.0,"year":2009,"region code":3,"id":"af0hi19l4k4b","geo_precision":"unmatched"},"type":"Feature","geometry":null},{"properties":{"average wage":269.46,"region":"Region III - Central Luzon","geo_score":0.0,"year":2010,"region code":3,"id":"af0hi1kmo9ad","geo_precision":"unmatched"},"type":"Feature","geometry":null},{"properties":{"average wage":281.66,"region":"Region III - Central Luzon","geo_score":0.0,"year":2011,"region code":3,"id":"af0hi196bei2","geo_precision":"unmatched"},"type":"Feature","geometry":null},{"properties":{"average wage":null,"region":"Region III - Central Luzon","geo_score":0.0,"year":2012,"region code":3,"id":"af0hi171vot4","geo_precision":"unmatched"},"type":"Feature","geometry":null},{"properties":{"average wage":197.81,"region":"Region VIII - Eastern Visayas","geo_score":0.0,"year":2001,"region code":8,"id":"af0hi1ge28nf","geo_precision":"unmatched"},"type":"Feature","geometry":null},{"properties":{"average wage":206.84,"region":"Region VIII - Eastern Visayas","geo_score":0.0,"year":2002,"region code":8,"id":"af0hi1m5ffi0","geo_precision":"unmatched"},"type":"Feature","geometry":null},{"properties":{"average wage":206.39,"region":"Region VIII - Eastern Visayas","geo_score":0.0,"year":2003,"region code":8,"id":"af0hi1771izk","geo_precision":"unmatched"},"type":"Feature","geometry":null},{"properties":{"average wage":237.89,"region":"Region VIII - Eastern Visayas","geo_score":0.0,"year":2004,"region code":8,"id":"af0hi192mkyv","geo_precision":"unmatched"},"type":"Feature","geometry":null},{"properties":{"average wage":200.23,"region":"Region VIII - Eastern Visayas","geo_score":0.0,"year":2005,"region code":8,"id":"af0hi1clcqqk","geo_precision":"unmatched"},"type":"Feature","geometry":null},{"properties":{"average wage":222.03,"region":"Region VIII - Eastern Visayas","geo_score":0.0,"year":2006,"region code":8,"id":"af0hi1f76red","geo_precision":"unmatched"},"type":"Feature","geometry":null},{"properties":{"average wage":255.18,"region":"Region VIII - Eastern Visayas","geo_score":0.0,"year":2007,"region code":8,"id":"af0hi1fphgk5","geo_precision":"unmatched"},"type":"Feature","geometry":null},{"properties":{"average wage":244.77,"region":"Region VIII - Eastern Visayas","geo_score":0.0,"year":2008,"region code":8,"id":"af0hi1d4zmfq","geo_precision":"unmatched"},"type":"Feature","geometry":null},{"properties":{"average wage":299.03,"region":"Region VIII - Eastern Visayas","geo_score":0.0,"year":2009,"region code":8,"id":"af0hi1ghcsov","geo_precision":"unmatched"},"type":"Feature","geometry":null},{"properties":{"average wage":309.0,"region":"Region VIII - Eastern Visayas","geo_score":0.0,"year":2010,"region code":8,"id":"af0hi1bevpm5","geo_precision":"unmatched"},"type":"Feature","geometry":null},{"properties":{"average wage":303.1,"region":"Region VIII - Eastern Visayas","geo_score":0.0,"year":2011,"region code":8,"id":"af0hi16jhsgh","geo_precision":"unmatched"},"type":"Feature","geometry":null},{"properties":{"average wage":null,"region":"Region VIII - Eastern Visayas","geo_score":0.0,"year":2012,"region code":8,"id":"af0hi1e02dg9","geo_precision":"unmatched"},"type":"Feature","geometry":null},{"properties":{"average wage":161.38,"region":"Region VI - Western Visayas","geo_score":0.0,"year":2001,"region code":6,"id":"af0hi1iq3foh","geo_precision":"unmatched"},"type":"Feature","geometry":null},{"properties":{"average wage":157.66,"region":"Region VI - Western Visayas","geo_score":0.0,"year":2002,"region code":6,"id":"af0hi1i3m733","geo_precision":"unmatched"},"type":"Feature","geometry":null},{"properties":{"average wage":170.23,"region":"Region VI - Western Visayas","geo_score":0.0,"year":2003,"region code":6,"id":"af0hi19kern3","geo_precision":"unmatched"},"type":"Feature","geometry":null},{"properties":{"average wage":162.78,"region":"Region VI - Western Visayas","geo_score":0.0,"year":2004,"region code":6,"id":"af0hi19bv3mw","geo_precision":"unmatched"},"type":"Feature","geometry":null},{"properties":{"average wage":193.85,"region":"Region VI - Western Visayas","geo_score":0.0,"year":2005,"region code":6,"id":"af0hi1gubnm7","geo_precision":"unmatched"},"type":"Feature","geometry":null},{"properties":{"average wage":189.55,"region":"Region VI - Western Visayas","geo_score":0.0,"year":2006,"region code":6,"id":"af0hi1bebcg8","geo_precision":"unmatched"},"type":"Feature","geometry":null},{"properties":{"average wage":194.28,"region":"Region VI - Western Visayas","geo_score":0.0,"year":2007,"region code":6,"id":"af0hi1edgmct","geo_precision":"unmatched"},"type":"Feature","geometry":null},{"properties":{"average wage":204.4,"region":"Region VI - Western Visayas","geo_score":0.0,"year":2008,"region code":6,"id":"af0hi1bmie21","geo_precision":"unmatched"},"type":"Feature","geometry":null},{"properties":{"average wage":218.99,"region":"Region VI - Western Visayas","geo_score":0.0,"year":2009,"region code":6,"id":"af0hi1iwphuj","geo_precision":"unmatched"},"type":"Feature","geometry":null},{"properties":{"average wage":227.36,"region":"Region VI - Western Visayas","geo_score":0.0,"year":2010,"region code":6,"id":"af0hi1cmno4b","geo_precision":"unmatched"},"type":"Feature","geometry":null},{"properties":{"average wage":239.69,"region":"Region VI - Western Visayas","geo_score":0.0,"year":2011,"region code":6,"id":"af0hi1cshzt4","geo_precision":"unmatched"},"type":"Feature","geometry":null},{"properties":{"average wage":null,"region":"Region VI - Western Visayas","geo_score":0.0,"year":2012,"region code":6,"id":"af0hi1g5yxb3","geo_precision":"unmatched"},"type":"Feature","geometry":null},{"properties":{"average wage":184.43,"region":"Region XII - SOCCSKSARGEN","geo_score":0.0,"year":2001,"region code":12,"id":"af0hi1e82a0l","geo_precision":"unmatched"},"type":"Feature","geometry":null},{"properties":{"average wage":193.37,"region":"Region XII - SOCCSKSARGEN","geo_score":0.0,"year":2002,"region code":12,"id":"af0hi1j42y2a","geo_precision":"unmatched"},"type":"Feature","geometry":null},{"properties":{"average wage":164.83,"region":"Region XII - SOCCSKSARGEN","geo_score":0.0,"year":2003,"region code":12,"id":"af0hi16ztnm4","geo_precision":"unmatched"},"type":"Feature","geometry":null},{"properties":{"average wage":140.77,"region":"Region XII - SOCCSKSARGEN","geo_score":0.0,"year":2004,"region code":12,"id":"af0hi1fje96n","geo_precision":"unmatched"},"type":"Feature","geometry":null},{"properties":{"average wage":155.52,"region":"Region XII - SOCCSKSARGEN","geo_score":0.0,"year":2005,"region code":12,"id":"af0hi1crjfij","geo_precision":"unmatched"},"type":"Feature","geometry":null},{"properties":{"average wage":171.87,"region":"Region XII - SOCCSKSARGEN","geo_score":0.0,"year":2006,"region code":12,"id":"af0hi1mq6ut1","geo_precision":"unmatched"},"type":"Feature","geometry":null},{"properties":{"average wage":168.4,"region":"Region XII - SOCCSKSARGEN","geo_score":0.0,"year":2007,"region code":12,"id":"af0hi17zxey5","geo_precision":"unmatched"},"type":"Feature","geometry":null},{"properties":{"average wage":195.98,"region":"Region XII - SOCCSKSARGEN","geo_score":0.0,"year":2008,"region code":12,"id":"af0hi1j79tu0","geo_precision":"unmatched"},"type":"Feature","geometry":null},{"properties":{"average wage":195.8,"region":"Region XII - SOCCSKSARGEN","geo_score":0.0,"year":2009,"region code":12,"id":"af0hi1mas9jk","geo_precision":"unmatched"},"type":"Feature","geometry":null},{"properties":{"average wage":220.19,"region":"Region XII - SOCCSKSARGEN","geo_score":0.0,"year":2010,"region code":12,"id":"af0hi1cdha87","geo_precision":"unmatched"},"type":"Feature","geometry":null},{"properties":{"average wage":244.75,"region":"Region XII - SOCCSKSARGEN","geo_score":0.0,"year":2011,"region code":12,"id":"af0hi1gb50oa","geo_precision":"unmatched"},"type":"Feature","geometry":null},{"properties":{"average wage":null,"region":"Region XII - SOCCSKSARGEN","geo_score":0.0,"year":2012,"region code":12,"id":"af0hi1lpe1e4","geo_precision":"unmatched"},"type":"Feature","geometry":null},{"properties":{"average wage":282.69,"region":"Cordillera Administrative Region","geo_score":0.0,"year":2001,"region code":14,"id":"af0hi1ft95yi","geo_precision":"unmatched"},"type":"Feature","geometry":null},{"properties":{"average wage":254.28,"region":"Cordillera Administrative Region","geo_score":0.0,"year":2002,"region code":14,"id":"af0hi19zpptt","geo_precision":"unmatched"},"type":"Feature","geometry":null},{"properties":{"average wage":241.41,"region":"Cordillera Administrative Region","geo_score":0.0,"year":2003,"region code":14,"id":"af0hi1f90dav","geo_precision":"unmatched"},"type":"Feature","geometry":null},{"properties":{"average wage":213.25,"region":"Cordillera Administrative Region","geo_score":0.0,"year":2004,"region code":14,"id":"af0hi1edf2zc","geo_precision":"unmatched"},"type":"Feature","geometry":null},{"properties":{"average wage":234.56,"region":"Cordillera Administrative Region","geo_score":0.0,"year":2005,"region code":14,"id":"af0hi1a7vc8d","geo_precision":"unmatched"},"type":"Feature","geometry":null},{"properties":{"average wage":251.37,"region":"Cordillera Administrative Region","geo_score":0.0,"year":2006,"region code":14,"id":"af0hi1fvc759","geo_precision":"unmatched"},"type":"Feature","geometry":null},{"properties":{"average wage":212.8,"region":"Cordillera Administrative Region","geo_score":0.0,"year":2007,"region code":14,"id":"af0hi1bbh2do","geo_precision":"unmatched"},"type":"Feature","geometry":null},{"properties":{"average wage":233.18,"region":"Cordillera Administrative Region","geo_score":0.0,"year":2008,"region code":14,"id":"af0hi1g1turc","geo_precision":"unmatched"},"type":"Feature","geometry":null},{"properties":{"average wage":270.66,"region":"Cordillera Administrative Region","geo_score":0.0,"year":2009,"region code":14,"id":"af0hi18ou1zx","geo_precision":"unmatched"},"type":"Feature","geometry":null},{"properties":{"average wage":291.81,"region":"Cordillera Administrative Region","geo_score":0.0,"year":2010,"region code":14,"id":"af0hi199kzns","geo_precision":"unmatched"},"type":"Feature","geometry":null},{"properties":{"average wage":318.64,"region":"Cordillera Administrative Region","geo_score":0.0,"year":2011,"region code":14,"id":"af0hi1cpiy4h","geo_precision":"unmatched"},"type":"Feature","geometry":null},{"properties":{"average wage":null,"region":"Cordillera Administrative Region","geo_score":0.0,"year":2012,"region code":14,"id":"af0hi1cp2spn","geo_precision":"unmatched"},"type":"Feature","geometry":null},{"properties":{"average wage":null,"region":"Region XI - Davao","geo_score":0.0,"year":2001,"region code":11,"id":"af0hi1dyhy7v","geo_precision":"unmatched"},"type":"Feature","geometry":null},{"properties":{"average wage":null,"region":"Region XI - Davao","geo_score":0.0,"year":2002,"region code":11,"id":"af0hi1cqkwwb","geo_precision":"unmatched"},"type":"Feature","geometry":null},{"properties":{"average wage":null,"region":"Region XI - Davao","geo_score":0.0,"year":2003,"region code":11,"id":"af0hi1c9n5p4","geo_precision":"unmatched"},"type":"Feature","geometry":null},{"properties":{"average wage":170.46,"region":"Region XI - Davao","geo_score":0.0,"year":2004,"region code":11,"id":"af0hi182qfzb","geo_precision":"unmatched"},"type":"Feature","geometry":null},{"properties":{"average wage":187.0,"region":"Region XI - Davao","geo_score":0.0,"year":2005,"region code":11,"id":"af0hi1897gt6","geo_precision":"unmatched"},"type":"Feature","geometry":null},{"properties":{"average wage":186.74,"region":"Region XI - Davao","geo_score":0.0,"year":2006,"region code":11,"id":"af0hi1gsyh9f","geo_precision":"unmatched"},"type":"Feature","geometry":null},{"properties":{"average wage":188.72,"region":"Region XI - Davao","geo_score":0.0,"year":2007,"region code":11,"id":"af0hi1dbtf7v","geo_precision":"unmatched"},"type":"Feature","geometry":null},{"properties":{"average wage":208.48,"region":"Region XI - Davao","geo_score":0.0,"year":2008,"region code":11,"id":"af0hi1945hsa","geo_precision":"unmatched"},"type":"Feature","geometry":null},{"properties":{"average wage":221.37,"region":"Region XI - Davao","geo_score":0.0,"year":2009,"region code":11,"id":"af0hi1js9tsj","geo_precision":"unmatched"},"type":"Feature","geometry":null},{"properties":{"average wage":232.69,"region":"Region XI - Davao","geo_score":0.0,"year":2010,"region code":11,"id":"af0hi1fa4sd0","geo_precision":"unmatched"},"type":"Feature","geometry":null},{"properties":{"average wage":232.27,"region":"Region XI - Davao","geo_score":0.0,"year":2011,"region code":11,"id":"af0hi1mr65s5","geo_precision":"unmatched"},"type":"Feature","geometry":null},{"properties":{"average wage":null,"region":"Region XI - Davao","geo_score":0.0,"year":2012,"region code":11,"id":"af0hi1fvzf2w","geo_precision":"unmatched"},"type":"Feature","geometry":null},{"properties":{"average wage":null,"region":"Region IX - Zamboanga Peninsula","geo_score":0.0,"year":2001,"region code":9,"id":"af0hi1be16r1","geo_precision":"unmatched"},"type":"Feature","geometry":null},{"properties":{"average wage":null,"region":"Region IX - Zamboanga Peninsula","geo_score":0.0,"year":2002,"region code":9,"id":"af0hi1a562qj","geo_precision":"unmatched"},"type":"Feature","geometry":null},{"properties":{"average wage":null,"region":"Region IX - Zamboanga Peninsula","geo_score":0.0,"year":2003,"region code":9,"id":"af0hi1m2u2j2","geo_precision":"unmatched"},"type":"Feature","geometry":null},{"properties":{"average wage":209.65,"region":"Region IX - Zamboanga Peninsula","geo_score":0.0,"year":2004,"region code":9,"id":"af0hi1g5b8bf","geo_precision":"unmatched"},"type":"Feature","geometry":null},{"properties":{"average wage":234.66,"region":"Region IX - Zamboanga Peninsula","geo_score":0.0,"year":2005,"region code":9,"id":"af0hi1fp49f3","geo_precision":"unmatched"},"type":"Feature","geometry":null},{"properties":{"average wage":215.56,"region":"Region IX - Zamboanga Peninsula","geo_score":0.0,"year":2006,"region code":9,"id":"af0hi1grv3f3","geo_precision":"unmatched"},"type":"Feature","geometry":null},{"properties":{"average wage":223.31,"region":"Region IX - Zamboanga Peninsula","geo_score":0.0,"year":2007,"region code":9,"id":"af0hi190jts7","geo_precision":"unmatched"},"type":"Feature","geometry":null},{"properties":{"average wage":219.35,"region":"Region IX - Zamboanga Peninsula","geo_score":0.0,"year":2008,"region code":9,"id":"af0hi1dwalwj","geo_precision":"unmatched"},"type":"Feature","geometry":null},{"properties":{"average wage":234.02,"region":"Region IX - Zamboanga Peninsula","geo_score":0.0,"year":2009,"region code":9,"id":"af0hi19jnzu8","geo_precision":"unmatched"},"type":"Feature","geometry":null},{"properties":{"average wage":236.96,"region":"Region IX - Zamboanga Peninsula","geo_score":0.0,"year":2010,"region code":9,"id":"af0hi1e14gzg","geo_precision":"unmatched"},"type":"Feature","geometry":null},{"properties":{"average wage":225.52,"region":"Region IX - Zamboanga Peninsula","geo_score":0.0,"year":2011,"region code":9,"id":"af0hi1lf3j6b","geo_precision":"unmatched"},"type":"Feature","geometry":null},{"properties":{"average wage":null,"region":"Region IX - Zamboanga Peninsula","geo_score":0.0,"year":2012,"region code":9,"id":"af0hi1bkdnfj","geo_precision":"unmatched"},"type":"Feature","geometry":null}],"is_temporal":false,"author":{"url":null,"metadata":null,"contact_name":null,"contact_address":null,"source":null,"contact_phone":null},"source":null,"pagination":{"sort":null,"start":0,"total":960,"limit":1000000},"state":"complete","tags":"","published":"2014-08-16T22:41:14-04:00","id":367069}