{"type":"FeatureCollection","data_type":"Dataset","url_type":null,"permissions":[{"permissions":{"download":true,"view":true},"group_id":"everyone"}],"classification":null,"title":"Fort_Bend_Co","count":32,"stream_id":367511,"contributor":{"url":"http://geocommons.com/users/46429","name":"djobe"},"data_attributes":null,"calculation_params":null,"icon_link":null,"link":"http://geocommons.com/overlays/367511.json","extent":[-96.2793,29.324,-95.3323,29.8886],"geometry_types":["point"],"unique_name":null,"name":"Fort_Bend_Co","feature_count":32,"description":"","next_feature":null,"is_raster":false,"short_classification":"Y","stats":{"number":{"max":4652,"variance":1766796.11290323,"mean":890.125,"stdev":1329.20882968149,"median":112,"min":1}},"features":[{"properties":{"number":4652,"zipcode":"77053","geo_score":0.714,"id":"af1jmj9wh9z5","geo_precision":"zip","column_3":null},"type":"Feature","geometry":{"type":"Point","coordinates":[-95.424818,29.600732]}},{"properties":{"number":112,"zipcode":"77083","geo_score":0.714,"id":"af1jmjd3gijn","geo_precision":"zip","column_3":null},"type":"Feature","geometry":{"type":"Point","coordinates":[-95.434241,29.83399]}},{"properties":{"number":20,"zipcode":"77099","geo_score":0.714,"id":"af1jmjc99yiv","geo_precision":"zip","column_3":null},"type":"Feature","geometry":{"type":"Point","coordinates":[-95.434241,29.83399]}},{"properties":{"number":635,"zipcode":"77406","geo_score":0.714,"id":"af1jmjebz89a","geo_precision":"zip","column_3":null},"type":"Feature","geometry":{"type":"Point","coordinates":[-95.919107,29.50401]}},{"properties":{"number":1036,"zipcode":"77407","geo_score":0.0,"id":"af1jmjjyhfu4","geo_precision":"unmatched","column_3":null},"type":"Feature","geometry":null},{"properties":{"number":112,"zipcode":"77417","geo_score":0.714,"id":"af1jmjo82wb3","geo_precision":"zip","column_3":null},"type":"Feature","geometry":{"type":"Point","coordinates":[-95.974399,29.482797]}},{"properties":{"number":4,"zipcode":"77423","geo_score":0.714,"id":"af1jmja2malp","geo_precision":"zip","column_3":null},"type":"Feature","geometry":{"type":"Point","coordinates":[-96.069125,29.888561]}},{"properties":{"number":1,"zipcode":"77435","geo_score":0.714,"id":"af1jmjjcdf1o","geo_precision":"zip","column_3":null},"type":"Feature","geometry":{"type":"Point","coordinates":[-95.989401,29.540241]}},{"properties":{"number":87,"zipcode":"77441","geo_score":0.714,"id":"af1jmjb82if5","geo_precision":"zip","column_3":null},"type":"Feature","geometry":{"type":"Point","coordinates":[-95.935279,29.688985]}},{"properties":{"number":44,"zipcode":"77444","geo_score":0.714,"id":"af1jmjmn1jcd","geo_precision":"zip","column_3":null},"type":"Feature","geometry":{"type":"Point","coordinates":[-95.77215,29.349957]}},{"properties":{"number":7,"zipcode":"77450","geo_score":0.714,"id":"af1jmjhg6pt4","geo_precision":"zip","column_3":null},"type":"Feature","geometry":{"type":"Point","coordinates":[-95.434241,29.83399]}},{"properties":{"number":129,"zipcode":"77451","geo_score":0.714,"id":"af1jmjgqlrzx","geo_precision":"zip","column_3":null},"type":"Feature","geometry":{"type":"Point","coordinates":[-95.994475,29.466642]}},{"properties":{"number":1881,"zipcode":"77459","geo_score":0.714,"id":"af1jmjky2ahi","geo_precision":"zip","column_3":null},"type":"Feature","geometry":{"type":"Point","coordinates":[-95.649939,29.323965]}},{"properties":{"number":475,"zipcode":"77461","geo_score":0.714,"id":"af1jmje56alg","geo_precision":"zip","column_3":null},"type":"Feature","geometry":{"type":"Point","coordinates":[-95.771651,29.423517]}},{"properties":{"number":32,"zipcode":"77464","geo_score":0.714,"id":"af1jmjoufete","geo_precision":"zip","column_3":null},"type":"Feature","geometry":{"type":"Point","coordinates":[-95.904066,29.503446]}},{"properties":{"number":2290,"zipcode":"77469","geo_score":0.714,"id":"af1jmjll9sx3","geo_precision":"zip","column_3":null},"type":"Feature","geometry":{"type":"Point","coordinates":[-95.788479,29.555831]}},{"properties":{"number":3332,"zipcode":"77471","geo_score":0.714,"id":"af1jmjflif99","geo_precision":"zip","column_3":null},"type":"Feature","geometry":{"type":"Point","coordinates":[-95.858475,29.555889]}},{"properties":{"number":54,"zipcode":"77476","geo_score":0.714,"id":"af1jmja103vp","geo_precision":"zip","column_3":null},"type":"Feature","geometry":{"type":"Point","coordinates":[-95.965953,29.667486]}},{"properties":{"number":2919,"zipcode":"77477","geo_score":0.714,"id":"af1jmjk5v13w","geo_precision":"zip","column_3":null},"type":"Feature","geometry":{"type":"Point","coordinates":[-95.996865,29.450518]}},{"properties":{"number":455,"zipcode":"77478","geo_score":0.714,"id":"af1jmjgvfw3s","geo_precision":"zip","column_3":null},"type":"Feature","geometry":{"type":"Point","coordinates":[-95.756462,29.525461]}},{"properties":{"number":1038,"zipcode":"77479","geo_score":0.714,"id":"af1jmjnmcpu9","geo_precision":"zip","column_3":null},"type":"Feature","geometry":{"type":"Point","coordinates":[-95.666778,29.552921]}},{"properties":{"number":29,"zipcode":"77481","geo_score":0.714,"id":"af1jmjonrmug","geo_precision":"zip","column_3":null},"type":"Feature","geometry":{"type":"Point","coordinates":[-95.594174,29.489921]}},{"properties":{"number":1,"zipcode":"77485","geo_score":0.714,"id":"af1jmjmboymo","geo_precision":"zip","column_3":null},"type":"Feature","geometry":{"type":"Point","coordinates":[-96.279263,29.789915]}},{"properties":{"number":31,"zipcode":"77487","geo_score":0.714,"id":"af1jmjbnmjo6","geo_precision":"zip","column_3":null},"type":"Feature","geometry":{"type":"Point","coordinates":[-95.756462,29.525461]}},{"properties":{"number":4431,"zipcode":"77489","geo_score":0.714,"id":"af1jmjkwfqzl","geo_precision":"zip","column_3":null},"type":"Feature","geometry":{"type":"Point","coordinates":[-95.756462,29.525461]}},{"properties":{"number":1032,"zipcode":"77494","geo_score":0.714,"id":"af1jmjp6jz65","geo_precision":"zip","column_3":null},"type":"Feature","geometry":{"type":"Point","coordinates":[-95.434241,29.83399]}},{"properties":{"number":20,"zipcode":"77496","geo_score":0.714,"id":"af1jmjdd035b","geo_precision":"zip","column_3":null},"type":"Feature","geometry":{"type":"Point","coordinates":[-95.756462,29.525461]}},{"properties":{"number":61,"zipcode":"77497","geo_score":0.714,"id":"af1jmjaene0k","geo_precision":"zip","column_3":null},"type":"Feature","geometry":{"type":"Point","coordinates":[-95.756462,29.525461]}},{"properties":{"number":1905,"zipcode":"77498","geo_score":0.0,"id":"af1jmjckf8h3","geo_precision":"unmatched","column_3":null},"type":"Feature","geometry":null},{"properties":{"number":1644,"zipcode":"77545","geo_score":0.714,"id":"af1jmjnq8w5m","geo_precision":"zip","column_3":null},"type":"Feature","geometry":{"type":"Point","coordinates":[-95.756462,29.525461]}},{"properties":{"number":10,"zipcode":"77583","geo_score":0.714,"id":"af1jmjaq8y1m","geo_precision":"zip","column_3":null},"type":"Feature","geometry":{"type":"Point","coordinates":[-95.481053,29.385517]}},{"properties":{"number":5,"zipcode":"77584","geo_score":0.714,"id":"af1jmjjm33p1","geo_precision":"zip","column_3":null},"type":"Feature","geometry":{"type":"Point","coordinates":[-95.33232,29.54017]}}],"is_temporal":false,"author":{"url":"","metadata":null,"contact_name":null,"contact_address":null,"source":null,"contact_phone":null},"source":"","pagination":{"sort":null,"start":0,"total":32,"limit":1000000},"state":"complete","tags":"","published":"2014-08-16T23:07:17-04:00","id":367511}