{"type":"FeatureCollection","data_type":"Dataset","url_type":null,"permissions":[{"permissions":{"download":true,"view":true},"group_id":"everyone"}],"classification":null,"title":"Florida DMAs2013","count":510,"stream_id":368140,"contributor":{"url":"http://geocommons.com/users/75304","name":"dabressler"},"data_attributes":null,"calculation_params":null,"icon_link":null,"link":"http://geocommons.com/overlays/368140.json","extent":[0.0,0.0,0.0,0.0],"geometry_types":[],"unique_name":null,"name":"Florida DMAs2013","feature_count":510,"description":"","next_feature":null,"is_raster":false,"short_classification":"Y","stats":{},"features":[{"properties":{"city":"orlando (Florida, United States)","visitors":"498,732","id":"af4507q631n3","column_3":null},"type":"Feature","geometry":null},{"properties":{"city":"miami (Florida, United States)","visitors":"231,830","id":"af4507x57yor","column_3":null},"type":"Feature","geometry":null},{"properties":{"city":"jacksonville (Florida, United States)","visitors":"107,169","id":"af4507wn9jin","column_3":null},"type":"Feature","geometry":null},{"properties":{"city":"tampa (Florida, United States)","visitors":"118,577","id":"af4507p3go01","column_3":null},"type":"Feature","geometry":null},{"properties":{"city":"ft lauderdale (Florida, United States)","visitors":"125,696","id":"af450818li23","column_3":null},"type":"Feature","geometry":null},{"properties":{"city":"kissimmee (Florida, United States)","visitors":"106,283","id":"af4507u9ewe5","column_3":null},"type":"Feature","geometry":null},{"properties":{"city":"hollywood (Florida, United States)","visitors":"74,878","id":"af4507r5wpqo","column_3":null},"type":"Feature","geometry":null},{"properties":{"city":"pompano beach (Florida, United States)","visitors":"65,235","id":"af4507x1t7rb","column_3":null},"type":"Feature","geometry":null},{"properties":{"city":"hialeah (Florida, United States)","visitors":"47,798","id":"af4507u5xcv6","column_3":null},"type":"Feature","geometry":null},{"properties":{"city":"west palm beach (Florida, United States)","visitors":"44,017","id":"af4507sncw92","column_3":null},"type":"Feature","geometry":null},{"properties":{"city":"st petersburg (Florida, United States)","visitors":"31,919","id":"af4507nmjhsc","column_3":null},"type":"Feature","geometry":null},{"properties":{"city":"gainesville (Florida, United States)","visitors":"32,338","id":"af45081es8at","column_3":null},"type":"Feature","geometry":null},{"properties":{"city":"lakeland (Florida, United States)","visitors":"43,223","id":"af4507xyqdvy","column_3":null},"type":"Feature","geometry":null},{"properties":{"city":"winter park (Florida, United States)","visitors":"38,660","id":"af4507q274es","column_3":null},"type":"Feature","geometry":null},{"properties":{"city":"tallahassee (Florida, United States)","visitors":"31,009","id":"af4507w7x6lr","column_3":null},"type":"Feature","geometry":null},{"properties":{"city":"davenport (Florida, United States)","visitors":"43,995","id":"af4507nwtzs8","column_3":null},"type":"Feature","geometry":null},{"properties":{"city":"ft myers (Florida, United States)","visitors":"33,132","id":"af4507n0qed6","column_3":null},"type":"Feature","geometry":null},{"properties":{"city":"clermont (Florida, United States)","visitors":"30,962","id":"af45082ctk6g","column_3":null},"type":"Feature","geometry":null},{"properties":{"city":"sanford (Florida, United States)","visitors":"25,270","id":"af4507r5mpi8","column_3":null},"type":"Feature","geometry":null},{"properties":{"city":"apopka (Florida, United States)","visitors":"45,130","id":"af45082pnsw5","column_3":null},"type":"Feature","geometry":null},{"properties":{"city":"palm bay (Florida, United States)","visitors":"15,384","id":"af45082x1i3p","column_3":null},"type":"Feature","geometry":null},{"properties":{"city":"altamonte springs (Florida, United States)","visitors":"24,162","id":"af45082p4zf9","column_3":null},"type":"Feature","geometry":null},{"properties":{"city":"boca raton (Florida, United States)","visitors":"24,772","id":"af4507uqmqci","column_3":null},"type":"Feature","geometry":null},{"properties":{"city":"melbourne (Florida, United States)","visitors":"31,682","id":"af4507r3l8ea","column_3":null},"type":"Feature","geometry":null},{"properties":{"city":"cape coral (Florida, United States)","visitors":"22,170","id":"af4507zm1hr8","column_3":null},"type":"Feature","geometry":null},{"properties":{"city":"sarasota (Florida, United States)","visitors":"24,915","id":"af4507wrjmbh","column_3":null},"type":"Feature","geometry":null},{"properties":{"city":"oviedo (Florida, United States)","visitors":"18,861","id":"af4507r7ehoo","column_3":null},"type":"Feature","geometry":null},{"properties":{"city":"ocala (Florida, United States)","visitors":"22,920","id":"af4507pyzye3","column_3":null},"type":"Feature","geometry":null},{"properties":{"city":"bradenton (Florida, United States)","visitors":"21,978","id":"af45081rk8f8","column_3":null},"type":"Feature","geometry":null},{"properties":{"city":"naples (Florida, United States)","visitors":"21,797","id":"af4507qgavc9","column_3":null},"type":"Feature","geometry":null},{"properties":{"city":"windermere (Florida, United States)","visitors":"18,998","id":"af4507yj3ctf","column_3":null},"type":"Feature","geometry":null},{"properties":{"city":"daytona beach (Florida, United States)","visitors":"13,813","id":"af4507pa3lsv","column_3":null},"type":"Feature","geometry":null},{"properties":{"city":"port saint lucie (Florida, United States)","visitors":"22,173","id":"af4507pqqeso","column_3":null},"type":"Feature","geometry":null},{"properties":{"city":"orange park (Florida, United States)","visitors":"12,996","id":"af4507p0u1fm","column_3":null},"type":"Feature","geometry":null},{"properties":{"city":"lake worth (Florida, United States)","visitors":"21,849","id":"af4507onkx6d","column_3":null},"type":"Feature","geometry":null},{"properties":{"city":"opa locka (Florida, United States)","visitors":"1,414","id":"af45081mk7pe","column_3":null},"type":"Feature","geometry":null},{"properties":{"city":"clearwater (Florida, United States)","visitors":"18,049","id":"af45080jsz0j","column_3":null},"type":"Feature","geometry":null},{"properties":{"city":"palm coast (Florida, United States)","visitors":"11,211","id":"af45082xrtrt","column_3":null},"type":"Feature","geometry":null},{"properties":{"city":"miami beach (Florida, United States)","visitors":"15,328","id":"af4507p05p9n","column_3":null},"type":"Feature","geometry":null},{"properties":{"city":"ormond beach (Florida, United States)","visitors":"10,020","id":"af4507r6z1er","column_3":null},"type":"Feature","geometry":null},{"properties":{"city":"lake mary (Florida, United States)","visitors":"12,604","id":"af4507qw2daz","column_3":null},"type":"Feature","geometry":null},{"properties":{"city":"st augustine (Florida, United States)","visitors":"50,626","id":"af4507nv2w4d","column_3":null},"type":"Feature","geometry":null},{"properties":{"city":"deltona (Florida, United States)","visitors":"15,306","id":"af4507nc1k5i","column_3":null},"type":"Feature","geometry":null},{"properties":{"city":"winter garden (Florida, United States)","visitors":"15,334","id":"af45082ednq3","column_3":null},"type":"Feature","geometry":null},{"properties":{"city":"new port richey (Florida, United States)","visitors":"12,791","id":"af4507qzc5ql","column_3":null},"type":"Feature","geometry":null},{"properties":{"city":"callahan (Florida, United States)","visitors":"818","id":"af4507qmbosk","column_3":null},"type":"Feature","geometry":null},{"properties":{"city":"longwood (Florida, United States)","visitors":"12,368","id":"af4507x10bcd","column_3":null},"type":"Feature","geometry":null},{"properties":{"city":"brandon (Florida, United States)","visitors":"15,392","id":"af4507zo1x51","column_3":null},"type":"Feature","geometry":null},{"properties":{"city":"casselberry (Florida, United States)","visitors":"7,918","id":"af4507o9tqzh","column_3":null},"type":"Feature","geometry":null},{"properties":{"city":"riverview (Florida, United States)","visitors":"12,839","id":"af4507rejodd","column_3":null},"type":"Feature","geometry":null},{"properties":{"city":"spring hill (Florida, United States)","visitors":"17,458","id":"af4507r610rn","column_3":null},"type":"Feature","geometry":null},{"properties":{"city":"titusville (Florida, United States)","visitors":"9,399","id":"af4507o6pquu","column_3":null},"type":"Feature","geometry":null},{"properties":{"city":"ocoee (Florida, United States)","visitors":"16,850","id":"af4507omafxf","column_3":null},"type":"Feature","geometry":null},{"properties":{"city":"winter springs (Florida, United States)","visitors":"14,897","id":"af4507sgdcii","column_3":null},"type":"Feature","geometry":null},{"properties":{"city":"vero beach (Florida, United States)","visitors":"10,706","id":"af4507q908iw","column_3":null},"type":"Feature","geometry":null},{"properties":{"city":"lady lake (Florida, United States)","visitors":"18,116","id":"af4507rifkgi","column_3":null},"type":"Feature","geometry":null},{"properties":{"city":"winter haven (Florida, United States)","visitors":"12,971","id":"af4507pll2jb","column_3":null},"type":"Feature","geometry":null},{"properties":{"city":"st cloud (Florida, United States)","visitors":"12,236","id":"af4507xgwagz","column_3":null},"type":"Feature","geometry":null},{"properties":{"city":"port orange (Florida, United States)","visitors":"9,868","id":"af45080bsgk5","column_3":null},"type":"Feature","geometry":null},{"properties":{"city":"pensacola (Florida, United States)","visitors":"11,756","id":"af4507sqix7t","column_3":null},"type":"Feature","geometry":null},{"properties":{"city":"boynton beach (Florida, United States)","visitors":"12,320","id":"af4507nsfeq2","column_3":null},"type":"Feature","geometry":null},{"properties":{"city":"panama city (Florida, United States)","visitors":"7,875","id":"af450801hp7r","column_3":null},"type":"Feature","geometry":null},{"properties":{"city":"middleburg (Florida, United States)","visitors":"5,367","id":"af45082gl7iq","column_3":null},"type":"Feature","geometry":null},{"properties":{"city":"delray beach (Florida, United States)","visitors":"8,453","id":"af4507pgd0pf","column_3":null},"type":"Feature","geometry":null},{"properties":{"city":"homestead (Florida, United States)","visitors":"11,838","id":"af4507rvn4ii","column_3":null},"type":"Feature","geometry":null},{"properties":{"city":"valrico (Florida, United States)","visitors":"10,411","id":"af4507q7aj00","column_3":null},"type":"Feature","geometry":null},{"properties":{"city":"palm beach gardens (Florida, United States)","visitors":"11,795","id":"af4507mzxpfx","column_3":null},"type":"Feature","geometry":null},{"properties":{"city":"deland (Florida, United States)","visitors":"7,080","id":"af4507u8sjwn","column_3":null},"type":"Feature","geometry":null},{"properties":{"city":"leesburg (Florida, United States)","visitors":"9,780","id":"af4507u45917","column_3":null},"type":"Feature","geometry":null},{"properties":{"city":"cocoa (Florida, United States)","visitors":"7,243","id":"af4507ty2btc","column_3":null},"type":"Feature","geometry":null},{"properties":{"city":"maitland (Florida, United States)","visitors":"5,397","id":"af450823s953","column_3":null},"type":"Feature","geometry":null},{"properties":{"city":"largo (Florida, United States)","visitors":"8,420","id":"af45082jjr67","column_3":null},"type":"Feature","geometry":null},{"properties":{"city":"palm harbor (Florida, United States)","visitors":"8,550","id":"af4507wnlqxe","column_3":null},"type":"Feature","geometry":null},{"properties":{"city":"lake city (Florida, United States)","visitors":"4,713","id":"af45082l6p10","column_3":null},"type":"Feature","geometry":null},{"properties":{"city":"wesley chapel (Florida, United States)","visitors":"10,936","id":"af4507rjilfk","column_3":null},"type":"Feature","geometry":null},{"properties":{"city":"rockledge (Florida, United States)","visitors":"3,685","id":"af4507x2swhd","column_3":null},"type":"Feature","geometry":null},{"properties":{"city":"jupiter (Florida, United States)","visitors":"7,729","id":"af4507v8uuam","column_3":null},"type":"Feature","geometry":null},{"properties":{"city":"deerfield beach (Florida, United States)","visitors":"8,227","id":"af4507v2pft4","column_3":null},"type":"Feature","geometry":null},{"properties":{"city":"lutz (Florida, United States)","visitors":"16,321","id":"af4507v9vmmo","column_3":null},"type":"Feature","geometry":null},{"properties":{"city":"merritt island (Florida, United States)","visitors":"9,121","id":"af4507qrd2bj","column_3":null},"type":"Feature","geometry":null},{"properties":{"city":"lehigh acres (Florida, United States)","visitors":"8,175","id":"af4507npe6nk","column_3":null},"type":"Feature","geometry":null},{"properties":{"city":"ft pierce (Florida, United States)","visitors":"6,176","id":"af4507znupxq","column_3":null},"type":"Feature","geometry":null},{"properties":{"city":"plant city (Florida, United States)","visitors":"9,308","id":"af4508216g9v","column_3":null},"type":"Feature","geometry":null},{"properties":{"city":"venice (Florida, United States)","visitors":"10,532","id":"af4507vhpljv","column_3":null},"type":"Feature","geometry":null},{"properties":{"city":"stuart (Florida, United States)","visitors":"6,027","id":"af4507ypnqww","column_3":null},"type":"Feature","geometry":null},{"properties":{"city":"pinellas park (Florida, United States)","visitors":"5,805","id":"af4507zxgtz0","column_3":null},"type":"Feature","geometry":null},{"properties":{"city":"haines city (Florida, United States)","visitors":"7,274","id":"af4507tk4zsz","column_3":null},"type":"Feature","geometry":null},{"properties":{"city":"north port (Florida, United States)","visitors":"5,598","id":"af4507zbw5zo","column_3":null},"type":"Feature","geometry":null},{"properties":{"city":"belleview (Florida, United States)","visitors":"2,311","id":"af4507ud5th7","column_3":null},"type":"Feature","geometry":null},{"properties":{"city":"jacksonville beach (Florida, United States)","visitors":"2,301","id":"af4507pioydd","column_3":null},"type":"Feature","geometry":null},{"properties":{"city":"mount dora (Florida, United States)","visitors":"4,735","id":"af4507risqp9","column_3":null},"type":"Feature","geometry":null},{"properties":{"city":"the villages (Florida, United States)","visitors":"3,260","id":"af4507ytbgae","column_3":null},"type":"Feature","geometry":null},{"properties":{"city":"land o lakes (Florida, United States)","visitors":"2,012","id":"af450808zdxa","column_3":null},"type":"Feature","geometry":null},{"properties":{"city":"port charlotte (Florida, United States)","visitors":"5,694","id":"af4507zn19k7","column_3":null},"type":"Feature","geometry":null},{"properties":{"city":"seminole (Florida, United States)","visitors":"6,495","id":"af4507qqvmia","column_3":null},"type":"Feature","geometry":null},{"properties":{"city":"ponte vedra beach (Florida, United States)","visitors":"3,128","id":"af4507w2gyd0","column_3":null},"type":"Feature","geometry":null},{"properties":{"city":"englewood (Florida, United States)","visitors":"2,393","id":"af4507y3v4qr","column_3":null},"type":"Feature","geometry":null},{"properties":{"city":"fleming island (Florida, United States)","visitors":"8,428","id":"af4507x287wj","column_3":null},"type":"Feature","geometry":null},{"properties":{"city":"satellite beach (Florida, United States)","visitors":"9,679","id":"af45081jf28f","column_3":null},"type":"Feature","geometry":null},{"properties":{"city":"north fort myers (Florida, United States)","visitors":"4,254","id":"af4507qqk1yf","column_3":null},"type":"Feature","geometry":null},{"properties":{"city":"summerfield (Florida, United States)","visitors":"5,634","id":"af4507tp2gv2","column_3":null},"type":"Feature","geometry":null},{"properties":{"city":"new smyrna beach (Florida, United States)","visitors":"6,037","id":"af4507v8my3f","column_3":null},"type":"Feature","geometry":null},{"properties":{"city":"zephyrhills (Florida, United States)","visitors":"8,025","id":"af4507ux7foa","column_3":null},"type":"Feature","geometry":null},{"properties":{"city":"orange city (Florida, United States)","visitors":"5,180","id":"af45082u7mq1","column_3":null},"type":"Feature","geometry":null},{"properties":{"city":"auburndale (Florida, United States)","visitors":"4,899","id":"af4507olnwcu","column_3":null},"type":"Feature","geometry":null},{"properties":{"city":"odessa (Florida, United States)","visitors":"4,879","id":"af4507nmziwc","column_3":null},"type":"Feature","geometry":null},{"properties":{"city":"atlantic beach (Florida, United States)","visitors":"3,134","id":"af4507nn3r70","column_3":null},"type":"Feature","geometry":null},{"properties":{"city":"st johns (Florida, United States)","visitors":"5,767","id":"af4507vgn9d1","column_3":null},"type":"Feature","geometry":null},{"properties":{"city":"fernandina beach (Florida, United States)","visitors":"2,669","id":"af4507ullygx","column_3":null},"type":"Feature","geometry":null},{"properties":{"city":"port richey (Florida, United States)","visitors":"3,896","id":"af4507ohda3m","column_3":null},"type":"Feature","geometry":null},{"properties":{"city":"bonita springs (Florida, United States)","visitors":"3,698","id":"af4507nr97rv","column_3":null},"type":"Feature","geometry":null},{"properties":{"city":"sebastian (Florida, United States)","visitors":"3,302","id":"af4507q9ogxf","column_3":null},"type":"Feature","geometry":null},{"properties":{"city":"edgewater (Florida, United States)","visitors":"2,350","id":"af4507s63vzm","column_3":null},"type":"Feature","geometry":null},{"properties":{"city":"hallandale (Florida, United States)","visitors":"2,844","id":"af4507um20do","column_3":null},"type":"Feature","geometry":null},{"properties":{"city":"north miami beach (Florida, United States)","visitors":"4,366","id":"af45082irc07","column_3":null},"type":"Feature","geometry":null},{"properties":{"city":"tarpon springs (Florida, United States)","visitors":"2,758","id":"af4508275xxn","column_3":null},"type":"Feature","geometry":null},{"properties":{"city":"tavares (Florida, United States)","visitors":"2,573","id":"af4507yxjhru","column_3":null},"type":"Feature","geometry":null},{"properties":{"city":"eustis (Florida, United States)","visitors":"2,371","id":"af45081x791u","column_3":null},"type":"Feature","geometry":null},{"properties":{"city":"debary (Florida, United States)","visitors":"3,586","id":"af4507q39s33","column_3":null},"type":"Feature","geometry":null},{"properties":{"city":"inverness (Florida, United States)","visitors":"2,870","id":"af4507pgf14j","column_3":null},"type":"Feature","geometry":null},{"properties":{"city":"hudson (Florida, United States)","visitors":"2,834","id":"af4507pbka8v","column_3":null},"type":"Feature","geometry":null},{"properties":{"city":"oldsmar (Florida, United States)","visitors":"2,482","id":"af4507txgrus","column_3":null},"type":"Feature","geometry":null},{"properties":{"city":"key west (Florida, United States)","visitors":"2,719","id":"af45081h2vwe","column_3":null},"type":"Feature","geometry":null},{"properties":{"city":"live oak (Florida, United States)","visitors":"4,224","id":"af4508267b3h","column_3":null},"type":"Feature","geometry":null},{"properties":{"city":"ft walton beach (Florida, United States)","visitors":"3,006","id":"af4507uya0ii","column_3":null},"type":"Feature","geometry":null},{"properties":{"city":"brooksville (Florida, United States)","visitors":"3,296","id":"af4507w4q1p1","column_3":null},"type":"Feature","geometry":null},{"properties":{"city":"sebring (Florida, United States)","visitors":"7,293","id":"af4507v25r8p","column_3":null},"type":"Feature","geometry":null},{"properties":{"city":"milton (Florida, United States)","visitors":"3,407","id":"af4507wnkseq","column_3":null},"type":"Feature","geometry":null},{"properties":{"city":"palm city (Florida, United States)","visitors":"3,509","id":"af4507nykft3","column_3":null},"type":"Feature","geometry":null},{"properties":{"city":"dunedin (Florida, United States)","visitors":"2,862","id":"af4507n9sphe","column_3":null},"type":"Feature","geometry":null},{"properties":{"city":"lithia (Florida, United States)","visitors":"2,579","id":"af4507zmecw3","column_3":null},"type":"Feature","geometry":null},{"properties":{"city":"palmetto (Florida, United States)","visitors":"2,604","id":"af45080jhllb","column_3":null},"type":"Feature","geometry":null},{"properties":{"city":"punta gorda (Florida, United States)","visitors":"3,523","id":"af4507y355qs","column_3":null},"type":"Feature","geometry":null},{"properties":{"city":"cocoa beach (Florida, United States)","visitors":"2,970","id":"af45080l6bgd","column_3":null},"type":"Feature","geometry":null},{"properties":{"city":"green cove springs (Florida, United States)","visitors":"3,877","id":"af4507t1z2xj","column_3":null},"type":"Feature","geometry":null},{"properties":{"city":"bartow (Florida, United States)","visitors":"6,164","id":"af4507zozkph","column_3":null},"type":"Feature","geometry":null},{"properties":{"city":"homosassa (Florida, United States)","visitors":"2,397","id":"af4507pbm5qi","column_3":null},"type":"Feature","geometry":null},{"properties":{"city":"palatka (Florida, United States)","visitors":"10,263","id":"af4507uoroq9","column_3":null},"type":"Feature","geometry":null},{"properties":{"city":"crestview (Florida, United States)","visitors":"2,689","id":"af4507vvv7og","column_3":null},"type":"Feature","geometry":null},{"properties":{"city":"hobe sound (Florida, United States)","visitors":"1,812","id":"af4507rlbyk7","column_3":null},"type":"Feature","geometry":null},{"properties":{"city":"dade city (Florida, United States)","visitors":"5,977","id":"af4507r14qs4","column_3":null},"type":"Feature","geometry":null},{"properties":{"city":"parrish (Florida, United States)","visitors":"2,442","id":"af4507wd62b2","column_3":null},"type":"Feature","geometry":null},{"properties":{"city":"safety harbor (Florida, United States)","visitors":"2,217","id":"af45081i9jyw","column_3":null},"type":"Feature","geometry":null},{"properties":{"city":"graceville (Florida, United States)","visitors":"111","id":"af4507od2psd","column_3":null},"type":"Feature","geometry":null},{"properties":{"city":"lake wales (Florida, United States)","visitors":"2,637","id":"af4507mt7qj5","column_3":null},"type":"Feature","geometry":null},{"properties":{"city":"seffner (Florida, United States)","visitors":"1,985","id":"af4507oy9inu","column_3":null},"type":"Feature","geometry":null},{"properties":{"city":"ft white (Florida, United States)","visitors":"1,401","id":"af4507x8m4af","column_3":null},"type":"Feature","geometry":null},{"properties":{"city":"holiday (Florida, United States)","visitors":"2,056","id":"af4507p68are","column_3":null},"type":"Feature","geometry":null},{"properties":{"city":"sun city center (Florida, United States)","visitors":"3,135","id":"af4507ns5gp5","column_3":null},"type":"Feature","geometry":null},{"properties":{"city":"navarre (Florida, United States)","visitors":"1,694","id":"af4507q3bgmb","column_3":null},"type":"Feature","geometry":null},{"properties":{"city":"beverly hills (Florida, United States)","visitors":"2,200","id":"af4507xx50wb","column_3":null},"type":"Feature","geometry":null},{"properties":{"city":"jensen beach (Florida, United States)","visitors":"1,793","id":"af4507xp8emq","column_3":null},"type":"Feature","geometry":null},{"properties":{"city":"dover (Florida, United States)","visitors":"731","id":"af4507n8918u","column_3":null},"type":"Feature","geometry":null},{"properties":{"city":"groveland (Florida, United States)","visitors":"2,425","id":"af4507ntq8tw","column_3":null},"type":"Feature","geometry":null},{"properties":{"city":"cape canaveral (Florida, United States)","visitors":"2,481","id":"af4507vnkela","column_3":null},"type":"Feature","geometry":null},{"properties":{"city":"hilliard (Florida, United States)","visitors":"141","id":"af4507tj3md8","column_3":null},"type":"Feature","geometry":null},{"properties":{"city":"niceville (Florida, United States)","visitors":"2,085","id":"af45082vg2x3","column_3":null},"type":"Feature","geometry":null},{"properties":{"city":"neptune beach (Florida, United States)","visitors":"780","id":"af4507u6r3xl","column_3":null},"type":"Feature","geometry":null},{"properties":{"city":"gulf breeze (Florida, United States)","visitors":"1,923","id":"af4507u646eu","column_3":null},"type":"Feature","geometry":null},{"properties":{"city":"panama city beach (Florida, United States)","visitors":"1,904","id":"af4507vrgt9a","column_3":null},"type":"Feature","geometry":null},{"properties":{"city":"apollo beach (Florida, United States)","visitors":"2,772","id":"af4507o1vov4","column_3":null},"type":"Feature","geometry":null},{"properties":{"city":"sorrento (Florida, United States)","visitors":"1,128","id":"af45082x11u8","column_3":null},"type":"Feature","geometry":null},{"properties":{"city":"indialantic (Florida, United States)","visitors":"988","id":"af4507ommf7x","column_3":null},"type":"Feature","geometry":null},{"properties":{"city":"crawfordville (Florida, United States)","visitors":"1,163","id":"af4507yho4r6","column_3":null},"type":"Feature","geometry":null},{"properties":{"city":"thonotosassa (Florida, United States)","visitors":"629","id":"af4507w0yqby","column_3":null},"type":"Feature","geometry":null},{"properties":{"city":"glen saint mary (Florida, United States)","visitors":"296","id":"af4507tpgkgc","column_3":null},"type":"Feature","geometry":null},{"properties":{"city":"destin (Florida, United States)","visitors":"2,595","id":"af4507r4rrg6","column_3":null},"type":"Feature","geometry":null},{"properties":{"city":"montverde (Florida, United States)","visitors":"1,229","id":"af4507spdr8k","column_3":null},"type":"Feature","geometry":null},{"properties":{"city":"okeechobee (Florida, United States)","visitors":"1,562","id":"af4507x185ro","column_3":null},"type":"Feature","geometry":null},{"properties":{"city":"macclenny (Florida, United States)","visitors":"808","id":"af4507po4gbc","column_3":null},"type":"Feature","geometry":null},{"properties":{"city":"estero (Florida, United States)","visitors":"1,842","id":"af4507mkvm07","column_3":null},"type":"Feature","geometry":null},{"properties":{"city":"fruitland park (Florida, United States)","visitors":"662","id":"af450810wxqs","column_3":null},"type":"Feature","geometry":null},{"properties":{"city":"wildwood (Florida, United States)","visitors":"2,036","id":"af4507xevbzd","column_3":null},"type":"Feature","geometry":null},{"properties":{"city":"yulee (Florida, United States)","visitors":"1,440","id":"af4507qpnty4","column_3":null},"type":"Feature","geometry":null},{"properties":{"city":"melbourne beach (Florida, United States)","visitors":"1,473","id":"af45082fcc6r","column_3":null},"type":"Feature","geometry":null},{"properties":{"city":"dunnellon (Florida, United States)","visitors":"2,669","id":"af45082u3do6","column_3":null},"type":"Feature","geometry":null},{"properties":{"city":"ruskin (Florida, United States)","visitors":"1,341","id":"af45081s8v9n","column_3":null},"type":"Feature","geometry":null},{"properties":{"city":"doctors inlet (Florida, United States)","visitors":"2","id":"af4507nw65si","column_3":null},"type":"Feature","geometry":null},{"properties":{"city":"anthony (Florida, United States)","visitors":"268","id":"af4507qcyzfw","column_3":null},"type":"Feature","geometry":null},{"properties":{"city":"marco island (Florida, United States)","visitors":"1,154","id":"af4507q81nno","column_3":null},"type":"Feature","geometry":null},{"properties":{"city":"dania (Florida, United States)","visitors":"1,374","id":"af4507vifg2l","column_3":null},"type":"Feature","geometry":null},{"properties":{"city":"key biscayne (Florida, United States)","visitors":"1,024","id":"af4507ok1dm4","column_3":null},"type":"Feature","geometry":null},{"properties":{"city":"lynn haven (Florida, United States)","visitors":"1,100","id":"af4507wbpzww","column_3":null},"type":"Feature","geometry":null},{"properties":{"city":"santa rosa beach (Florida, United States)","visitors":"958","id":"af45082yrgta","column_3":null},"type":"Feature","geometry":null},{"properties":{"city":"palm beach (Florida, United States)","visitors":"867","id":"af4507ohl4fz","column_3":null},"type":"Feature","geometry":null},{"properties":{"city":"loxahatchee (Florida, United States)","visitors":"1,179","id":"af4507s3q2p0","column_3":null},"type":"Feature","geometry":null},{"properties":{"city":"hernando (Florida, United States)","visitors":"624","id":"af4507pcov0o","column_3":null},"type":"Feature","geometry":null},{"properties":{"city":"mulberry (Florida, United States)","visitors":"6,000","id":"af4507vn4tda","column_3":null},"type":"Feature","geometry":null},{"properties":{"city":"coleman (Florida, United States)","visitors":"0","id":"af4507rqk7tb","column_3":null},"type":"Feature","geometry":null},{"properties":{"city":"immokalee (Florida, United States)","visitors":"677","id":"af4507vjwoyq","column_3":null},"type":"Feature","geometry":null},{"properties":{"city":"nokomis (Florida, United States)","visitors":"716","id":"af4507txzfr9","column_3":null},"type":"Feature","geometry":null},{"properties":{"city":"key largo (Florida, United States)","visitors":"1,030","id":"af45080ccraa","column_3":null},"type":"Feature","geometry":null},{"properties":{"city":"avon park (Florida, United States)","visitors":"535","id":"af45081kpu92","column_3":null},"type":"Feature","geometry":null},{"properties":{"city":"marathon (Florida, United States)","visitors":"787","id":"af45080t9qs6","column_3":null},"type":"Feature","geometry":null},{"properties":{"city":"bushnell (Florida, United States)","visitors":"526","id":"af4507odw4c2","column_3":null},"type":"Feature","geometry":null},{"properties":{"city":"marianna (Florida, United States)","visitors":"691","id":"af45080ld77i","column_3":null},"type":"Feature","geometry":null},{"properties":{"city":"gibsonton (Florida, United States)","visitors":"619","id":"af4507olt8sv","column_3":null},"type":"Feature","geometry":null},{"properties":{"city":"mary esther (Florida, United States)","visitors":"750","id":"af4507sn5lnh","column_3":null},"type":"Feature","geometry":null},{"properties":{"city":"lake butler (Florida, United States)","visitors":"969","id":"af4507rgo1f2","column_3":null},"type":"Feature","geometry":null},{"properties":{"city":"cantonment (Florida, United States)","visitors":"565","id":"af4507rx9crh","column_3":null},"type":"Feature","geometry":null},{"properties":{"city":"quincy (Florida, United States)","visitors":"831","id":"af4507o71rbc","column_3":null},"type":"Feature","geometry":null},{"properties":{"city":"north palm beach (Florida, United States)","visitors":"679","id":"af4507mxswxg","column_3":null},"type":"Feature","geometry":null},{"properties":{"city":"osprey (Florida, United States)","visitors":"675","id":"af4507z74pqf","column_3":null},"type":"Feature","geometry":null},{"properties":{"city":"perry (Florida, United States)","visitors":"730","id":"af4507qzszwz","column_3":null},"type":"Feature","geometry":null},{"properties":{"city":"ocklawaha (Florida, United States)","visitors":"698","id":"af4507nti5db","column_3":null},"type":"Feature","geometry":null},{"properties":{"city":"belle glade (Florida, United States)","visitors":"658","id":"af4507rlctb1","column_3":null},"type":"Feature","geometry":null},{"properties":{"city":"sanderson (Florida, United States)","visitors":"107","id":"af4507p89w66","column_3":null},"type":"Feature","geometry":null},{"properties":{"city":"arcadia (Florida, United States)","visitors":"487","id":"af4507qh3e0m","column_3":null},"type":"Feature","geometry":null},{"properties":{"city":"clewiston (Florida, United States)","visitors":"824","id":"af4507tlualh","column_3":null},"type":"Feature","geometry":null},{"properties":{"city":"flagler beach (Florida, United States)","visitors":"242","id":"af4507r34sz3","column_3":null},"type":"Feature","geometry":null},{"properties":{"city":"crystal river (Florida, United States)","visitors":"434","id":"af4507ypcznt","column_3":null},"type":"Feature","geometry":null},{"properties":{"city":"longboat key (Florida, United States)","visitors":"612","id":"af4507tk702c","column_3":null},"type":"Feature","geometry":null},{"properties":{"city":"mims (Florida, United States)","visitors":"367","id":"af4507rfki9v","column_3":null},"type":"Feature","geometry":null},{"properties":{"city":"wauchula (Florida, United States)","visitors":"600","id":"af4507nc322a","column_3":null},"type":"Feature","geometry":null},{"properties":{"city":"defuniak springs (Florida, United States)","visitors":"234","id":"af4507y2tqfs","column_3":null},"type":"Feature","geometry":null},{"properties":{"city":"blountstown (Florida, United States)","visitors":"232","id":"af4508137wp6","column_3":null},"type":"Feature","geometry":null},{"properties":{"city":"alachua (Florida, United States)","visitors":"2,079","id":"af4507wyaf28","column_3":null},"type":"Feature","geometry":null},{"properties":{"city":"ellenton (Florida, United States)","visitors":"272","id":"af4507qkvtzb","column_3":null},"type":"Feature","geometry":null},{"properties":{"city":"high springs (Florida, United States)","visitors":"2,411","id":"af45080jptj5","column_3":null},"type":"Feature","geometry":null},{"properties":{"city":"starke (Florida, United States)","visitors":"498","id":"af4507vjj9u3","column_3":null},"type":"Feature","geometry":null},{"properties":{"city":"miramar beach (Florida, United States)","visitors":"369","id":"af4507nbbsa3","column_3":null},"type":"Feature","geometry":null},{"properties":{"city":"bunnell (Florida, United States)","visitors":"714","id":"af450803a27b","column_3":null},"type":"Feature","geometry":null},{"properties":{"city":"silver springs (Florida, United States)","visitors":"288","id":"af4507w85e1s","column_3":null},"type":"Feature","geometry":null},{"properties":{"city":"weston (Florida, United States)","visitors":"207","id":"af4507vlpa57","column_3":null},"type":"Feature","geometry":null},{"properties":{"city":"interlachen (Florida, United States)","visitors":"442","id":"af4507z7oik9","column_3":null},"type":"Feature","geometry":null},{"properties":{"city":"havana (Florida, United States)","visitors":"201","id":"af450828jmrx","column_3":null},"type":"Feature","geometry":null},{"properties":{"city":"trenton (Florida, United States)","visitors":"319","id":"af4507mz6c67","column_3":null},"type":"Feature","geometry":null},{"properties":{"city":"eastlake weir (Florida, United States)","visitors":"20","id":"af4507r5ip1b","column_3":null},"type":"Feature","geometry":null},{"properties":{"city":"lake placid (Florida, United States)","visitors":"567","id":"af4507ytnmra","column_3":null},"type":"Feature","geometry":null},{"properties":{"city":"bonifay (Florida, United States)","visitors":"405","id":"af4507ueeunn","column_3":null},"type":"Feature","geometry":null},{"properties":{"city":"ft myers beach (Florida, United States)","visitors":"1,019","id":"af4507tddzgz","column_3":null},"type":"Feature","geometry":null},{"properties":{"city":"archer (Florida, United States)","visitors":"544","id":"af4507t92occ","column_3":null},"type":"Feature","geometry":null},{"properties":{"city":"chipley (Florida, United States)","visitors":"681","id":"af450829441q","column_3":null},"type":"Feature","geometry":null},{"properties":{"city":"labelle (Florida, United States)","visitors":"308","id":"af4507t6yp04","column_3":null},"type":"Feature","geometry":null},{"properties":{"city":"o brien (Florida, United States)","visitors":"4","id":"af4507toi9ds","column_3":null},"type":"Feature","geometry":null},{"properties":{"city":"elkton (Florida, United States)","visitors":"140","id":"af45082pvoxt","column_3":null},"type":"Feature","geometry":null},{"properties":{"city":"umatilla (Florida, United States)","visitors":"1,749","id":"af4507wpy77d","column_3":null},"type":"Feature","geometry":null},{"properties":{"city":"lecanto (Florida, United States)","visitors":"351","id":"af45081ov3bs","column_3":null},"type":"Feature","geometry":null},{"properties":{"city":"ponte vedra (Florida, United States)","visitors":"433","id":"af45080rjqpt","column_3":null},"type":"Feature","geometry":null},{"properties":{"city":"shalimar (Florida, United States)","visitors":"422","id":"af4507mrbdvx","column_3":null},"type":"Feature","geometry":null},{"properties":{"city":"zellwood (Florida, United States)","visitors":"290","id":"af450803fcso","column_3":null},"type":"Feature","geometry":null},{"properties":{"city":"grand island (Florida, United States)","visitors":"119","id":"af45082o86mq","column_3":null},"type":"Feature","geometry":null},{"properties":{"city":"weirsdale (Florida, United States)","visitors":"363","id":"af4507qn0v9n","column_3":null},"type":"Feature","geometry":null},{"properties":{"city":"clearwater beach (Florida, United States)","visitors":"506","id":"af4507twk9dw","column_3":null},"type":"Feature","geometry":null},{"properties":{"city":"bryceville (Florida, United States)","visitors":"69","id":"af4507prnzwl","column_3":null},"type":"Feature","geometry":null},{"properties":{"city":"sanibel (Florida, United States)","visitors":"295","id":"af45080gidja","column_3":null},"type":"Feature","geometry":null},{"properties":{"city":"melrose (Florida, United States)","visitors":"358","id":"af4507nxh1gn","column_3":null},"type":"Feature","geometry":null},{"properties":{"city":"keystone heights (Florida, United States)","visitors":"338","id":"af4507oa8slk","column_3":null},"type":"Feature","geometry":null},{"properties":{"city":"oxford (Florida, United States)","visitors":"234","id":"af4507pbxnty","column_3":null},"type":"Feature","geometry":null},{"properties":{"city":"hawthorne (Florida, United States)","visitors":"608","id":"af45082iwhgv","column_3":null},"type":"Feature","geometry":null},{"properties":{"city":"myakka city (Florida, United States)","visitors":"225","id":"af4507odp0f4","column_3":null},"type":"Feature","geometry":null},{"properties":{"city":"eglin afb (Florida, United States)","visitors":"93","id":"af4507z1xtni","column_3":null},"type":"Feature","geometry":null},{"properties":{"city":"williston (Florida, United States)","visitors":"169","id":"af45082dwf35","column_3":null},"type":"Feature","geometry":null},{"properties":{"city":"geneva (Florida, United States)","visitors":"268","id":"af4507u4x6nv","column_3":null},"type":"Feature","geometry":null},{"properties":{"city":"lake alfred (Florida, United States)","visitors":"1,253","id":"af4507pmru40","column_3":null},"type":"Feature","geometry":null},{"properties":{"city":"gotha (Florida, United States)","visitors":"992","id":"af4507smumxz","column_3":null},"type":"Feature","geometry":null},{"properties":{"city":"glenwood (Florida, United States)","visitors":"1,807","id":"af4507mm6xf0","column_3":null},"type":"Feature","geometry":null},{"properties":{"city":"freeport (Florida, United States)","visitors":"341","id":"af4508223k6l","column_3":null},"type":"Feature","geometry":null},{"properties":{"city":"youngstown (Florida, United States)","visitors":"109","id":"af450812ysve","column_3":null},"type":"Feature","geometry":null},{"properties":{"city":"tavernier (Florida, United States)","visitors":"452","id":"af4507uqkcxf","column_3":null},"type":"Feature","geometry":null},{"properties":{"city":"newberry (Florida, United States)","visitors":"422","id":"af4507sdg6ea","column_3":null},"type":"Feature","geometry":null},{"properties":{"city":"wimauma (Florida, United States)","visitors":"278","id":"af45082ybpxs","column_3":null},"type":"Feature","geometry":null},{"properties":{"city":"hastings (Florida, United States)","visitors":"52","id":"af4507tmeec6","column_3":null},"type":"Feature","geometry":null},{"properties":{"city":"christmas (Florida, United States)","visitors":"212","id":"af4507pcz2io","column_3":null},"type":"Feature","geometry":null},{"properties":{"city":"big pine key (Florida, United States)","visitors":"148","id":"af4507zytbrz","column_3":null},"type":"Feature","geometry":null},{"properties":{"city":"vernon (Florida, United States)","visitors":"59","id":"af45082vx519","column_3":null},"type":"Feature","geometry":null},{"properties":{"city":"ft mc coy (Florida, United States)","visitors":"138","id":"af4507pp08cd","column_3":null},"type":"Feature","geometry":null},{"properties":{"city":"islamorada (Florida, United States)","visitors":"139","id":"af4507npat2l","column_3":null},"type":"Feature","geometry":null},{"properties":{"city":"malabar (Florida, United States)","visitors":"135","id":"af4507wxmsfr","column_3":null},"type":"Feature","geometry":null},{"properties":{"city":"jasper (Florida, United States)","visitors":"108","id":"af4507v4c97f","column_3":null},"type":"Feature","geometry":null},{"properties":{"city":"citra (Florida, United States)","visitors":"161","id":"af4507qgq672","column_3":null},"type":"Feature","geometry":null},{"properties":{"city":"lake helen (Florida, United States)","visitors":"323","id":"af450801d8so","column_3":null},"type":"Feature","geometry":null},{"properties":{"city":"monticello (Florida, United States)","visitors":"300","id":"af4507ros1d1","column_3":null},"type":"Feature","geometry":null},{"properties":{"city":"polk city (Florida, United States)","visitors":"2,520","id":"af4507nlnlsf","column_3":null},"type":"Feature","geometry":null},{"properties":{"city":"ft meade (Florida, United States)","visitors":"146","id":"af4507o4vtps","column_3":null},"type":"Feature","geometry":null},{"properties":{"city":"webster (Florida, United States)","visitors":"210","id":"af4507saindv","column_3":null},"type":"Feature","geometry":null},{"properties":{"city":"indian rocks beach (Florida, United States)","visitors":"152","id":"af4507oiwy6b","column_3":null},"type":"Feature","geometry":null},{"properties":{"city":"pahokee (Florida, United States)","visitors":"154","id":"af4507tr215c","column_3":null},"type":"Feature","geometry":null},{"properties":{"city":"port saint joe (Florida, United States)","visitors":"450","id":"af4507rk69sa","column_3":null},"type":"Feature","geometry":null},{"properties":{"city":"howey in the hills (Florida, United States)","visitors":"331","id":"af4507oaackb","column_3":null},"type":"Feature","geometry":null},{"properties":{"city":"babson park (Florida, United States)","visitors":"300","id":"af4507vwg3fm","column_3":null},"type":"Feature","geometry":null},{"properties":{"city":"st james city (Florida, United States)","visitors":"51","id":"af4507w8jua0","column_3":null},"type":"Feature","geometry":null},{"properties":{"city":"madison (Florida, United States)","visitors":"274","id":"af4507ru5rkh","column_3":null},"type":"Feature","geometry":null},{"properties":{"city":"valparaiso (Florida, United States)","visitors":"227","id":"af4507norzze","column_3":null},"type":"Feature","geometry":null},{"properties":{"city":"bradenton beach (Florida, United States)","visitors":"139","id":"af4507t5syw4","column_3":null},"type":"Feature","geometry":null},{"properties":{"city":"rotonda west (Florida, United States)","visitors":"113","id":"af4507p7bbeg","column_3":null},"type":"Feature","geometry":null},{"properties":{"city":"summerland key (Florida, United States)","visitors":"126","id":"af4507zsb5ot","column_3":null},"type":"Feature","geometry":null},{"properties":{"city":"chiefland (Florida, United States)","visitors":"415","id":"af4507zqjsf3","column_3":null},"type":"Feature","geometry":null},{"properties":{"city":"bristol (Florida, United States)","visitors":"3,963","id":"af4507owt94n","column_3":null},"type":"Feature","geometry":null},{"properties":{"city":"wewahitchka (Florida, United States)","visitors":"291","id":"af4507nk89pa","column_3":null},"type":"Feature","geometry":null},{"properties":{"city":"pierson (Florida, United States)","visitors":"185","id":"af4507y31q6s","column_3":null},"type":"Feature","geometry":null},{"properties":{"city":"osteen (Florida, United States)","visitors":"71","id":"af4507ynmnn2","column_3":null},"type":"Feature","geometry":null},{"properties":{"city":"sneads (Florida, United States)","visitors":"101","id":"af4507prdygt","column_3":null},"type":"Feature","geometry":null},{"properties":{"city":"branford (Florida, United States)","visitors":"537","id":"af4507q1nkoh","column_3":null},"type":"Feature","geometry":null},{"properties":{"city":"floral city (Florida, United States)","visitors":"798","id":"af4507trgyam","column_3":null},"type":"Feature","geometry":null},{"properties":{"city":"lake panasoffkee (Florida, United States)","visitors":"451","id":"af45082ce967","column_3":null},"type":"Feature","geometry":null},{"properties":{"city":"de leon springs (Florida, United States)","visitors":"948","id":"af4507myjujc","column_3":null},"type":"Feature","geometry":null},{"properties":{"city":"astor (Florida, United States)","visitors":"58","id":"af450823lmzf","column_3":null},"type":"Feature","geometry":null},{"properties":{"city":"indiantown (Florida, United States)","visitors":"177","id":"af45081bwjv0","column_3":null},"type":"Feature","geometry":null},{"properties":{"city":"hampton (Florida, United States)","visitors":"44","id":"af45082s9qkb","column_3":null},"type":"Feature","geometry":null},{"properties":{"city":"fellsmere (Florida, United States)","visitors":"177","id":"af4507mv7n1x","column_3":null},"type":"Feature","geometry":null},{"properties":{"city":"astatula (Florida, United States)","visitors":"174","id":"af4507ywwxuf","column_3":null},"type":"Feature","geometry":null},{"properties":{"city":"frostproof (Florida, United States)","visitors":"238","id":"af4507pbvo8r","column_3":null},"type":"Feature","geometry":null},{"properties":{"city":"argyle (Florida, United States)","visitors":"713","id":"af4507nzbksq","column_3":null},"type":"Feature","geometry":null},{"properties":{"city":"san antonio (Florida, United States)","visitors":"161","id":"af4507p1ko9g","column_3":null},"type":"Feature","geometry":null},{"properties":{"city":"morriston (Florida, United States)","visitors":"132","id":"af4507ou8qo9","column_3":null},"type":"Feature","geometry":null},{"properties":{"city":"dundee (Florida, United States)","visitors":"1,219","id":"af450827kkcm","column_3":null},"type":"Feature","geometry":null},{"properties":{"city":"mascotte (Florida, United States)","visitors":"159","id":"af45081fq531","column_3":null},"type":"Feature","geometry":null},{"properties":{"city":"alva (Florida, United States)","visitors":"79","id":"af4507s3snge","column_3":null},"type":"Feature","geometry":null},{"properties":{"city":"satsuma (Florida, United States)","visitors":"7,350","id":"af4507qyjarr","column_3":null},"type":"Feature","geometry":null},{"properties":{"city":"crescent city (Florida, United States)","visitors":"4,427","id":"af45082jjbtv","column_3":null},"type":"Feature","geometry":null},{"properties":{"city":"crystal beach (Florida, United States)","visitors":"16","id":"af4507vf6wo9","column_3":null},"type":"Feature","geometry":null},{"properties":{"city":"intercession city (Florida, United States)","visitors":"11","id":"af4507q7l6th","column_3":null},"type":"Feature","geometry":null},{"properties":{"city":"apalachicola (Florida, United States)","visitors":"121","id":"af4507s7xdj2","column_3":null},"type":"Feature","geometry":null},{"properties":{"city":"scottsmoor (Florida, United States)","visitors":"6","id":"af4507yqu9h0","column_3":null},"type":"Feature","geometry":null},{"properties":{"city":"brooker (Florida, United States)","visitors":"143","id":"af4507pg5dps","column_3":null},"type":"Feature","geometry":null},{"properties":{"city":"zolfo springs (Florida, United States)","visitors":"68","id":"af4507wnzprs","column_3":null},"type":"Feature","geometry":null},{"properties":{"city":"bowling green (Florida, United States)","visitors":"100","id":"af45081pcx75","column_3":null},"type":"Feature","geometry":null},{"properties":{"city":"eagle lake (Florida, United States)","visitors":"21","id":"af4507tv5xwe","column_3":null},"type":"Feature","geometry":null},{"properties":{"city":"bronson (Florida, United States)","visitors":"156","id":"af45082gho66","column_3":null},"type":"Feature","geometry":null},{"properties":{"city":"pomona park (Florida, United States)","visitors":"5,567","id":"af4507vg0f03","column_3":null},"type":"Feature","geometry":null},{"properties":{"city":"laurel hill (Florida, United States)","visitors":"111","id":"af450801ozs1","column_3":null},"type":"Feature","geometry":null},{"properties":{"city":"east palatka (Florida, United States)","visitors":"12,903","id":"af4507qyyozb","column_3":null},"type":"Feature","geometry":null},{"properties":{"city":"belleair beach (Florida, United States)","visitors":"23","id":"af45082z9024","column_3":null},"type":"Feature","geometry":null},{"properties":{"city":"plymouth (Florida, United States)","visitors":"64","id":"af4507wvc3mn","column_3":null},"type":"Feature","geometry":null},{"properties":{"city":"salem (Florida, United States)","visitors":"0","id":"af45081fxj23","column_3":null},"type":"Feature","geometry":null},{"properties":{"city":"lee (Florida, United States)","visitors":"64","id":"af4507n4zc2q","column_3":null},"type":"Feature","geometry":null},{"properties":{"city":"grand ridge (Florida, United States)","visitors":"95","id":"af4507nrwf91","column_3":null},"type":"Feature","geometry":null},{"properties":{"city":"sumterville (Florida, United States)","visitors":"131","id":"af4507qdr47w","column_3":null},"type":"Feature","geometry":null},{"properties":{"city":"goodland (Florida, United States)","visitors":"112","id":"af450831z9qd","column_3":null},"type":"Feature","geometry":null},{"properties":{"city":"cross city (Florida, United States)","visitors":"42","id":"af45081gk6cd","column_3":null},"type":"Feature","geometry":null},{"properties":{"city":"old town (Florida, United States)","visitors":"264","id":"af4507v1p9i7","column_3":null},"type":"Feature","geometry":null},{"properties":{"city":"baker (Florida, United States)","visitors":"40","id":"af4507szgqjw","column_3":null},"type":"Feature","geometry":null},{"properties":{"city":"center hill (Florida, United States)","visitors":"796","id":"af4507wkxmhv","column_3":null},"type":"Feature","geometry":null},{"properties":{"city":"micanopy (Florida, United States)","visitors":"178","id":"af4507th61tj","column_3":null},"type":"Feature","geometry":null},{"properties":{"city":"paisley (Florida, United States)","visitors":"152","id":"af4507x4nfpv","column_3":null},"type":"Feature","geometry":null},{"properties":{"city":"moore haven (Florida, United States)","visitors":"78","id":"af4507ot35jr","column_3":null},"type":"Feature","geometry":null},{"properties":{"city":"wellborn (Florida, United States)","visitors":"139","id":"af4507xwzvev","column_3":null},"type":"Feature","geometry":null},{"properties":{"city":"ponce de leon (Florida, United States)","visitors":"45","id":"af4507xxx8ya","column_3":null},"type":"Feature","geometry":null},{"properties":{"city":"carrabelle (Florida, United States)","visitors":"66","id":"af4507xw3hwv","column_3":null},"type":"Feature","geometry":null},{"properties":{"city":"eastpoint (Florida, United States)","visitors":"143","id":"af45081v6hbc","column_3":null},"type":"Feature","geometry":null},{"properties":{"city":"florahome (Florida, United States)","visitors":"18","id":"af4507yplp33","column_3":null},"type":"Feature","geometry":null},{"properties":{"city":"bokeelia (Florida, United States)","visitors":"103","id":"af4507n8v3jv","column_3":null},"type":"Feature","geometry":null},{"properties":{"city":"grant (Florida, United States)","visitors":"24","id":"af4507oqbei6","column_3":null},"type":"Feature","geometry":null},{"properties":{"city":"altoona (Florida, United States)","visitors":"19","id":"af4507u29b6t","column_3":null},"type":"Feature","geometry":null},{"properties":{"city":"alford (Florida, United States)","visitors":"2,332","id":"af4507xsx39l","column_3":null},"type":"Feature","geometry":null},{"properties":{"city":"inglis (Florida, United States)","visitors":"84","id":"af4507uo3729","column_3":null},"type":"Feature","geometry":null},{"properties":{"city":"midway (Florida, United States)","visitors":"23","id":"af4507xv4d55","column_3":null},"type":"Feature","geometry":null},{"properties":{"city":"cottondale (Florida, United States)","visitors":"72","id":"af4507q4lqyn","column_3":null},"type":"Feature","geometry":null},{"properties":{"city":"key colony beach (Florida, United States)","visitors":"6","id":"af4507pdg0t0","column_3":null},"type":"Feature","geometry":null},{"properties":{"city":"altha (Florida, United States)","visitors":"170","id":"af4507pggbwj","column_3":null},"type":"Feature","geometry":null},{"properties":{"city":"greenwood (Florida, United States)","visitors":"63","id":"af45081x6dqf","column_3":null},"type":"Feature","geometry":null},{"properties":{"city":"ferndale (Florida, United States)","visitors":"101","id":"af4507xjxjwk","column_3":null},"type":"Feature","geometry":null},{"properties":{"city":"mayo (Florida, United States)","visitors":"196","id":"af45081v6o0q","column_3":null},"type":"Feature","geometry":null},{"properties":{"city":"boca grande (Florida, United States)","visitors":"55","id":"af4507p2gkb2","column_3":null},"type":"Feature","geometry":null},{"properties":{"city":"jennings (Florida, United States)","visitors":"24","id":"af4507xni2oz","column_3":null},"type":"Feature","geometry":null},{"properties":{"city":"lake como (Florida, United States)","visitors":"24","id":"af4507xl3ok5","column_3":null},"type":"Feature","geometry":null},{"properties":{"city":"greenville (Florida, United States)","visitors":"46","id":"af4507s2mjdg","column_3":null},"type":"Feature","geometry":null},{"properties":{"city":"sparr (Florida, United States)","visitors":"6","id":"af4507varvgv","column_3":null},"type":"Feature","geometry":null},{"properties":{"city":"alturas (Florida, United States)","visitors":"0","id":"af4507nqm00v","column_3":null},"type":"Feature","geometry":null},{"properties":{"city":"lawtey (Florida, United States)","visitors":"58","id":"af4507o3uck2","column_3":null},"type":"Feature","geometry":null},{"properties":{"city":"chattahoochee (Florida, United States)","visitors":"56","id":"af4507y96qnt","column_3":null},"type":"Feature","geometry":null},{"properties":{"city":"kenansville (Florida, United States)","visitors":"34","id":"af45081sg15y","column_3":null},"type":"Feature","geometry":null},{"properties":{"city":"oak hill (Florida, United States)","visitors":"16","id":"af450817u96h","column_3":null},"type":"Feature","geometry":null},{"properties":{"city":"panacea (Florida, United States)","visitors":"8","id":"af4507yd3l0w","column_3":null},"type":"Feature","geometry":null},{"properties":{"city":"patrick afb (Florida, United States)","visitors":"7","id":"af45082lf6qg","column_3":null},"type":"Feature","geometry":null},{"properties":{"city":"bell (Florida, United States)","visitors":"57","id":"af4507xg4u8o","column_3":null},"type":"Feature","geometry":null},{"properties":{"city":"pembroke pines (Florida, United States)","visitors":"3,922","id":"af4507pyrthm","column_3":null},"type":"Feature","geometry":null},{"properties":{"city":"woodville (Florida, United States)","visitors":"8","id":"af4507v2nb6z","column_3":null},"type":"Feature","geometry":null},{"properties":{"city":"campbellton (Florida, United States)","visitors":"1","id":"af4507tucav5","column_3":null},"type":"Feature","geometry":null},{"properties":{"city":"reddick (Florida, United States)","visitors":"46","id":"af4507muviq0","column_3":null},"type":"Feature","geometry":null},{"properties":{"city":"placida (Florida, United States)","visitors":"62","id":"af4507v9h7qc","column_3":null},"type":"Feature","geometry":null},{"properties":{"city":"mount pleasant (Florida, United States)","visitors":"37","id":"af4507nr35j7","column_3":null},"type":"Feature","geometry":null},{"properties":{"city":"raiford (Florida, United States)","visitors":"26","id":"af4507ru3n6a","column_3":null},"type":"Feature","geometry":null},{"properties":{"city":"molino (Florida, United States)","visitors":"52","id":"af4507ww5gdv","column_3":null},"type":"Feature","geometry":null},{"properties":{"city":"cedar key (Florida, United States)","visitors":"31","id":"af4507rxzhg8","column_3":null},"type":"Feature","geometry":null},{"properties":{"city":"white springs (Florida, United States)","visitors":"22","id":"af4507vl4cg4","column_3":null},"type":"Feature","geometry":null},{"properties":{"city":"minneola (Florida, United States)","visitors":"7","id":"af4507nxvouk","column_3":null},"type":"Feature","geometry":null},{"properties":{"city":"bascom (Florida, United States)","visitors":"4","id":"af4507o8d382","column_3":null},"type":"Feature","geometry":null},{"properties":{"city":"caryville (Florida, United States)","visitors":"2","id":"af45082ucwbe","column_3":null},"type":"Feature","geometry":null},{"properties":{"city":"gulf hammock (Florida, United States)","visitors":"2","id":"af4507qhp0fv","column_3":null},"type":"Feature","geometry":null},{"properties":{"city":"south bay (Florida, United States)","visitors":"243","id":"af45080nafrx","column_3":null},"type":"Feature","geometry":null},{"properties":{"city":"welaka (Florida, United States)","visitors":"81","id":"af4507muexhc","column_3":null},"type":"Feature","geometry":null},{"properties":{"city":"goldenrod (Florida, United States)","visitors":"2,742","id":"af45080ewfec","column_3":null},"type":"Feature","geometry":null},{"properties":{"city":"yalaha (Florida, United States)","visitors":"73","id":"af4507n39ykp","column_3":null},"type":"Feature","geometry":null},{"properties":{"city":"waldo (Florida, United States)","visitors":"73","id":"af4507p97x1o","column_3":null},"type":"Feature","geometry":null},{"properties":{"city":"oakland (Florida, United States)","visitors":"49","id":"af4507uqyxuc","column_3":null},"type":"Feature","geometry":null},{"properties":{"city":"seville (Florida, United States)","visitors":"19","id":"af4507rxz7om","column_3":null},"type":"Feature","geometry":null},{"properties":{"city":"felda (Florida, United States)","visitors":"294","id":"af45082vdp8g","column_3":null},"type":"Feature","geometry":null},{"properties":{"city":"century (Florida, United States)","visitors":"31","id":"af4507prdizz","column_3":null},"type":"Feature","geometry":null},{"properties":{"city":"lorida (Florida, United States)","visitors":"17","id":"af45080o1nxr","column_3":null},"type":"Feature","geometry":null},{"properties":{"city":"hollister (Florida, United States)","visitors":"10","id":"af4507nwatby","column_3":null},"type":"Feature","geometry":null},{"properties":{"city":"lake harbor (Florida, United States)","visitors":"0","id":"af4507q079vm","column_3":null},"type":"Feature","geometry":null},{"properties":{"city":"tangerine (Florida, United States)","visitors":"1,814","id":"af4507ow3o1m","column_3":null},"type":"Feature","geometry":null},{"properties":{"city":"worthington springs (Florida, United States)","visitors":"14","id":"af45081q7ta8","column_3":null},"type":"Feature","geometry":null},{"properties":{"city":"lakeshore (Florida, United States)","visitors":"0","id":"af450802ft71","column_3":null},"type":"Feature","geometry":null},{"properties":{"city":"sharpes (Florida, United States)","visitors":"4","id":"af4507wu0ysw","column_3":null},"type":"Feature","geometry":null},{"properties":{"city":"mc alpin (Florida, United States)","visitors":"5","id":"af4507tg69t6","column_3":null},"type":"Feature","geometry":null},{"properties":{"city":"gretna (Florida, United States)","visitors":"3","id":"af4507ohxauq","column_3":null},"type":"Feature","geometry":null},{"properties":{"city":"st leo (Florida, United States)","visitors":"299","id":"af4507ub5j0x","column_3":null},"type":"Feature","geometry":null},{"properties":{"city":"fountain (Florida, United States)","visitors":"89","id":"af450813uon5","column_3":null},"type":"Feature","geometry":null},{"properties":{"city":"san mateo (Florida, United States)","visitors":"15","id":"af4507royqo9","column_3":null},"type":"Feature","geometry":null},{"properties":{"city":"eaton park (Florida, United States)","visitors":"14","id":"af4507z0t6ni","column_3":null},"type":"Feature","geometry":null},{"properties":{"city":"rosemary beach (Florida, United States)","visitors":"13","id":"af4507z4eed9","column_3":null},"type":"Feature","geometry":null},{"properties":{"city":"kathleen (Florida, United States)","visitors":"207","id":"af4507noizfi","column_3":null},"type":"Feature","geometry":null},{"properties":{"city":"malone (Florida, United States)","visitors":"57","id":"af4507qxffbe","column_3":null},"type":"Feature","geometry":null},{"properties":{"city":"westville (Florida, United States)","visitors":"55","id":"af4507qf02pk","column_3":null},"type":"Feature","geometry":null},{"properties":{"city":"okahumpka (Florida, United States)","visitors":"46","id":"af4507t2eitt","column_3":null},"type":"Feature","geometry":null},{"properties":{"city":"anna maria (Florida, United States)","visitors":"8","id":"af4507uwa3m1","column_3":null},"type":"Feature","geometry":null},{"properties":{"city":"mid florida (Florida, United States)","visitors":"0","id":"af45082t7jfy","column_3":null},"type":"Feature","geometry":null},{"properties":{"city":"lake hamilton (Florida, United States)","visitors":"32","id":"af4507o2g3z7","column_3":null},"type":"Feature","geometry":null},{"properties":{"city":"murdock (Florida, United States)","visitors":"7","id":"af4507y7pjpb","column_3":null},"type":"Feature","geometry":null},{"properties":{"city":"mexico beach (Florida, United States)","visitors":"2","id":"af45081hch95","column_3":null},"type":"Feature","geometry":null},{"properties":{"city":"loughman (Florida, United States)","visitors":"25","id":"af4507u1fdsg","column_3":null},"type":"Feature","geometry":null},{"properties":{"city":"jay (Florida, United States)","visitors":"23","id":"af4507zjd9xp","column_3":null},"type":"Feature","geometry":null},{"properties":{"city":"highland city (Florida, United States)","visitors":"21","id":"af4507vl2fye","column_3":null},"type":"Feature","geometry":null},{"properties":{"city":"holt (Florida, United States)","visitors":"15","id":"af45082cw3yn","column_3":null},"type":"Feature","geometry":null},{"properties":{"city":"aripeka (Florida, United States)","visitors":"0","id":"af4507ufw8gg","column_3":null},"type":"Feature","geometry":null},{"properties":{"city":"steinhatchee (Florida, United States)","visitors":"12","id":"af4507wvterc","column_3":null},"type":"Feature","geometry":null},{"properties":{"city":"ft ogden (Florida, United States)","visitors":"3","id":"af4507yisaf6","column_3":null},"type":"Feature","geometry":null},{"properties":{"city":"waverly (Florida, United States)","visitors":"3","id":"af4507x8ehf4","column_3":null},"type":"Feature","geometry":null},{"properties":{"city":"crystal springs (Florida, United States)","visitors":"14","id":"af4507qvxdon","column_3":null},"type":"Feature","geometry":null},{"properties":{"city":"nalcrest (Florida, United States)","visitors":"32","id":"af4507squrm5","column_3":null},"type":"Feature","geometry":null},{"properties":{"city":"lake monroe (Florida, United States)","visitors":"5","id":"af4507om3vdo","column_3":null},"type":"Feature","geometry":null},{"properties":{"city":"durant (Florida, United States)","visitors":"1","id":"af4507zx5yud","column_3":null},"type":"Feature","geometry":null},{"properties":{"city":"indian lake estates (Florida, United States)","visitors":"0","id":"af4507p3gntl","column_3":null},"type":"Feature","geometry":null},{"properties":{"city":"putnam hall (Florida, United States)","visitors":"0","id":"af45082mx3i8","column_3":null},"type":"Feature","geometry":null},{"properties":{"city":"vanderbilt beach (Florida, United States)","visitors":"2,776","id":"af4507yslw46","column_3":null},"type":"Feature","geometry":null},{"properties":{"city":"georgetown (Florida, United States)","visitors":"86","id":"af4507y8zo1u","column_3":null},"type":"Feature","geometry":null},{"properties":{"city":"clarcona (Florida, United States)","visitors":"22","id":"af4507vgz1ka","column_3":null},"type":"Feature","geometry":null},{"properties":{"city":"lamont (Florida, United States)","visitors":"14","id":"af4507nslp8r","column_3":null},"type":"Feature","geometry":null},{"properties":{"city":"lowell (Florida, United States)","visitors":"4","id":"af4507pr3ma5","column_3":null},"type":"Feature","geometry":null},{"properties":{"city":"wausau (Florida, United States)","visitors":"0","id":"af4507rhufvy","column_3":null},"type":"Feature","geometry":null},{"properties":{"city":"mango (Florida, United States)","visitors":"44","id":"af4507r9cpvs","column_3":null},"type":"Feature","geometry":null},{"properties":{"city":"trilby (Florida, United States)","visitors":"16","id":"af4507x6odvm","column_3":null},"type":"Feature","geometry":null},{"properties":{"city":"marathon shores (Florida, United States)","visitors":"0","id":"af4507qdksue","column_3":null},"type":"Feature","geometry":null},{"properties":{"city":"port salerno (Florida, United States)","visitors":"0","id":"af4507sdbw55","column_3":null},"type":"Feature","geometry":null},{"properties":{"city":"orange lake (Florida, United States)","visitors":"134","id":"af4508058ju2","column_3":null},"type":"Feature","geometry":null},{"properties":{"city":"oneco (Florida, United States)","visitors":"83","id":"af4507pyc2wt","column_3":null},"type":"Feature","geometry":null},{"properties":{"city":"sopchoppy (Florida, United States)","visitors":"55","id":"af45082zwjzy","column_3":null},"type":"Feature","geometry":null},{"properties":{"city":"captiva (Florida, United States)","visitors":"26","id":"af4507qzg4ih","column_3":null},"type":"Feature","geometry":null},{"properties":{"city":"earleton (Florida, United States)","visitors":"12","id":"af4507w2xxca","column_3":null},"type":"Feature","geometry":null},{"properties":{"city":"everglades city (Florida, United States)","visitors":"6","id":"af4507shrcue","column_3":null},"type":"Feature","geometry":null},{"properties":{"city":"sydney (Florida, United States)","visitors":"5","id":"af45080jz5it","column_3":null},"type":"Feature","geometry":null},{"properties":{"city":"ozona (Florida, United States)","visitors":"1","id":"af4507yjvc3c","column_3":null},"type":"Feature","geometry":null},{"properties":{"city":"roseland (Florida, United States)","visitors":"1","id":"af4507pty4sp","column_3":null},"type":"Feature","geometry":null},{"properties":{"city":"clarksville (Florida, United States)","visitors":"44","id":"af45080zosf2","column_3":null},"type":"Feature","geometry":null},{"properties":{"city":"penney farms (Florida, United States)","visitors":"33","id":"af4507nazmlf","column_3":null},"type":"Feature","geometry":null},{"properties":{"city":"orange springs (Florida, United States)","visitors":"31","id":"af4507od0vam","column_3":null},"type":"Feature","geometry":null},{"properties":{"city":"holder (Florida, United States)","visitors":"9","id":"af45080mz5vo","column_3":null},"type":"Feature","geometry":null},{"properties":{"city":"mc david (Florida, United States)","visitors":"5","id":"af4507oqargv","column_3":null},"type":"Feature","geometry":null},{"properties":{"city":"olustee (Florida, United States)","visitors":"3","id":"af4507z9d9pr","column_3":null},"type":"Feature","geometry":null},{"properties":{"city":"st marks (Florida, United States)","visitors":"3","id":"af4507y9sgh4","column_3":null},"type":"Feature","geometry":null},{"properties":{"city":"nocatee (Florida, United States)","visitors":"2","id":"af4507oi6wod","column_3":null},"type":"Feature","geometry":null},{"properties":{"city":"lake geneva (Florida, United States)","visitors":"0","id":"af4507qd0r3f","column_3":null},"type":"Feature","geometry":null},{"properties":{"city":"graham (Florida, United States)","visitors":"0","id":"af4507ork253","column_3":null},"type":"Feature","geometry":null},{"properties":{"city":"terra ceia (Florida, United States)","visitors":"8","id":"af4507v1f6ml","column_3":null},"type":"Feature","geometry":null},{"properties":{"city":"lacoochee (Florida, United States)","visitors":"7","id":"af450820uya2","column_3":null},"type":"Feature","geometry":null},{"properties":{"city":"venus (Florida, United States)","visitors":"5","id":"af45082tyx57","column_3":null},"type":"Feature","geometry":null},{"properties":{"city":"copeland (Florida, United States)","visitors":"2","id":"af4507qphb4v","column_3":null},"type":"Feature","geometry":null},{"properties":{"city":"candler (Florida, United States)","visitors":"1","id":"af4507sgj01t","column_3":null},"type":"Feature","geometry":null},{"properties":{"city":"nichols (Florida, United States)","visitors":"0","id":"af450820yn25","column_3":null},"type":"Feature","geometry":null},{"properties":{"city":"hosford (Florida, United States)","visitors":"33","id":"af4507zgqtwt","column_3":null},"type":"Feature","geometry":null},{"properties":{"city":"sun city (Florida, United States)","visitors":"13","id":"af4507ts1apq","column_3":null},"type":"Feature","geometry":null},{"properties":{"city":"ebro (Florida, United States)","visitors":"12","id":"af4507xnmm1l","column_3":null},"type":"Feature","geometry":null},{"properties":{"city":"bagdad (Florida, United States)","visitors":"6","id":"af4507wr9bsw","column_3":null},"type":"Feature","geometry":null},{"properties":{"city":"fairfield (Florida, United States)","visitors":"4","id":"af4507ovn29a","column_3":null},"type":"Feature","geometry":null},{"properties":{"city":"hurlburt field (Florida, United States)","visitors":"4","id":"af4507paqor6","column_3":null},"type":"Feature","geometry":null},{"properties":{"city":"homosassa springs (Florida, United States)","visitors":"1","id":"af4507t630pw","column_3":null},"type":"Feature","geometry":null},{"properties":{"city":"cortez (Florida, United States)","visitors":"0","id":"af4507tf2jfs","column_3":null},"type":"Feature","geometry":null},{"properties":{"city":"wacissa (Florida, United States)","visitors":"0","id":"af4507s5erkc","column_3":null},"type":"Feature","geometry":null},{"properties":{"city":"bostwick (Florida, United States)","visitors":"25","id":"af4507q898ur","column_3":null},"type":"Feature","geometry":null},{"properties":{"city":"yankeetown (Florida, United States)","visitors":"11","id":"af4507ubxq88","column_3":null},"type":"Feature","geometry":null},{"properties":{"city":"elfers (Florida, United States)","visitors":"4","id":"af4507skzqb6","column_3":null},"type":"Feature","geometry":null},{"properties":{"city":"gonzalez (Florida, United States)","visitors":"1","id":"af450811adii","column_3":null},"type":"Feature","geometry":null},{"properties":{"city":"tallevast (Florida, United States)","visitors":"1","id":"af4507prhq3r","column_3":null},"type":"Feature","geometry":null},{"properties":{"city":"pinetta (Florida, United States)","visitors":"0","id":"af4507s41jy1","column_3":null},"type":"Feature","geometry":null},{"properties":{"city":"palmdale (Florida, United States)","visitors":"0","id":"af4507sncxrd","column_3":null},"type":"Feature","geometry":null},{"properties":{"city":"canal point (Florida, United States)","visitors":"308","id":"af4507y59qgy","column_3":null},"type":"Feature","geometry":null},{"properties":{"city":"river ranch (Florida, United States)","visitors":"7","id":"af4507vdfq4v","column_3":null},"type":"Feature","geometry":null},{"properties":{"city":"grandin (Florida, United States)","visitors":"1","id":"af4507mpqk9z","column_3":null},"type":"Feature","geometry":null},{"properties":{"city":"lloyd (Florida, United States)","visitors":"0","id":"af4507vnvmjd","column_3":null},"type":"Feature","geometry":null},{"properties":{"city":"lulu (Florida, United States)","visitors":"0","id":"af4507xqbwsf","column_3":null},"type":"Feature","geometry":null},{"properties":{"city":"ona (Florida, United States)","visitors":"14","id":"af45081877l5","column_3":null},"type":"Feature","geometry":null},{"properties":{"city":"istachatta (Florida, United States)","visitors":"1","id":"af4507znm5k6","column_3":null},"type":"Feature","geometry":null},{"properties":{"city":"balm (Florida, United States)","visitors":"1","id":"af4507zp9ovu","column_3":null},"type":"Feature","geometry":null},{"properties":{"city":"killarney (Florida, United States)","visitors":"0","id":"af4507okix2a","column_3":null},"type":"Feature","geometry":null},{"properties":{"city":"paxton (Florida, United States)","visitors":"0","id":"af4507plfw4o","column_3":null},"type":"Feature","geometry":null},{"properties":{"city":"chokoloskee (Florida, United States)","visitors":"0","id":"af4507tcflwg","column_3":null},"type":"Feature","geometry":null},{"properties":{"city":"cassadaga (Florida, United States)","visitors":"0","id":"af4507o9vfmg","column_3":null},"type":"Feature","geometry":null},{"properties":{"city":"greensboro (Florida, United States)","visitors":"0","id":"af4507wnaijm","column_3":null},"type":"Feature","geometry":null},{"properties":{"city":"la crosse (Florida, United States)","visitors":"22","id":"af4507p0grxy","column_3":null},"type":"Feature","geometry":null},{"properties":{"city":"pineland (Florida, United States)","visitors":"9","id":"af4507o15j9n","column_3":null},"type":"Feature","geometry":null},{"properties":{"city":"ochopee (Florida, United States)","visitors":"9","id":"af4507uc0xjp","column_3":null},"type":"Feature","geometry":null},{"properties":{"city":"bay pines (Florida, United States)","visitors":"6","id":"af4507p5uels","column_3":null},"type":"Feature","geometry":null},{"properties":{"city":"horseshoe beach (Florida, United States)","visitors":"4","id":"af4507no7j7u","column_3":null},"type":"Feature","geometry":null},{"properties":{"city":"nobleton (Florida, United States)","visitors":"1","id":"af4507qoooa9","column_3":null},"type":"Feature","geometry":null},{"properties":{"city":"winter beach (Florida, United States)","visitors":"0","id":"af4507pylnto","column_3":null},"type":"Feature","geometry":null},{"properties":{"city":"day (Florida, United States)","visitors":"0","id":"af4507nzgcqm","column_3":null},"type":"Feature","geometry":null},{"properties":{"city":"viera (Florida, United States)","visitors":"4,964","id":"af4507q5k7zf","column_3":null},"type":"Feature","geometry":null},{"properties":{"city":"coral gables (Florida, United States)","visitors":"1,163","id":"af4507zrqa97","column_3":null},"type":"Feature","geometry":null},{"properties":{"city":"mcdavid (Florida, United States)","visitors":"43","id":"af4507xldg8y","column_3":null},"type":"Feature","geometry":null},{"properties":{"city":"Unknown","visitors":"13","id":"af4507o8fw0q","column_3":null},"type":"Feature","geometry":null},{"properties":{"city":"wabasso (Florida, United States)","visitors":"8","id":"af4507qb3643","column_3":null},"type":"Feature","geometry":null},{"properties":{"city":"otter creek (Florida, United States)","visitors":"8","id":"af4507sa8z0o","column_3":null},"type":"Feature","geometry":null},{"properties":{"city":"homeland (Florida, United States)","visitors":"7","id":"af4507wvbclr","column_3":null},"type":"Feature","geometry":null},{"properties":{"city":"suwannee (Florida, United States)","visitors":"7","id":"af4507wrpyys","column_3":null},"type":"Feature","geometry":null},{"properties":{"city":"holmes beach (Florida, United States)","visitors":"4","id":"af4507s910mq","column_3":null},"type":"Feature","geometry":null},{"properties":{"city":"long key (Florida, United States)","visitors":"4","id":"af4507xggq4l","column_3":null},"type":"Feature","geometry":null},{"properties":{"city":"lanark village (Florida, United States)","visitors":"1","id":"af45081oilu7","column_3":null},"type":"Feature","geometry":null}],"is_temporal":false,"author":{"url":"","metadata":"","contact_name":"","contact_address":"","source":"","contact_phone":""},"source":"","pagination":{"sort":null,"start":0,"total":510,"limit":1000000},"state":"complete","tags":"","published":"2014-08-16T23:46:56-04:00","id":368140}