{"type":"FeatureCollection","data_type":"Dataset","url_type":null,"permissions":[{"permissions":{"download":true,"view":true},"group_id":"everyone"}],"classification":null,"title":"Equipment","count":152,"stream_id":368425,"contributor":{"url":"http://geocommons.com/users/75427","name":"ssanyal"},"data_attributes":null,"calculation_params":null,"icon_link":null,"link":"http://geocommons.com/overlays/368425.json","extent":[-122.788,26.0811,-70.3658,47.7016],"geometry_types":["point"],"unique_name":null,"name":"Equipment","feature_count":152,"description":"","next_feature":null,"is_raster":false,"short_classification":"Y","stats":{"total equip":{"max":123,"variance":223.672316138027,"mean":10.3486842105263,"stdev":14.9556783911004,"min":0,"median":6}},"features":[{"properties":{"city":"Englewood","region":"Central","total equip":2,"zipcode":"45322","geo_score":0.708,"id":"af4djc5s242x","address":"600 Union Blvd.","geo_precision":"street","state":"OH"},"type":"Feature","geometry":{"type":"Point","coordinates":[-84.311712,39.878772]}},{"properties":{"city":"Lexington","region":"Central","total equip":1,"zipcode":"40509","geo_score":0.471,"id":"af4djc8i2fwb","address":"921 Beasley Street, Suite 130","geo_precision":"street","state":"KY"},"type":"Feature","geometry":{"type":"Point","coordinates":[-84.446714,38.041255]}},{"properties":{"city":"Beattyville","region":"Central","total equip":5,"zipcode":"41311","geo_score":0.707,"id":"af4djc5kxhxu","address":"1071 Highway 11 N","geo_precision":"range","state":"KY"},"type":"Feature","geometry":{"type":"Point","coordinates":[-83.707264,37.560442]}},{"properties":{"city":"Quincy","region":"Central","total equip":2,"zipcode":"62301","geo_score":0.823,"id":"af4djbwu80tp","address":"1114 Broadway","geo_precision":"range","state":"IL"},"type":"Feature","geometry":{"type":"Point","coordinates":[-91.396738,39.935492]}},{"properties":{"city":"Kansas City","region":"Central","total equip":8,"zipcode":"64137","geo_score":0.571,"id":"af4djbym4ssf","address":"10400 Hickman Mills Dr., Suite 200","geo_precision":"street","state":"MO"},"type":"Feature","geometry":{"type":"Point","coordinates":[-94.519585,39.117906]}},{"properties":{"city":"Ashland","region":"Central","total equip":1,"zipcode":"41101","geo_score":0.902,"id":"af4djcae6q2v","address":"720 Greenup Avenue","geo_precision":"range","state":"KY"},"type":"Feature","geometry":{"type":"Point","coordinates":[-82.648031,38.484178]}},{"properties":{"city":"Cincinnati","region":"Central","total equip":24,"zipcode":"45246","geo_score":0.902,"id":"af4djbzvkwf1","address":"5549 Spellmire Dr.","geo_precision":"range","state":"OH"},"type":"Feature","geometry":{"type":"Point","coordinates":[-84.445073,39.302434]}},{"properties":{"city":"Nitro","region":"Central","total equip":9,"zipcode":"25143","geo_score":0.735,"id":"af4djbxei7nh","address":"4200 First Avenue, Suite 200","geo_precision":"street","state":"WV"},"type":"Feature","geometry":{"type":"Point","coordinates":[-81.844118,38.413323]}},{"properties":{"city":"Belleville","region":"Central","total equip":8,"zipcode":"62220","geo_score":0.902,"id":"af4djby8cco8","address":"1520 Mascoutah Ave","geo_precision":"range","state":"IL"},"type":"Feature","geometry":{"type":"Point","coordinates":[-89.959419,38.504981]}},{"properties":{"city":"Columbia","region":"Central","total equip":5,"zipcode":"65201","geo_score":0.462,"id":"af4djc9kitj9","address":"4509 I-70 Drive S.E.","geo_precision":"street","state":"MO"},"type":"Feature","geometry":{"type":"Point","coordinates":[-92.337369,38.964985]}},{"properties":{"city":"Florissant","region":"Central","total equip":31,"zipcode":"63031","geo_score":0.902,"id":"af4djcalvsab","address":"345 Dunn Road","geo_precision":"range","state":"MO"},"type":"Feature","geometry":{"type":"Point","coordinates":[-90.334368,38.775981]}},{"properties":{"city":"Springfield","region":"Central","total equip":9,"zipcode":"65807","geo_score":0.74,"id":"af4djbx6omi4","address":"1947 West Sunset, Suite 200","geo_precision":"street","state":"MO"},"type":"Feature","geometry":{"type":"Point","coordinates":[-93.29399,37.16636]}},{"properties":{"city":"West Springfield","region":"Central","total equip":12,"zipcode":"1089","geo_score":0.902,"id":"af4djc818ja1","address":"85 Interstate Drive","geo_precision":"range","state":"MA"},"type":"Feature","geometry":{"type":"Point","coordinates":[-72.649796,42.161451]}},{"properties":{"city":"Farmington","region":"Central","total equip":0,"zipcode":"63640","geo_score":0.462,"id":"af4djc9l4tht","address":"312 E. Karsch Blvd.","geo_precision":"street","state":"MO"},"type":"Feature","geometry":{"type":"Point","coordinates":[-90.417138,37.78682]}},{"properties":{"city":"Cleveland","region":"Central","total equip":4,"zipcode":"37311","geo_score":0.851,"id":"af4djbvle2ha","address":"145 Industrial Way SW","geo_precision":"range","state":"TN"},"type":"Feature","geometry":{"type":"Point","coordinates":[-84.908577,35.122191]}},{"properties":{"city":"Coventry","region":"Central","total equip":31,"zipcode":"2816","geo_score":0.902,"id":"af4djc14qwjd","address":"30 Centre of New England Blvd","geo_precision":"range","state":"RI"},"type":"Feature","geometry":{"type":"Point","coordinates":[-71.568527,41.662045]}},{"properties":{"city":"Morgantown","region":"Central","total equip":24,"zipcode":"26505","geo_score":0.49,"id":"af4djbz9nfhe","address":"1401 Earl Core Rd., Suite A","geo_precision":"street","state":"WV"},"type":"Feature","geometry":{"type":"Point","coordinates":[-79.92168,39.610617]}},{"properties":{"city":"Wichita","region":"Central","total equip":2,"zipcode":"67226","geo_score":0.468,"id":"af4djc991rcx","address":"8200 E. 34th Street N, Bldg 2000","geo_precision":"street","state":"KS"},"type":"Feature","geometry":{"type":"Point","coordinates":[-97.260564,37.747349]}},{"properties":{"city":"Wakefield","region":"Central","total equip":34,"zipcode":"1880","geo_score":0.902,"id":"af4djbz4a27k","address":"360 Audubon Rd.","geo_precision":"range","state":"MA"},"type":"Feature","geometry":{"type":"Point","coordinates":[-71.050376,42.5196]}},{"properties":{"city":"Cheshire","region":"Central","total equip":123,"zipcode":"6410","geo_score":0.902,"id":"af4djc7nl9d1","address":"525 Knotter Drive","geo_precision":"range","state":"CT"},"type":"Feature","geometry":{"type":"Point","coordinates":[-72.919961,41.549931]}},{"properties":{"city":"Herrin","region":"Central","total equip":6,"zipcode":"62948","geo_score":0.902,"id":"af4djcamc6xp","address":"120 Lou Ann Drive","geo_precision":"range","state":"IL"},"type":"Feature","geometry":{"type":"Point","coordinates":[-89.024162,37.752311]}},{"properties":{"city":"Westbrook","region":"Central","total equip":43,"zipcode":"4092","geo_score":0.902,"id":"af4djc6ruwss","address":"39 Eisenhower Drive","geo_precision":"range","state":"ME"},"type":"Feature","geometry":{"type":"Point","coordinates":[-70.365768,43.659168]}},{"properties":{"city":"Memphis","region":"Central","total equip":5,"zipcode":"38134","geo_score":0.527,"id":"af4djbxl8l73","address":"5055 Covington Way, Suite 6","geo_precision":"street","state":"TN"},"type":"Feature","geometry":{"type":"Point","coordinates":[-89.895151,35.182601]}},{"properties":{"city":"Nashville","region":"Central","total equip":9,"zipcode":"37210","geo_score":0.902,"id":"af4djbv7457c","address":"1682 Elm Hill Pike","geo_precision":"range","state":"TN"},"type":"Feature","geometry":{"type":"Point","coordinates":[-86.712024,36.144816]}},{"properties":{"city":"Londonderry","region":"Central","total equip":18,"zipcode":"3053","geo_score":0.488,"id":"af4djbzr05as","address":"13 Commerce Avenue","geo_precision":"zip","state":"NH"},"type":"Feature","geometry":{"type":"Point","coordinates":[-71.398954,42.918141]}},{"properties":{"city":"Urbandale","region":"Central","total equip":5,"zipcode":"50323","geo_score":0.902,"id":"af4djbw957qj","address":"4621 121st Street","geo_precision":"range","state":"IA"},"type":"Feature","geometry":{"type":"Point","coordinates":[-93.781629,41.649321]}},{"properties":{"city":"Brooklyn Center","region":"Central","total equip":17,"zipcode":"55429","geo_score":0.902,"id":"af4djbwt3rqd","address":"4001 Lake Breeze Avenue","geo_precision":"range","state":"MN"},"type":"Feature","geometry":{"type":"Point","coordinates":[-93.332892,45.043076]}},{"properties":{"city":"North Platte","region":"Central","total equip":1,"zipcode":"69101","geo_score":0.464,"id":"af4djc2u544x","address":"3700 W. Philip Avenue","geo_precision":"street","state":"NE"},"type":"Feature","geometry":{"type":"Point","coordinates":[-100.8061,41.126394]}},{"properties":{"city":"Omaha","region":"Central","total equip":9,"zipcode":"68128","geo_score":0.329,"id":"af4djc8zt65p","address":"8402 S. 117th Street, Suites 300 &amp; 400","geo_precision":"street","state":"NE"},"type":"Feature","geometry":{"type":"Point","coordinates":[-96.094825,41.17677]}},{"properties":{"city":"Sioux Falls","region":"Central","total equip":5,"zipcode":"57104","geo_score":0.462,"id":"af4djbv9a3t5","address":"709 N. Kiwanis Ave","geo_precision":"street","state":"SD"},"type":"Feature","geometry":{"type":"Point","coordinates":[-96.761144,43.547442]}},{"properties":{"city":"Oklahoma City","region":"Central","total equip":7,"zipcode":"73108","geo_score":0.571,"id":"af4djbz2a5jw","address":"4141 Highline Blvd., Suite 100","geo_precision":"street","state":"OK"},"type":"Feature","geometry":{"type":"Point","coordinates":[-97.503532,35.380244]}},{"properties":{"city":"Tulsa","region":"Central","total equip":2,"zipcode":"74146","geo_score":0.848,"id":"af4djc9ydat1","address":"5460 South 103rd East Ave.","geo_precision":"range","state":"OK"},"type":"Feature","geometry":{"type":"Point","coordinates":[-95.861607,36.085407]}},{"properties":{"city":"North Grafton","region":"Central","total equip":1,"zipcode":"1545","geo_score":0.767,"id":"af4djbxq6yzx","address":"574B Hartford Turnpike","geo_precision":"range","state":"MA"},"type":"Feature","geometry":{"type":"Point","coordinates":[-71.697434,42.261396]}},{"properties":{"city":"Huntsville","region":"Central","total equip":12,"zipcode":"35806","geo_score":0.415,"id":"af4djcb92mho","address":"6767 Old Madison Pike, NW, #220 Bldg. 2","geo_precision":"street","state":"AL"},"type":"Feature","geometry":{"type":"Point","coordinates":[-86.658403,34.713158]}},{"properties":{"city":"Griffith","region":"Mideast","total equip":0,"zipcode":"46319","geo_score":0.902,"id":"af4djc8k221j","address":"139 South Broad Street","geo_precision":"range","state":"IN"},"type":"Feature","geometry":{"type":"Point","coordinates":[-87.427686,41.521614]}},{"properties":{"city":"Louisville","region":"Mideast","total equip":2,"zipcode":"40218","geo_score":0.902,"id":"af4djc3k64v5","address":"4400 Ole Brickyard Circle","geo_precision":"range","state":"KY"},"type":"Feature","geometry":{"type":"Point","coordinates":[-85.682169,38.191447]}},{"properties":{"city":"Escanaba","region":"Mideast","total equip":5,"zipcode":"49829","geo_score":0.476,"id":"af4djbvgwy6g","address":"1823 7th Ave. North","geo_precision":"street","state":"MI"},"type":"Feature","geometry":{"type":"Point","coordinates":[-87.071064,45.754885]}},{"properties":{"city":"Decatur","region":"Mideast","total equip":4,"zipcode":"62522","geo_score":0.902,"id":"af4djcanu7k2","address":"796 North Sunnyside Rd.","geo_precision":"range","state":"IL"},"type":"Feature","geometry":{"type":"Point","coordinates":[-89.014868,39.847412]}},{"properties":{"city":"Davenport","region":"Mideast","total equip":3,"zipcode":"52807","geo_score":0.476,"id":"af4djc04kobo","address":"2660 East 53rd Street, Suite 1","geo_precision":"street","state":"IA"},"type":"Feature","geometry":{"type":"Point","coordinates":[-90.56965,41.574535]}},{"properties":{"city":"Peoria","region":"Mideast","total equip":10,"zipcode":"61615","geo_score":0.902,"id":"af4djc47p9do","address":"2305 West Altorfer Dr.","geo_precision":"range","state":"IL"},"type":"Feature","geometry":{"type":"Point","coordinates":[-89.62509,40.785967]}},{"properties":{"city":"Wadsworth","region":"Mideast","total equip":35,"zipcode":"44281","geo_score":0.902,"id":"af4djc9sjeyn","address":"1360 Reimer Road","geo_precision":"range","state":"OH"},"type":"Feature","geometry":{"type":"Point","coordinates":[-81.736488,41.055349]}},{"properties":{"city":"Fort Wayne","region":"Mideast","total equip":0,"zipcode":"46808","geo_score":0.735,"id":"af4djbuy21q5","address":"3402-A Congressional Parkway","geo_precision":"range","state":"IN"},"type":"Feature","geometry":{"type":"Point","coordinates":[-85.093706,41.044203]}},{"properties":{"city":"South Bend","region":"Mideast","total equip":3,"zipcode":"46614","geo_score":0.902,"id":"af4djbxruy13","address":"3006 S Michigan St","geo_precision":"range","state":"IN"},"type":"Feature","geometry":{"type":"Point","coordinates":[-86.249552,41.643029]}},{"properties":{"city":"Syracuse","region":"Mideast","total equip":8,"zipcode":"13219","geo_score":0.902,"id":"af4djc9k4q3e","address":"813 Fay Road","geo_precision":"range","state":"NY"},"type":"Feature","geometry":{"type":"Point","coordinates":[-76.211337,43.032848]}},{"properties":{"city":"Chestnut Ridge","region":"Mideast","total equip":12,"zipcode":"10977","geo_score":0.61,"id":"af4djc8ou0qe","address":"80 Red School House Road, Ste. 226","geo_precision":"range","state":"NY"},"type":"Feature","geometry":{"type":"Point","coordinates":[-74.053522,41.069575]}},{"properties":{"city":"Appleton","region":"Mideast","total equip":3,"zipcode":"54942","geo_score":0.143,"id":"af4djc2mj724","address":"N926 Tower View Drive","geo_precision":"street","state":"WI"},"type":"Feature","geometry":{"type":"Point","coordinates":[-88.510705,44.277449]}},{"properties":{"city":"Hilliard","region":"Mideast","total equip":18,"zipcode":"43228","geo_score":0.831,"id":"af4djbuzzvd1","address":"2305 Westbrooke Drive","geo_precision":"range","state":"OH"},"type":"Feature","geometry":{"type":"Point","coordinates":[-83.111585,40.00054]}},{"properties":{"city":"Dover","region":"Mideast","total equip":3,"zipcode":"44622","geo_score":0.837,"id":"af4djc4jgess","address":"219 West 12th Street","geo_precision":"range","state":"OH"},"type":"Feature","geometry":{"type":"Point","coordinates":[-81.485388,40.531045]}},{"properties":{"city":"New Hartford","region":"Mideast","total equip":6,"zipcode":"13413","geo_score":0.579,"id":"af4djca23y4l","address":"8411 Seneca Turnpike Suite 104","geo_precision":"street","state":"NY"},"type":"Feature","geometry":{"type":"Point","coordinates":[-75.333976,43.08348]}},{"properties":{"city":"Des Plaines","region":"Mideast","total equip":23,"zipcode":"60018","geo_score":0.468,"id":"af4djc5vzl5q","address":"2313 S. Mount Prospect Road","geo_precision":"street","state":"IL"},"type":"Feature","geometry":{"type":"Point","coordinates":[-87.898234,42.018965]}},{"properties":{"city":"Rochester","region":"Mideast","total equip":7,"zipcode":"14610","geo_score":0.468,"id":"af4djbzu4qd5","address":"175 Humboldt Street, Suite 225","geo_precision":"street","state":"NY"},"type":"Feature","geometry":{"type":"Point","coordinates":[-77.563741,43.154197]}},{"properties":{"city":"West Seneca","region":"Mideast","total equip":2,"zipcode":"14224","geo_score":0.902,"id":"af4djc5pe2bz","address":"2410 North America Drive","geo_precision":"range","state":"NY"},"type":"Feature","geometry":{"type":"Point","coordinates":[-78.732805,42.84961]}},{"properties":{"city":"LaCrosse","region":"Mideast","total equip":3,"zipcode":"54603","geo_score":0.892,"id":"af4djc8pxcmb","address":"3235 Airport Road","geo_precision":"range","state":"WI"},"type":"Feature","geometry":{"type":"Point","coordinates":[-91.267529,43.882909]}},{"properties":{"city":"Madison","region":"Mideast","total equip":6,"zipcode":"53716","geo_score":0.902,"id":"af4djcazzx61","address":"2818 Progress Rd.","geo_precision":"range","state":"WI"},"type":"Feature","geometry":{"type":"Point","coordinates":[-89.304209,43.055443]}},{"properties":{"city":"Indianapolis","region":"Mideast","total equip":25,"zipcode":"46234","geo_score":0.714,"id":"af4djc9qem5i","address":"8351 W. Rockville Rd.","geo_precision":"zip","state":"IN"},"type":"Feature","geometry":{"type":"Point","coordinates":[-86.316288,39.808793]}},{"properties":{"city":"Wauwatosa","region":"Mideast","total equip":0,"zipcode":"53226","geo_score":0.36,"id":"af4djc290qt2","address":"9455 W. Watertown Plank Rd.","geo_precision":"street","state":"WI"},"type":"Feature","geometry":{"type":"Point","coordinates":[-88.053975,43.047371]}},{"properties":{"city":"Milwaukee","region":"Mideast","total equip":16,"zipcode":"53221","geo_score":0.829,"id":"af4djc44fhzm","address":"5185 South Ninth Street","geo_precision":"range","state":"WI"},"type":"Feature","geometry":{"type":"Point","coordinates":[-87.923599,42.950737]}},{"properties":{"city":"Malta","region":"Mideast","total equip":15,"zipcode":"12020","geo_score":0.902,"id":"af4djc7acbg0","address":"14 Commerce Drive","geo_precision":"range","state":"NY"},"type":"Feature","geometry":{"type":"Point","coordinates":[-73.834977,42.974784]}},{"properties":{"city":"Plainview","region":"Mideast","total equip":9,"zipcode":"11803","geo_score":0.429,"id":"af4djcaxseij","address":"55 W. Ames Court, Suite 200","geo_precision":"street","state":"NY"},"type":"Feature","geometry":{"type":"Point","coordinates":[-73.467111,40.790796]}},{"properties":{"city":"Livonia","region":"Mideast","total equip":42,"zipcode":"48150","geo_score":0.488,"id":"af4djc9wc8mu","address":"33510 Schoolcraft Road","geo_precision":"zip","state":"MI"},"type":"Feature","geometry":{"type":"Point","coordinates":[-83.371753,42.369351]}},{"properties":{"city":"West Branch","region":"Mideast","total equip":8,"zipcode":"48661","geo_score":0.52,"id":"af4djc7sybo7","address":"522 East Houghton Ave. Suite 102","geo_precision":"street","state":"MI"},"type":"Feature","geometry":{"type":"Point","coordinates":[-84.233171,44.276274]}},{"properties":{"city":"Grand Rapids","region":"Mideast","total equip":7,"zipcode":"49504","geo_score":0.714,"id":"af4djbwkss0t","address":"400 Ann St., NW   Suite 104","geo_precision":"street","state":"MI"},"type":"Feature","geometry":{"type":"Point","coordinates":[-85.675186,42.995628]}},{"properties":{"city":"Henderson","region":"Mideast","total equip":6,"zipcode":"42420","geo_score":0.571,"id":"af4djc8kfne5","address":"1900 Highway 41 North, Unit 4","geo_precision":"street","state":"KY"},"type":"Feature","geometry":{"type":"Point","coordinates":[-87.569689,37.818985]}},{"properties":{"city":"Perrysburg","region":"Mideast","total equip":53,"zipcode":"43552","geo_score":0.5,"id":"af4djbwygkku","address":"7643 Ponderosa Road, P.O. Box 1030","geo_precision":"street","state":"OH"},"type":"Feature","geometry":{"type":"Point","coordinates":[-83.747737,41.386784]}},{"properties":{"city":"Akron","region":"Mideast","total equip":6,"zipcode":"44333","geo_score":0.902,"id":"af4djbvhcptc","address":"3509 Embassy Parkway","geo_precision":"range","state":"OH"},"type":"Feature","geometry":{"type":"Point","coordinates":[-81.642616,41.146187]}},{"properties":{"city":"Pooler","region":"Southeast","total equip":1,"zipcode":"31322","geo_score":0.493,"id":"af4djc2mlzj8","address":"200 Governor Treutlen Road, Suite 20","geo_precision":"street","state":"GA"},"type":"Feature","geometry":{"type":"Point","coordinates":[-81.241204,32.113436]}},{"properties":{"city":"Charlotte","region":"Southeast","total equip":0,"zipcode":"28215","geo_score":0.902,"id":"af4djcb8t3eb","address":"3625 Willard Farrow Drive","geo_precision":"range","state":"NC"},"type":"Feature","geometry":{"type":"Point","coordinates":[-80.764593,35.232066]}},{"properties":{"city":"Mechanicsburg","region":"Southeast","total equip":0,"zipcode":"17055","geo_score":0.585,"id":"af4djbv4lc11","address":"5225 Wilson Lane","geo_precision":"street","state":"PA"},"type":"Feature","geometry":{"type":"Point","coordinates":[-76.974851,40.207342]}},{"properties":{"city":"Raleigh","region":"Southeast","total equip":5,"zipcode":"27603","geo_score":0.902,"id":"af4djbxjftos","address":"1815 Garner Station Blvd","geo_precision":"range","state":"NC"},"type":"Feature","geometry":{"type":"Point","coordinates":[-78.662705,35.722018]}},{"properties":{"city":"Topton","region":"Southeast","total equip":0,"zipcode":"19562","geo_score":0.902,"id":"af4djc4yrfs9","address":"1 South Home Avenue","geo_precision":"range","state":"PA"},"type":"Feature","geometry":{"type":"Point","coordinates":[-75.700964,40.50344]}},{"properties":{"city":"Lynchburg","region":"Southeast","total equip":1,"zipcode":"24501","geo_score":0.902,"id":"af4djc1vqjf3","address":"105 Bradley Drive","geo_precision":"range","state":"VA"},"type":"Feature","geometry":{"type":"Point","coordinates":[-79.162372,37.374794]}},{"properties":{"city":"Conyers","region":"Southeast","total equip":7,"zipcode":"30013","geo_score":0.75,"id":"af4djbybn5rm","address":"594 Sigman Road, Suite 200","geo_precision":"street","state":"GA"},"type":"Feature","geometry":{"type":"Point","coordinates":[-83.985688,33.667936]}},{"properties":{"city":"Weston","region":"Southeast","total equip":9,"zipcode":"33331","geo_score":0.315,"id":"af4djc9ude1c","address":"2955 W. Corporate Lakes Blvd., Suite 600","geo_precision":"street","state":"FL"},"type":"Feature","geometry":{"type":"Point","coordinates":[-80.369097,26.08109]}},{"properties":{"city":"Tampa","region":"Southeast","total equip":26,"zipcode":"33634","geo_score":0.902,"id":"af4djbzbj32o","address":"8603 Florida Mining Blvd","geo_precision":"range","state":"FL"},"type":"Feature","geometry":{"type":"Point","coordinates":[-82.533381,28.027883]}},{"properties":{"city":"Ft. Myers","region":"Southeast","total equip":1,"zipcode":"33907","geo_score":0.685,"id":"af4djc73g2qa","address":"1826 Boy Scout Drive","geo_precision":"street","state":"FL"},"type":"Feature","geometry":{"type":"Point","coordinates":[-81.878023,26.58186]}},{"properties":{"city":"Edison","region":"Southeast","total equip":39,"zipcode":"8837","geo_score":0.902,"id":"af4djc87axpc","address":"120 Fieldcrest Avenue","geo_precision":"range","state":"NJ"},"type":"Feature","geometry":{"type":"Point","coordinates":[-74.344804,40.515766]}},{"properties":{"city":"Florence","region":"Southeast","total equip":1,"zipcode":"29501","geo_score":0.506,"id":"af4djbutqq15","address":"3203 W Palmetto St, Suite G","geo_precision":"street","state":"SC"},"type":"Feature","geometry":{"type":"Point","coordinates":[-79.823675,34.254315]}},{"properties":{"city":"King of Prussia","region":"Southeast","total equip":63,"zipcode":"19406","geo_score":0.902,"id":"af4djbybvijy","address":"600 Allendale Rd","geo_precision":"range","state":"PA"},"type":"Feature","geometry":{"type":"Point","coordinates":[-75.398277,40.101631]}},{"properties":{"city":"Whippany","region":"Southeast","total equip":0,"zipcode":"7981","geo_score":0.902,"id":"af4djbz3qk78","address":"121 Algonquin Pkwy","geo_precision":"range","state":"NJ"},"type":"Feature","geometry":{"type":"Point","coordinates":[-74.396917,40.819883]}},{"properties":{"city":"Portsmouth","region":"Southeast","total equip":7,"zipcode":"23704","geo_score":0.606,"id":"af4djc8dr3hf","address":"1320 Court Street","geo_precision":"street","state":"VA"},"type":"Feature","geometry":{"type":"Point","coordinates":[-76.300641,36.828424]}},{"properties":{"city":"Richmond","region":"Southeast","total equip":16,"zipcode":"23227","geo_score":0.462,"id":"af4djbvuxm3h","address":"8575 Magellan Parkway, Suite 100","geo_precision":"street","state":"VA"},"type":"Feature","geometry":{"type":"Point","coordinates":[-77.433077,37.645112]}},{"properties":{"city":"Roanoke","region":"Southeast","total equip":6,"zipcode":"24012","geo_score":0.902,"id":"af4djc5mbhw6","address":"1326 Plantation Rd NE","geo_precision":"range","state":"VA"},"type":"Feature","geometry":{"type":"Point","coordinates":[-79.92985,37.283635]}},{"properties":{"city":"Salisbury","region":"Southeast","total equip":11,"zipcode":"21801","geo_score":0.506,"id":"af4djc4e5x5x","address":"119 W Naylor Mill Rd, Suite 7","geo_precision":"street","state":"MD"},"type":"Feature","geometry":{"type":"Point","coordinates":[-75.615389,38.336054]}},{"properties":{"city":"Scranton","region":"Southeast","total equip":8,"zipcode":"18505","geo_score":0.5,"id":"af4djc9v33da","address":"2400 Stafford Ave, Suite 800","geo_precision":"street","state":"PA"},"type":"Feature","geometry":{"type":"Point","coordinates":[-75.651467,41.398716]}},{"properties":{"city":"Williamsport","region":"Southeast","total equip":1,"zipcode":"17701","geo_score":0.829,"id":"af4djc1mro4n","address":"3570 West 4th Street","geo_precision":"range","state":"PA"},"type":"Feature","geometry":{"type":"Point","coordinates":[-77.087903,41.234167]}},{"properties":{"city":"Annapolis Junction","region":"Southeast","total equip":45,"zipcode":"20701","geo_score":0.902,"id":"af4djbvudnp6","address":"9036 Junction Dr","geo_precision":"range","state":"MD"},"type":"Feature","geometry":{"type":"Point","coordinates":[-76.804226,39.126537]}},{"properties":{"city":"Longwood","region":"Southeast","total equip":8,"zipcode":"32771","geo_score":0.804,"id":"af4djc9mhjpk","address":"4150 Church St., Suite 1030","geo_precision":"street","state":"FL"},"type":"Feature","geometry":{"type":"Point","coordinates":[-81.234402,28.789241]}},{"properties":{"city":"Wando","region":"Southeast","total equip":5,"zipcode":"29492","geo_score":0.696,"id":"af4djcao5ytw","address":"444 Deanna Lane, Suite D","geo_precision":"street","state":"SC"},"type":"Feature","geometry":{"type":"Point","coordinates":[-80.1015,33.073304]}},{"properties":{"city":"Hickory","region":"Southeast","total equip":15,"zipcode":"28602","geo_score":0.471,"id":"af4djc52mcb4","address":"1257 25th Street, Place S.E.","geo_precision":"street","state":"NC"},"type":"Feature","geometry":{"type":"Point","coordinates":[-81.28701,35.7151]}},{"properties":{"city":"Quakertown","region":"Southeast","total equip":21,"zipcode":"18951","geo_score":0.841,"id":"af4djc2o0th2","address":"2580 Milford Square Pike","geo_precision":"range","state":"PA"},"type":"Feature","geometry":{"type":"Point","coordinates":[-75.371267,40.439944]}},{"properties":{"city":"Greensburg","region":"Southeast","total equip":6,"zipcode":"15601","geo_score":0.902,"id":"af4djc3oxals","address":"1171 Garden Street","geo_precision":"range","state":"PA"},"type":"Feature","geometry":{"type":"Point","coordinates":[-79.571533,40.282523]}},{"properties":{"city":"Pittsburgh","region":"Southeast","total equip":13,"zipcode":"15205","geo_score":0.902,"id":"af4djc1dx446","address":"4700 Steubenville Pike","geo_precision":"range","state":"PA"},"type":"Feature","geometry":{"type":"Point","coordinates":[-80.104371,40.448461]}},{"properties":{"city":"Panama City","region":"Southeast","total equip":2,"zipcode":"32405","geo_score":0.837,"id":"af4djc0oxnrc","address":"2605 West 23rd Street","geo_precision":"range","state":"FL"},"type":"Feature","geometry":{"type":"Point","coordinates":[-85.698456,30.189631]}},{"properties":{"city":"Spartanburg","region":"Southeast","total equip":12,"zipcode":"29303","geo_score":0.536,"id":"af4djc4x1san","address":"111 Corporate Drive, Suite L","geo_precision":"street","state":"SC"},"type":"Feature","geometry":{"type":"Point","coordinates":[-81.936538,35.000558]}},{"properties":{"city":"Abingdon","region":"Southeast","total equip":2,"zipcode":"24210","geo_score":0.715,"id":"af4djc6s953t","address":"18377 Westinghouse Rd.","geo_precision":"street","state":"VA"},"type":"Feature","geometry":{"type":"Point","coordinates":[-82.052419,36.682528]}},{"properties":{"city":"Wilmington","region":"Southeast","total equip":4,"zipcode":"28411","geo_score":0.902,"id":"af4djc49gmx1","address":"1013 Porters Neck Rd.","geo_precision":"range","state":"NC"},"type":"Feature","geometry":{"type":"Point","coordinates":[-77.770166,34.291758]}},{"properties":{"city":"Jacksonville","region":"Southeast","total equip":6,"zipcode":"32256","geo_score":0.5,"id":"af4djbw35edu","address":"9143 Phillips Hwy., Suite 533","geo_precision":"street","state":"FL"},"type":"Feature","geometry":{"type":"Point","coordinates":[-81.600235,30.244145]}},{"properties":{"city":"Prattville","region":"Southeast","total equip":8,"zipcode":"36066","geo_score":0.902,"id":"af4djc41wxg7","address":"842 Peachtree St.","geo_precision":"range","state":"AL"},"type":"Feature","geometry":{"type":"Point","coordinates":[-86.448239,32.458599]}},{"properties":{"city":"Bradenton","region":"Southeast","total equip":4,"zipcode":"34208","geo_score":0.462,"id":"af4djbw0tpvx","address":"905 E. Manatee Ave.","geo_precision":"street","state":"FL"},"type":"Feature","geometry":{"type":"Point","coordinates":[-82.561697,27.495215]}},{"properties":{"city":"Harrisonburg","region":"Southeast","total equip":2,"zipcode":"22802","geo_score":0.902,"id":"af4djbv788hr","address":"1585 Red Oak Street","geo_precision":"range","state":"VA"},"type":"Feature","geometry":{"type":"Point","coordinates":[-78.867998,38.474026]}},{"properties":{"city":"Richmond","region":"Southeast","total equip":6,"zipcode":"23228","geo_score":0.902,"id":"af4djcavvqty","address":"1572 East Parham Road","geo_precision":"range","state":"VA"},"type":"Feature","geometry":{"type":"Point","coordinates":[-77.471525,37.639099]}},{"properties":{"city":"Austin","region":"West","total equip":7,"zipcode":"78754","geo_score":0.286,"id":"af4djc74oenh","address":"9210 Cameron Rd., Suite 800","geo_precision":"street","state":"TX"},"type":"Feature","geometry":{"type":"Point","coordinates":[-97.686344,30.332597]}},{"properties":{"city":"Lakewood","region":"West","total equip":7,"zipcode":"98499","geo_score":0.509,"id":"af4djc4gbplo","address":"7424 Bridgeport Way West, Suite 109","geo_precision":"street","state":"WA"},"type":"Feature","geometry":{"type":"Point","coordinates":[-122.522641,47.198101]}},{"properties":{"city":"Sacramento","region":"West","total equip":3,"zipcode":"95817","geo_score":0.823,"id":"af4djc5347ii","address":"3330 Broadway","geo_precision":"range","state":"CA"},"type":"Feature","geometry":{"type":"Point","coordinates":[-121.469609,38.552772]}},{"properties":{"city":"New Orleans","region":"West","total equip":2,"zipcode":"70123","geo_score":0.455,"id":"af4djbx6pd13","address":"660 Distributors Row #A &amp; B","geo_precision":"street","state":"LA"},"type":"Feature","geometry":{"type":"Point","coordinates":[-90.191161,29.960689]}},{"properties":{"city":"Little Rock","region":"West","total equip":10,"zipcode":"72117","geo_score":0.868,"id":"af4djby6dxtp","address":"7301 Industry Drive","geo_precision":"range","state":"AR"},"type":"Feature","geometry":{"type":"Point","coordinates":[-92.181247,34.743873]}},{"properties":{"city":"Grand Junction","region":"West","total equip":2,"zipcode":"81501","geo_score":0.453,"id":"af4djca4fkoe","address":"504 28-1/4 Road","geo_precision":"street","state":"CO"},"type":"Feature","geometry":{"type":"Point","coordinates":[-108.57092,39.068312]}},{"properties":{"city":"Santa Rosa","region":"West","total equip":11,"zipcode":"95404","geo_score":0.805,"id":"af4djc144mbb","address":"879 Second Street","geo_precision":"range","state":"CA"},"type":"Feature","geometry":{"type":"Point","coordinates":[-122.707705,38.441504]}},{"properties":{"city":"Kirkland","region":"West","total equip":25,"zipcode":"98034","geo_score":0.468,"id":"af4djc67uh0x","address":"12220 113th Ave. N.E.","geo_precision":"street","state":"WA"},"type":"Feature","geometry":{"type":"Point","coordinates":[-122.202659,47.701637]}},{"properties":{"city":"Medford","region":"West","total equip":0,"zipcode":"97504","geo_score":0.471,"id":"af4djc2huvo8","address":"259 E. Barnett Rd., Suite L","geo_precision":"street","state":"OR"},"type":"Feature","geometry":{"type":"Point","coordinates":[-122.787892,42.31361]}},{"properties":{"city":"Portland","region":"West","total equip":35,"zipcode":"97220","geo_score":0.854,"id":"af4djc6n4ovy","address":"11933 Glenn Widing Dr.","geo_precision":"range","state":"OR"},"type":"Feature","geometry":{"type":"Point","coordinates":[-122.539542,45.568593]}},{"properties":{"city":"Spokane","region":"West","total equip":5,"zipcode":"99202","geo_score":0.476,"id":"af4djbwjjw4s","address":"350 E. Third Avenue","geo_precision":"street","state":"WA"},"type":"Feature","geometry":{"type":"Point","coordinates":[-117.411223,47.65353]}},{"properties":{"city":"San Antonio","region":"West","total equip":0,"zipcode":"78249","geo_score":0.679,"id":"af4djc7dualm","address":"12460 Network, Suite 101","geo_precision":"street","state":"TX"},"type":"Feature","geometry":{"type":"Point","coordinates":[-98.589933,29.545389]}},{"properties":{"city":"San Diego","region":"West","total equip":12,"zipcode":"92121","geo_score":0.429,"id":"af4djbuq2phw","address":"5825 Oberlin Drive, Suite 300","geo_precision":"street","state":"CA"},"type":"Feature","geometry":{"type":"Point","coordinates":[-117.20143,32.891444]}},{"properties":{"city":"Albuquerque","region":"West","total equip":4,"zipcode":"87113","geo_score":0.536,"id":"af4djbxj75ib","address":"9019 Washington Street NE, Suite B1","geo_precision":"street","state":"NM"},"type":"Feature","geometry":{"type":"Point","coordinates":[-106.595293,35.174422]}},{"properties":{"city":"Bakersfield","region":"West","total equip":4,"zipcode":"93313","geo_score":0.857,"id":"af4djbwm50lx","address":"4300 Stine Rd. Suite 700","geo_precision":"street","state":"CA"},"type":"Feature","geometry":{"type":"Point","coordinates":[-119.056671,35.321435]}},{"properties":{"city":"Billings","region":"West","total equip":3,"zipcode":"59102","geo_score":0.796,"id":"af4djc6tawzh","address":"2747 Enterprise Ave Suite 1","geo_precision":"range","state":"MT"},"type":"Feature","geometry":{"type":"Point","coordinates":[-108.584456,45.75023]}},{"properties":{"city":"Canoga Park","region":"West","total equip":48,"zipcode":"91304","geo_score":0.902,"id":"af4djc3vzzha","address":"8220 Remmet Ave","geo_precision":"range","state":"CA"},"type":"Feature","geometry":{"type":"Point","coordinates":[-118.600217,34.216644]}},{"properties":{"city":"Chandler","region":"West","total equip":28,"zipcode":"85226","geo_score":0.459,"id":"af4djc13jthr","address":"6825 W. Galveston St Suite 3","geo_precision":"street","state":"AZ"},"type":"Feature","geometry":{"type":"Point","coordinates":[-111.903534,33.311833]}},{"properties":{"city":"Corpus Christi","region":"West","total equip":0,"zipcode":"78405","geo_score":0.857,"id":"af4djc310pma","address":"5449 Bear Lane, Suite 420","geo_precision":"street","state":"TX"},"type":"Feature","geometry":{"type":"Point","coordinates":[-97.452541,27.764398]}},{"properties":{"city":"Fort Worth","region":"West","total equip":11,"zipcode":"76155","geo_score":0.536,"id":"af4djc37800v","address":"14450 Trinity Blvd., Suite 200","geo_precision":"street","state":"TX"},"type":"Feature","geometry":{"type":"Point","coordinates":[-97.070554,32.822162]}},{"properties":{"city":"Golden","region":"West","total equip":3,"zipcode":"80401","geo_score":0.416,"id":"af4djbuye8oq","address":"15000 W 6th Ave, #300","geo_precision":"street","state":"CO"},"type":"Feature","geometry":{"type":"Point","coordinates":[-105.200451,39.721439]}},{"properties":{"city":"Houston","region":"West","total equip":11,"zipcode":"77477","geo_score":0.369,"id":"af4djcaw7nga","address":"10650 West Airport Blvd, Suite 150","geo_precision":"street","state":"TX"},"type":"Feature","geometry":{"type":"Point","coordinates":[-95.560529,29.641258]}},{"properties":{"city":"Las Vegas","region":"West","total equip":13,"zipcode":"89119","geo_score":0.468,"id":"af4djc9hpc4p","address":"1525 E. Sunset Road, Suite 16","geo_precision":"street","state":"NV"},"type":"Feature","geometry":{"type":"Point","coordinates":[-115.172349,36.071101]}},{"properties":{"city":"Lodi","region":"West","total equip":7,"zipcode":"95240","geo_score":0.584,"id":"af4djc4ew83h","address":"850 South Guild Ave. Suite 100","geo_precision":"street","state":"CA"},"type":"Feature","geometry":{"type":"Point","coordinates":[-121.247759,38.133986]}},{"properties":{"city":"Lubbock","region":"West","total equip":6,"zipcode":"79407","geo_score":0.722,"id":"af4djbvwtzv0","address":"6101 43rd Street Suite E","geo_precision":"range","state":"TX"},"type":"Feature","geometry":{"type":"Point","coordinates":[-101.949681,33.556108]}},{"properties":{"city":"Pharr","region":"West","total equip":2,"zipcode":"78577","geo_score":0.6,"id":"af4djbwqu1sv","address":"101 East Expressway 83, Suite D","geo_precision":"street","state":"TX"},"type":"Feature","geometry":{"type":"Point","coordinates":[-98.185313,26.195864]}},{"properties":{"city":"Pueblo","region":"West","total equip":6,"zipcode":"81008","geo_score":0.49,"id":"af4djbvu961b","address":"4602 Elizabeth Street, Suite 190","geo_precision":"street","state":"CO"},"type":"Feature","geometry":{"type":"Point","coordinates":[-104.615099,38.299051]}},{"properties":{"city":"Reno","region":"West","total equip":4,"zipcode":"89521","geo_score":0.415,"id":"af4djc2nk6x5","address":"9475 Double R Blvd., #8","geo_precision":"street","state":"NV"},"type":"Feature","geometry":{"type":"Point","coordinates":[-119.759445,39.45538]}},{"properties":{"city":"Waco","region":"West","total equip":2,"zipcode":"76712","geo_score":0.345,"id":"af4djc5fpgde","address":"7524 Bosque Blvd., Suites N &amp; O","geo_precision":"street","state":"TX"},"type":"Feature","geometry":{"type":"Point","coordinates":[-97.214557,31.518067]}},{"properties":{"city":"Chico","region":"West","total equip":0,"zipcode":"95928","geo_score":0.774,"id":"af4djc3dfh0f","address":"3760 Morrow Lane Unit B","geo_precision":"range","state":"CA"},"type":"Feature","geometry":{"type":"Point","coordinates":[-121.792649,39.711517]}},{"properties":{"city":"Redding","region":"West","total equip":0,"zipcode":"96002","geo_score":0.52,"id":"af4djbzjgtsd","address":"5200 Churn Creek Rd. Suite A","geo_precision":"street","state":"CA"},"type":"Feature","geometry":{"type":"Point","coordinates":[-122.353724,40.578385]}},{"properties":{"city":"Burbank","region":"West","total equip":3,"zipcode":"91505","geo_score":0.661,"id":"af4djc0grvn4","address":"7565 North San Fernando Avenue","geo_precision":"street","state":"CA"},"type":"Feature","geometry":{"type":"Point","coordinates":[-118.349157,34.205522]}},{"properties":{"city":"Los Alamitos","region":"West","total equip":9,"zipcode":"90720","geo_score":0.902,"id":"af4djbxjbdcm","address":"10751 Noel Street","geo_precision":"range","state":"CA"},"type":"Feature","geometry":{"type":"Point","coordinates":[-118.058511,33.805657]}},{"properties":{"city":"Jonesboro","region":"West","total equip":3,"zipcode":"72401","geo_score":0.415,"id":"af4djbxt8ta5","address":"2929 Caraway Rd #9","geo_precision":"street","state":"AR"},"type":"Feature","geometry":{"type":"Point","coordinates":[-90.676971,35.848259]}},{"properties":{"city":"Alexandria","region":"West","total equip":0,"zipcode":"71301","geo_score":0.488,"id":"af4djbztpit1","address":"3108 Jackson Street","geo_precision":"zip","state":"LA"},"type":"Feature","geometry":{"type":"Point","coordinates":[-92.436525,31.27185]}},{"properties":{"city":"Hayward","region":"West","total equip":5,"zipcode":"94545","geo_score":0.902,"id":"af4djcb4xqxw","address":"20967 Cabot Boulevard","geo_precision":"range","state":"CA"},"type":"Feature","geometry":{"type":"Point","coordinates":[-122.137915,37.650249]}},{"properties":{"city":"Los Angeles","region":"West","total equip":26,"zipcode":"90703","geo_score":0.427,"id":"af4djc7m67ni","address":"13825 Cerritos Corp. Center Dr., Suite A","geo_precision":"street","state":"CA"},"type":"Feature","geometry":{"type":"Point","coordinates":[-118.064228,33.855636]}},{"properties":{"city":"Prescott","region":"West","total equip":0,"zipcode":"86305","geo_score":0.819,"id":"af4djc2jmrrq","address":"930 12th Place","geo_precision":"range","state":"AZ"},"type":"Feature","geometry":{"type":"Point","coordinates":[-112.48369,34.564888]}},{"properties":{"city":"Youngtown","region":"West","total equip":0,"zipcode":"85363","geo_score":0.415,"id":"af4djbvlkvmt","address":"10800 North 115th Ave. #4-20","geo_precision":"street","state":"AZ"},"type":"Feature","geometry":{"type":"Point","coordinates":[-112.30445,33.580737]}},{"properties":{"city":"Shreveport","region":"West","total equip":9,"zipcode":"71118","geo_score":0.524,"id":"af4djc4qkvtt","address":"2535 Bert Kouns, Suite 211","geo_precision":"street","state":"LA"},"type":"Feature","geometry":{"type":"Point","coordinates":[-93.805301,32.391148]}},{"properties":{"city":"Amarillo","region":"West","total equip":0,"zipcode":"79109","geo_score":0.902,"id":"af4djcarhmnl","address":"2770 Duniven Circle","geo_precision":"range","state":"TX"},"type":"Feature","geometry":{"type":"Point","coordinates":[-101.867124,35.189516]}},{"properties":{"city":"Nacogdoches","region":"West","total equip":2,"zipcode":"75964","geo_score":0.756,"id":"af4djc9df33j","address":"1716 South Street","geo_precision":"range","state":"TX"},"type":"Feature","geometry":{"type":"Point","coordinates":[-94.665719,31.590362]}},{"properties":{"city":"Tyler","region":"West","total equip":4,"zipcode":"75704","geo_score":0.553,"id":"af4djc7rtwuk","address":"105 Jordan Plaza Blvd","geo_precision":"street","state":"TX"},"type":"Feature","geometry":{"type":"Point","coordinates":[-95.331927,32.376314]}},{"properties":{"city":"Salt Lake City","region":"West","total equip":38,"zipcode":"84119","geo_score":0.714,"id":"af4djc0kya0l","address":"2280 W. Alexander St.","geo_precision":"zip","state":"UT"},"type":"Feature","geometry":{"type":"Point","coordinates":[-111.939104,40.71328]}},{"properties":{"city":"St. George","region":"West","total equip":1,"zipcode":"84770","geo_score":0.467,"id":"af4djbyngyis","address":"595 Bluff St., Suite 3","geo_precision":"street","state":"UT"},"type":"Feature","geometry":{"type":"Point","coordinates":[-113.592897,37.104828]}},{"properties":{"city":"Meridian","region":"West","total equip":8,"zipcode":"83642","geo_score":0.459,"id":"af4djc0isdz5","address":"320 E. Corporate Drive Suite 320","geo_precision":"street","state":"ID"},"type":"Feature","geometry":{"type":"Point","coordinates":[-116.390604,43.598937]}},{"properties":{"city":"Allentown","region":"JV","total equip":3,"zipcode":"18106","geo_score":0.902,"id":"af4djbw7torz","address":"7010 Snowdrift Road","geo_precision":"range","state":"PA"},"type":"Feature","geometry":{"type":"Point","coordinates":[-75.610738,40.587236]}},{"properties":{"city":"St. Petersburg","region":"JV","total equip":6,"zipcode":"33716","geo_score":0.347,"id":"af4djc9t9vnv","address":"3320 Scherer Drive, Suite A","geo_precision":"street","state":"FL"},"type":"Feature","geometry":{"type":"Point","coordinates":[-82.797975,27.949873]}},{"properties":{"city":"Sunrise","region":"JV","total equip":1,"zipcode":"33323","geo_score":0.824,"id":"af4djbx68017","address":"1161 Sawgrass Corporate Pkwy","geo_precision":"range","state":"FL"},"type":"Feature","geometry":{"type":"Point","coordinates":[-80.336783,26.137724]}},{"properties":{"city":"Toledo","region":"JV","total equip":3,"zipcode":"43615","geo_score":0.772,"id":"af4djbzgp5hl","address":"4755 South Avenue","geo_precision":"range","state":"OH"},"type":"Feature","geometry":{"type":"Point","coordinates":[-83.653504,41.630979]}},{"properties":{"city":"Woodridge","region":"JV","total equip":5,"zipcode":"60517","geo_score":0.527,"id":"af4djc9xx2is","address":"940 South Frontage Rd, Suite 400","geo_precision":"street","state":"IL"},"type":"Feature","geometry":{"type":"Point","coordinates":[-88.002839,41.718433]}}],"is_temporal":false,"author":{"url":"","metadata":"","contact_name":"","contact_address":"","source":"","contact_phone":""},"source":"","pagination":{"sort":null,"start":0,"total":152,"limit":1000000},"state":"complete","tags":"","published":"2014-08-17T00:05:28-04:00","id":368425}