{"type":"FeatureCollection","data_type":"Dataset","url_type":null,"permissions":[{"permissions":{"download":true,"view":true},"group_id":"everyone"}],"classification":null,"title":"2013-03-14 Activities Mapping C&amp;YP","count":345,"stream_id":368669,"contributor":{"url":"http://geocommons.com/users/75486","name":"chrisj"},"data_attributes":null,"calculation_params":null,"icon_link":null,"link":"http://geocommons.com/overlays/368669.json","extent":[0.0,0.0,0.0,0.0],"geometry_types":[],"unique_name":null,"name":"2013-03-14 Activities Mapping C&YP","feature_count":345,"description":"","next_feature":null,"is_raster":false,"short_classification":"Y","stats":{},"features":[{"properties":{"project name":"Saltersgate Special School","postcode":"EH22 2PS","column_7":null,"column_8":null,"geo_score":0.0,"column_9":null,"town":"Edinburgh","id":"af509okjse7n","address":null,"geo_precision":"unmatched","programme":"Bike Club","la":"City of Edinburgh"},"type":"Feature","geometry":null},{"properties":{"project name":"Uprising East Lothain","postcode":"EH39 5NF","column_7":null,"column_8":null,"geo_score":0.0,"column_9":null,"town":"North Berwick","id":"af509onnz8v6","address":null,"geo_precision":"unmatched","programme":"Bike Club","la":"East Lothian"},"type":"Feature","geometry":null},{"properties":{"project name":"Musselburgh Grammar School","postcode":"EH21 7BA","column_7":null,"column_8":null,"geo_score":0.0,"column_9":null,"town":"Musselburgh","id":"af509od97qam","address":null,"geo_precision":"unmatched","programme":"Bike Club","la":"East Lothian"},"type":"Feature","geometry":null},{"properties":{"project name":"Dadswork","postcode":"EH21 8HU","column_7":null,"column_8":null,"geo_score":0.0,"column_9":null,"town":"Musselburgh","id":"af509og6vnh2","address":null,"geo_precision":"unmatched","programme":"Bike Club","la":"East Lothian"},"type":"Feature","geometry":null},{"properties":{"project name":"Mobex East Lothain","postcode":"EH21 6AS","column_7":null,"column_8":null,"geo_score":0.0,"column_9":null,"town":"Musselburgh","id":"af509oq4gjob","address":null,"geo_precision":"unmatched","programme":"Bike Club","la":"East Lothian"},"type":"Feature","geometry":null},{"properties":{"project name":"Sunnyfale Association","postcode":"EH48 2JL","column_7":null,"column_8":null,"geo_score":0.0,"column_9":null,"town":"Musselburgh","id":"af509oe6nhes","address":null,"geo_precision":"unmatched","programme":"Bike Club","la":"East Lothian"},"type":"Feature","geometry":null},{"properties":{"project name":"Inveralmond Community HS","postcode":"EH54 6HN","column_7":null,"column_8":null,"geo_score":0.0,"column_9":null,"town":"Livingstone","id":"af509od0285t","address":null,"geo_precision":"unmatched","programme":"Bike Club","la":"West Lothian"},"type":"Feature","geometry":null},{"properties":{"project name":"Whitburn Academy","postcode":"EH47 0HL","column_7":null,"column_8":null,"geo_score":0.0,"column_9":null,"town":"Whitburn","id":"af509ogw451z","address":null,"geo_precision":"unmatched","programme":"Bike Club","la":"West Lothian"},"type":"Feature","geometry":null},{"properties":{"project name":"MYDG","postcode":"EH4 4NL","column_7":null,"column_8":null,"geo_score":0.0,"column_9":null,"town":"Edinburgh","id":"af509omli1sb","address":null,"geo_precision":"unmatched","programme":"Bike Club","la":"City of Edinburgh"},"type":"Feature","geometry":null},{"properties":{"project name":"Kaimes School","postcode":"EH16 6RT","column_7":null,"column_8":null,"geo_score":0.0,"column_9":null,"town":"Lasswade","id":"af509oqx6tqe","address":null,"geo_precision":"unmatched","programme":"Bike Club","la":"Midlothian"},"type":"Feature","geometry":null},{"properties":{"project name":"Niddrie Community Youth Group","postcode":"EH16 4TR","column_7":null,"column_8":null,"geo_score":0.0,"column_9":null,"town":"Edinburgh","id":"af509olin7sq","address":null,"geo_precision":"unmatched","programme":"Bike Club","la":"City of Edinburgh"},"type":"Feature","geometry":null},{"properties":{"project name":"Fairbridge in Edinburgh","postcode":"EH6 4AQ","column_7":null,"column_8":null,"geo_score":0.0,"column_9":null,"town":"Edinburgh","id":"af509odcsihr","address":null,"geo_precision":"unmatched","programme":"Bike Club","la":"City of Edinburgh"},"type":"Feature","geometry":null},{"properties":{"project name":"Fet-lor Youth Club","postcode":"EH4 2NY","column_7":null,"column_8":null,"geo_score":0.0,"column_9":null,"town":"Edinburgh","id":"af509ofplequ","address":null,"geo_precision":"unmatched","programme":"Bike Club","la":"City of Edinburgh"},"type":"Feature","geometry":null},{"properties":{"project name":"Brunstane Primary School","postcode":"EH15 3BE","column_7":null,"column_8":null,"geo_score":0.0,"column_9":null,"town":"Edinburgh","id":"af509od7jggy","address":null,"geo_precision":"unmatched","programme":"Bike Club","la":"City of Edinburgh"},"type":"Feature","geometry":null},{"properties":{"project name":"6VT Edinburgh City Youth Cafe","postcode":"EH1 2JL","column_7":null,"column_8":null,"geo_score":0.0,"column_9":null,"town":"Edinburgh","id":"af509oj5p1c0","address":null,"geo_precision":"unmatched","programme":"Bike Club","la":"City of Edinburgh"},"type":"Feature","geometry":null},{"properties":{"project name":"Liberton High School","postcode":"EH17 7PT","column_7":null,"column_8":null,"geo_score":0.0,"column_9":null,"town":"Edinburgh","id":"af509ofup8ir","address":null,"geo_precision":"unmatched","programme":"Bike Club","la":"City of Edinburgh"},"type":"Feature","geometry":null},{"properties":{"project name":"The Upward Mobility Project","postcode":"EH7 6AE","column_7":null,"column_8":null,"geo_score":0.0,"column_9":null,"town":"Haddington","id":"af509okv07vj","address":null,"geo_precision":"unmatched","programme":"Bike Club","la":"East Lothian"},"type":"Feature","geometry":null},{"properties":{"project name":"ASM - Blackhall Mosque","postcode":"EH4 2AJ","column_7":null,"column_8":null,"geo_score":0.0,"column_9":null,"town":"Edinburgh","id":"af509oi0w66i","address":null,"geo_precision":"unmatched","programme":"Bike Club","la":"City of Edinburgh"},"type":"Feature","geometry":null},{"properties":{"project name":"Edinburgh Secure Services","postcode":"EH16 6PS","column_7":null,"column_8":null,"geo_score":0.0,"column_9":null,"town":"Edinburgh","id":"af509ompumm7","address":null,"geo_precision":"unmatched","programme":"Bike Club","la":"City of Edinburgh"},"type":"Feature","geometry":null},{"properties":{"project name":"Stenhouse Primary School","postcode":"EH11 3HH","column_7":null,"column_8":null,"geo_score":0.0,"column_9":null,"town":"Edinburgh","id":"af509onsve40","address":null,"geo_precision":"unmatched","programme":"Bike Club","la":"City of Edinburgh"},"type":"Feature","geometry":null},{"properties":{"project name":"Royston Wardieburn Community Education Centre","postcode":"EH5 1NF","column_7":null,"column_8":null,"geo_score":0.0,"column_9":null,"town":"Edinburgh","id":"af509oh8cqqp","address":null,"geo_precision":"unmatched","programme":"Bike Club","la":"City of Edinburgh"},"type":"Feature","geometry":null},{"properties":{"project name":"Score Scotland","postcode":"EH14 2SA","column_7":null,"column_8":null,"geo_score":0.0,"column_9":null,"town":"Edinburgh","id":"af509ocuuzem","address":null,"geo_precision":"unmatched","programme":"Bike Club","la":"City of Edinburgh"},"type":"Feature","geometry":null},{"properties":{"project name":"CAPRO Craigmillar Adventure Project","postcode":"EH16 4BB","column_7":null,"column_8":null,"geo_score":0.0,"column_9":null,"town":"Edinburgh","id":"af509oi7qtol","address":null,"geo_precision":"unmatched","programme":"Bike Club","la":"City of Edinburgh"},"type":"Feature","geometry":null},{"properties":{"project name":"Wester Hailes Education Centre","postcode":"EH14 2SU","column_7":null,"column_8":null,"geo_score":0.0,"column_9":null,"town":"Edinburgh","id":"af509obk9k40","address":null,"geo_precision":"unmatched","programme":"Bike Club","la":"City of Edinburgh"},"type":"Feature","geometry":null},{"properties":{"project name":"Clermiston PS Parent Council CC","postcode":"EH4 7NP","column_7":null,"column_8":null,"geo_score":0.0,"column_9":null,"town":"Edinburgh","id":"af509ocfqb6u","address":null,"geo_precision":"unmatched","programme":"Bike Club","la":"City of Edinburgh"},"type":"Feature","geometry":null},{"properties":{"project name":"Niddries Community Church","postcode":"EH16 4FN","column_7":null,"column_8":null,"geo_score":0.0,"column_9":null,"town":"Edinburgh","id":"af509omxes9v","address":null,"geo_precision":"unmatched","programme":"Bike Club","la":"City of Edinburgh"},"type":"Feature","geometry":null},{"properties":{"project name":"Dawson Centre","postcode":"FK2 7RG","column_7":null,"column_8":null,"geo_score":0.0,"column_9":null,"town":"Falkirk","id":"af509ojb80j6","address":null,"geo_precision":"unmatched","programme":"Bike Club","la":"Falkirk"},"type":"Feature","geometry":null},{"properties":{"project name":"Carrongrange","postcode":"FK5 3BH","column_7":null,"column_8":null,"geo_score":0.0,"column_9":null,"town":"Larbert","id":"af509obsne9p","address":null,"geo_precision":"unmatched","programme":"Bike Club","la":"Falkirk"},"type":"Feature","geometry":null},{"properties":{"project name":"Larbert Highschool","postcode":"FK5 3BL","column_7":null,"column_8":null,"geo_score":0.0,"column_9":null,"town":"Larbert","id":"af509omz4mx2","address":null,"geo_precision":"unmatched","programme":"Bike Club","la":"Falkirk"},"type":"Feature","geometry":null},{"properties":{"project name":"Madras College","postcode":"KY16 9EJ","column_7":null,"column_8":null,"geo_score":0.0,"column_9":null,"town":"St Andrews","id":"af509oew3ksf","address":null,"geo_precision":"unmatched","programme":"Bike Club","la":"Fife"},"type":"Feature","geometry":null},{"properties":{"project name":"Middleden Mountain Bike Club","postcode":"KY1 3LR","column_7":null,"column_8":null,"geo_score":0.0,"column_9":null,"town":"Kirkcaldy","id":"af509okwu2h6","address":null,"geo_precision":"unmatched","programme":"Bike Club","la":"Fife"},"type":"Feature","geometry":null},{"properties":{"project name":"FRAE Fife","postcode":"KY1 1DT","column_7":null,"column_8":null,"geo_score":0.0,"column_9":null,"town":"Kirkcaldy","id":"af509ob4prj7","address":null,"geo_precision":"unmatched","programme":"Bike Club","la":"Fife"},"type":"Feature","geometry":null},{"properties":{"project name":"Link Living West Ridge Mill Residents","postcode":"KY1 1TE","column_7":null,"column_8":null,"geo_score":0.0,"column_9":null,"town":"Kirkcaldy","id":"af509ode9vn8","address":null,"geo_precision":"unmatched","programme":"Bike Club","la":"Fife"},"type":"Feature","geometry":null},{"properties":{"project name":"Bell Baxter High School","postcode":"KY15 4HY","column_7":null,"column_8":null,"geo_score":0.0,"column_9":null,"town":"Cupar","id":"af509oppqafu","address":null,"geo_precision":"unmatched","programme":"Bike Club","la":"Fife"},"type":"Feature","geometry":null},{"properties":{"project name":"Glenrothes Detached Youth Work","postcode":"KY4 7JX","column_7":null,"column_8":null,"geo_score":0.0,"column_9":null,"town":"Glenrothes","id":"af509oex4vqf","address":null,"geo_precision":"unmatched","programme":"Bike Club","la":"Fife"},"type":"Feature","geometry":null},{"properties":{"project name":"Graeme High School","postcode":"FK1 1SY","column_7":null,"column_8":null,"geo_score":0.0,"column_9":null,"town":"Falkirk","id":"af509om3tcd7","address":null,"geo_precision":"unmatched","programme":"Bike Club","la":"Falkirk"},"type":"Feature","geometry":null},{"properties":{"project name":"Gallatown Bike Club","postcode":"KY1 3EZ","column_7":null,"column_8":null,"geo_score":0.0,"column_9":null,"town":"Kirkcaldy","id":"af509ocb04dk","address":null,"geo_precision":"unmatched","programme":"Bike Club","la":"Fife"},"type":"Feature","geometry":null},{"properties":{"project name":"Meedies Bike Club","postcode":"KY5 8BA","column_7":null,"column_8":null,"geo_score":0.0,"column_9":null,"town":"Lochgelly","id":"af509oo5d2hx","address":null,"geo_precision":"unmatched","programme":"Bike Club","la":"Fife"},"type":"Feature","geometry":null},{"properties":{"project name":"Glenwood Bike Club","postcode":"KY6 1JX","column_7":null,"column_8":null,"geo_score":0.0,"column_9":null,"town":"Glenrothes","id":"af509ojg1o5u","address":null,"geo_precision":"unmatched","programme":"Bike Club","la":"Fife"},"type":"Feature","geometry":null},{"properties":{"project name":"Citadel Youth Centre","postcode":"EH6 6JE","column_7":null,"column_8":null,"geo_score":0.0,"column_9":null,"town":"Leith","id":"af509oeq2ql2","address":null,"geo_precision":"unmatched","programme":"Bike Club","la":"City of Edinburgh"},"type":"Feature","geometry":null},{"properties":{"project name":"Lasswade HS Cycle Club","postcode":"EH19 2LA","column_7":null,"column_8":null,"geo_score":0.0,"column_9":null,"town":"Bonnyrigg","id":"af509okfb1ij","address":null,"geo_precision":"unmatched","programme":"Bike Club","la":"Midlothian"},"type":"Feature","geometry":null},{"properties":{"project name":"Lochend Youth Cycle Club","postcode":"EH8 7PF","column_7":null,"column_8":null,"geo_score":0.0,"column_9":null,"town":"Edinburgh","id":"af509oefskf5","address":null,"geo_precision":"unmatched","programme":"Bike Club","la":"City of Edinburgh"},"type":"Feature","geometry":null},{"properties":{"project name":"Beeslack Bikers","postcode":"EH26 0QF","column_7":null,"column_8":null,"geo_score":0.0,"column_9":null,"town":"Penicuik","id":"af509oqu855d","address":null,"geo_precision":"unmatched","programme":"Bike Club","la":"Midlothian"},"type":"Feature","geometry":null},{"properties":{"project name":"Ormiston Primary School","postcode":"EH35 5LQ","column_7":null,"column_8":null,"geo_score":0.0,"column_9":null,"town":"Ormiston","id":"af509ocirdj6","address":null,"geo_precision":"unmatched","programme":"Bike Club","la":"East Lothian"},"type":"Feature","geometry":null},{"properties":{"project name":"Preston Lodge High School","postcode":"EH32 9QF","column_7":null,"column_8":null,"geo_score":0.0,"column_9":null,"town":"Prestonpans","id":"af509ogoxzs6","address":null,"geo_precision":"unmatched","programme":"Bike Club","la":"East Lothian"},"type":"Feature","geometry":null},{"properties":{"project name":"Abacus Mountaineering","postcode":"PH33 7LS","column_7":null,"column_8":null,"geo_score":0.0,"column_9":null,"town":"Fortwilliam","id":"af509ogz84bo","address":null,"geo_precision":"unmatched","programme":"Go Mountainbike","la":"Highland"},"type":"Feature","geometry":null},{"properties":{"project name":"Abriachan Forest Trust","postcode":"IV3 8LD","column_7":null,"column_8":null,"geo_score":0.0,"column_9":null,"town":"Abriachan","id":"af509oqr7fwc","address":null,"geo_precision":"unmatched","programme":"Go Mountainbike","la":"Highland"},"type":"Feature","geometry":null},{"properties":{"project name":"Active Stirling","postcode":"FK7 7UW","column_7":null,"column_8":null,"geo_score":0.0,"column_9":null,"town":"Stirling","id":"af509ob817d9","address":null,"geo_precision":"unmatched","programme":"Go Mountainbike","la":"Stirling"},"type":"Feature","geometry":null},{"properties":{"project name":"Adventure Aberdeen","postcode":"AB15 8PZ","column_7":null,"column_8":null,"geo_score":0.0,"column_9":null,"town":"Aberdeen","id":"af509ohte3nf","address":null,"geo_precision":"unmatched","programme":"Go Mountainbike","la":"Aberdeen"},"type":"Feature","geometry":null},{"properties":{"project name":"Alford Academy","postcode":"AB33 8PY","column_7":null,"column_8":null,"geo_score":0.0,"column_9":null,"town":"Alford","id":"af509oex2rpz","address":null,"geo_precision":"unmatched","programme":"Go Mountainbike","la":"Aberdeenshire"},"type":"Feature","geometry":null},{"properties":{"project name":"Ancrum Outdoor Centre","postcode":"DD2 2HZ","column_7":null,"column_8":null,"geo_score":0.0,"column_9":null,"town":"Dundee","id":"af509opabi6k","address":null,"geo_precision":"unmatched","programme":"Go Mountainbike","la":"Dundee"},"type":"Feature","geometry":null},{"properties":{"project name":"Andrew Stanford","postcode":"FK8 3SZ","column_7":null,"column_8":null,"geo_score":0.0,"column_9":null,"town":"Aberfoyle","id":"af509of0a2ag","address":null,"geo_precision":"unmatched","programme":"Go Mountainbike","la":"Stirling"},"type":"Feature","geometry":null},{"properties":{"project name":"Angus Council","postcode":"DD11 3TL","column_7":null,"column_8":null,"geo_score":0.0,"column_9":null,"town":"Arbroath","id":"af509ofqipx6","address":null,"geo_precision":"unmatched","programme":"Go Mountainbike","la":"Angus"},"type":"Feature","geometry":null},{"properties":{"project name":"Anniesland College","postcode":"G12 0YE","column_7":null,"column_8":null,"geo_score":0.0,"column_9":null,"town":"Glasgow","id":"af509ooc1tq0","address":null,"geo_precision":"unmatched","programme":"Go Mountainbike","la":"Glasgow"},"type":"Feature","geometry":null},{"properties":{"project name":"Arran Bike Club","postcode":"KA27 8NN","column_7":null,"column_8":null,"geo_score":0.0,"column_9":null,"town":"Lamlash","id":"af509okqf6vm","address":null,"geo_precision":"unmatched","programme":"Go Mountainbike","la":"North Ayrshire"},"type":"Feature","geometry":null},{"properties":{"project name":"Auchengillan Outdoor Centre","postcode":"G63 9BA","column_7":null,"column_8":null,"geo_score":0.0,"column_9":null,"town":"Glasgow","id":"af509oieoibl","address":null,"geo_precision":"unmatched","programme":"Go Mountainbike","la":"Glasgow"},"type":"Feature","geometry":null},{"properties":{"project name":"Bangholm Outdoor - Edinburgh City Council","postcode":"EH6 4RH","column_7":null,"column_8":null,"geo_score":0.0,"column_9":null,"town":"Edinburgh","id":"af509olowxf9","address":null,"geo_precision":"unmatched","programme":"Go Mountainbike","la":"Edinburgh"},"type":"Feature","geometry":null},{"properties":{"project name":"Black Isle Education Centre","postcode":"IV10 8SW","column_7":null,"column_8":null,"geo_score":0.0,"column_9":null,"town":"Fortrose","id":"af509ohwaq2t","address":null,"geo_precision":"unmatched","programme":"Go Mountainbike","la":"Highland"},"type":"Feature","geometry":null},{"properties":{"project name":"Brian Salvona, Cycle Training","postcode":"EH14 3EP","column_7":null,"column_8":null,"geo_score":0.0,"column_9":null,"town":"Edinburgh","id":"af509onvdebg","address":null,"geo_precision":"unmatched","programme":"Go Mountainbike","la":"City of Edinburgh"},"type":"Feature","geometry":null},{"properties":{"project name":"Burnhouse School","postcode":"EH47 0BX","column_7":null,"column_8":null,"geo_score":0.0,"column_9":null,"town":"Whitburn","id":"af509oqkrw6a","address":null,"geo_precision":"unmatched","programme":"Go Mountainbike","la":"West Lothian"},"type":"Feature","geometry":null},{"properties":{"project name":"Castle Semple Country Park","postcode":"PA12 4EA","column_7":null,"column_8":null,"geo_score":0.0,"column_9":null,"town":"Lochwinnoch","id":"af509omc6z51","address":null,"geo_precision":"unmatched","programme":"Go Mountainbike","la":"Renfrewshire"},"type":"Feature","geometry":null},{"properties":{"project name":"Clackmannanshire Council","postcode":"FK10 2AD","column_7":null,"column_8":null,"geo_score":0.0,"column_9":null,"town":"Alloa","id":"af509oicc5me","address":null,"geo_precision":"unmatched","programme":"Go Mountainbike","la":"Clackmannanshire"},"type":"Feature","geometry":null},{"properties":{"project name":"Comhairle Nan Eilean Siar Cycling","postcode":"HS1 2PZ","column_7":null,"column_8":null,"geo_score":0.0,"column_9":null,"town":"Stornoway","id":"af509od0q3kz","address":null,"geo_precision":"unmatched","programme":"Go Mountainbike","la":"Western Isles"},"type":"Feature","geometry":null},{"properties":{"project name":"Covert Dirt","postcode":"DD11 4WW","column_7":null,"column_8":null,"geo_score":0.0,"column_9":null,"town":"Arbroath","id":"af509om7jn7i","address":null,"geo_precision":"unmatched","programme":"Go Mountainbike","la":"Angus"},"type":"Feature","geometry":null},{"properties":{"project name":"Curo Salus","postcode":"PA10  2PU","column_7":null,"column_8":null,"geo_score":0.0,"column_9":null,"town":"Kilbarchan","id":"af509ofpmfqj","address":null,"geo_precision":"unmatched","programme":"Go Mountainbike","la":"Renfrewshire"},"type":"Feature","geometry":null},{"properties":{"project name":"Cycle School","postcode":"G22 7JL","column_7":null,"column_8":null,"geo_score":0.0,"column_9":null,"town":"Glasgow","id":"af509oqgvkgp","address":null,"geo_precision":"unmatched","programme":"Go Mountainbike","la":"Glasgow"},"type":"Feature","geometry":null},{"properties":{"project name":"Cycle Wild Scotland","postcode":"PH22 1SN","column_7":null,"column_8":null,"geo_score":0.0,"column_9":null,"town":"Aviemore","id":"af509ocm0x7u","address":null,"geo_precision":"unmatched","programme":"Go Mountainbike","la":"Highland"},"type":"Feature","geometry":null},{"properties":{"project name":"Cycling Scotland","postcode":"G2 4BG","column_7":null,"column_8":null,"geo_score":0.0,"column_9":null,"town":"Glasgow","id":"af509odgo268","address":null,"geo_precision":"unmatched","programme":"Go Mountainbike","la":"Glasgow"},"type":"Feature","geometry":null},{"properties":{"project name":"DC Outdoor Activities","postcode":"EH8 7DW","column_7":null,"column_8":null,"geo_score":0.0,"column_9":null,"town":"Edinburgh","id":"af509onr5i0d","address":null,"geo_precision":"unmatched","programme":"Go Mountainbike","la":"City of Edinburgh"},"type":"Feature","geometry":null},{"properties":{"project name":"East Dumbartonshire Council","postcode":"G66 1QX","column_7":null,"column_8":null,"geo_score":0.0,"column_9":null,"town":"Kirkintilloch","id":"af509omc5ea1","address":null,"geo_precision":"unmatched","programme":"Go Mountainbike","la":"East Dunbartonshire"},"type":"Feature","geometry":null},{"properties":{"project name":"East Lothian Council Outdoor Learning Service","postcode":"EH21 7SR","column_7":null,"column_8":null,"geo_score":0.0,"column_9":null,"town":"Musselburgh","id":"af509oows5tt","address":null,"geo_precision":"unmatched","programme":"Go Mountainbike","la":"East Lothian"},"type":"Feature","geometry":null},{"properties":{"project name":"East Sutherland Wheelers","postcode":"KW10 6TG","column_7":null,"column_8":null,"geo_score":0.0,"column_9":null,"town":"Golspie","id":"af509oh87rzf","address":null,"geo_precision":"unmatched","programme":"Go Mountainbike","la":"Highland"},"type":"Feature","geometry":null},{"properties":{"project name":"EDS Cycle Co-op","postcode":"G64 3JG","column_7":null,"column_8":null,"geo_score":0.0,"column_9":null,"town":"Bishopbriggs","id":"af509ojfml76","address":null,"geo_precision":"unmatched","programme":"Go Mountainbike","la":"East Dunbartonshire"},"type":"Feature","geometry":null},{"properties":{"project name":"Eliot Palmer","postcode":"PH11 8NE","column_7":null,"column_8":null,"geo_score":0.0,"column_9":null,"town":"Alyth","id":"af509onchhz1","address":null,"geo_precision":"unmatched","programme":"Go Mountainbike","la":"Perth &amp; Kinross"},"type":"Feature","geometry":null},{"properties":{"project name":"Erskine Stewart Melville Schools","postcode":"EH4 3NT","column_7":null,"column_8":null,"geo_score":0.0,"column_9":null,"town":"Edinburgh","id":"af509ocup152","address":null,"geo_precision":"unmatched","programme":"Go Mountainbike","la":"City of Edinburgh"},"type":"Feature","geometry":null},{"properties":{"project name":"Fairbridge Dundee","postcode":"DD4 6ET","column_7":null,"column_8":null,"geo_score":0.0,"column_9":null,"town":"Dundee","id":"af509ojfqnzb","address":null,"geo_precision":"unmatched","programme":"Go Mountainbike","la":"Dundee"},"type":"Feature","geometry":null},{"properties":{"project name":"Fairbridge Edinburgh","postcode":"EH6 6AQ","column_7":null,"column_8":null,"geo_score":0.0,"column_9":null,"town":"Edinburgh","id":"af509olie947","address":null,"geo_precision":"unmatched","programme":"Go Mountainbike","la":"City of Edinburgh"},"type":"Feature","geometry":null},{"properties":{"project name":"Fairbridge Glasgow","postcode":"G20 9PX","column_7":null,"column_8":null,"geo_score":0.0,"column_9":null,"town":"Glasgow","id":"af509onqyvck","address":null,"geo_precision":"unmatched","programme":"Go Mountainbike","la":"Glasgow"},"type":"Feature","geometry":null},{"properties":{"project name":"Falkirk Community Trust - Outdoor Activities","postcode":"FK2 7AF","column_7":null,"column_8":null,"geo_score":0.0,"column_9":null,"town":"Falkirk","id":"af509oftqv48","address":null,"geo_precision":"unmatched","programme":"Go Mountainbike","la":"Falkirk"},"type":"Feature","geometry":null},{"properties":{"project name":"Fife Council","postcode":"KY5 8BA","column_7":null,"column_8":null,"geo_score":0.0,"column_9":null,"town":"Lochgelly","id":"af509opm226t","address":null,"geo_precision":"unmatched","programme":"Go Mountainbike","la":"Fife"},"type":"Feature","geometry":null},{"properties":{"project name":"Forestry Commission - North Highlands","postcode":"KW10 6U","column_7":null,"column_8":null,"geo_score":0.0,"column_9":null,"town":"Golspie","id":"af509ojsaetb","address":null,"geo_precision":"unmatched","programme":"Go Mountainbike","la":"Highland"},"type":"Feature","geometry":null},{"properties":{"project name":"Forestry Commission CSC","postcode":"ML3 0QA.","column_7":null,"column_8":null,"geo_score":0.0,"column_9":null,"town":"Hamilton","id":"af509oiwp6tq","address":null,"geo_precision":"unmatched","programme":"Go Mountainbike","la":"South Lanarkshire"},"type":"Feature","geometry":null},{"properties":{"project name":"GCSS Outdoor Adventure","postcode":"G15 8NS","column_7":null,"column_8":null,"geo_score":0.0,"column_9":null,"town":"Glasgow","id":"af509or5l04q","address":null,"geo_precision":"unmatched","programme":"Go Mountainbike","la":"Glasgow"},"type":"Feature","geometry":null},{"properties":{"project name":"Glenmore Lodge","postcode":"PH22 1QU","column_7":null,"column_8":null,"geo_score":0.0,"column_9":null,"town":"Aviemore","id":"af509ok9qiq0","address":null,"geo_precision":"unmatched","programme":"Go Mountainbike","la":"Highland"},"type":"Feature","geometry":null},{"properties":{"project name":"Gordonstoun","postcode":"IV30 5RF","column_7":null,"column_8":null,"geo_score":0.0,"column_9":null,"town":"Elgin","id":"af509olp8khe","address":null,"geo_precision":"unmatched","programme":"Go Mountainbike","la":"Moray"},"type":"Feature","geometry":null},{"properties":{"project name":"Greenlink MTB Club","postcode":"ML1 3ED","column_7":null,"column_8":null,"geo_score":0.0,"column_9":null,"town":"Motherwell","id":"af509oq4kxpb","address":null,"geo_precision":"unmatched","programme":"Go Mountainbike","la":"North Lanarkshire"},"type":"Feature","geometry":null},{"properties":{"project name":"Harmeny Outdoors","postcode":"EH14 7JY","column_7":null,"column_8":null,"geo_score":0.0,"column_9":null,"town":"Balerno","id":"af509onttdzr","address":null,"geo_precision":"unmatched","programme":"Go Mountainbike","la":"Fife"},"type":"Feature","geometry":null},{"properties":{"project name":"John Rutter","postcode":"EH39 4QS","column_7":null,"column_8":null,"geo_score":0.0,"column_9":null,"town":"North Berwick","id":"af509ofohor0","address":null,"geo_precision":"unmatched","programme":"Go Mountainbike","la":"East Lothian"},"type":"Feature","geometry":null},{"properties":{"project name":"Kilmarnock Academy","postcode":"KA1 3BS","column_7":null,"column_8":null,"geo_score":0.0,"column_9":null,"town":"Kilmarnock","id":"af509omlevmx","address":null,"geo_precision":"unmatched","programme":"Go Mountainbike","la":"East Ayrshire"},"type":"Feature","geometry":null},{"properties":{"project name":"Lagganlia Centre","postcode":"PH21 1NG","column_7":null,"column_8":null,"geo_score":0.0,"column_9":null,"town":"Kingussie","id":"af509oq1ke1i","address":null,"geo_precision":"unmatched","programme":"Go Mountainbike","la":"Highland"},"type":"Feature","geometry":null},{"properties":{"project name":"MCYS","postcode":"PH14 9SB","column_7":null,"column_8":null,"geo_score":0.0,"column_9":null,"town":"Inchture","id":"af509ogssb21","address":null,"geo_precision":"unmatched","programme":"Go Mountainbike","la":"Perth &amp; Kinross"},"type":"Feature","geometry":null},{"properties":{"project name":"Middleden MTB","postcode":"KY2 6HR","column_7":null,"column_8":null,"geo_score":0.0,"column_9":null,"town":"Kirkcaldy","id":"af509oe3ntxp","address":null,"geo_precision":"unmatched","programme":"Go Mountainbike","la":"Fife"},"type":"Feature","geometry":null},{"properties":{"project name":"Midlothian Council","postcode":"EH26 8HS","column_7":null,"column_8":null,"geo_score":0.0,"column_9":null,"town":"Penicuik","id":"af509ojbfkrd","address":null,"geo_precision":"unmatched","programme":"Go Mountainbike","la":"Midlothian"},"type":"Feature","geometry":null},{"properties":{"project name":"Momentum","postcode":"G15 7PS","column_7":null,"column_8":null,"geo_score":0.0,"column_9":null,"town":"Glasgow","id":"af509obns2ka","address":null,"geo_precision":"unmatched","programme":"Go Mountainbike","la":"Glasgow"},"type":"Feature","geometry":null},{"properties":{"project name":"Moray Cuthill","postcode":"EH34 5BD","column_7":null,"column_8":null,"geo_score":0.0,"column_9":null,"town":"Pencaitand","id":"af509onumsh6","address":null,"geo_precision":"unmatched","programme":"Go Mountainbike","la":"East Lothian"},"type":"Feature","geometry":null},{"properties":{"project name":"Moray Mountain Bike Club","postcode":"IV30 4NS","column_7":null,"column_8":null,"geo_score":0.0,"column_9":null,"town":"Elgin","id":"af509oeolcsp","address":null,"geo_precision":"unmatched","programme":"Go Mountainbike","la":"Moray"},"type":"Feature","geometry":null},{"properties":{"project name":"Muirhouse Youth Development Group","postcode":"EH4 4NL","column_7":null,"column_8":null,"geo_score":0.0,"column_9":null,"town":"Edinburgh","id":"af509oqsw045","address":null,"geo_precision":"unmatched","programme":"Go Mountainbike","la":"City of Edinburgh"},"type":"Feature","geometry":null},{"properties":{"project name":"Neil MacPherson","postcode":"IV31 6PB","column_7":null,"column_8":null,"geo_score":0.0,"column_9":null,"town":"Lossiemouth","id":"af509of8xf24","address":null,"geo_precision":"unmatched","programme":"Go Mountainbike","la":"Moray"},"type":"Feature","geometry":null},{"properties":{"project name":"Nevis4","postcode":"G74 4PA","column_7":null,"column_8":null,"geo_score":0.0,"column_9":null,"town":"East Kilbride","id":"af509ojbl5k3","address":null,"geo_precision":"unmatched","programme":"Go Mountainbike","la":"South Lanarkshire"},"type":"Feature","geometry":null},{"properties":{"project name":"nineonesix-guiding","postcode":"IV54 8XN","column_7":null,"column_8":null,"geo_score":0.0,"column_9":null,"town":"Strathcarron","id":"af509ogsvg3k","address":null,"geo_precision":"unmatched","programme":"Go Mountainbike","la":"Highland"},"type":"Feature","geometry":null},{"properties":{"project name":"North Berwick High School","postcode":"EH39 4QS","column_7":null,"column_8":null,"geo_score":0.0,"column_9":null,"town":"North Berwick","id":"af509oezzkip","address":null,"geo_precision":"unmatched","programme":"Go Mountainbike","la":"East Lothian"},"type":"Feature","geometry":null},{"properties":{"project name":"North Lanarkshire Council,","postcode":"ML5 3BT","column_7":null,"column_8":null,"geo_score":0.0,"column_9":null,"town":"Coatbridge","id":"af509oq0ttk6","address":null,"geo_precision":"unmatched","programme":"Go Mountainbike","la":"North Lanarkshire"},"type":"Feature","geometry":null},{"properties":{"project name":"Otter's Tail Adventures","postcode":"G76 0BB","column_7":null,"column_8":null,"geo_score":0.0,"column_9":null,"town":"Eaglesham","id":"af509oqj0o9a","address":null,"geo_precision":"unmatched","programme":"Go Mountainbike","la":"Renfrewshire"},"type":"Feature","geometry":null},{"properties":{"project name":"Outdoor Resource Base","postcode":"ML3 9AZ","column_7":null,"column_8":null,"geo_score":0.0,"column_9":null,"town":"Hamilton","id":"af509oip7v72","address":null,"geo_precision":"unmatched","programme":"Go Mountainbike","la":"South Lanarkshire"},"type":"Feature","geometry":null},{"properties":{"project name":"Outfit Moray","postcode":"IV31","column_7":null,"column_8":null,"geo_score":0.0,"column_9":null,"town":"Lossiemouth","id":"af509oo37y2j","address":null,"geo_precision":"unmatched","programme":"Go Mountainbike","la":"Moray"},"type":"Feature","geometry":null},{"properties":{"project name":"Outward Bound Metro","postcode":"G42 7AD","column_7":null,"column_8":null,"geo_score":0.0,"column_9":null,"town":"Glasgow","id":"af509obla7n0","address":null,"geo_precision":"unmatched","programme":"Go Mountainbike","la":"Glasgow"},"type":"Feature","geometry":null},{"properties":{"project name":"Perth &amp; Kinross outdoor education dept.","postcode":"PH1 5DH","column_7":null,"column_8":null,"geo_score":0.0,"column_9":null,"town":"Balbousie","id":"af509om3zlel","address":null,"geo_precision":"unmatched","programme":"Go Mountainbike","la":"Perth &amp; Kinross"},"type":"Feature","geometry":null},{"properties":{"project name":"RAF Leuchars","postcode":"KY16 0JX","column_7":null,"column_8":null,"geo_score":0.0,"column_9":null,"town":"Leuchars","id":"af509oqcox6g","address":null,"geo_precision":"unmatched","programme":"Go Mountainbike","la":"Fife"},"type":"Feature","geometry":null},{"properties":{"project name":"RAF Lossiemouth","postcode":"IV31 6SD","column_7":null,"column_8":null,"geo_score":0.0,"column_9":null,"town":"Lossiemouth","id":"af509ofavtd7","address":null,"geo_precision":"unmatched","programme":"Go Mountainbike","la":"Moray"},"type":"Feature","geometry":null},{"properties":{"project name":"Renfrewshire Council Youth &amp; Sport Service","postcode":"PA1 2RL","column_7":null,"column_8":null,"geo_score":0.0,"column_9":null,"town":"Paisley","id":"af509ocu427c","address":null,"geo_precision":"unmatched","programme":"Go Mountainbike","la":"Renfrewshire"},"type":"Feature","geometry":null},{"properties":{"project name":"Scottish Borders Council - Abbey Row OE","postcode":"TD5 7BJ","column_7":null,"column_8":null,"geo_score":0.0,"column_9":null,"town":"Kelso","id":"af509opqao1c","address":null,"geo_precision":"unmatched","programme":"Go Mountainbike","la":"Scottish Borders"},"type":"Feature","geometry":null},{"properties":{"project name":"Scottish Deaf Mountain Bike Club","postcode":"KY7 6FC","column_7":null,"column_8":null,"geo_score":0.0,"column_9":null,"town":"Markinch","id":"af509obeeg9j","address":null,"geo_precision":"unmatched","programme":"Go Mountainbike","la":"Fife"},"type":"Feature","geometry":null},{"properties":{"project name":"SportScotland","postcode":"EH12 9DQ","column_7":null,"column_8":null,"geo_score":0.0,"column_9":null,"town":"Edinburgh","id":"af509oo6xcag","address":null,"geo_precision":"unmatched","programme":"Go Mountainbike","la":"City of Edinburgh"},"type":"Feature","geometry":null},{"properties":{"project name":"Telford College","postcode":"EH5 1QE","column_7":null,"column_8":null,"geo_score":0.0,"column_9":null,"town":"Edinburgh","id":"af509ocjjvl8","address":null,"geo_precision":"unmatched","programme":"Go Mountainbike","la":"City of Edinburgh"},"type":"Feature","geometry":null},{"properties":{"project name":"Terminal 1 Youth Centre","postcode":"G72 ONT","column_7":null,"column_8":null,"geo_score":0.0,"column_9":null,"town":"Blantyre","id":"af509oqjmdfq","address":null,"geo_precision":"unmatched","programme":"Go Mountainbike","la":"South Lanarkshire"},"type":"Feature","geometry":null},{"properties":{"project name":"The Bike Station","postcode":"EH9 1UU","column_7":null,"column_8":null,"geo_score":0.0,"column_9":null,"town":"Edinburgh","id":"af509ooh7yo8","address":null,"geo_precision":"unmatched","programme":"Go Mountainbike","la":"City of Edinburgh"},"type":"Feature","geometry":null},{"properties":{"project name":"The Hub","postcode":"EH45 8NB","column_7":null,"column_8":null,"geo_score":0.0,"column_9":null,"town":"Peebles","id":"af509ommsink","address":null,"geo_precision":"unmatched","programme":"Go Mountainbike","la":"Scottish Borders"},"type":"Feature","geometry":null},{"properties":{"project name":"The Urban Fox","postcode":"G31 4RB","column_7":null,"column_8":null,"geo_score":0.0,"column_9":null,"town":"Glasgow","id":"af509ogrxp1l","address":null,"geo_precision":"unmatched","programme":"Go Mountainbike","la":"Glasgow"},"type":"Feature","geometry":null},{"properties":{"project name":"Venturing Out","postcode":"EH33 2LE","column_7":null,"column_8":null,"geo_score":0.0,"column_9":null,"town":"Tranent","id":"af509op2ful1","address":null,"geo_precision":"unmatched","programme":"Go Mountainbike","la":"East Lothian"},"type":"Feature","geometry":null},{"properties":{"project name":"West Highland Wheels,","postcode":"G69 0HN","column_7":null,"column_8":null,"geo_score":0.0,"column_9":null,"town":"Glasgow","id":"af509oj5zoe7","address":null,"geo_precision":"unmatched","programme":"Go Mountainbike","la":"Glasgow"},"type":"Feature","geometry":null},{"properties":{"project name":"Wild Adventure","postcode":"PH37 4LS","column_7":null,"column_8":null,"geo_score":0.0,"column_9":null,"town":"Glenfinnan","id":"af509oloolw2","address":null,"geo_precision":"unmatched","programme":"Go Mountainbike","la":"Highland"},"type":"Feature","geometry":null},{"properties":{"project name":"Wild Biking Scotland","postcode":"FK8 3UN","column_7":null,"column_8":null,"geo_score":0.0,"column_9":null,"town":"Aberfoyle","id":"af509ogrbr0y","address":null,"geo_precision":"unmatched","programme":"Go Mountainbike","la":"Perth &amp; Kinross"},"type":"Feature","geometry":null},{"properties":{"project name":"Woflpax Riders","postcode":"PH26 3JR","column_7":null,"column_8":null,"geo_score":0.0,"column_9":null,"town":"Grantown on Spey","id":"af509obdz82l","address":null,"geo_precision":"unmatched","programme":"Go Mountainbike","la":"Highland"},"type":"Feature","geometry":null},{"properties":{"project name":"Carnegie Cyclones","postcode":"KY11 3HZ","column_7":null,"column_8":null,"geo_score":0.0,"column_9":null,"town":"Dunfermline","id":"af509oknf28d","address":null,"geo_precision":"unmatched","programme":"Go Ride","la":"Fife"},"type":"Feature","geometry":null},{"properties":{"project name":"Discovery Junior CC","postcode":null,"column_7":null,"column_8":null,"geo_score":0.0,"column_9":null,"town":"Dundee","id":"af509og73zju","address":null,"geo_precision":"unmatched","programme":"Go Ride","la":"Dundee"},"type":"Feature","geometry":null},{"properties":{"project name":"East Sutherland Wheelers","postcode":"KW10 6TG","column_7":null,"column_8":null,"geo_score":0.0,"column_9":null,"town":"Golspie","id":"af509opjbd27","address":null,"geo_precision":"unmatched","programme":"Go Ride","la":"Highland"},"type":"Feature","geometry":null},{"properties":{"project name":"Edinburgh RC","postcode":null,"column_7":null,"column_8":null,"geo_score":0.0,"column_9":null,"town":"Edinburgh","id":"af509ojep44h","address":null,"geo_precision":"unmatched","programme":"Go Ride","la":"City of Edinburgh"},"type":"Feature","geometry":null},{"properties":{"project name":"Glasgow Riderz","postcode":null,"column_7":null,"column_8":null,"geo_score":0.0,"column_9":null,"town":"Glasgow","id":"af509oi002hl","address":null,"geo_precision":"unmatched","programme":"Go Ride","la":"Glasgow"},"type":"Feature","geometry":null},{"properties":{"project name":"Johnstone Jets","postcode":null,"column_7":null,"column_8":null,"geo_score":0.0,"column_9":null,"town":"Johnstone","id":"af509odheehs","address":null,"geo_precision":"unmatched","programme":"Go Ride","la":"Renfrewshire"},"type":"Feature","geometry":null},{"properties":{"project name":"Peebles CC","postcode":"EH45 9HB","column_7":null,"column_8":null,"geo_score":0.0,"column_9":null,"town":"Peebles","id":"af509ok31feq","address":null,"geo_precision":"unmatched","programme":"Go Ride","la":"Scottish Borders"},"type":"Feature","geometry":null},{"properties":{"project name":"Royal Albert CC","postcode":null,"column_7":null,"column_8":null,"geo_score":0.0,"column_9":null,"town":"Chatelherault","id":"af509ojuyhzh","address":null,"geo_precision":"unmatched","programme":"Go Ride","la":"South Lanarkshire"},"type":"Feature","geometry":null},{"properties":{"project name":"Stirling Bike Club","postcode":null,"column_7":null,"column_8":null,"geo_score":0.0,"column_9":null,"town":"Stirling","id":"af509ogx16xi","address":null,"geo_precision":"unmatched","programme":"Go Ride","la":"Stirling"},"type":"Feature","geometry":null},{"properties":{"project name":"Wolfpaxx Riders","postcode":null,"column_7":null,"column_8":null,"geo_score":0.0,"column_9":null,"town":"Dundee","id":"af509ogi1t88","address":null,"geo_precision":"unmatched","programme":"Go Ride","la":"Dundee"},"type":"Feature","geometry":null},{"properties":{"project name":"Ythan CC","postcode":null,"column_7":null,"column_8":null,"geo_score":0.0,"column_9":null,"town":"Methlick","id":"af509opnln8j","address":null,"geo_precision":"unmatched","programme":"Go Ride","la":"Aberdeenshire"},"type":"Feature","geometry":null},{"properties":{"project name":"East Kilbride RC","postcode":null,"column_7":null,"column_8":null,"geo_score":0.0,"column_9":null,"town":"East Kilbride","id":"af509omrr6tb","address":null,"geo_precision":"unmatched","programme":"Go Ride","la":"South Lanarkshire"},"type":"Feature","geometry":null},{"properties":{"project name":"Edinburgh Racers","postcode":null,"column_7":null,"column_8":null,"geo_score":0.0,"column_9":null,"town":"Edinburgh","id":"af509opo4iax","address":null,"geo_precision":"unmatched","programme":"Go Ride","la":"City of Edinburgh"},"type":"Feature","geometry":null},{"properties":{"project name":"Walkers CC","postcode":null,"column_7":null,"column_8":null,"geo_score":0.0,"column_9":null,"town":"Kilmaurs","id":"af509og2j9ci","address":null,"geo_precision":"unmatched","programme":"Go Ride","la":"East Ayrshire"},"type":"Feature","geometry":null},{"properties":{"project name":"West Lothian Clarion","postcode":null,"column_7":null,"column_8":null,"geo_score":0.0,"column_9":null,"town":"Lintithgow","id":"af509oi2o6d4","address":null,"geo_precision":"unmatched","programme":"Go Ride","la":"West Lothian"},"type":"Feature","geometry":null},{"properties":{"project name":"Charleston School","postcode":"AB12 3FH","column_7":null,"column_8":null,"geo_score":0.0,"column_9":null,"town":"Aberdeen","id":"af509oi88kip","address":null,"geo_precision":"unmatched","programme":"Cycle Friendly School","la":"Aberdeen City"},"type":"Feature","geometry":null},{"properties":{"project name":"Manor Park","postcode":"AB16 7YB","column_7":null,"column_8":null,"geo_score":0.0,"column_9":null,"town":"Aberdeen","id":"af509oik81dw","address":null,"geo_precision":"unmatched","programme":"Cycle Friendly School","la":"Aberdeen City"},"type":"Feature","geometry":null},{"properties":{"project name":"Hazelhead Primary","postcode":"AB15 8HB","column_7":null,"column_8":null,"geo_score":0.0,"column_9":null,"town":"Aberdeen","id":"af509onuqprh","address":null,"geo_precision":"unmatched","programme":"Cycle Friendly School","la":"Aberdeen City"},"type":"Feature","geometry":null},{"properties":{"project name":"Kingsford Primary","postcode":"AB16 6PQ","column_7":null,"column_8":null,"geo_score":0.0,"column_9":null,"town":"Aberdeen","id":"af509ol7tsmi","address":null,"geo_precision":"unmatched","programme":"Cycle Friendly School","la":"Aberdeen City"},"type":"Feature","geometry":null},{"properties":{"project name":"Fernielea","postcode":"AB15 6HD","column_7":null,"column_8":null,"geo_score":0.0,"column_9":null,"town":"Aberdeen","id":"af509opimvi6","address":null,"geo_precision":"unmatched","programme":"Cycle Friendly School","la":"Aberdeen City"},"type":"Feature","geometry":null},{"properties":{"project name":"Greenbrae","postcode":null,"column_7":null,"column_8":null,"geo_score":0.0,"column_9":null,"town":"Aberdeen","id":"af509oe1vyun","address":null,"geo_precision":"unmatched","programme":"Cycle Friendly School","la":"Aberdeen City"},"type":"Feature","geometry":null},{"properties":{"project name":"Cults Primary","postcode":"AB15 9RG","column_7":null,"column_8":null,"geo_score":0.0,"column_9":null,"town":"Aberdeen","id":"af509op70o5t","address":null,"geo_precision":"unmatched","programme":"Cycle Friendly School","la":"Aberdeen City"},"type":"Feature","geometry":null},{"properties":{"project name":"Buchanaven Primary","postcode":"AB42 1HD","column_7":null,"column_8":null,"geo_score":0.0,"column_9":null,"town":"Peterhead","id":"af509oigl736","address":null,"geo_precision":"unmatched","programme":"Cycle Friendly School","la":"Aberdeenshire"},"type":"Feature","geometry":null},{"properties":{"project name":"Crombie","postcode":null,"column_7":null,"column_8":null,"geo_score":0.0,"column_9":null,"town":"Westhill","id":"af509oie8q7z","address":null,"geo_precision":"unmatched","programme":"Cycle Friendly School","la":"Aberdeenshire"},"type":"Feature","geometry":null},{"properties":{"project name":"Fishermoss","postcode":null,"column_7":null,"column_8":null,"geo_score":0.0,"column_9":null,"town":"Fishermoss","id":"af509oqeyqwd","address":null,"geo_precision":"unmatched","programme":"Cycle Friendly School","la":"Aberdeenshire"},"type":"Feature","geometry":null},{"properties":{"project name":"Arduthie","postcode":null,"column_7":null,"column_8":null,"geo_score":0.0,"column_9":null,"town":"Arduthie","id":"af509of6p5j7","address":null,"geo_precision":"unmatched","programme":"Cycle Friendly School","la":"Aberdeenshire"},"type":"Feature","geometry":null},{"properties":{"project name":"Burnhaven","postcode":"AB42 0YX","column_7":null,"column_8":null,"geo_score":0.0,"column_9":null,"town":"Peterhead","id":"af509obfko6f","address":null,"geo_precision":"unmatched","programme":"Cycle Friendly School","la":"Aberdeenshire"},"type":"Feature","geometry":null},{"properties":{"project name":"Laurencekirk","postcode":null,"column_7":null,"column_8":null,"geo_score":0.0,"column_9":null,"town":"Lurencekirk","id":"af509oibszwe","address":null,"geo_precision":"unmatched","programme":"Cycle Friendly School","la":"Aberdeenshire"},"type":"Feature","geometry":null},{"properties":{"project name":"Westhill","postcode":"AB32 6FY","column_7":null,"column_8":null,"geo_score":0.0,"column_9":null,"town":"Westhill","id":"af509or9xt9l","address":null,"geo_precision":"unmatched","programme":"Cycle Friendly School","la":"Aberdeenshire"},"type":"Feature","geometry":null},{"properties":{"project name":"Elrick","postcode":"AB32 6QB","column_7":null,"column_8":null,"geo_score":0.0,"column_9":null,"town":"Westhill","id":"af509oigq7xm","address":null,"geo_precision":"unmatched","programme":"Cycle Friendly School","la":"Aberdeenshire"},"type":"Feature","geometry":null},{"properties":{"project name":"Eastriggs Primary","postcode":"DG12 6PZ","column_7":null,"column_8":null,"geo_score":0.0,"column_9":null,"town":"Eastriggs","id":"af509om99a63","address":null,"geo_precision":"unmatched","programme":"Cycle Friendly School","la":"Dumfries &amp; Galloway"},"type":"Feature","geometry":null},{"properties":{"project name":"Lincluden School","postcode":"DG2 0PU","column_7":null,"column_8":null,"geo_score":0.0,"column_9":null,"town":"Dumfries","id":"af509oomnhru","address":null,"geo_precision":"unmatched","programme":"Cycle Friendly School","la":"Dumfries &amp; Galloway"},"type":"Feature","geometry":null},{"properties":{"project name":"Leswalt Primary","postcode":null,"column_7":null,"column_8":null,"geo_score":0.0,"column_9":null,"town":"Dumfries","id":"af509ocoqo3l","address":null,"geo_precision":"unmatched","programme":"Cycle Friendly School","la":"Dumfries &amp; Galloway"},"type":"Feature","geometry":null},{"properties":{"project name":"Glenluce Primary","postcode":"DG8 0JE","column_7":null,"column_8":null,"geo_score":0.0,"column_9":null,"town":"Newton Stewart","id":"af509oljk0xf","address":null,"geo_precision":"unmatched","programme":"Cycle Friendly School","la":"Dumfries &amp; Galloway"},"type":"Feature","geometry":null},{"properties":{"project name":"Auchinairn Primary School","postcode":"G64 1NE","column_7":null,"column_8":null,"geo_score":0.0,"column_9":null,"town":"Bishopbriggs","id":"af509omdsp1l","address":null,"geo_precision":"unmatched","programme":"Cycle Friendly School","la":"East Dunbartonshire"},"type":"Feature","geometry":null},{"properties":{"project name":"Lenzie Moss Primary","postcode":null,"column_7":null,"column_8":null,"geo_score":0.0,"column_9":null,"town":"Lenzie","id":"af509om657ha","address":null,"geo_precision":"unmatched","programme":"Cycle Friendly School","la":"East Dunbartonshire"},"type":"Feature","geometry":null},{"properties":{"project name":"Oxgang Primary","postcode":null,"column_7":null,"column_8":null,"geo_score":0.0,"column_9":null,"town":"Kirkintilloch","id":"af509ojzbttl","address":null,"geo_precision":"unmatched","programme":"Cycle Friendly School","la":"East Dunbartonshire"},"type":"Feature","geometry":null},{"properties":{"project name":"Yester Primary","postcode":"EH41 4QP","column_7":null,"column_8":null,"geo_score":0.0,"column_9":null,"town":"Gifford","id":"af509ombxjvm","address":null,"geo_precision":"unmatched","programme":"Cycle Friendly School","la":"East Lothian"},"type":"Feature","geometry":null},{"properties":{"project name":"St Johns Primary","postcode":"G78 1AJ","column_7":null,"column_8":null,"geo_score":0.0,"column_9":null,"town":"Barrhead","id":"af509oim2787","address":null,"geo_precision":"unmatched","programme":"Cycle Friendly School","la":"East Renfrewshire"},"type":"Feature","geometry":null},{"properties":{"project name":"Auchenback Primary","postcode":"G78 2EU","column_7":null,"column_8":null,"geo_score":0.0,"column_9":null,"town":"Barrhead","id":"af509ogxp4f5","address":null,"geo_precision":"unmatched","programme":"Cycle Friendly School","la":"East Renfrewshire"},"type":"Feature","geometry":null},{"properties":{"project name":"Neilston Primary","postcode":"G78 3HJ","column_7":null,"column_8":null,"geo_score":0.0,"column_9":null,"town":"Neilston","id":"af509obxn1b6","address":null,"geo_precision":"unmatched","programme":"Cycle Friendly School","la":"East Renfrewshire"},"type":"Feature","geometry":null},{"properties":{"project name":"Shawlands Primary","postcode":"G41 3QP","column_7":null,"column_8":null,"geo_score":0.0,"column_9":null,"town":"Glasgow","id":"af509ohjhqwy","address":null,"geo_precision":"unmatched","programme":"Cycle Friendly School","la":"Glasgow"},"type":"Feature","geometry":null},{"properties":{"project name":"Muirtown Primary","postcode":"IV3 8LU","column_7":null,"column_8":null,"geo_score":0.0,"column_9":null,"town":"Inverness","id":"af509olxsh0o","address":null,"geo_precision":"unmatched","programme":"Cycle Friendly School","la":"Highland"},"type":"Feature","geometry":null},{"properties":{"project name":"Kinmylies","postcode":null,"column_7":null,"column_8":null,"geo_score":0.0,"column_9":null,"town":"Inverness","id":"af509oecp0wx","address":null,"geo_precision":"unmatched","programme":"Cycle Friendly School","la":"Highland"},"type":"Feature","geometry":null},{"properties":{"project name":"Aileymill","postcode":"PA16 0JG","column_7":null,"column_8":null,"geo_score":0.0,"column_9":null,"town":"Inverclyde","id":"af509onbi5dc","address":null,"geo_precision":"unmatched","programme":"Cycle Friendly School","la":"Inverclyde"},"type":"Feature","geometry":null},{"properties":{"project name":"Bonnyrigg Primary","postcode":null,"column_7":null,"column_8":null,"geo_score":0.0,"column_9":null,"town":"Bonnyrigg","id":"af509olhq5q5","address":null,"geo_precision":"unmatched","programme":"Cycle Friendly School","la":"Midlothian"},"type":"Feature","geometry":null},{"properties":{"project name":"Saltersgate ASN","postcode":"EH22 2PS","column_7":null,"column_8":null,"geo_score":0.0,"column_9":null,"town":"Dalkieth","id":"af509oqy81dw","address":null,"geo_precision":"unmatched","programme":"Cycle Friendly School","la":"Midlothian"},"type":"Feature","geometry":null},{"properties":{"project name":"Kingspark Primary","postcode":null,"column_7":null,"column_8":null,"geo_score":0.0,"column_9":null,"town":"Dalkieth","id":"af509oh6e9dq","address":null,"geo_precision":"unmatched","programme":"Cycle Friendly School","la":"Midlothian"},"type":"Feature","geometry":null},{"properties":{"project name":"Portgordon Primary","postcode":"AB56 5RA","column_7":null,"column_8":null,"geo_score":0.0,"column_9":null,"town":"Portgordon","id":"af509oclgg5o","address":null,"geo_precision":"unmatched","programme":"Cycle Friendly School","la":"Moray"},"type":"Feature","geometry":null},{"properties":{"project name":"Findochty Primary","postcode":"AB56 4QW","column_7":null,"column_8":null,"geo_score":0.0,"column_9":null,"town":"Findochty","id":"af509oi27xi7","address":null,"geo_precision":"unmatched","programme":"Cycle Friendly School","la":"Moray"},"type":"Feature","geometry":null},{"properties":{"project name":"Moorpark Primary","postcode":"KA25 7EP","column_7":null,"column_8":null,"geo_score":0.0,"column_9":null,"town":"Kilbirnie","id":"af509ooqr8lf","address":null,"geo_precision":"unmatched","programme":"Cycle Friendly School","la":"North Ayrshire"},"type":"Feature","geometry":null},{"properties":{"project name":"Blacklands Primary","postcode":"KA13 6JJ","column_7":null,"column_8":null,"geo_score":0.0,"column_9":null,"town":"Kilwinning","id":"af509oboxu7j","address":null,"geo_precision":"unmatched","programme":"Cycle Friendly School","la":"North Ayrshire"},"type":"Feature","geometry":null},{"properties":{"project name":"Ardeer Primary School","postcode":"KA20 3LZ","column_7":null,"column_8":null,"geo_score":0.0,"column_9":null,"town":"Stevenson","id":"af509omhx47q","address":null,"geo_precision":"unmatched","programme":"Cycle Friendly School","la":"North Ayrshire"},"type":"Feature","geometry":null},{"properties":{"project name":"Royal School of Dunkeld","postcode":"PH8 0AB","column_7":null,"column_8":null,"geo_score":0.0,"column_9":null,"town":"Dunkeld","id":"af509ols0k35","address":null,"geo_precision":"unmatched","programme":"Cycle Friendly School","la":"Perth and Kinross"},"type":"Feature","geometry":null},{"properties":{"project name":"Pitlochry High (Primary department)","postcode":"PH16 5ET","column_7":null,"column_8":null,"geo_score":0.0,"column_9":null,"town":"Pitlochry","id":"af509ok5rrf9","address":null,"geo_precision":"unmatched","programme":"Cycle Friendly School","la":"Perth and Kinross"},"type":"Feature","geometry":null},{"properties":{"project name":"Goodlyburn Primary School","postcode":"PH1 2NT","column_7":null,"column_8":null,"geo_score":0.0,"column_9":null,"town":"Perth","id":"af509ok01g1d","address":null,"geo_precision":"unmatched","programme":"Cycle Friendly School","la":"Perth and Kinross"},"type":"Feature","geometry":null},{"properties":{"project name":"Wellington School","postcode":"KA7 2XH","column_7":null,"column_8":null,"geo_score":0.0,"column_9":null,"town":"Ayr","id":"af509oq7qw09","address":null,"geo_precision":"unmatched","programme":"Cycle Friendly School","la":"South Ayrshire"},"type":"Feature","geometry":null},{"properties":{"project name":"St Charles Primary","postcode":"G72 7ZU","column_7":null,"column_8":null,"geo_score":0.0,"column_9":null,"town":"Cambuslang","id":"af509oi7ppye","address":null,"geo_precision":"unmatched","programme":"Cycle Friendly School","la":"South Lanarkshire"},"type":"Feature","geometry":null},{"properties":{"project name":"Leverhulme Memorial","postcode":null,"column_7":null,"column_8":null,"geo_score":0.0,"column_9":null,"town":"Leverhulme","id":"af509okkfs61","address":null,"geo_precision":"unmatched","programme":"Cycle Friendly School","la":"Western Isles"},"type":"Feature","geometry":null},{"properties":{"project name":"Kyle Academy","postcode":"KA7 3LR","column_7":null,"column_8":null,"geo_score":0.0,"column_9":null,"town":"Ayr","id":"af509oglewv2","address":null,"geo_precision":"unmatched","programme":"Cycle Friendly School","la":"South Ayrshire"},"type":"Feature","geometry":null},{"properties":{"project name":"Larbert Academy","postcode":null,"column_7":null,"column_8":null,"geo_score":0.0,"column_9":null,"town":"Larbert","id":"af509of85mfv","address":null,"geo_precision":"unmatched","programme":"Cycle Friendly School","la":"Falkirk"},"type":"Feature","geometry":null},{"properties":{"project name":"Maxwelltown","postcode":null,"column_7":null,"column_8":null,"geo_score":0.0,"column_9":null,"town":"Dumfries","id":"af509ora8ebv","address":null,"geo_precision":"unmatched","programme":"Cycle Friendly School","la":"Dumfries &amp; Galloway"},"type":"Feature","geometry":null},{"properties":{"project name":"Elgin Academy","postcode":"IV30 4ND","column_7":null,"column_8":null,"geo_score":0.0,"column_9":null,"town":"Elgin","id":"af509oet5tw4","address":null,"geo_precision":"unmatched","programme":"Cycle Friendly School","la":"Moray"},"type":"Feature","geometry":null},{"properties":{"project name":"Breasclete Primary","postcode":"HS2 9ED","column_7":null,"column_8":null,"geo_score":0.0,"column_9":null,"town":"Breasclete","id":"af509ode4ei4","address":null,"geo_precision":"unmatched","programme":"Cycle Friendly School","la":"Western Isles"},"type":"Feature","geometry":null},{"properties":{"project name":"Callander Primary","postcode":"FK17 8AG","column_7":null,"column_8":null,"geo_score":0.0,"column_9":null,"town":"Callander","id":"af509onc7ais","address":null,"geo_precision":"unmatched","programme":"Cycle Friendly School","la":"Stirling"},"type":"Feature","geometry":null},{"properties":{"project name":"Shortlees Primary","postcode":"KA1 1HU","column_7":null,"column_8":null,"geo_score":0.0,"column_9":null,"town":"Kilmarnock","id":"af509or3rxly","address":null,"geo_precision":"unmatched","programme":"Cycle Friendly School","la":"East Ayrshire"},"type":"Feature","geometry":null},{"properties":{"project name":"Crosshouse Primary","postcode":"KA2 0JJ","column_7":null,"column_8":null,"geo_score":0.0,"column_9":null,"town":"Crosshouse","id":"af509omo25eo","address":null,"geo_precision":"unmatched","programme":"Cycle Friendly School","la":"East Ayrshire"},"type":"Feature","geometry":null},{"properties":{"project name":"Garrowhill Primary","postcode":null,"column_7":null,"column_8":null,"geo_score":0.0,"column_9":null,"town":"Garrowhill","id":"af509orljdxs","address":null,"geo_precision":"unmatched","programme":"Cycle Friendly School","la":"Glasgow"},"type":"Feature","geometry":null},{"properties":{"project name":"Pathead Primary","postcode":"KY1 2JA","column_7":null,"column_8":null,"geo_score":0.0,"column_9":null,"town":"Kirkcaldy","id":"af509obaf398","address":null,"geo_precision":"unmatched","programme":"Cycle Friendly School","la":"Fife"},"type":"Feature","geometry":null},{"properties":{"project name":"St Bridgets Primary","postcode":"KA25 6EJ","column_7":null,"column_8":null,"geo_score":0.0,"column_9":null,"town":"Kilburnie","id":"af509og4cl60","address":null,"geo_precision":"unmatched","programme":"Cycle Friendly School","la":"North Ayrshire"},"type":"Feature","geometry":null},{"properties":{"project name":"Glengarnock Primary","postcode":"KA14 3AF","column_7":null,"column_8":null,"geo_score":0.0,"column_9":null,"town":"Beith","id":"af509oo4vu5x","address":null,"geo_precision":"unmatched","programme":"Cycle Friendly School","la":"North Ayrshire"},"type":"Feature","geometry":null},{"properties":{"project name":"Craigour Park Primary","postcode":"EH17 7HL","column_7":null,"column_8":null,"geo_score":0.0,"column_9":null,"town":"Edinburgh","id":"af509odablkw","address":null,"geo_precision":"unmatched","programme":"Cycle Friendly School","la":"City of Edinburgh"},"type":"Feature","geometry":null},{"properties":{"project name":"Sgoil An Taobh Siar West Side Primary","postcode":"HS1 2PZ","column_7":null,"column_8":null,"geo_score":0.0,"column_9":null,"town":"Stornoway","id":"af509oiwgzm6","address":null,"geo_precision":"unmatched","programme":"Cycle Friendly School","la":"Western Isles"},"type":"Feature","geometry":null},{"properties":{"project name":"Uig Primary","postcode":"HS2 9JE","column_7":null,"column_8":null,"geo_score":0.0,"column_9":null,"town":"Uig","id":"af509ojurtmn","address":null,"geo_precision":"unmatched","programme":"Cycle Friendly School","la":"Western Isles"},"type":"Feature","geometry":null},{"properties":{"project name":"Ballater School","postcode":"AB35 5RN","column_7":null,"column_8":null,"geo_score":0.0,"column_9":null,"town":"Ballatar","id":"af509ol69d96","address":null,"geo_precision":"unmatched","programme":"Cycle Friendly School","la":"Aberdeenshire"},"type":"Feature","geometry":null},{"properties":{"project name":"Barthol Chapel PS","postcode":"AB51 8TD","column_7":null,"column_8":null,"geo_score":0.0,"column_9":null,"town":"Inverurie","id":"af509omos5v4","address":null,"geo_precision":"unmatched","programme":"Cycle Friendly School","la":"Aberdeenshire"},"type":"Feature","geometry":null},{"properties":{"project name":"Craigie High School","postcode":"DD4 7QD","column_7":null,"column_8":null,"geo_score":0.0,"column_9":null,"town":"Dundee","id":"af509onge49x","address":null,"geo_precision":"unmatched","programme":"Cycle Friendly School","la":"Dundee"},"type":"Feature","geometry":null},{"properties":{"project name":"Liberton High School","postcode":"EH17 7PT","column_7":null,"column_8":null,"geo_score":0.0,"column_9":null,"town":"Edinburgh","id":"af509oqd9cmc","address":null,"geo_precision":"unmatched","programme":"Cycle Friendly School","la":"Edinburgh"},"type":"Feature","geometry":null},{"properties":{"project name":"Tong Primary","postcode":"HS2 0HJ","column_7":null,"column_8":null,"geo_score":0.0,"column_9":null,"town":"Tong","id":"af509ogvq196","address":null,"geo_precision":"unmatched","programme":"Cycle Friendly School","la":"Western Isles"},"type":"Feature","geometry":null},{"properties":{"project name":"Sehilbost Primary","postcode":"HS3 3HP","column_7":null,"column_8":null,"geo_score":0.0,"column_9":null,"town":"Seliebost","id":"af509oldiw8w","address":null,"geo_precision":"unmatched","programme":"Cycle Friendly School","la":"Western Isles"},"type":"Feature","geometry":null},{"properties":{"project name":"Banchory Primary","postcode":null,"column_7":null,"column_8":null,"geo_score":0.0,"column_9":null,"town":"Banchory","id":"af509od64mjb","address":null,"geo_precision":"unmatched","programme":"Cycle Friendly School","la":"Aberdeenshire"},"type":"Feature","geometry":null},{"properties":{"project name":"St Johns RC Primary","postcode":"PH1 5BF","column_7":null,"column_8":null,"geo_score":0.0,"column_9":null,"town":"Perth","id":"af509oqarr07","address":null,"geo_precision":"unmatched","programme":"Cycle Friendly School","la":"Perth &amp; Kinross"},"type":"Feature","geometry":null},{"properties":{"project name":"Luncarty Primary","postcode":null,"column_7":null,"column_8":null,"geo_score":0.0,"column_9":null,"town":"Luncarty","id":"af509oke15kp","address":null,"geo_precision":"unmatched","programme":"Cycle Friendly School","la":"Perth &amp; Kinross"},"type":"Feature","geometry":null},{"properties":{"project name":"Fossoway Primary","postcode":"KY13 0UL","column_7":null,"column_8":null,"geo_score":0.0,"column_9":null,"town":"Kinross","id":"af509of027yv","address":null,"geo_precision":"unmatched","programme":"Cycle Friendly School","la":"Perth &amp; Kinross"},"type":"Feature","geometry":null},{"properties":{"project name":"Dalymple PS","postcode":"KA6 6PZ","column_7":null,"column_8":null,"geo_score":0.0,"column_9":null,"town":"Dalrymple","id":"af509obh4pzg","address":null,"geo_precision":"unmatched","programme":"Cycle Friendly School","la":"East Ayrshire"},"type":"Feature","geometry":null},{"properties":{"project name":"Inchinan PS","postcode":"PA4 9PH","column_7":null,"column_8":null,"geo_score":0.0,"column_9":null,"town":"Inchinan","id":"af509ogtv9lp","address":null,"geo_precision":"unmatched","programme":"Cycle Friendly School","la":"Renfrewshire"},"type":"Feature","geometry":null},{"properties":{"project name":"Ormiston PS","postcode":"EH35 5LQ","column_7":null,"column_8":null,"geo_score":0.0,"column_9":null,"town":"East Lothian","id":"af509onqkvoa","address":null,"geo_precision":"unmatched","programme":"Cycle Friendly School","la":"East Lothian"},"type":"Feature","geometry":null},{"properties":{"project name":"Clarkston Primary School","postcode":"ML6 7HE","column_7":null,"column_8":null,"geo_score":0.0,"column_9":null,"town":"Airdrie","id":"af509ooj1jcf","address":null,"geo_precision":"unmatched","programme":"Cycle Friendly School","la":"North Lanarkshire"},"type":"Feature","geometry":null},{"properties":{"project name":"Wormit Primary School","postcode":"DD6 8LJ","column_7":null,"column_8":null,"geo_score":0.0,"column_9":null,"town":"Wormit","id":"af509olcuq61","address":null,"geo_precision":"unmatched","programme":"Cycle Friendly School","la":"Fife"},"type":"Feature","geometry":null},{"properties":{"project name":"Tarbolton Primary School","postcode":"KA5 5PY","column_7":null,"column_8":null,"geo_score":0.0,"column_9":null,"town":"Tarbolton","id":"af509obc0j47","address":null,"geo_precision":"unmatched","programme":"Cycle Friendly School","la":"South Ayrshire"},"type":"Feature","geometry":null},{"properties":{"project name":"Inzievar Primary School","postcode":null,"column_7":null,"column_8":null,"geo_score":0.0,"column_9":null,"town":"Inzievar","id":"af509orm7ka6","address":null,"geo_precision":"unmatched","programme":"Cycle Friendly School","la":"Fife"},"type":"Feature","geometry":null},{"properties":{"project name":"Sciennes Primary","postcode":"EH9 1LG","column_7":null,"column_8":null,"geo_score":0.0,"column_9":null,"town":"Edinburgh","id":"af509oqsipz7","address":null,"geo_precision":"unmatched","programme":"Cycle Friendly School","la":"City of Edinburgh"},"type":"Feature","geometry":null},{"properties":{"project name":"Stenhouse Primary","postcode":"EH11 3HL","column_7":null,"column_8":null,"geo_score":0.0,"column_9":null,"town":"Edinburgh","id":"af509orle9wc","address":null,"geo_precision":"unmatched","programme":"Cycle Friendly School","la":"City of Edinburgh"},"type":"Feature","geometry":null},{"properties":{"project name":"Muirfield Primary","postcode":"AB16 6UE","column_7":null,"column_8":null,"geo_score":0.0,"column_9":null,"town":"Aberdeen","id":"af509ol30p8c","address":null,"geo_precision":"unmatched","programme":"Cycle Friendly School","la":"Aberdeen"},"type":"Feature","geometry":null},{"properties":{"project name":"St. Ninians Primary","postcode":"DG2 0EZ","column_7":null,"column_8":null,"geo_score":0.0,"column_9":null,"town":"Dumfries","id":"af509oc6i2gk","address":null,"geo_precision":"unmatched","programme":"Cycle Friendly School","la":"Dumfries &amp; Galloway"},"type":"Feature","geometry":null},{"properties":{"project name":"Kirkhill Primary","postcode":"G77","column_7":null,"column_8":null,"geo_score":0.0,"column_9":null,"town":"Newton Mearns","id":"af509oo67vay","address":null,"geo_precision":"unmatched","programme":"Cycle Friendly School","la":"East Renfrewshire"},"type":"Feature","geometry":null},{"properties":{"project name":"Calside School","postcode":"DG1 4HB","column_7":null,"column_8":null,"geo_score":0.0,"column_9":null,"town":null,"id":"af509oe1f22g","address":null,"geo_precision":"","programme":"I Bike","la":"Dumfries"},"type":"Feature","geometry":null},{"properties":{"project name":"Cargenbridge School","postcode":"DG2 8LW","column_7":null,"column_8":null,"geo_score":0.0,"column_9":null,"town":null,"id":"af509oq70f6x","address":null,"geo_precision":"","programme":"I Bike","la":"Dumfries"},"type":"Feature","geometry":null},{"properties":{"project name":"Dumfries High School","postcode":"DG1 1PX","column_7":null,"column_8":null,"geo_score":0.0,"column_9":null,"town":null,"id":"af509oeorlsa","address":null,"geo_precision":"","programme":"I Bike","la":"Dumfries"},"type":"Feature","geometry":null},{"properties":{"project name":"Georgetown School","postcode":"DG1 4EJ","column_7":null,"column_8":null,"geo_score":0.0,"column_9":null,"town":null,"id":"af509og6pl7a","address":null,"geo_precision":"","programme":"I Bike","la":"Dumfries"},"type":"Feature","geometry":null},{"properties":{"project name":"Heathhall Primary School","postcode":"DG1 3QZ","column_7":null,"column_8":null,"geo_score":0.0,"column_9":null,"town":null,"id":"af509oqwclr8","address":null,"geo_precision":"","programme":"I Bike","la":"Dumfries"},"type":"Feature","geometry":null},{"properties":{"project name":"Holywood School","postcode":"DG2 0RF","column_7":null,"column_8":null,"geo_score":0.0,"column_9":null,"town":null,"id":"af509ojuclqq","address":null,"geo_precision":"","programme":"I Bike","la":"Dumfries"},"type":"Feature","geometry":null},{"properties":{"project name":"Lincluden School","postcode":"DG2 0PU","column_7":null,"column_8":null,"geo_score":0.0,"column_9":null,"town":null,"id":"af509oexuxp3","address":null,"geo_precision":"","programme":"I Bike","la":"Dumfries"},"type":"Feature","geometry":null},{"properties":{"project name":"Locharbriggs School","postcode":"DG1 1UW","column_7":null,"column_8":null,"geo_score":0.0,"column_9":null,"town":null,"id":"af509oq4hrs4","address":null,"geo_precision":"","programme":"I Bike","la":"Dumfries"},"type":"Feature","geometry":null},{"properties":{"project name":"Lochside School","postcode":"DG2 0NF","column_7":null,"column_8":null,"geo_score":0.0,"column_9":null,"town":null,"id":"af509odsvzev","address":null,"geo_precision":"","programme":"I Bike","la":"Dumfries"},"type":"Feature","geometry":null},{"properties":{"project name":"Maxwelltown High School","postcode":"DG2 0EL","column_7":null,"column_8":null,"geo_score":0.0,"column_9":null,"town":null,"id":"af509oojiz0f","address":null,"geo_precision":"","programme":"I Bike","la":"Dumfries"},"type":"Feature","geometry":null},{"properties":{"project name":"Noblehill School","postcode":"DG1 3HB","column_7":null,"column_8":null,"geo_score":0.0,"column_9":null,"town":null,"id":"af509offwhn5","address":null,"geo_precision":"","programme":"I Bike","la":"Dumfries"},"type":"Feature","geometry":null},{"properties":{"project name":"Shawhead School","postcode":"DG2 9SL","column_7":null,"column_8":null,"geo_score":0.0,"column_9":null,"town":null,"id":"af509orgz0ya","address":null,"geo_precision":"","programme":"I Bike","la":"Dumfries"},"type":"Feature","geometry":null},{"properties":{"project name":"St Ninian's School","postcode":"DG2 0EL","column_7":null,"column_8":null,"geo_score":0.0,"column_9":null,"town":null,"id":"af509ofs1sq1","address":null,"geo_precision":"","programme":"I Bike","la":"Dumfries"},"type":"Feature","geometry":null},{"properties":{"project name":"Auchinairn Primary","postcode":"G64 1NE","column_7":null,"column_8":null,"geo_score":0.0,"column_9":null,"town":null,"id":"af509ol6ijst","address":null,"geo_precision":"","programme":"I Bike","la":"East Dunbartonshire"},"type":"Feature","geometry":null},{"properties":{"project name":"Baldernock Primary School","postcode":"G64 4AS","column_7":null,"column_8":null,"geo_score":0.0,"column_9":null,"town":null,"id":"af509omoou99","address":null,"geo_precision":"","programme":"I Bike","la":"East Dunbartonshire"},"type":"Feature","geometry":null},{"properties":{"project name":"Edinburgh","postcode":"EH1","column_7":null,"column_8":null,"geo_score":0.0,"column_9":null,"town":null,"id":"af509or2xs9x","address":null,"geo_precision":"","programme":"I Bike","la":"East Dunbartonshire"},"type":"Feature","geometry":null},{"properties":{"project name":"Lenzie Moss Primary School","postcode":"G66 4HW","column_7":null,"column_8":null,"geo_score":0.0,"column_9":null,"town":null,"id":"af509oqgs9u2","address":null,"geo_precision":"","programme":"I Bike","la":"East Dunbartonshire"},"type":"Feature","geometry":null},{"properties":{"project name":"Lenzie Primary School","postcode":"G66 4LF","column_7":null,"column_8":null,"geo_score":0.0,"column_9":null,"town":null,"id":"af509og6lsrh","address":null,"geo_precision":"","programme":"I Bike","la":"East Dunbartonshire"},"type":"Feature","geometry":null},{"properties":{"project name":"Merkland School","postcode":"G66 2QF","column_7":null,"column_8":null,"geo_score":0.0,"column_9":null,"town":null,"id":"af509offlog2","address":null,"geo_precision":"","programme":"I Bike","la":"East Dunbartonshire"},"type":"Feature","geometry":null},{"properties":{"project name":"St Helens Primary School","postcode":"G64 1EH","column_7":null,"column_8":null,"geo_score":0.0,"column_9":null,"town":null,"id":"af509oextsvo","address":null,"geo_precision":"","programme":"I Bike","la":"East Dunbartonshire"},"type":"Feature","geometry":null},{"properties":{"project name":"St Matthew's Primary School","postcode":"G64 2NP","column_7":null,"column_8":null,"geo_score":0.0,"column_9":null,"town":null,"id":"af509ofnnl32","address":null,"geo_precision":"","programme":"I Bike","la":"East Dunbartonshire"},"type":"Feature","geometry":null},{"properties":{"project name":"Wester Cleddens Primary School","postcode":"G64 2NQ","column_7":null,"column_8":null,"geo_score":0.0,"column_9":null,"town":null,"id":"af509ofoyis0","address":null,"geo_precision":"","programme":"I Bike","la":"East Dunbartonshire"},"type":"Feature","geometry":null},{"properties":{"project name":"Balgreen Primary","postcode":"EH11 3AT","column_7":null,"column_8":null,"geo_score":0.0,"column_9":null,"town":null,"id":"af509oocshu8","address":null,"geo_precision":"","programme":"I Bike","la":"Edinburgh"},"type":"Feature","geometry":null},{"properties":{"project name":"Craiglockhart Primary School","postcode":"EH11 1RG","column_7":null,"column_8":null,"geo_score":0.0,"column_9":null,"town":null,"id":"af509oqyv7ww","address":null,"geo_precision":"","programme":"I Bike","la":"Edinburgh"},"type":"Feature","geometry":null},{"properties":{"project name":"Craigour Park Primary","postcode":"EH17 7HL","column_7":null,"column_8":null,"geo_score":0.0,"column_9":null,"town":null,"id":"af509oqqwdbo","address":null,"geo_precision":"","programme":"I Bike","la":"Edinburgh"},"type":"Feature","geometry":null},{"properties":{"project name":"Craigroyston High School","postcode":"EH4 4QP","column_7":null,"column_8":null,"geo_score":0.0,"column_9":null,"town":null,"id":"af509oerxpxp","address":null,"geo_precision":"","programme":"I Bike","la":"Edinburgh"},"type":"Feature","geometry":null},{"properties":{"project name":"Craigroyston Primary","postcode":"EH4 4PX","column_7":null,"column_8":null,"geo_score":0.0,"column_9":null,"town":null,"id":"af509olh0mf8","address":null,"geo_precision":"","programme":"I Bike","la":"Edinburgh"},"type":"Feature","geometry":null},{"properties":{"project name":"Dalry Primary School","postcode":"EH11 2JB","column_7":null,"column_8":null,"geo_score":0.0,"column_9":null,"town":null,"id":"af509ope3t5t","address":null,"geo_precision":"","programme":"I Bike","la":"Edinburgh"},"type":"Feature","geometry":null},{"properties":{"project name":"Forthview Primary School","postcode":"EH4 4DF","column_7":null,"column_8":null,"geo_score":0.0,"column_9":null,"town":null,"id":"af509oq39ob0","address":null,"geo_precision":"","programme":"I Bike","la":"Edinburgh"},"type":"Feature","geometry":null},{"properties":{"project name":"Gilmerton Primary School","postcode":"EH17 8NG","column_7":null,"column_8":null,"geo_score":0.0,"column_9":null,"town":null,"id":"af509oc0lpe1","address":null,"geo_precision":"","programme":"I Bike","la":"Edinburgh"},"type":"Feature","geometry":null},{"properties":{"project name":"Liberton High School","postcode":"EH17 7PT","column_7":null,"column_8":null,"geo_score":0.0,"column_9":null,"town":null,"id":"af509op1nyx3","address":null,"geo_precision":"","programme":"I Bike","la":"Edinburgh"},"type":"Feature","geometry":null},{"properties":{"project name":"Liberton Primary School","postcode":"EH16 5UD","column_7":null,"column_8":null,"geo_score":0.0,"column_9":null,"town":null,"id":"af509oc8n356","address":null,"geo_precision":"","programme":"I Bike","la":"Edinburgh"},"type":"Feature","geometry":null},{"properties":{"project name":"Pirniehall Primary School","postcode":"EH4 4EP","column_7":null,"column_8":null,"geo_score":0.0,"column_9":null,"town":null,"id":"af509om0kzqy","address":null,"geo_precision":"","programme":"I Bike","la":"Edinburgh"},"type":"Feature","geometry":null},{"properties":{"project name":"Prestonfield Primary School","postcode":"EH16 5LJ","column_7":null,"column_8":null,"geo_score":0.0,"column_9":null,"town":null,"id":"af509opts6j6","address":null,"geo_precision":"","programme":"I Bike","la":"Edinburgh"},"type":"Feature","geometry":null},{"properties":{"project name":"St David's Primary","postcode":"EH4 4HP","column_7":null,"column_8":null,"geo_score":0.0,"column_9":null,"town":null,"id":"af509opjavr6","address":null,"geo_precision":"","programme":"I Bike","la":"Edinburgh"},"type":"Feature","geometry":null},{"properties":{"project name":"Stenhouse Primary School","postcode":"EH11 3HH","column_7":null,"column_8":null,"geo_score":0.0,"column_9":null,"town":null,"id":"af509ogbpapm","address":null,"geo_precision":"","programme":"I Bike","la":"Edinburgh"},"type":"Feature","geometry":null},{"properties":{"project name":"Trinity Primary School","postcode":"EH6 4QA","column_7":null,"column_8":null,"geo_score":0.0,"column_9":null,"town":null,"id":"af509ojy2zg7","address":null,"geo_precision":"","programme":"I Bike","la":"Edinburgh"},"type":"Feature","geometry":null},{"properties":{"project name":"Tynecastle High School","postcode":"EH11 2NJ","column_7":null,"column_8":null,"geo_score":0.0,"column_9":null,"town":null,"id":"af509ohluz8a","address":null,"geo_precision":"","programme":"I Bike","la":"Edinburgh"},"type":"Feature","geometry":null},{"properties":{"project name":"Victoria Primary School","postcode":"EH6 4HY","column_7":null,"column_8":null,"geo_score":0.0,"column_9":null,"town":null,"id":"af509ojb0x62","address":null,"geo_precision":"","programme":"I Bike","la":"Edinburgh"},"type":"Feature","geometry":null},{"properties":{"project name":"Wardie Primary School","postcode":"EH5 3NJ","column_7":null,"column_8":null,"geo_score":0.0,"column_9":null,"town":null,"id":"af509oigxjah","address":null,"geo_precision":"","programme":"I Bike","la":"Edinburgh"},"type":"Feature","geometry":null},{"properties":{"project name":"Capshard Primary","postcode":"KY2 6JD","column_7":null,"column_8":null,"geo_score":0.0,"column_9":null,"town":null,"id":"af509okd0csc","address":null,"geo_precision":"","programme":"I Bike","la":"Fife"},"type":"Feature","geometry":null},{"properties":{"project name":"Dalgety Bay Primary","postcode":"KY11 9LT","column_7":null,"column_8":null,"geo_score":0.0,"column_9":null,"town":null,"id":"af509ocg9qxk","address":null,"geo_precision":"","programme":"I Bike","la":"Fife"},"type":"Feature","geometry":null},{"properties":{"project name":"Donibristle Primary","postcode":"KY11 9UE","column_7":null,"column_8":null,"geo_score":0.0,"column_9":null,"town":null,"id":"af509okg0yx0","address":null,"geo_precision":"","programme":"I Bike","la":"Fife"},"type":"Feature","geometry":null},{"properties":{"project name":"Inverkeithing High","postcode":"KY11 1PL","column_7":null,"column_8":null,"geo_score":0.0,"column_9":null,"town":null,"id":"af509ornx7h4","address":null,"geo_precision":"","programme":"I Bike","la":"Fife"},"type":"Feature","geometry":null},{"properties":{"project name":"Kirkcaldy high School","postcode":"KY1 3LR","column_7":null,"column_8":null,"geo_score":0.0,"column_9":null,"town":null,"id":"af509oj1l3gq","address":null,"geo_precision":"","programme":"I Bike","la":"Fife"},"type":"Feature","geometry":null},{"properties":{"project name":"Kirkcaldy North","postcode":"KY2 5AY","column_7":null,"column_8":null,"geo_score":0.0,"column_9":null,"town":null,"id":"af509onkq5d1","address":null,"geo_precision":"","programme":"I Bike","la":"Fife"},"type":"Feature","geometry":null},{"properties":{"project name":"Kirkcaldy West","postcode":"KY1 1TL","column_7":null,"column_8":null,"geo_score":0.0,"column_9":null,"town":null,"id":"af509ok8kafe","address":null,"geo_precision":"","programme":"I Bike","la":"Fife"},"type":"Feature","geometry":null},{"properties":{"project name":"North Queensferry Primary","postcode":"KY11 1JH","column_7":null,"column_8":null,"geo_score":0.0,"column_9":null,"town":null,"id":"af509or75atj","address":null,"geo_precision":"","programme":"I Bike","la":"Fife"},"type":"Feature","geometry":null},{"properties":{"project name":"Park Road Primary","postcode":"KY11 2NH","column_7":null,"column_8":null,"geo_score":0.0,"column_9":null,"town":null,"id":"af509oby33gv","address":null,"geo_precision":"","programme":"I Bike","la":"Fife"},"type":"Feature","geometry":null},{"properties":{"project name":"Pathhead Primary","postcode":"KY1 2JA","column_7":null,"column_8":null,"geo_score":0.0,"column_9":null,"town":null,"id":"af509odb0h8l","address":null,"geo_precision":"","programme":"I Bike","la":"Fife"},"type":"Feature","geometry":null},{"properties":{"project name":"Sinclair Town Primary","postcode":"KY1 3BJ","column_7":null,"column_8":null,"geo_score":0.0,"column_9":null,"town":null,"id":"af509ocv0xlu","address":null,"geo_precision":"","programme":"I Bike","la":"Fife"},"type":"Feature","geometry":null},{"properties":{"project name":"St Maries Primary","postcode":"KY1 2JH","column_7":null,"column_8":null,"geo_score":0.0,"column_9":null,"town":null,"id":"af509obzc6ce","address":null,"geo_precision":"","programme":"I Bike","la":"Fife"},"type":"Feature","geometry":null},{"properties":{"project name":"Strathallan Primary","postcode":"KY2 5YP","column_7":null,"column_8":null,"geo_score":0.0,"column_9":null,"town":null,"id":"af509ong62a9","address":null,"geo_precision":"","programme":"I Bike","la":"Fife"},"type":"Feature","geometry":null},{"properties":{"project name":"Torbain Primary","postcode":"KY2 6NP","column_7":null,"column_8":null,"geo_score":0.0,"column_9":null,"town":null,"id":"af509ojtg5nh","address":null,"geo_precision":"","programme":"I Bike","la":"Fife"},"type":"Feature","geometry":null},{"properties":{"project name":"Alyth Primary","postcode":"PH11 8AX","column_7":null,"column_8":null,"geo_score":0.0,"column_9":null,"town":null,"id":"af509ohlya22","address":null,"geo_precision":"","programme":"I Bike","la":"Perth"},"type":"Feature","geometry":null},{"properties":{"project name":"Auchtergaven Primary","postcode":"PH1 4DE","column_7":null,"column_8":null,"geo_score":0.0,"column_9":null,"town":null,"id":"af509odr675r","address":null,"geo_precision":"","programme":"I Bike","la":"Perth"},"type":"Feature","geometry":null},{"properties":{"project name":"Coupar Angus","postcode":"PH13 9AS","column_7":null,"column_8":null,"geo_score":0.0,"column_9":null,"town":null,"id":"af509oh62bny","address":null,"geo_precision":"","programme":"I Bike","la":"Perth"},"type":"Feature","geometry":null},{"properties":{"project name":"Crieff Primary","postcode":"PH7 3AY","column_7":null,"column_8":null,"geo_score":0.0,"column_9":null,"town":null,"id":"af509opjfk3j","address":null,"geo_precision":"","programme":"I Bike","la":"Perth"},"type":"Feature","geometry":null},{"properties":{"project name":"Dunbarney Primary","postcode":"PH2 9DY","column_7":null,"column_8":null,"geo_score":0.0,"column_9":null,"town":null,"id":"af509ooxihqi","address":null,"geo_precision":"","programme":"I Bike","la":"Perth"},"type":"Feature","geometry":null},{"properties":{"project name":"Forgandenny Primary","postcode":"PH2 9EL","column_7":null,"column_8":null,"geo_score":0.0,"column_9":null,"town":null,"id":"af509oie9d8v","address":null,"geo_precision":"","programme":"I Bike","la":"Perth"},"type":"Feature","geometry":null},{"properties":{"project name":"Letham Primary School","postcode":"PH1 2NL","column_7":null,"column_8":null,"geo_score":0.0,"column_9":null,"town":null,"id":"af509odyh9mb","address":null,"geo_precision":"","programme":"I Bike","la":"Perth"},"type":"Feature","geometry":null},{"properties":{"project name":"Luncarty Primary","postcode":"PH1 3EX","column_7":null,"column_8":null,"geo_score":0.0,"column_9":null,"town":null,"id":"af509on937fx","address":null,"geo_precision":"","programme":"I Bike","la":"Perth"},"type":"Feature","geometry":null},{"properties":{"project name":"Methven Primary School","postcode":"PH1 3PX","column_7":null,"column_8":null,"geo_score":0.0,"column_9":null,"town":null,"id":"af509ok8uhjm","address":null,"geo_precision":"","programme":"I Bike","la":"Perth"},"type":"Feature","geometry":null},{"properties":{"project name":"Moncreiffe Primary","postcode":"PH2 0AW","column_7":null,"column_8":null,"geo_score":0.0,"column_9":null,"town":null,"id":"af509om8fniw","address":null,"geo_precision":"","programme":"I Bike","la":"Perth"},"type":"Feature","geometry":null},{"properties":{"project name":"Newhill Primary","postcode":"PH10 6UZ","column_7":null,"column_8":null,"geo_score":0.0,"column_9":null,"town":null,"id":"af509oon3daz","address":null,"geo_precision":"","programme":"I Bike","la":"Perth"},"type":"Feature","geometry":null},{"properties":{"project name":"Our Lady's RC Primary","postcode":"PH1 2LG","column_7":null,"column_8":null,"geo_score":0.0,"column_9":null,"town":null,"id":"af509ok5mbdl","address":null,"geo_precision":"","programme":"I Bike","la":"Perth"},"type":"Feature","geometry":null},{"properties":{"project name":"Pitcairn Primary","postcode":"PH1 3LJ","column_7":null,"column_8":null,"geo_score":0.0,"column_9":null,"town":null,"id":"af509oootor7","address":null,"geo_precision":"","programme":"I Bike","la":"Perth"},"type":"Feature","geometry":null},{"properties":{"project name":"Rattray Primary","postcode":"PH10 7DG","column_7":null,"column_8":null,"geo_score":0.0,"column_9":null,"town":null,"id":"af509oo58sax","address":null,"geo_precision":"","programme":"I Bike","la":"Perth"},"type":"Feature","geometry":null},{"properties":{"project name":"St. Dominic's RC Primary","postcode":"PH7 3SB","column_7":null,"column_8":null,"geo_score":0.0,"column_9":null,"town":null,"id":"af509oe9hhyt","address":null,"geo_precision":"","programme":"I Bike","la":"Perth"},"type":"Feature","geometry":null},{"properties":{"project name":"St. John's RC Academy Primary","postcode":"PH1 5NW","column_7":null,"column_8":null,"geo_score":0.0,"column_9":null,"town":null,"id":"af509oddbm8p","address":null,"geo_precision":"","programme":"I Bike","la":"Perth"},"type":"Feature","geometry":null},{"properties":{"project name":"St. John's RC Academy Secondary","postcode":"PH1 5BF","column_7":null,"column_8":null,"geo_score":0.0,"column_9":null,"town":null,"id":"af509olujuqb","address":null,"geo_precision":"","programme":"I Bike","la":"Perth"},"type":"Feature","geometry":null},{"properties":{"project name":"St. Stephen's RC Primary","postcode":"PH10 6UZ","column_7":null,"column_8":null,"geo_score":0.0,"column_9":null,"town":null,"id":"af509oistpxw","address":null,"geo_precision":"","programme":"I Bike","la":"Perth"},"type":"Feature","geometry":null},{"properties":{"project name":"ACES Ayrshire Communities Education and Sport (ACES) Woodwynd","postcode":"KA13 7EE","column_7":null,"column_8":null,"geo_score":0.0,"column_9":null,"town":null,"id":"af509omusde4","address":null,"geo_precision":"","programme":"Bike Club","la":null},"type":"Feature","geometry":null},{"properties":{"project name":"Ally Park Bike Club","postcode":"G31 3DQ","column_7":null,"column_8":null,"geo_score":0.0,"column_9":null,"town":null,"id":"af509omlp3ei","address":null,"geo_precision":"","programme":"Bike Club","la":null},"type":"Feature","geometry":null},{"properties":{"project name":"Barrhead Mellow Velo Club","postcode":"G78 1AA","column_7":null,"column_8":null,"geo_score":0.0,"column_9":null,"town":null,"id":"af509oo4csi9","address":null,"geo_precision":"","programme":"Bike Club","la":null},"type":"Feature","geometry":null},{"properties":{"project name":"Blantyre Youth Development Team - Terminal one","postcode":"G72 0NT","column_7":null,"column_8":null,"geo_score":0.0,"column_9":null,"town":null,"id":"af509oc81c1j","address":null,"geo_precision":"","programme":"Bike Club","la":null},"type":"Feature","geometry":null},{"properties":{"project name":"Centurians BMX Club (Cumbernauld)","postcode":"G68 9AG","column_7":null,"column_8":null,"geo_score":0.0,"column_9":null,"town":null,"id":"af509obi06un","address":null,"geo_precision":"","programme":"Bike Club","la":"North Lanarkshire"},"type":"Feature","geometry":null},{"properties":{"project name":"Common Wheel","postcode":"G20 9BD","column_7":null,"column_8":null,"geo_score":0.0,"column_9":null,"town":null,"id":"af509oh2lupx","address":null,"geo_precision":"","programme":"Bike Club","la":null},"type":"Feature","geometry":null},{"properties":{"project name":"Dalmarnock Centre","postcode":"G40 3HE","column_7":null,"column_8":null,"geo_score":0.0,"column_9":null,"town":null,"id":"af509oq11nq1","address":null,"geo_precision":"","programme":"Bike Club","la":null},"type":"Feature","geometry":null},{"properties":{"project name":"Deaf Connections","postcode":"G5 9EJ","column_7":null,"column_8":null,"geo_score":0.0,"column_9":null,"town":null,"id":"af509odcq9xv","address":null,"geo_precision":"","programme":"Bike Club","la":null},"type":"Feature","geometry":null},{"properties":{"project name":"Dunard Primary School","postcode":"G20 6RL","column_7":null,"column_8":null,"geo_score":0.0,"column_9":null,"town":null,"id":"af509onylnc9","address":null,"geo_precision":"","programme":"Bike Club","la":null},"type":"Feature","geometry":null},{"properties":{"project name":"East Dunbartonshire's Cycle Co-operative","postcode":"G64 3JG","column_7":null,"column_8":null,"geo_score":0.0,"column_9":null,"town":null,"id":"af509oq1djz1","address":null,"geo_precision":"","programme":"Bike Club","la":null},"type":"Feature","geometry":null},{"properties":{"project name":"Free Wheel North","postcode":"G20 6QT","column_7":null,"column_8":null,"geo_score":0.0,"column_9":null,"town":null,"id":"af509onxiqt0","address":null,"geo_precision":"","programme":"Bike Club","la":null},"type":"Feature","geometry":null},{"properties":{"project name":"Friends of Overtoun Park","postcode":"G73 2QD","column_7":null,"column_8":null,"geo_score":0.0,"column_9":null,"town":null,"id":"af509odmadfl","address":null,"geo_precision":"","programme":"Bike Club","la":null},"type":"Feature","geometry":null},{"properties":{"project name":"Glasgow Community &amp; Safety Services","postcode":"G2 6AB","column_7":null,"column_8":null,"geo_score":0.0,"column_9":null,"town":null,"id":"af509om14jb1","address":null,"geo_precision":"","programme":"Bike Club","la":null},"type":"Feature","geometry":null},{"properties":{"project name":"Helenslea Hall Management Committee - Urban Fox Programme","postcode":"G31 4RB","column_7":null,"column_8":null,"geo_score":0.0,"column_9":null,"town":null,"id":"af509ohndoot","address":null,"geo_precision":"","programme":"Bike Club","la":null},"type":"Feature","geometry":null},{"properties":{"project name":"Kelbourne Park Primary School","postcode":"G20 8LH","column_7":null,"column_8":null,"geo_score":0.0,"column_9":null,"town":null,"id":"af509oiu1el5","address":null,"geo_precision":"","programme":"Bike Club","la":null},"type":"Feature","geometry":null},{"properties":{"project name":"Kelvindale Bike Club (Cleveden Community Club)","postcode":"G12 0QR","column_7":null,"column_8":null,"geo_score":0.0,"column_9":null,"town":null,"id":"af509oqiqm8c","address":null,"geo_precision":"","programme":"Bike Club","la":null},"type":"Feature","geometry":null},{"properties":{"project name":"Lochend Community High School","postcode":"G31 2QF","column_7":null,"column_8":null,"geo_score":0.0,"column_9":null,"town":null,"id":"af509oehh9vm","address":null,"geo_precision":"","programme":"Bike Club","la":null},"type":"Feature","geometry":null},{"properties":{"project name":"Parkhill Secondary School-Parkhill Pedals","postcode":"G31 3 LP","column_7":null,"column_8":null,"geo_score":0.0,"column_9":null,"town":null,"id":"af509opyjips","address":null,"geo_precision":"","programme":"Bike Club","la":null},"type":"Feature","geometry":null},{"properties":{"project name":"Reidvale Neighbourhood Centre","postcode":"G31 1QW","column_7":null,"column_8":null,"geo_score":0.0,"column_9":null,"town":null,"id":"af509obb7eai","address":null,"geo_precision":"","programme":"Bike Club","la":null},"type":"Feature","geometry":null},{"properties":{"project name":"Royston Youth Action","postcode":"G21 2BS","column_7":null,"column_8":null,"geo_score":0.0,"column_9":null,"town":null,"id":"af509okyyrvm","address":null,"geo_precision":"","programme":"Bike Club","la":null},"type":"Feature","geometry":null},{"properties":{"project name":"Rutherglen High School","postcode":"G72 8ES","column_7":null,"column_8":null,"geo_score":0.0,"column_9":null,"town":null,"id":"af509od2wu12","address":null,"geo_precision":"","programme":"Bike Club","la":null},"type":"Feature","geometry":null},{"properties":{"project name":"SiMy Project","postcode":"G4 0PS","column_7":null,"column_8":null,"geo_score":0.0,"column_9":null,"town":null,"id":"af509or0zdh9","address":null,"geo_precision":"","programme":"Bike Club","la":null},"type":"Feature","geometry":null},{"properties":{"project name":"Springburn Academy Bike Club","postcode":"G21 4JL","column_7":null,"column_8":null,"geo_score":0.0,"column_9":null,"town":null,"id":"af509ongdeop","address":null,"geo_precision":"","programme":"Bike Club","la":null},"type":"Feature","geometry":null},{"properties":{"project name":"Swinton Primary","postcode":"G69 6AZ","column_7":null,"column_8":null,"geo_score":0.0,"column_9":null,"town":null,"id":"af509oc6qxyh","address":null,"geo_precision":"","programme":"Bike Club","la":null},"type":"Feature","geometry":null},{"properties":{"project name":"Wellhouse Community Trust","postcode":"G33 4LA","column_7":null,"column_8":null,"geo_score":0.0,"column_9":null,"town":null,"id":"af509og1t3va","address":null,"geo_precision":"","programme":"Bike Club","la":null},"type":"Feature","geometry":null},{"properties":{"project name":"Merkland School","postcode":"G66 2QF","column_7":null,"column_8":null,"geo_score":0.0,"column_9":null,"town":null,"id":"af509opfjgnu","address":null,"geo_precision":"","programme":"Bike Club","la":null},"type":"Feature","geometry":null},{"properties":{"project name":"South West Community Cycles","postcode":"G53 6NZ","column_7":null,"column_8":null,"geo_score":0.0,"column_9":null,"town":null,"id":"af509oec6w72","address":null,"geo_precision":"","programme":"Bike Club","la":null},"type":"Feature","geometry":null},{"properties":{"project name":"Playbusters","postcode":"G31 4DN","column_7":null,"column_8":null,"geo_score":0.0,"column_9":null,"town":null,"id":"af509oino5cp","address":null,"geo_precision":"","programme":"Bike Club","la":null},"type":"Feature","geometry":null},{"properties":{"project name":"Neilston Development Trust","postcode":"G78 3EA","column_7":null,"column_8":null,"geo_score":0.0,"column_9":null,"town":null,"id":"af509opalig6","address":null,"geo_precision":"","programme":"Bike Club","la":null},"type":"Feature","geometry":null},{"properties":{"project name":"The ARC (GCSS)","postcode":"G22 7HW","column_7":null,"column_8":null,"geo_score":0.0,"column_9":null,"town":null,"id":"af509od73rw1","address":null,"geo_precision":"","programme":"Bike Club","la":null},"type":"Feature","geometry":null},{"properties":{"project name":"Temple Shafton Youth Project","postcode":"G13 1AX","column_7":null,"column_8":null,"geo_score":0.0,"column_9":null,"town":null,"id":"af509ohgmoy2","address":null,"geo_precision":"","programme":"Bike Club","la":null},"type":"Feature","geometry":null},{"properties":{"project name":"Whitehill Secondary","postcode":"G31 2QF","column_7":null,"column_8":null,"geo_score":0.0,"column_9":null,"town":null,"id":"af509ohrwmi4","address":null,"geo_precision":"","programme":"Bike Club","la":null},"type":"Feature","geometry":null},{"properties":{"project name":"Golfhill Primary","postcode":"G31 2QF","column_7":null,"column_8":null,"geo_score":0.0,"column_9":null,"town":null,"id":"af509oi1knqc","address":null,"geo_precision":"","programme":"Bike Club","la":null},"type":"Feature","geometry":null},{"properties":{"project name":"Haghill Primary","postcode":"G31 3LS","column_7":null,"column_8":null,"geo_score":0.0,"column_9":null,"town":null,"id":"af509oqlkeeu","address":null,"geo_precision":"","programme":"Bike Club","la":null},"type":"Feature","geometry":null},{"properties":{"project name":"Alexander Parade Primary","postcode":"G31 2TL","column_7":null,"column_8":null,"geo_score":0.0,"column_9":null,"town":null,"id":"af509or0h1su","address":null,"geo_precision":"","programme":"Bike Club","la":null},"type":"Feature","geometry":null},{"properties":{"project name":"St Margaret Mary's Secondary Schools","postcode":"G45 9NJ","column_7":null,"column_8":null,"geo_score":0.0,"column_9":null,"town":null,"id":"af509oftdxps","address":null,"geo_precision":"","programme":"Education Scotland","la":"Glasgow"},"type":"Feature","geometry":null},{"properties":{"project name":"St Oswald's Secondary School","postcode":"G44 3NF","column_7":null,"column_8":null,"geo_score":0.0,"column_9":null,"town":null,"id":"af509okrdbhd","address":null,"geo_precision":"","programme":"Education Scotland","la":"Glasgow"},"type":"Feature","geometry":null},{"properties":{"project name":"Moffat Academy","postcode":"DG10 9QL","column_7":null,"column_8":null,"geo_score":0.0,"column_9":null,"town":null,"id":"af509okxggmp","address":null,"geo_precision":"","programme":"Education Scotland","la":"Dumfries"},"type":"Feature","geometry":null},{"properties":{"project name":"Earleston High School","postcode":"TD4 6HF","column_7":null,"column_8":null,"geo_score":0.0,"column_9":null,"town":null,"id":"af509oh6omo1","address":null,"geo_precision":"","programme":"Education Scotland","la":"Scottish Borders"},"type":"Feature","geometry":null},{"properties":{"project name":"Nicholson Institute","postcode":"HS1 2PZ","column_7":null,"column_8":null,"geo_score":0.0,"column_9":null,"town":null,"id":"af509oigt3e6","address":null,"geo_precision":"","programme":"Education Scotland","la":"Western Isles"},"type":"Feature","geometry":null},{"properties":{"project name":"Sir E Scott School","postcode":"HS3 3BG","column_7":null,"column_8":null,"geo_score":0.0,"column_9":null,"town":null,"id":"af509ohm314q","address":null,"geo_precision":"","programme":"Education Scotland","la":"Western Isles"},"type":"Feature","geometry":null},{"properties":{"project name":"Breadalbane Academy","postcode":"PH15 2FJ","column_7":null,"column_8":null,"geo_score":0.0,"column_9":null,"town":null,"id":"af509ol7srp9","address":null,"geo_precision":"","programme":"Education Scotland","la":"Perth"},"type":"Feature","geometry":null},{"properties":{"project name":"Perth High School","postcode":"PH1 1HB","column_7":null,"column_8":null,"geo_score":0.0,"column_9":null,"town":null,"id":"af509opjr8ed","address":null,"geo_precision":"","programme":"Education Scotland","la":"Perth"},"type":"Feature","geometry":null},{"properties":{"project name":"Lesmahagow High School","postcode":"ML11 0FS","column_7":null,"column_8":null,"geo_score":0.0,"column_9":null,"town":null,"id":"af509og83j06","address":null,"geo_precision":"","programme":"Education Scotland","la":"South Lanarkshire"},"type":"Feature","geometry":null},{"properties":{"project name":"Uddingston Grammar","postcode":"G71 7BS","column_7":null,"column_8":null,"geo_score":0.0,"column_9":null,"town":null,"id":"af509ok3wtwa","address":null,"geo_precision":"","programme":"Education Scotland","la":"South Lanarkshire"},"type":"Feature","geometry":null},{"properties":{"project name":"St Kentigern's Academy","postcode":"EH47 7LX","column_7":null,"column_8":null,"geo_score":0.0,"column_9":null,"town":null,"id":"af509oc38cpg","address":null,"geo_precision":"","programme":"Education Scotland","la":"West Lothian"},"type":"Feature","geometry":null},{"properties":{"project name":"Aboyne Academy","postcode":"AB34 5JN","column_7":null,"column_8":null,"geo_score":0.0,"column_9":null,"town":null,"id":"af509oe6528p","address":null,"geo_precision":"","programme":"Education Scotland","la":"Aberdeenshire"},"type":"Feature","geometry":null},{"properties":{"project name":"Banchory Academy","postcode":"AB31 5TQ","column_7":null,"column_8":null,"geo_score":0.0,"column_9":null,"town":null,"id":"af509oc27byj","address":null,"geo_precision":"","programme":"Education Scotland","la":"Aberdeenshire"},"type":"Feature","geometry":null},{"properties":{"project name":"Harris Academy","postcode":"DD2 1NL","column_7":null,"column_8":null,"geo_score":0.0,"column_9":null,"town":null,"id":"af509olf26ad","address":null,"geo_precision":"","programme":"Education Scotland","la":"Dundee"},"type":"Feature","geometry":null},{"properties":{"project name":"Speyside Highschool","postcode":"AB38 9PN","column_7":null,"column_8":null,"geo_score":0.0,"column_9":null,"town":null,"id":"af509ojdvuq1","address":null,"geo_precision":"","programme":"Education Scotland","la":"Moray"},"type":"Feature","geometry":null},{"properties":{"project name":"Monifieth High","postcode":"DD5 4QT","column_7":null,"column_8":null,"geo_score":0.0,"column_9":null,"town":null,"id":"af509ogkni6b","address":null,"geo_precision":"","programme":"Education Scotland","la":"Angus"},"type":"Feature","geometry":null},{"properties":{"project name":"Bellshill Nursery","postcode":"ML4 1PD","column_7":null,"column_8":null,"geo_score":0.0,"column_9":null,"town":null,"id":"af509ohnwd6r","address":null,"geo_precision":"","programme":"Education Scotland","la":"North Lanarkshire"},"type":"Feature","geometry":null},{"properties":{"project name":"Calderhead High","postcode":"ML7 4DH","column_7":null,"column_8":null,"geo_score":0.0,"column_9":null,"town":null,"id":"af509olviy89","address":null,"geo_precision":"","programme":"Education Scotland","la":"North Lanarkshire"},"type":"Feature","geometry":null},{"properties":{"project name":"Carrongrange Special School","postcode":"FK5 3BH","column_7":null,"column_8":null,"geo_score":0.0,"column_9":null,"town":null,"id":"af509ojqrlxl","address":null,"geo_precision":"","programme":"Education Scotland","la":"Falkirk"},"type":"Feature","geometry":null}],"is_temporal":false,"author":{"url":"","metadata":"","contact_name":"","contact_address":"","source":"","contact_phone":""},"source":"","pagination":{"sort":null,"start":0,"total":345,"limit":1000000},"state":"complete","tags":"","published":"2014-08-17T00:29:48-04:00","id":368669}