{"type":"FeatureCollection","data_type":"Dataset","url_type":null,"permissions":[{"permissions":{"download":true,"view":true},"group_id":"everyone"}],"classification":null,"title":"schools map for geocommons","count":9,"stream_id":370774,"contributor":{"url":"http://geocommons.com/users/75954","name":"mkurhajetz"},"data_attributes":null,"calculation_params":null,"icon_link":null,"link":"http://geocommons.com/overlays/370774.json","extent":[-90.1347,29.924,-89.9305,30.0408],"geometry_types":["point"],"unique_name":null,"name":"schools map for geocommons","feature_count":9,"description":"location of all the KNOS campuses","next_feature":null,"is_raster":false,"short_classification":"Y","stats":{},"features":[{"properties":{"city":"New Orleans","school name":"KIPP Believe College Prep","zipcode":"70118","type":"Middle","geo_score":0.598,"street address":"1607 S. Carrollton Ave.","id":"af9ep8mhypo9","geo_precision":"street","state":"LA"},"type":"Feature","geometry":{"type":"Point","coordinates":[-90.134686,29.942791]}},{"properties":{"city":"New Orleans","school name":"KIPP Believe Primary","zipcode":"70122","type":"Primary","geo_score":1.0,"street address":"1700 Pratt Dr.","id":"af9ep8zye1ka","geo_precision":"range","state":"LA"},"type":"Feature","geometry":{"type":"Point","coordinates":[-90.070686,30.004762]}},{"properties":{"city":"New Orleans","school name":"KIPP McDonogh 15 Primary","zipcode":"70116","type":"Primary","geo_score":0.381,"street address":"721 St. Philip","id":"af9ep8uwi255","geo_precision":"street","state":"LA"},"type":"Feature","geometry":{"type":"Point","coordinates":[-90.073473,29.924014]}},{"properties":{"city":"New Orleans","school name":"KIPP McDonogh 15 Middle","zipcode":"70126","type":"Middle","geo_score":1.0,"street address":"5500 Piety Dr.","id":"af9ep8v4d4oy","geo_precision":"range","state":"LA"},"type":"Feature","geometry":{"type":"Point","coordinates":[-90.038106,30.015643]}},{"properties":{"city":"New Orleans","school name":"KIPP New Orleans Leadership Academy","zipcode":"70117","type":"Middle","geo_score":0.667,"street address":"2300 St. Claude Ave.","id":"af9ep90j6ba0","geo_precision":"street","state":"LA"},"type":"Feature","geometry":{"type":"Point","coordinates":[-90.046011,29.961716]}},{"properties":{"city":"New Orleans","school name":"KIPP New Orleans Leadership Primary","zipcode":"70117","type":"Primary","geo_score":0.667,"street address":"2300 St. Claude Ave.","id":"af9ep8nkzewn","geo_precision":"street","state":"LA"},"type":"Feature","geometry":{"type":"Point","coordinates":[-90.046011,29.961716]}},{"properties":{"city":"New Orleans","school name":"KIPP Central City Academy","zipcode":"70113","type":"Middle","geo_score":0.902,"street address":"2514 Third St.","id":"af9ep8ofayoi","geo_precision":"range","state":"LA"},"type":"Feature","geometry":{"type":"Point","coordinates":[-90.090506,29.940097]}},{"properties":{"city":"New Orleans","school name":"KIPP Central City Primary","zipcode":"70113","type":"Primary","geo_score":1.0,"street address":"2625 Thalia St.","id":"af9ep8qw66vi","geo_precision":"range","state":"LA"},"type":"Feature","geometry":{"type":"Point","coordinates":[-90.085149,29.945635]}},{"properties":{"city":"New Orleans","school name":"KIPP Renaissance High School","zipcode":"70129","type":"High","geo_score":1.0,"street address":"5316 Michoud Blvd.","id":"af9ep8t92zua","geo_precision":"range","state":"LA"},"type":"Feature","geometry":{"type":"Point","coordinates":[-89.930507,30.040774]}}],"is_temporal":false,"author":{"url":"","metadata":"","contact_name":"Michael Kurhajetz","contact_address":"2514 Third St., New Orleans, LA, 70113","source":"KIPP New Orleans Schools","contact_phone":""},"source":"","pagination":{"sort":null,"start":0,"total":9,"limit":1000000},"state":"complete","tags":"campuses,knos","published":"2013-06-23T19:21:32Z","id":370774}