{"type":"FeatureCollection","data_type":"Dataset","url_type":null,"permissions":[{"permissions":{"download":true,"view":true},"group_id":"everyone"}],"classification":null,"title":"Copy_of_Dicks_Store_Prospecting_2013","count":82,"stream_id":371299,"contributor":{"url":"http://geocommons.com/users/38967","name":"ironman.wei"},"data_attributes":null,"calculation_params":null,"icon_link":null,"link":"http://geocommons.com/overlays/371299.json","extent":[0.0,0.0,0.0,0.0],"geometry_types":null,"unique_name":null,"name":"Copy_of_Dicks_Store_Prospecting_2013","feature_count":82,"description":"","next_feature":null,"is_raster":false,"short_classification":"Y","features":[{"properties":{"event date":"3/29/2014","store distance from event (miles)":"5","#":"1","type":"IRONMAN 70.3","event":"IRONMAN 70.3 California","phone":"","id":"afa9ip6i9u5s","store address":"3514 College Blvd                       Oceanside, CA 92056","state":"California"},"type":"Feature","geometry":null},{"properties":{"event date":"3/29/2014","store distance from event (miles)":"17","#":"2","type":"IRONMAN 70.3","event":"IRONMAN 70.3 California","phone":"","id":"afa9iou4oi27","store address":"1200 Auto Park Way                                           Escondido, CA 92029","state":"California"},"type":"Feature","geometry":null},{"properties":{"event date":"3/29/2014","store distance from event (miles)":"27","#":"3","type":"IRONMAN 70.3","event":"IRONMAN 70.3 California","phone":"","id":"afa9iosehi5e","store address":"40404 Murrieta Hot Springs Rd.              Murrieta, CA 92563","state":"California"},"type":"Feature","geometry":null},{"properties":{"event date":"3/29/2014","store distance from event (miles)":"29","#":"4","type":"IRONMAN 70.3","event":"IRONMAN 70.3 California","phone":"","id":"afa9iotysjkj","store address":"27502 Antonio Parkway                   Ladera Ranch, CA 92694","state":"California"},"type":"Feature","geometry":null},{"properties":{"event date":"3/29/2014","store distance from event (miles)":"32","#":"5","type":"IRONMAN 70.3","event":"IRONMAN 70.3 California","phone":"","id":"afa9ioxwr2xy","store address":"3265 Sports Arena Blvd, Sports Arena Square\nSan Diego, CA 92110","state":"California"},"type":"Feature","geometry":null},{"properties":{"event date":"3/29/2014","store distance from event (miles)":"33","#":"6","type":"IRONMAN 70.3","event":"IRONMAN 70.3 California","phone":"","id":"afa9iothrxu1","store address":"24821 Alicia Pkwy,                             Laguna Hills, CA 92653","state":"California"},"type":"Feature","geometry":null},{"properties":{"event date":"3/29/2014","store distance from event (miles)":"36","#":"7","type":"IRONMAN 70.3","event":"IRONMAN 70.3 California","phone":"","id":"afa9ip4v94ot","store address":"565 Fletcher Parkway\nEl Cajon, CA 92020","state":"California"},"type":"Feature","geometry":null},{"properties":{"event date":"3/29/2014","store distance from event (miles)":"36","#":"8","type":"IRONMAN 70.3","event":"IRONMAN 70.3 California","phone":"","id":"afa9ip0qnd9k","store address":"415\nEl Cajon, CA","state":"California"},"type":"Feature","geometry":null},{"properties":{"event date":"3/29/2014","store distance from event (miles)":"41","#":"9","type":"IRONMAN 70.3","event":"IRONMAN 70.3 California","phone":"","id":"afa9ip3j25pm","store address":"435 Newport Center Drive\nNewport Beach, CA 92660","state":"California"},"type":"Feature","geometry":null},{"properties":{"event date":"3/29/2014","store distance from event (miles)":"44","#":"10","type":"IRONMAN 70.3","event":"IRONMAN 70.3 California","phone":"","id":"afa9ip5dc6hz","store address":"2771 El Camino Real\nTustin, CA 92782","state":"California"},"type":"Feature","geometry":null},{"properties":{"event date":"4/6/2014","store distance from event (miles)":"","#":"11","type":"IRONMAN 70.3","event":"IRONMAN 70.3 Texas","phone":"","id":"afa9iozgxx8b","store address":"","state":"Texas"},"type":"Feature","geometry":null},{"properties":{"event date":"5/3/2014","store distance from event (miles)":"1.6","#":"12","type":"IRONMAN 70.3","event":"IRONMAN 70.3 St. George","phone":"","id":"afa9iown772x","store address":"15 South River Road #240\nSt. George, UT 84790","state":"Utah"},"type":"Feature","geometry":null},{"properties":{"event date":"5/18/2014","store distance from event (miles)":"9.9","#":"13","type":"IRONMAN 70.3","event":"IRONMAN 70.3 Florida","phone":"","id":"afa9ip36ygh1","store address":"1300 Posner Boulevard\nDavenport, FL 33837","state":"Florida"},"type":"Feature","geometry":null},{"properties":{"event date":"5/31/2014","store distance from event (miles)":"","#":"14","type":"IRONMAN 70.3","event":"IRONMAN 70.3 Hawaii","phone":"","id":"afa9iowfamnk","store address":"","state":""},"type":"Feature","geometry":null},{"properties":{"event date":"6/1/2014","store distance from event (miles)":"5.9","#":"15","type":"IRONMAN 70.3","event":"IRONMAN 70.3 Raleigh","phone":"","id":"afa9iowea423","store address":"401 Crossroads Boulevard\nCary, NC 27511","state":"North Carolina"},"type":"Feature","geometry":null},{"properties":{"event date":"6/1/2014","store distance from event (miles)":"6.2","#":"16","type":"IRONMAN 70.3","event":"IRONMAN 70.3 Raleigh","phone":"","id":"afa9ip0qiale","store address":"145 Shenstone Boulevard\nGarner, NC 27529","state":"North Carolina"},"type":"Feature","geometry":null},{"properties":{"event date":"6/1/2014","store distance from event (miles)":"6.8","#":"17","type":"IRONMAN 70.3","event":"IRONMAN 70.3 Raleigh","phone":"","id":"afa9ip4xyf3w","store address":"3630 Summer Blvd.\nRaleigh, NC 27616","state":"North Carolina"},"type":"Feature","geometry":null},{"properties":{"event date":"6/1/2014","store distance from event (miles)":"6.8","#":"18","type":"IRONMAN 70.3","event":"IRONMAN 70.3 Raleigh","phone":"","id":"afa9ip5mwdtd","store address":"220 Hinton Oaks Boulevard\nKnightdale, NC 27604","state":"North Carolina"},"type":"Feature","geometry":null},{"properties":{"event date":"6/1/2014","store distance from event (miles)":"13","#":"19","type":"IRONMAN 70.3","event":"IRONMAN 70.3 Raleigh","phone":"","id":"afa9ip01ke95","store address":"8021 Brier Creek Parkway\nRaleigh, NC 27617","state":"North Carolina"},"type":"Feature","geometry":null},{"properties":{"event date":"6/1/2014","store distance from event (miles)":"14","#":"20","type":"IRONMAN 70.3","event":"IRONMAN 70.3 Raleigh","phone":"","id":"afa9iozk9e0c","store address":"168 Grand Hill Place\nHolly Springs, NC 27540","state":"North Carolina"},"type":"Feature","geometry":null},{"properties":{"event date":"6/1/2014","store distance from event (miles)":"24","#":"21","type":"IRONMAN 70.3","event":"IRONMAN 70.3 Raleigh","phone":"","id":"afa9ioyboeko","store address":"5422 New Hope Commons Drive\nDurham, NC 27707","state":"North Carolina"},"type":"Feature","geometry":null},{"properties":{"event date":"6/7/2014","store distance from event (miles)":"10","#":"22","type":"IRONMAN 70.3","event":"IRONMAN 70.3 Boise","phone":"","id":"afa9iot4kxxn","store address":"3415 North Eagle Road\nMeridian, ID 83646","state":"Idaho"},"type":"Feature","geometry":null},{"properties":{"event date":"6/8/2014","store distance from event (miles)":"25","#":"23","type":"IRONMAN 70.3","event":"IRONMAN 70.3 Kansas","phone":"","id":"afa9ioskd8ey","store address":"15280 West 119th Street\nOlathe, KS 66062","state":"Kansas"},"type":"Feature","geometry":null},{"properties":{"event date":"6/8/2014","store distance from event (miles)":"28","#":"24","type":"IRONMAN 70.3","event":"IRONMAN 70.3 Kansas","phone":"","id":"afa9ip5a3wwj","store address":"5600 Antioch Road\nMerriam, KS 66202","state":"Kansas"},"type":"Feature","geometry":null},{"properties":{"event date":"6/8/2014","store distance from event (miles)":"30","#":"25","type":"IRONMAN 70.3","event":"IRONMAN 70.3 Kansas","phone":"","id":"afa9ip3dwoop","store address":"5900 Southwest Huntoon Street\nTopeka, KS 66604","state":"Kansas"},"type":"Feature","geometry":null},{"properties":{"event date":"6/8/2014","store distance from event (miles)":"31","#":"26","type":"IRONMAN 70.3","event":"IRONMAN 70.3 Kansas","phone":"","id":"afa9ioyz9cat","store address":"11801 Nall Avenue\nLeawood, KS 66211","state":"Kansas"},"type":"Feature","geometry":null},{"properties":{"event date":"6/8/2014","store distance from event (miles)":"32","#":"27","type":"IRONMAN 70.3","event":"IRONMAN 70.3 Kansas","phone":"","id":"afa9iowtkf02","store address":"8600 Ward Parkway\nKansas City, MO 64114","state":"Kansas"},"type":"Feature","geometry":null},{"properties":{"event date":"6/8/2014","store distance from event (miles)":"33","#":"28","type":"IRONMAN 70.3","event":"IRONMAN 70.3 Kansas","phone":"","id":"afa9ip24sz1m","store address":"8665 Northwest Prairie View Road\nKansas City, MO 64153","state":"Kansas"},"type":"Feature","geometry":null},{"properties":{"event date":"6/8/2014","store distance from event (miles)":"43","#":"29","type":"IRONMAN 70.3","event":"IRONMAN 70.3 Kansas","phone":"","id":"afa9iottu053","store address":"1600 Northwest Chipman Road\nLee's Summit, MO 64081","state":"Kansas"},"type":"Feature","geometry":null},{"properties":{"event date":"6/8/2014","store distance from event (miles)":"44","#":"30","type":"IRONMAN 70.3","event":"IRONMAN 70.3 Kansas","phone":"","id":"afa9ioyzlan2","store address":"1890 College Street\nLiberty, Missouri 64068","state":"Kansas"},"type":"Feature","geometry":null},{"properties":{"event date":"6/8/2014","store distance from event (miles)":"45","#":"31","type":"IRONMAN 70.3","event":"IRONMAN 70.3 Kansas","phone":"","id":"afa9iowjy7jq","store address":"17730 E 39th St S\nIndependence, MO 64055","state":"Kansas"},"type":"Feature","geometry":null},{"properties":{"event date":"6/22/2014","store distance from event (miles)":"5.8","#":"32","type":"IRONMAN 70.3","event":"IRONMAN 70.3 Syracuse","phone":"315-449-2232","id":"afa9iotrkdys","store address":"3649 Erie Boulevard East\nDe Witt, NY 13214","state":"New York"},"type":"Feature","geometry":null},{"properties":{"event date":"6/22/2014","store distance from event (miles)":"10","#":"33","type":"IRONMAN 70.3","event":"IRONMAN 70.3 Syracuse","phone":"315-471-7770","id":"afa9iot454k2","store address":"306 Hiawatha Boulevard H 107\nSyracuse, NY 13208","state":"New York"},"type":"Feature","geometry":null},{"properties":{"event date":"6/22/2014","store distance from event (miles)":"18","#":"34","type":"IRONMAN 70.3","event":"IRONMAN 70.3 Syracuse","phone":"315-652-7674","id":"afa9ip623u39","store address":"4081 Route 31\nClay, NY 13041","state":"New York"},"type":"Feature","geometry":null},{"properties":{"event date":"6/22/2014","store distance from event (miles)":"20","#":"35","type":"IRONMAN","event":"IRONMAN Coeur d'Alene","phone":"509-891-0977","id":"afa9ior7m9dn","store address":"SPOKANE VALLEY MALL\n14014 EAST INDIANA AVENUE\nSPOKANE VALLEY, WA 99216","state":"Idaho"},"type":"Feature","geometry":null},{"properties":{"event date":"6/22/2014","store distance from event (miles)":"26","#":"36","type":"IRONMAN 70.3","event":"IRONMAN 70.3 Syracuse","phone":"315-258-3750","id":"afa9ior1na3v","store address":"1620 Clark Street Rd\nAuburn, NY 13021","state":"New York"},"type":"Feature","geometry":null},{"properties":{"event date":"6/22/2014","store distance from event (miles)":"39","#":"37","type":"IRONMAN 70.3","event":"IRONMAN 70.3 Syracuse","phone":"607-257-5077","id":"afa9ip5w9b0y","store address":"40 Catherwood Road\nIthaca, NY 14850","state":"New York"},"type":"Feature","geometry":null},{"properties":{"event date":"6/22/2014","store distance from event (miles)":"39","#":"38","type":"IRONMAN 70.3","event":"IRONMAN 70.3 Syracuse","phone":"315-798-9626","id":"afa9ip56n922","store address":"New York 5\nNew Hartford, NY 13413","state":"New York"},"type":"Feature","geometry":null},{"properties":{"event date":"7/12/2014","store distance from event (miles)":"38","#":"39","type":"IRONMAN 70.3","event":"IRONMAN 70.3 Muncie","phone":"317-776-1687","id":"afa9ip21w8uz","store address":"HAMILTON TOWN CENTER\n13157 NORELL LANE\nNOBLESVILLE, IN 46060","state":"Indiana"},"type":"Feature","geometry":null},{"properties":{"event date":"7/12/2014","store distance from event (miles)":"46","#":"40","type":"IRONMAN 70.3","event":"IRONMAN 70.3 Muncie","phone":"317-576-0300","id":"afa9ip3xjh6x","store address":"CASTLETON SQUARE MALL\n6020 E 82ND STREET\nINDIANAPOLIS, IN 46250","state":"Indiana"},"type":"Feature","geometry":null},{"properties":{"event date":"7/12/2014","store distance from event (miles)":"46","#":"41","type":"IRONMAN 70.3","event":"IRONMAN 70.3 Muncie","phone":"317-890-8802","id":"afa9iox498rx","store address":"WASHINGTON SQUARE\n10202 E WASHINGTON STREET\nWASHINGTON, IN 46229","state":"Indiana"},"type":"Feature","geometry":null},{"properties":{"event date":"7/12/2014","store distance from event (miles)":"47","#":"42","type":"IRONMAN 70.3","event":"IRONMAN 70.3 Muncie","phone":"317-818-3467","id":"afa9iow191zq","store address":"CARMEL\nCLAY TERRACE\n14350 CLAY TERRACE BLVD.\nCARMEL, IN 46032","state":"Indiana"},"type":"Feature","geometry":null},{"properties":{"event date":"7/20/2014","store distance from event (miles)":"8","#":"43","type":"IRONMAN 70.3","event":"IRONMAN 70.3 Racine","phone":"262-554-8117","id":"afa9ioxd0psf","store address":"SOUTHLAND CENTER\n2710-B SOUTH GREEN BAY ROAD\nRACINE, WI 53406","state":"Wisconsin"},"type":"Feature","geometry":null},{"properties":{"event date":"7/20/2014","store distance from event (miles)":"18","#":"44","type":"IRONMAN 70.3","event":"IRONMAN 70.3 Racine","phone":"262-697-5764","id":"afa9ip5nrh8i","store address":"SHOPS OF PRARIE RIDGE\n9899 76TH STREET\nKENOSHA, WI 53158","state":"Wisconsin"},"type":"Feature","geometry":null},{"properties":{"event date":"7/20/2014","store distance from event (miles)":"35","#":"45","type":"IRONMAN 70.3","event":"IRONMAN 70.3 Racine","phone":"262-377-6349","id":"afa9iox6xslb","store address":"GRAFTON COMMONS\n1020 PORT WASHINGTON ROAD\nGRAFTON, WI 53024","state":"Wisconsin"},"type":"Feature","geometry":null},{"properties":{"event date":"7/20/2014","store distance from event (miles)":"37","#":"46","type":"IRONMAN 70.3","event":"IRONMAN 70.3 Lake Stevens","phone":"425-255-3070","id":"afa9ip2oup45","store address":"THE LANDING IN RENTON\n915 NORTH LANDING WAY\nRENTON, WA 98057","state":"Washington"},"type":"Feature","geometry":null},{"properties":{"event date":"7/20/2014","store distance from event (miles)":"38","#":"47","type":"IRONMAN 70.3","event":"IRONMAN 70.3 Racine","phone":"815-578-8880","id":"afa9ip2awblf","store address":"MCHENRY SQUARE\n3436 SHOPPERS DRIVE\nMCHENRY, IL 60051","state":"Wisconsin"},"type":"Feature","geometry":null},{"properties":{"event date":"7/20/2014","store distance from event (miles)":"40","#":"48","type":"IRONMAN 70.3","event":"IRONMAN 70.3 Racine","phone":"847-573-8240","id":"afa9ioxegjdb","store address":"FASHION SQUARE\n700 N. MILWAUKEE AVENUE UNIT #121\nVERNON HILLS, IL 60061","state":"Wisconsin"},"type":"Feature","geometry":null},{"properties":{"event date":"7/20/2014","store distance from event (miles)":"46","#":"49","type":"IRONMAN 70.3","event":"IRONMAN 70.3 Racine","phone":"847-550-1527","id":"afa9ip2m9cjk","store address":"TOWN CENTER PROMENADE\n21830 WEST LONG GROVE ROAD\nDEER PARK, IL 60010","state":"Wisconsin"},"type":"Feature","geometry":null},{"properties":{"event date":"7/27/2014","store distance from event (miles)":"42","#":"50","type":"IRONMAN","event":"IRONMAN Lake Placid","phone":"518-562-1121","id":"afa9ip4x1137","store address":"CHAMPLAIN CENTRE NORTH\n60 SMITHFIELD BLVD\nPLATTSBURGH, NY 12901","state":"New York"},"type":"Feature","geometry":null},{"properties":{"event date":"7/27/2014","store distance from event (miles)":"46","#":"51","type":"IRONMAN","event":"IRONMAN Lake Placid","phone":"802-288-9854","id":"afa9iow5b4x9","store address":"MAPLE TREE PLACE\n1355 MAPLE TREE PLACE\nWILLISTON, VT 05495","state":"New York"},"type":"Feature","geometry":null},{"properties":{"event date":"8/3/2014","store distance from event (miles)":"8","#":"52","type":"IRONMAN 70.3","event":"IRONMAN 70.3 Boulder","phone":"720-887-0900","id":"afa9ip395l0j","store address":"FLATIRON CROSSING\n31 WEST FLATIRON CROSSING DRIVE\nBROOMFIELD, CO 80021","state":"Colorado"},"type":"Feature","geometry":null},{"properties":{"event date":"8/3/2014","store distance from event (miles)":"9","#":"53","type":"IRONMAN 70.3","event":"IRONMAN 70.3 Boulder","phone":"303-682-5740","id":"afa9ip0fozf6","store address":"HARVEST JUNCTION\n210 KEN PRATT BLVD\nLONGMONT, CO 80501","state":"Colorado"},"type":"Feature","geometry":null},{"properties":{"event date":"8/3/2014","store distance from event (miles)":"12","#":"54","type":"IRONMAN 70.3","event":"IRONMAN 70.3 Boulder","phone":"303-280-6153","id":"afa9ip254g9a","store address":"LARKRIDGE SHOPPING CENTER\n16521 WASHINGTON STREET\nTHORNTON, CO 80023","state":"Colorado"},"type":"Feature","geometry":null},{"properties":{"event date":"8/3/2014","store distance from event (miles)":"23","#":"55","type":"IRONMAN 70.3","event":"IRONMAN 70.3 Boulder","phone":"720-685-1701","id":"afa9ioyb5wno","store address":"PRAIRIE CENTER\n2269 PRAIRIE CENTER PARKWAY\nBRIGHTON, CO 80601","state":"Colorado"},"type":"Feature","geometry":null},{"properties":{"event date":"8/3/2014","store distance from event (miles)":"23","#":"56","type":"IRONMAN 70.3","event":"IRONMAN 70.3 Boulder","phone":"303-600-2600","id":"afa9ip01dcop","store address":"BELMAR CENTER\n7313 WEST ALASKA DRIVE\nLAKEWOOD, CO 80226","state":"Colorado"},"type":"Feature","geometry":null},{"properties":{"event date":"8/3/2014","store distance from event (miles)":"28","#":"57","type":"IRONMAN 70.3","event":"IRONMAN 70.3 Boulder","phone":"970-461-9762","id":"afa9ip0b34m1","store address":"PROMENADE SHOPS AT CENTERRA\n5875 SKY POND DRIVE\nLOVELAND, CO 80537","state":"Colorado"},"type":"Feature","geometry":null},{"properties":{"event date":"8/3/2014","store distance from event (miles)":"30","#":"58","type":"IRONMAN 70.3","event":"IRONMAN 70.3 Steelhead","phone":"574-243-4789","id":"afa9ioxsqubx","store address":"4520 Grape Road\nMishawaka, IN 46545","state":"Michigan"},"type":"Feature","geometry":null},{"properties":{"event date":"8/3/2014","store distance from event (miles)":"30","#":"59","type":"IRONMAN 70.3","event":"IRONMAN 70.3 Boulder","phone":"303-755-0410","id":"afa9iotlvkpy","store address":"Gardens on Havana\n1200 S. IRONTON STREET\nAURORA, CO 80012","state":"Colorado"},"type":"Feature","geometry":null},{"properties":{"event date":"8/3/2014","store distance from event (miles)":"30","#":"60","type":"IRONMAN 70.3","event":"IRONMAN 70.3 Boulder","phone":"720-981-0618","id":"afa9ioskl14j","store address":"SOUTHWEST PLAZA\n8501 WEST BOWLES AVENUE\nLITTLETON, CO 80123","state":"Colorado"},"type":"Feature","geometry":null},{"properties":{"event date":"8/3/2014","store distance from event (miles)":"33","#":"61","type":"IRONMAN 70.3","event":"IRONMAN 70.3 Boulder","phone":"303-797-3360","id":"afa9iotbod2n","store address":"THE STREETS OF SOUTHGLENN\n6737 S. VINE STREET\nCENTENNIAL, CO 80122","state":"Colorado"},"type":"Feature","geometry":null},{"properties":{"event date":"8/3/2014","store distance from event (miles)":"37","#":"62","type":"IRONMAN 70.3","event":"IRONMAN 70.3 Boulder","phone":"720-479-0600","id":"afa9ip5g3roq","store address":"PARK MEADOWS MALL\n8435 PARK MEADOWS CENTER DRIVE\nLITTLETON, CO 80124","state":"Colorado"},"type":"Feature","geometry":null},{"properties":{"event date":"8/3/2014","store distance from event (miles)":"37","#":"63","type":"IRONMAN 70.3","event":"IRONMAN 70.3 Boulder","phone":"303-617-7930","id":"afa9ioyu06wj","store address":"CORNERSTAR\n15400 EAST BRIARWOOD CIRCLE, UNIT A\nAURORA, CO 80016","state":"Colorado"},"type":"Feature","geometry":null},{"properties":{"event date":"8/17/2014","store distance from event (miles)":"23","#":"64","type":"IRONMAN 70.3","event":"IRONMAN 70.3 Timberman","phone":"603-224-1564","id":"afa9ip41190o","store address":"295 Loudon Road\nConcord, New Hampshire 03301","state":"New Hampshire"},"type":"Feature","geometry":null},{"properties":{"event date":"8/17/2014","store distance from event (miles)":"44","#":"65","type":"IRONMAN 70.3","event":"IRONMAN 70.3 Timberman","phone":"603-431-8036","id":"afa9iox65mux","store address":"45 Gosling Road\nPortsmouth, NH 03801","state":"New Hampshire"},"type":"Feature","geometry":null},{"properties":{"event date":"8/24/2014","store distance from event (miles)":"3","#":"66","type":"IRONMAN","event":"IRONMAN Louisville","phone":"812-288-2194","id":"afa9ip1xtyx6","store address":"RIVER FALLS MALL\n951 E LEWIS &amp; CLARK PARKWAY\nCLARKSVILLE, IN 47129","state":"Kentucky"},"type":"Feature","geometry":null},{"properties":{"event date":"8/24/2014","store distance from event (miles)":"7","#":"67","type":"IRONMAN","event":"IRONMAN Louisville","phone":"502-420-6400","id":"afa9iosvxy0d","store address":"OXMOOR CENTER\n7900 SHELBYVILLE ROAD\nLOUISVILLE, KY 40222","state":"Kentucky"},"type":"Feature","geometry":null},{"properties":{"event date":"8/24/2014","store distance from event (miles)":"7","#":"68","type":"IRONMAN","event":"IRONMAN Louisville","phone":"502-429-0776","id":"afa9ip5h7lif","store address":"SPRINGHURST TOWN CENTER\n3555 SPRINGHURST BLVD\nLOUISVILLE, KY 40241","state":"Kentucky"},"type":"Feature","geometry":null},{"properties":{"event date":"8/24/2014","store distance from event (miles)":"10","#":"69","type":"IRONMAN","event":"IRONMAN Louisville","phone":"502-499-9029","id":"afa9iorp1ts0","store address":"STONEYBROOK SHOPPING CENTER\n3500 S HURSTBOURNE PKWY\nLOUISVILLE, KY 40299","state":"Kentucky"},"type":"Feature","geometry":null},{"properties":{"event date":"9/7/2014","store distance from event (miles)":"6","#":"70","type":"IRONMAN","event":"IRONMAN Wisconsin","phone":"608-829-1313","id":"afa9ip5dtnjo","store address":"WEST TOWNE MALL\n237 WEST TOWNE MALL\nMADISON, WI 53719","state":"Wisconsin"},"type":"Feature","geometry":null},{"properties":{"event date":"9/7/2014","store distance from event (miles)":"7","#":"71","type":"IRONMAN","event":"IRONMAN Wisconsin","phone":"608-241-2764","id":"afa9iosg2j6l","store address":"EAST TOWNE MALL\n350 EAST TOWNE MALL\nMADISON, WI 53704","state":"Wisconsin"},"type":"Feature","geometry":null},{"properties":{"event date":"9/21/2014","store distance from event (miles)":"0","#":"72","type":"IRONMAN","event":"IRONMAN Lake Tahoe","phone":"","id":"afa9ip26sahr","store address":"None","state":"California"},"type":"Feature","geometry":null},{"properties":{"event date":"9/28/2014","store distance from event (miles)":"6","#":"73","type":"IRONMAN 70.3","event":"IRONMAN 70.3 Augusta","phone":"706-733-1199","id":"afa9iov6loxt","store address":"AUGUSTA MALL\n3450 WRIGHTSBORO ROAD\nAUGUSTA, GA 30909","state":"Georgia"},"type":"Feature","geometry":null},{"properties":{"event date":"10/26/2014","store distance from event (miles)":"9","#":"74","type":"IRONMAN 70.3","event":"IRONMAN 70.3 Austin","phone":"513-339-3299","id":"afa9iou2lmnx","store address":"DOMAIN CROSSING\n3210 KRAMER LANE\nAUSTIN, TX 78758","state":"Texas"},"type":"Feature","geometry":null},{"properties":{"event date":"10/26/2014","store distance from event (miles)":"12","#":"75","type":"IRONMAN 70.3","event":"IRONMAN 70.3 Austin","phone":"512-252-2800","id":"afa9iotufvat","store address":"STONE HILL TOWN CENTER\n19000 LIMESTONE COMMERCIAL DRIVE\nPFLUGERVILLE, TX 78660","state":"Texas"},"type":"Feature","geometry":null},{"properties":{"event date":"10/26/2014","store distance from event (miles)":"18","#":"76","type":"IRONMAN 70.3","event":"IRONMAN 70.3 Austin","phone":"512-263-2953","id":"afa9ioqutdmd","store address":"HILL COUNTRY GALLERIA\n3921 MARKET STREET\nBEE CAVE, TX 78738","state":"Texas"},"type":"Feature","geometry":null},{"properties":{"event date":"11/1/2014","store distance from event (miles)":"0","#":"77","type":"IRONMAN","event":"IRONMAN Florida","phone":"","id":"afa9iozycdij","store address":"None","state":"Florida"},"type":"Feature","geometry":null},{"properties":{"event date":"11/16/2014","store distance from event (miles)":"5","#":"78","type":"IRONMAN","event":"IRONMAN Arizona","phone":"480-615-2748","id":"afa9ioxb493b","store address":"FIESTA MALL\n1455 WEST SOUTHERN AVENUE\nMESA, AZ 85202","state":"Arizona"},"type":"Feature","geometry":null},{"properties":{"event date":"11/16/2014","store distance from event (miles)":"7","#":"79","type":"IRONMAN","event":"IRONMAN Arizona","phone":"480-592-0938","id":"afa9ioqvfhpf","store address":"EMERALD CENTER\n8550 SOUTH EMERALD DRIVE\nTEMPE, AZ 85284","state":"Arizona"},"type":"Feature","geometry":null},{"properties":{"event date":"11/16/2014","store distance from event (miles)":"14","#":"80","type":"IRONMAN","event":"IRONMAN Arizona","phone":"480-899-3993","id":"afa9ioyoy3zs","store address":"SAN TAN VILLAGE\n2269 SAN TAN VILLAGE PARKWAY\nGILBERT, AZ 85295","state":"Arizona"},"type":"Feature","geometry":null},{"properties":{"event date":"11/16/2014","store distance from event (miles)":"21","#":"81","type":"IRONMAN","event":"IRONMAN Arizona","phone":"623-434-3388","id":"afa9iotocjm5","store address":"THE SHOPS AT NORTERRA\n2350 WEST HAPPY VALLEY ROAD\nPHOENIX, AZ 85085","state":"Arizona"},"type":"Feature","geometry":null},{"properties":{"event date":"11/16/2014","store distance from event (miles)":"21","#":"82","type":"IRONMAN","event":"IRONMAN Arizona","phone":"623-334-8366","id":"afa9iox6ubuh","store address":"ARROWHEAD TOWNE CENTER\n7680 WEST ARROWHEAD TOWNE CENTER\nGLENDALE, AZ 85308","state":"Arizona"},"type":"Feature","geometry":null}],"is_temporal":false,"author":{"url":"","metadata":null,"contact_name":null,"contact_address":null,"source":null,"contact_phone":null},"source":"","pagination":{"sort":null,"start":0,"total":82,"limit":1000000},"state":"parsed","tags":"","published":"2014-08-16T14:46:48-04:00","id":371299}