{"type":"FeatureCollection","data_type":"Dataset","url_type":null,"permissions":[{"permissions":{"download":true,"view":true},"group_id":"everyone"}],"classification":null,"title":"nhgis0001_ts_2010_state","count":52,"stream_id":371291,"contributor":{"url":"http://geocommons.com/users/75793","name":"ts92geocl "},"data_attributes":null,"calculation_params":null,"icon_link":null,"link":"http://geocommons.com/overlays/371291.json","extent":[-85.398285,44.407844,-85.398284,44.408793],"geometry_types":["line"],"unique_name":null,"name":"nhgis0001_ts_2010_state","feature_count":52,"description":"","next_feature":null,"is_raster":false,"short_classification":"Y","stats":{"year":{"max":2010,"variance":0.0,"mean":2010.0,"stdev":0.0,"median":2010,"min":2010},"a00aa2010":{"max":37253956,"variance":45757914390074.5,"mean":6009063.98076923,"stdev":6764459.6524833,"median":4339367,"min":563626}},"features":[{"properties":{"name":"Alabama","gisjoin":"G010","year":2010,"a00aa2010":4779736,"id":"afa94u98sb8t","statea":"01","state":"Alabama"},"type":"Feature","geometry":null},{"properties":{"name":"Alaska","gisjoin":"G020","year":2010,"a00aa2010":710231,"id":"afa94u6k4mix","statea":"02","state":"Alaska"},"type":"Feature","geometry":null},{"properties":{"name":"Arizona","gisjoin":"G040","year":2010,"a00aa2010":6392017,"id":"afa94u80vyz9","statea":"04","state":"Arizona"},"type":"Feature","geometry":null},{"properties":{"name":"Arkansas","gisjoin":"G050","year":2010,"a00aa2010":2915918,"id":"afa94u5npj1j","statea":"05","state":"Arkansas"},"type":"Feature","geometry":null},{"properties":{"name":"California","gisjoin":"G060","year":2010,"a00aa2010":37253956,"id":"afa94ua3n7e3","statea":"06","state":"California"},"type":"Feature","geometry":null},{"properties":{"name":"Colorado","gisjoin":"G080","year":2010,"a00aa2010":5029196,"id":"afa94ty8sclv","statea":"08","state":"Colorado"},"type":"Feature","geometry":null},{"properties":{"name":"Connecticut","gisjoin":"G090","year":2010,"a00aa2010":3574097,"id":"afa94u4psru7","statea":"09","state":"Connecticut"},"type":"Feature","geometry":null},{"properties":{"name":"Delaware","gisjoin":"G100","year":2010,"a00aa2010":897934,"id":"afa94u03f8is","statea":"10","state":"Delaware"},"type":"Feature","geometry":null},{"properties":{"name":"District of Columbia","gisjoin":"G110","year":2010,"a00aa2010":601723,"id":"afa94tyv2cx1","statea":"11","state":"District Of Columbia"},"type":"Feature","geometry":null},{"properties":{"name":"Florida","gisjoin":"G120","year":2010,"a00aa2010":18801310,"id":"afa94txg212x","statea":"12","state":"Florida"},"type":"Feature","geometry":null},{"properties":{"name":"Georgia","gisjoin":"G130","year":2010,"a00aa2010":9687653,"id":"afa94tyy0i35","statea":"13","state":"Georgia"},"type":"Feature","geometry":null},{"properties":{"name":"Hawaii","gisjoin":"G150","year":2010,"a00aa2010":1360301,"id":"afa94u58vfn4","statea":"15","state":"Hawaii"},"type":"Feature","geometry":null},{"properties":{"name":"Idaho","gisjoin":"G160","year":2010,"a00aa2010":1567582,"id":"afa94u1h8hwc","statea":"16","state":"Idaho"},"type":"Feature","geometry":null},{"properties":{"name":"Illinois","gisjoin":"G170","year":2010,"a00aa2010":12830632,"id":"afa94u6x5sc4","statea":"17","state":"Illinois"},"type":"Feature","geometry":null},{"properties":{"name":"Indiana","gisjoin":"G180","year":2010,"a00aa2010":6483802,"id":"afa94tugnpw2","statea":"18","state":"Indiana"},"type":"Feature","geometry":null},{"properties":{"name":"Iowa","gisjoin":"G190","year":2010,"a00aa2010":3046355,"id":"afa94tz93vqr","statea":"19","state":"Iowa"},"type":"Feature","geometry":null},{"properties":{"name":"Kansas","gisjoin":"G200","year":2010,"a00aa2010":2853118,"id":"afa94u2bisy6","statea":"20","state":"Kansas"},"type":"Feature","geometry":null},{"properties":{"name":"Kentucky","gisjoin":"G210","year":2010,"a00aa2010":4339367,"id":"afa94u9emhsr","statea":"21","state":"Kentucky"},"type":"Feature","geometry":null},{"properties":{"name":"Louisiana","gisjoin":"G220","year":2010,"a00aa2010":4533372,"id":"afa94ua8uhbb","statea":"22","state":"Louisiana"},"type":"Feature","geometry":null},{"properties":{"name":"Maine","gisjoin":"G230","year":2010,"a00aa2010":1328361,"id":"afa94tzdd1sm","statea":"23","state":"Maine"},"type":"Feature","geometry":null},{"properties":{"name":"Maryland","gisjoin":"G240","year":2010,"a00aa2010":5773552,"id":"afa94tw52sbk","statea":"24","state":"Maryland"},"type":"Feature","geometry":null},{"properties":{"name":"Massachusetts","gisjoin":"G250","year":2010,"a00aa2010":6547629,"id":"afa94u2nju68","statea":"25","state":"Massachusetts"},"type":"Feature","geometry":null},{"properties":{"name":"Michigan","geometry_id":"afa40oo9m96g","gisjoin":"G260","year":2010,"a00aa2010":9883640,"id":"afa94tzlndlq","statea":"26","state":"Michigan"},"type":"Feature","geometry":{"type":"LineString","coordinates":[[-85.398285,44.407844],[-85.398284,44.408793]]}},{"properties":{"name":"Minnesota","gisjoin":"G270","year":2010,"a00aa2010":5303925,"id":"afa94tzrvun9","statea":"27","state":"Minnesota"},"type":"Feature","geometry":null},{"properties":{"name":"Mississippi","gisjoin":"G280","year":2010,"a00aa2010":2967297,"id":"afa94tvee035","statea":"28","state":"Mississippi"},"type":"Feature","geometry":null},{"properties":{"name":"Missouri","gisjoin":"G290","year":2010,"a00aa2010":5988927,"id":"afa94tyv5xqh","statea":"29","state":"Missouri"},"type":"Feature","geometry":null},{"properties":{"name":"Montana","gisjoin":"G300","year":2010,"a00aa2010":989415,"id":"afa94u2mttey","statea":"30","state":"Montana"},"type":"Feature","geometry":null},{"properties":{"name":"Nebraska","gisjoin":"G310","year":2010,"a00aa2010":1826341,"id":"afa94u208g0a","statea":"31","state":"Nebraska"},"type":"Feature","geometry":null},{"properties":{"name":"Nevada","gisjoin":"G320","year":2010,"a00aa2010":2700551,"id":"afa94u6bht3g","statea":"32","state":"Nevada"},"type":"Feature","geometry":null},{"properties":{"name":"New Hampshire","gisjoin":"G330","year":2010,"a00aa2010":1316470,"id":"afa94u9v7kuu","statea":"33","state":"New Hampshire"},"type":"Feature","geometry":null},{"properties":{"name":"New Jersey","gisjoin":"G340","year":2010,"a00aa2010":8791894,"id":"afa94u2u3ter","statea":"34","state":"New Jersey"},"type":"Feature","geometry":null},{"properties":{"name":"New Mexico","gisjoin":"G350","year":2010,"a00aa2010":2059179,"id":"afa94ua4u00u","statea":"35","state":"New Mexico"},"type":"Feature","geometry":null},{"properties":{"name":"New York","gisjoin":"G360","year":2010,"a00aa2010":19378102,"id":"afa94tya7k95","statea":"36","state":"New York"},"type":"Feature","geometry":null},{"properties":{"name":"North Carolina","gisjoin":"G370","year":2010,"a00aa2010":9535483,"id":"afa94u96an5f","statea":"37","state":"North Carolina"},"type":"Feature","geometry":null},{"properties":{"name":"North Dakota","gisjoin":"G380","year":2010,"a00aa2010":672591,"id":"afa94u02wlp4","statea":"38","state":"North Dakota"},"type":"Feature","geometry":null},{"properties":{"name":"Ohio","gisjoin":"G390","year":2010,"a00aa2010":11536504,"id":"afa94ualphqw","statea":"39","state":"Ohio"},"type":"Feature","geometry":null},{"properties":{"name":"Oklahoma","gisjoin":"G400","year":2010,"a00aa2010":3751351,"id":"afa94u6fens7","statea":"40","state":"Oklahoma"},"type":"Feature","geometry":null},{"properties":{"name":"Oregon","gisjoin":"G410","year":2010,"a00aa2010":3831074,"id":"afa94tvezjku","statea":"41","state":"Oregon"},"type":"Feature","geometry":null},{"properties":{"name":"Pennsylvania","gisjoin":"G420","year":2010,"a00aa2010":12702379,"id":"afa94txi1n6y","statea":"42","state":"Pennsylvania"},"type":"Feature","geometry":null},{"properties":{"name":"Rhode Island","gisjoin":"G440","year":2010,"a00aa2010":1052567,"id":"afa94u6pvxfp","statea":"44","state":"Rhode Island"},"type":"Feature","geometry":null},{"properties":{"name":"South Carolina","gisjoin":"G450","year":2010,"a00aa2010":4625364,"id":"afa94u3d3jye","statea":"45","state":"South Carolina"},"type":"Feature","geometry":null},{"properties":{"name":"South Dakota","gisjoin":"G460","year":2010,"a00aa2010":814180,"id":"afa94u6hxqvm","statea":"46","state":"South Dakota"},"type":"Feature","geometry":null},{"properties":{"name":"Tennessee","gisjoin":"G470","year":2010,"a00aa2010":6346105,"id":"afa94u862pnk","statea":"47","state":"Tennessee"},"type":"Feature","geometry":null},{"properties":{"name":"Texas","gisjoin":"G480","year":2010,"a00aa2010":25145561,"id":"afa94tuuj1ff","statea":"48","state":"Texas"},"type":"Feature","geometry":null},{"properties":{"name":"Utah","gisjoin":"G490","year":2010,"a00aa2010":2763885,"id":"afa94tuwvonx","statea":"49","state":"Utah"},"type":"Feature","geometry":null},{"properties":{"name":"Vermont","gisjoin":"G500","year":2010,"a00aa2010":625741,"id":"afa94u8l5u4k","statea":"50","state":"Vermont"},"type":"Feature","geometry":null},{"properties":{"name":"Virginia","gisjoin":"G510","year":2010,"a00aa2010":8001024,"id":"afa94u189ty6","statea":"51","state":"Virginia"},"type":"Feature","geometry":null},{"properties":{"name":"Washington","gisjoin":"G530","year":2010,"a00aa2010":6724540,"id":"afa94ty5kp46","statea":"53","state":"Washington"},"type":"Feature","geometry":null},{"properties":{"name":"West Virginia","gisjoin":"G540","year":2010,"a00aa2010":1852994,"id":"afa94tv0oyxh","statea":"54","state":"West Virginia"},"type":"Feature","geometry":null},{"properties":{"name":"Wisconsin","gisjoin":"G550","year":2010,"a00aa2010":5686986,"id":"afa94tyjvt2u","statea":"55","state":"Wisconsin"},"type":"Feature","geometry":null},{"properties":{"name":"Wyoming","gisjoin":"G560","year":2010,"a00aa2010":563626,"id":"afa94u1b7rjz","statea":"56","state":"Wyoming"},"type":"Feature","geometry":null},{"properties":{"name":"Puerto Rico","gisjoin":"G720","year":2010,"a00aa2010":3725789,"id":"afa94u8pueuo","statea":"72","state":"Puerto Rico"},"type":"Feature","geometry":null}],"is_temporal":false,"author":{"url":"","metadata":null,"contact_name":null,"contact_address":null,"source":null,"contact_phone":null},"source":"","pagination":{"sort":null,"start":0,"total":52,"limit":1000000},"state":"verified","tags":"","published":"2014-08-16T14:46:30-04:00","id":371291}