{"type":"FeatureCollection","data_type":"Dataset","url_type":null,"permissions":[{"permissions":{"download":true,"view":true},"group_id":"everyone"}],"classification":null,"title":"ArenaMaps","count":20,"stream_id":371406,"contributor":{"url":"http://geocommons.com/users/75518","name":"petebrewis"},"data_attributes":null,"calculation_params":null,"icon_link":null,"link":"http://geocommons.com/overlays/371406.json","extent":[-88.4848,41.8957,-83.0018,46.7826],"geometry_types":["point"],"unique_name":null,"name":"ArenaMaps","feature_count":20,"description":"Location of ice rinks throughout Michigan along with the median household income of the city in which they are located.","next_feature":null,"is_raster":false,"short_classification":"Y","stats":{"median household income":{"max":98344,"variance":575158269.484211,"mean":39514.7,"stdev":23982.4575363788,"min":11354,"median":34583}},"features":[{"properties":{"city":"Adrian","median household income":41118,"geo_score":0.607,"zip code":"49221","street":"S. Charles","id":"afabgt80vbm7","geo_precision":"street","state":"Michigan"},"type":"Feature","geometry":{"type":"Point","coordinates":[-84.063105,41.895651]}},{"properties":{"city":"Allen Park","median household income":39359,"geo_score":0.81,"zip code":"48101","street":"White","id":"afabgtavjvo8","geo_precision":"street","state":"Michigan"},"type":"Feature","geometry":{"type":"Point","coordinates":[-83.197997,42.254079]}},{"properties":{"city":"Alpena","median household income":64563,"geo_score":0.857,"zip code":"49707","street":"Woodward","id":"afabgthigglv","geo_precision":"street","state":"Michigan"},"type":"Feature","geometry":{"type":"Point","coordinates":[-83.441485,45.082836]}},{"properties":{"city":"Ann Arbor","median household income":20263,"geo_score":1.0,"zip code":"48103","street":"Oak Valley Drive","id":"afabgtjnji8l","geo_precision":"street","state":"Michigan"},"type":"Feature","geometry":{"type":"Point","coordinates":[-83.771234,42.243297]}},{"properties":{"city":"Ann Arbor","median household income":20263,"geo_score":0.857,"zip code":"48108","street":"Packard","id":"afabgt62d96n","geo_precision":"zip","state":"Michigan"},"type":"Feature","geometry":{"type":"Point","coordinates":[-83.729342,42.223305]}},{"properties":{"city":"Ann Arbor","median household income":20263,"geo_score":0.857,"zip code":"48107","street":"Jackson Road","id":"afabgt8rqmip","geo_precision":"zip","state":"Michigan"},"type":"Feature","geometry":{"type":"Point","coordinates":[-83.836571,42.253502]}},{"properties":{"city":"Auburn Hills","median household income":51583,"geo_score":0.857,"zip code":"48326","street":"Championship Drive","id":"afabgtj4ny4z","geo_precision":"zip","state":"Michigan"},"type":"Feature","geometry":{"type":"Point","coordinates":[-83.316605,42.698643]}},{"properties":{"city":"Bad Axe","median household income":41000,"geo_score":0.871,"zip code":"48413","street":"West Soper","id":"afabgt9e8x65","geo_precision":"street","state":"Michigan"},"type":"Feature","geometry":{"type":"Point","coordinates":[-83.001798,43.7947]}},{"properties":{"city":"Baraga","median household income":27500,"geo_score":1.0,"zip code":"49908","street":"Superior Avenue","id":"afabgtisplay","geo_precision":"street","state":"Michigan"},"type":"Feature","geometry":{"type":"Point","coordinates":[-88.484845,46.78255]}},{"properties":{"city":"Battle Creek","median household income":32361,"geo_score":0.857,"zip code":"49017","street":"McCalmly Square","id":"afabgteso2h6","geo_precision":"zip","state":"Michigan"},"type":"Feature","geometry":{"type":"Point","coordinates":[-85.110822,42.300597]}},{"properties":{"city":"Bay City","median household income":11354,"geo_score":1.0,"zip code":"48706","street":"Shrestha Drive","id":"afabgtc443rr","geo_precision":"street","state":"Michigan"},"type":"Feature","geometry":{"type":"Point","coordinates":[-83.907057,43.621904]}},{"properties":{"city":"Beaverton","median household income":34583,"geo_score":1.0,"zip code":"48612","street":"Lakeview Drive","id":"afabgtimsczr","geo_precision":"street","state":"Michigan"},"type":"Feature","geometry":{"type":"Point","coordinates":[-84.492825,43.883086]}},{"properties":{"city":"Berkley","median household income":61364,"geo_score":1.0,"zip code":"48072","street":"Robina Avenue","id":"afabgt8rsrvw","geo_precision":"street","state":"Michigan"},"type":"Feature","geometry":{"type":"Point","coordinates":[-83.188295,42.49028]}},{"properties":{"city":"Big Rapids","median household income":17833,"geo_score":1.0,"zip code":"49307","street":"Sports Drive","id":"afabgt636g61","geo_precision":"street","state":"Michigan"},"type":"Feature","geometry":{"type":"Point","coordinates":[-85.491737,43.683212]}},{"properties":{"city":"Birmingham","median household income":98344,"geo_score":0.957,"zip code":"48009","street":"Lincoln Street","id":"afabgthj6zue","geo_precision":"street","state":"Michigan"},"type":"Feature","geometry":{"type":"Point","coordinates":[-83.212429,42.538928]}},{"properties":{"city":"Canton","median household income":93750,"geo_score":1.0,"zip code":"48188","street":"Michigan Avenue","id":"afabgtdijfny","geo_precision":"street","state":"Michigan"},"type":"Feature","geometry":{"type":"Point","coordinates":[-83.430574,42.279519]}},{"properties":{"city":"Cheboygan","median household income":40658,"geo_score":1.0,"zip code":"49721","street":"Cleveland Avenue","id":"afabgtakq5md","geo_precision":"street","state":"Michigan"},"type":"Feature","geometry":{"type":"Point","coordinates":[-84.473795,45.641684]}},{"properties":{"city":"Detroit","median household income":23036,"geo_score":0.847,"zip code":"48207","street":"Lafayette","id":"afabgtb3g35n","geo_precision":"street","state":"Michigan"},"type":"Feature","geometry":{"type":"Point","coordinates":[-83.037354,42.335833]}},{"properties":{"city":"Detroit","median household income":23036,"geo_score":1.0,"zip code":"48209","street":"Clark Street","id":"afabgt8421ar","geo_precision":"street","state":"Michigan"},"type":"Feature","geometry":{"type":"Point","coordinates":[-83.090124,42.312325]}},{"properties":{"city":"Flint","median household income":28063,"geo_score":0.81,"zip code":"48532","street":"South Elms","id":"afabgt5vylm4","geo_precision":"street","state":"Michigan"},"type":"Feature","geometry":{"type":"Point","coordinates":[-83.812438,43.01886]}}],"is_temporal":false,"author":{"url":"","metadata":"","contact_name":"","contact_address":"","source":"","contact_phone":""},"source":"","pagination":{"sort":null,"start":0,"total":20,"limit":1000000},"state":"complete","tags":"arenas,hockey","published":"2013-06-24T16:00:00Z","id":371406}