{"type":"FeatureCollection","data_type":"Dataset","url_type":null,"permissions":[{"permissions":{"download":true,"view":true},"group_id":"everyone"}],"classification":null,"title":"Incidents of Lung Cancer","count":83,"stream_id":371811,"contributor":{"url":"http://geocommons.com/users/75775","name":"TaylorStro"},"data_attributes":null,"calculation_params":null,"icon_link":null,"link":"http://geocommons.com/overlays/371811.json","extent":[-122.289,30.3635,-72.3472,47.3647],"geometry_types":["point"],"unique_name":null,"name":"Incidents of Lung Cancer","feature_count":83,"description":"Incidents of lung cancer in counties in Michigan from 2005-2009. ","next_feature":null,"is_raster":false,"short_classification":"Y","stats":{"annual incidence rate":{"max":103.5,"variance":185.66246311352,"mean":69.9975609756098,"stdev":13.6258013750942,"median":70.2,"min":42.7},"fips":{"max":26165,"variance":2352.69135802469,"mean":26083.0,"stdev":48.5045498693132,"median":26085,"min":26001}},"features":[{"properties":{"rate period":"2005 - 2009","county":"Arenac County","geo_score":0.341,"average annual cases":"25","upper 95% confidence interval":"124.1","interval range":"82.3 - 103.5","annual incidence rate":103.5,"id":"afapvtvbw52z","lower 95% confidence interval":"85.9","geo_precision":"street","fips":26011,"state":"Michigan"},"type":"Feature","geometry":{"type":"Point","coordinates":[-122.276482,47.364739]}},{"properties":{"rate period":"2005 - 2009","county":"Lake County","geo_score":0.429,"average annual cases":"18","upper 95% confidence interval":"128.4","interval range":"82.3 - 103.5","annual incidence rate":102.9,"id":"afapvtoj081k","lower 95% confidence interval":"82.1","geo_precision":"street","fips":26085,"state":"Michigan"},"type":"Feature","geometry":{"type":"Point","coordinates":[-81.354851,41.159769]}},{"properties":{"rate period":"2005 - 2009","county":"Clare County","geo_score":0.417,"average annual cases":"43","upper 95% confidence interval":"108.9","interval range":"82.3 - 103.5","annual incidence rate":94.9,"id":"afapvtvb2iw7","lower 95% confidence interval":"82.4","geo_precision":"street","fips":26035,"state":"Michigan"},"type":"Feature","geometry":{"type":"Point","coordinates":[-86.392181,36.70418]}},{"properties":{"rate period":"2005 - 2009","county":"Baraga County","geo_score":0.363,"average annual cases":"10","upper 95% confidence interval":"125.1","interval range":"82.3 - 103.5","annual incidence rate":94.3,"id":"afapvtp8rwd3","lower 95% confidence interval":"69.9","geo_precision":"street","fips":26013,"state":"Michigan"},"type":"Feature","geometry":{"type":"Point","coordinates":[-75.979534,36.391118]}},{"properties":{"rate period":"2005 - 2009","county":"Wayne County","geo_score":0.452,"average annual cases":"1748","upper 95% confidence interval":"90","interval range":"82.3 - 103.5","annual incidence rate":88.1,"id":"afapvtwjgb9l","lower 95% confidence interval":"86.3","geo_precision":"street","fips":26163,"state":"Michigan"},"type":"Feature","geometry":{"type":"Point","coordinates":[-74.28244,40.921856]}},{"properties":{"rate period":"2005 - 2009","county":"Jackson County","geo_score":0.296,"average annual cases":"156","upper 95% confidence interval":"94.4","interval range":"82.3 - 103.5","annual incidence rate":88.0,"id":"afapvtw1xo8u","lower 95% confidence interval":"81.9","geo_precision":"street","fips":26075,"state":"Michigan"},"type":"Feature","geometry":{"type":"Point","coordinates":[-122.276482,47.364739]}},{"properties":{"rate period":"2005 - 2009","county":"Genesee County","geo_score":0.49,"average annual cases":"396","upper 95% confidence interval":"90.8","interval range":"82.3 - 103.5","annual incidence rate":86.8,"id":"afapvtzd6pve","lower 95% confidence interval":"83","geo_precision":"street","fips":26049,"state":"Michigan"},"type":"Feature","geometry":{"type":"Point","coordinates":[-105.305583,39.70802]}},{"properties":{"rate period":"2005 - 2009","county":"Montmorency County","geo_score":0.484,"average annual cases":"17","upper 95% confidence interval":"109.1","interval range":"82.3 - 103.5","annual incidence rate":86.5,"id":"afapvtpdetx4","lower 95% confidence interval":"68.8","geo_precision":"street","fips":26119,"state":"Michigan"},"type":"Feature","geometry":{"type":"Point","coordinates":[-78.738931,41.421257]}},{"properties":{"rate period":"2005 - 2009","county":"Wexford County","geo_score":0.296,"average annual cases":"33","upper 95% confidence interval":"100.9","interval range":"82.3 - 103.5","annual incidence rate":86.5,"id":"afapvtxnhvh1","lower 95% confidence interval":"73.8","geo_precision":"street","fips":26165,"state":"Michigan"},"type":"Feature","geometry":{"type":"Point","coordinates":[-122.276482,47.364739]}},{"properties":{"rate period":"2005 - 2009","county":"Ogemaw County","geo_score":0.308,"average annual cases":"29","upper 95% confidence interval":"101.6","interval range":"82.3 - 103.5","annual incidence rate":85.7,"id":"afapvtnoi4t4","lower 95% confidence interval":"72.1","geo_precision":"street","fips":26129,"state":"Michigan"},"type":"Feature","geometry":{"type":"Point","coordinates":[-122.276482,47.364739]}},{"properties":{"rate period":"2005 - 2009","county":"Newaygo County","geo_score":0.296,"average annual cases":"48","upper 95% confidence interval":"96.2","interval range":"82.3 - 103.5","annual incidence rate":84.6,"id":"afapvtnpblzs","lower 95% confidence interval":"74","geo_precision":"street","fips":26123,"state":"Michigan"},"type":"Feature","geometry":{"type":"Point","coordinates":[-122.276482,47.364739]}},{"properties":{"rate period":"2005 - 2009","county":"Tuscola County","geo_score":0.459,"average annual cases":"58","upper 95% confidence interval":"95","interval range":"82.3 - 103.5","annual incidence rate":84.5,"id":"afapvtmi6ikp","lower 95% confidence interval":"74.9","geo_precision":"street","fips":26157,"state":"Michigan"},"type":"Feature","geometry":{"type":"Point","coordinates":[-89.477797,32.571526]}},{"properties":{"rate period":"2005 - 2009","county":"Roscommon County","geo_score":0.491,"average annual cases":"41","upper 95% confidence interval":"98","interval range":"82.3 - 103.5","annual incidence rate":84.4,"id":"afapvu0c80fr","lower 95% confidence interval":"72.7","geo_precision":"street","fips":26143,"state":"Michigan"},"type":"Feature","geometry":{"type":"Point","coordinates":[-84.687702,44.511376]}},{"properties":{"rate period":"2005 - 2009","county":"Branch County","geo_score":0.473,"average annual cases":"44","upper 95% confidence interval":"95.7","interval range":"82.3 - 103.5","annual incidence rate":83.7,"id":"afapvtkpy40k","lower 95% confidence interval":"72.9","geo_precision":"street","fips":26023,"state":"Michigan"},"type":"Feature","geometry":{"type":"Point","coordinates":[-92.3808,30.36348]}},{"properties":{"rate period":"2005 - 2009","county":"Alpena County","geo_score":0.401,"average annual cases":"37","upper 95% confidence interval":"96.2","interval range":"82.3 - 103.5","annual incidence rate":82.9,"id":"afapvtw78if9","lower 95% confidence interval":"71.3","geo_precision":"street","fips":26007,"state":"Michigan"},"type":"Feature","geometry":{"type":"Point","coordinates":[-111.757733,40.478786]}},{"properties":{"rate period":"2005 - 2009","county":"Montcalm County","geo_score":0.404,"average annual cases":"55","upper 95% confidence interval":"92.9","interval range":"82.3 - 103.5","annual incidence rate":82.5,"id":"afapvtm8qpzo","lower 95% confidence interval":"73","geo_precision":"street","fips":26117,"state":"Michigan"},"type":"Feature","geometry":{"type":"Point","coordinates":[-72.347201,41.050564]}},{"properties":{"rate period":"2005 - 2009","county":"Osceola County","geo_score":0.49,"average annual cases":"24","upper 95% confidence interval":"98.7","interval range":"74.2 - 82.2","annual incidence rate":82.2,"id":"afapvtl04axl","lower 95% confidence interval":"68","geo_precision":"street","fips":26133,"state":"Michigan"},"type":"Feature","geometry":{"type":"Point","coordinates":[-86.074252,41.66477]}},{"properties":{"rate period":"2005 - 2009","county":"Bay County","geo_score":0.4,"average annual cases":"110","upper 95% confidence interval":"89.2","interval range":"74.2 - 82.2","annual incidence rate":82.0,"id":"afapvtyr6dz6","lower 95% confidence interval":"75.2","geo_precision":"street","fips":26017,"state":"Michigan"},"type":"Feature","geometry":{"type":"Point","coordinates":[-90.509116,35.747803]}},{"properties":{"rate period":"2005 - 2009","county":"Macomb County","geo_score":0.264,"average annual cases":"757","upper 95% confidence interval":"84.7","interval range":"74.2 - 82.2","annual incidence rate":82.0,"id":"afapvtogdsk9","lower 95% confidence interval":"79.4","geo_precision":"street","fips":26099,"state":"Michigan"},"type":"Feature","geometry":{"type":"Point","coordinates":[-122.276482,47.364739]}},{"properties":{"rate period":"2005 - 2009","county":"Gladwin County","geo_score":0.49,"average annual cases":"35","upper 95% confidence interval":"95","interval range":"74.2 - 82.2","annual incidence rate":81.2,"id":"afapvtlaff49","lower 95% confidence interval":"69.3","geo_precision":"street","fips":26051,"state":"Michigan"},"type":"Feature","geometry":{"type":"Point","coordinates":[-91.439471,41.361039]}},{"properties":{"rate period":"2005 - 2009","county":"Manistee County","geo_score":0.505,"average annual cases":"30","upper 95% confidence interval":"95.5","interval range":"74.2 - 82.2","annual incidence rate":80.8,"id":"afapvtqta65b","lower 95% confidence interval":"68.1","geo_precision":"street","fips":26101,"state":"Michigan"},"type":"Feature","geometry":{"type":"Point","coordinates":[-86.306517,44.234635]}},{"properties":{"rate period":"2005 - 2009","county":"Luce County","geo_score":0.416,"average annual cases":"7","upper 95% confidence interval":"111.8","interval range":"74.2 - 82.2","annual incidence rate":79.4,"id":"afapvts9lz80","lower 95% confidence interval":"55.2","geo_precision":"street","fips":26095,"state":"Michigan"},"type":"Feature","geometry":{"type":"Point","coordinates":[-81.322896,41.165825]}},{"properties":{"rate period":"2005 - 2009","county":"Schoolcraft County","geo_score":0.294,"average annual cases":"10","upper 95% confidence interval":"105.6","interval range":"74.2 - 82.2","annual incidence rate":79.4,"id":"afapvttp57sk","lower 95% confidence interval":"59.2","geo_precision":"street","fips":26153,"state":"Michigan"},"type":"Feature","geometry":{"type":"Point","coordinates":[-82.302819,39.396152]}},{"properties":{"rate period":"2005 - 2009","county":"Calhoun County","geo_score":0.49,"average annual cases":"123","upper 95% confidence interval":"84.8","interval range":"74.2 - 82.2","annual incidence rate":78.3,"id":"afapvtvpxlgp","lower 95% confidence interval":"72.2","geo_precision":"street","fips":26025,"state":"Michigan"},"type":"Feature","geometry":{"type":"Point","coordinates":[-82.833041,34.692864]}},{"properties":{"rate period":"2005 - 2009","county":"St. Clair County","geo_score":0.419,"average annual cases":"144","upper 95% confidence interval":"82.6","interval range":"74.2 - 82.2","annual incidence rate":76.7,"id":"afapvty5xymh","lower 95% confidence interval":"71.2","geo_precision":"street","fips":26147,"state":"Michigan"},"type":"Feature","geometry":{"type":"Point","coordinates":[-81.364909,41.14122]}},{"properties":{"rate period":"2005 - 2009","county":"Isabella County","geo_score":0.448,"average annual cases":"41","upper 95% confidence interval":"86.8","interval range":"74.2 - 82.2","annual incidence rate":75.6,"id":"afapvtw70hxo","lower 95% confidence interval":"65.5","geo_precision":"street","fips":26073,"state":"Michigan"},"type":"Feature","geometry":{"type":"Point","coordinates":[-83.837699,31.526204]}},{"properties":{"rate period":"2005 - 2009","county":"Ontonagon County","geo_score":0.518,"average annual cases":"10","upper 95% confidence interval":"103.8","interval range":"74.2 - 82.2","annual incidence rate":75.6,"id":"afapvtp2qomr","lower 95% confidence interval":"55.7","geo_precision":"street","fips":26131,"state":"Michigan"},"type":"Feature","geometry":{"type":"Point","coordinates":[-89.318626,46.875827]}},{"properties":{"rate period":"2005 - 2009","county":"Cheboygan County","geo_score":0.384,"average annual cases":"30","upper 95% confidence interval":"89","interval range":"74.2 - 82.2","annual incidence rate":75.5,"id":"afapvtvbbobb","lower 95% confidence interval":"63.8","geo_precision":"street","fips":26031,"state":"Michigan"},"type":"Feature","geometry":{"type":"Point","coordinates":[-86.059837,35.746068]}},{"properties":{"rate period":"2005 - 2009","county":"Chippewa County","geo_score":0.486,"average annual cases":"32","upper 95% confidence interval":"87.9","interval range":"74.2 - 82.2","annual incidence rate":75.2,"id":"afapvtm514g9","lower 95% confidence interval":"64","geo_precision":"street","fips":26033,"state":"Michigan"},"type":"Feature","geometry":{"type":"Point","coordinates":[-85.418241,38.769128]}},{"properties":{"rate period":"2005 - 2009","county":"Iosco County","geo_score":0.274,"average annual cases":"36","upper 95% confidence interval":"87.7","interval range":"74.2 - 82.2","annual incidence rate":75.1,"id":"afapvtq0j3b5","lower 95% confidence interval":"64.3","geo_precision":"street","fips":26069,"state":"Michigan"},"type":"Feature","geometry":{"type":"Point","coordinates":[-122.276482,47.364739]}},{"properties":{"rate period":"2005 - 2009","county":"Presque Isle County","geo_score":0.512,"average annual cases":"19","upper 95% confidence interval":"93.4","interval range":"74.2 - 82.2","annual incidence rate":75.1,"id":"afapvtyai4c8","lower 95% confidence interval":"60.3","geo_precision":"street","fips":26141,"state":"Michigan"},"type":"Feature","geometry":{"type":"Point","coordinates":[-83.489128,45.350035]}},{"properties":{"rate period":"2005 - 2009","county":"Saginaw County","geo_score":0.49,"average annual cases":"174","upper 95% confidence interval":"79.3","interval range":"74.2 - 82.2","annual incidence rate":74.2,"id":"afapvtyi37xn","lower 95% confidence interval":"69.3","geo_precision":"street","fips":26145,"state":"Michigan"},"type":"Feature","geometry":{"type":"Point","coordinates":[-83.970582,43.41009]}},{"properties":{"rate period":"2005 - 2009","county":"Cass County","geo_score":0.338,"average annual cases":"44","upper 95% confidence interval":"84.9","interval range":"66.8 - 74.1","annual incidence rate":74.1,"id":"afapvtnxtvt0","lower 95% confidence interval":"64.5","geo_precision":"street","fips":26027,"state":"Michigan"},"type":"Feature","geometry":{"type":"Point","coordinates":[-81.05193,33.974494]}},{"properties":{"rate period":"2005 - 2009","county":"Ionia County","geo_score":0.545,"average annual cases":"43","upper 95% confidence interval":"83.3","interval range":"66.8 - 74.1","annual incidence rate":72.7,"id":"afapvtprz25j","lower 95% confidence interval":"63.1","geo_precision":"street","fips":26067,"state":"Michigan"},"type":"Feature","geometry":{"type":"Point","coordinates":[-93.293723,38.506381]}},{"properties":{"rate period":"2005 - 2009","county":"Alger County","geo_score":0.488,"average annual cases":"10","upper 95% confidence interval":"96.5","interval range":"66.8 - 74.1","annual incidence rate":72.2,"id":"afapvtl37l4g","lower 95% confidence interval":"53.4","geo_precision":"street","fips":26003,"state":"Michigan"},"type":"Feature","geometry":{"type":"Point","coordinates":[-84.118952,44.124986]}},{"properties":{"rate period":"2005 - 2009","county":"Shiawassee County","geo_score":0.244,"average annual cases":"58","upper 95% confidence interval":"81.1","interval range":"66.8 - 74.1","annual incidence rate":72.2,"id":"afapvtuc0513","lower 95% confidence interval":"64","geo_precision":"street","fips":26155,"state":"Michigan"},"type":"Feature","geometry":{"type":"Point","coordinates":[-120.693916,45.193626]}},{"properties":{"rate period":"2005 - 2009","county":"Muskegon County","geo_score":0.476,"average annual cases":"135","upper 95% confidence interval":"77.8","interval range":"66.8 - 74.1","annual incidence rate":72.1,"id":"afapvtycc8n7","lower 95% confidence interval":"66.7","geo_precision":"street","fips":26121,"state":"Michigan"},"type":"Feature","geometry":{"type":"Point","coordinates":[-86.252634,43.23683]}},{"properties":{"rate period":"2005 - 2009","county":"Otsego County","geo_score":0.297,"average annual cases":"22","upper 95% confidence interval":"87.4","interval range":"66.8 - 74.1","annual incidence rate":72.1,"id":"afapvtt2whky","lower 95% confidence interval":"59.1","geo_precision":"street","fips":26137,"state":"Michigan"},"type":"Feature","geometry":{"type":"Point","coordinates":[-89.166855,43.352996]}},{"properties":{"rate period":"2005 - 2009","county":"Berrien County","geo_score":0.408,"average annual cases":"141","upper 95% confidence interval":"77.4","interval range":"66.8 - 74.1","annual incidence rate":71.8,"id":"afapvtnmeyuj","lower 95% confidence interval":"66.6","geo_precision":"street","fips":26021,"state":"Michigan"},"type":"Feature","geometry":{"type":"Point","coordinates":[-100.93967,46.380206]}},{"properties":{"rate period":"2005 - 2009","county":"Gratiot County","geo_score":0.49,"average annual cases":"33","upper 95% confidence interval":"83.7","interval range":"66.8 - 74.1","annual incidence rate":71.7,"id":"afapvtnaxp4q","lower 95% confidence interval":"61.2","geo_precision":"street","fips":26057,"state":"Michigan"},"type":"Feature","geometry":{"type":"Point","coordinates":[-90.023237,42.576361]}},{"properties":{"rate period":"2005 - 2009","county":"Mackinac County","geo_score":0.362,"average annual cases":"13","upper 95% confidence interval":"91.3","interval range":"66.8 - 74.1","annual incidence rate":70.2,"id":"afapvtmsuq8h","lower 95% confidence interval":"53.8","geo_precision":"street","fips":26097,"state":"Michigan"},"type":"Feature","geometry":{"type":"Point","coordinates":[-82.76605,37.133424]}},{"properties":{"rate period":"2005 - 2009","county":"Houghton County","geo_score":0.471,"average annual cases":"28","upper 95% confidence interval":"82.5","interval range":"66.8 - 74.1","annual incidence rate":69.5,"id":"afapvtygf4yn","lower 95% confidence interval":"58.2","geo_precision":"street","fips":26061,"state":"Michigan"},"type":"Feature","geometry":{"type":"Point","coordinates":[-88.647312,47.168698]}},{"properties":{"rate period":"2005 - 2009","county":"Mason County","geo_score":0.452,"average annual cases":"28","upper 95% confidence interval":"81.7","interval range":"66.8 - 74.1","annual incidence rate":68.9,"id":"afapvtxjna89","lower 95% confidence interval":"57.8","geo_precision":"street","fips":26105,"state":"Michigan"},"type":"Feature","geometry":{"type":"Point","coordinates":[-82.041533,39.00311]}},{"properties":{"rate period":"2005 - 2009","county":"Van Buren County","geo_score":0.509,"average annual cases":"59","upper 95% confidence interval":"77.1","interval range":"66.8 - 74.1","annual incidence rate":68.7,"id":"afapvtucw3iv","lower 95% confidence interval":"61","geo_precision":"street","fips":26159,"state":"Michigan"},"type":"Feature","geometry":{"type":"Point","coordinates":[-79.381467,42.446143]}},{"properties":{"rate period":"2005 - 2009","county":"St. Joseph County","geo_score":0.411,"average annual cases":"47","upper 95% confidence interval":"78","interval range":"66.8 - 74.1","annual incidence rate":68.6,"id":"afapvtudsjxb","lower 95% confidence interval":"60","geo_precision":"street","fips":26149,"state":"Michigan"},"type":"Feature","geometry":{"type":"Point","coordinates":[-81.390928,41.160517]}},{"properties":{"rate period":"2005 - 2009","county":"Ingham County","geo_score":0.286,"average annual cases":"164","upper 95% confidence interval":"72.9","interval range":"66.8 - 74.1","annual incidence rate":68.0,"id":"afapvtozqbwu","lower 95% confidence interval":"63.4","geo_precision":"street","fips":26065,"state":"Michigan"},"type":"Feature","geometry":{"type":"Point","coordinates":[-82.383665,34.773292]}},{"properties":{"rate period":"2005 - 2009","county":"Marquette County","geo_score":0.491,"average annual cases":"51","upper 95% confidence interval":"76.7","interval range":"66.8 - 74.1","annual incidence rate":67.7,"id":"afapvtm7qtkp","lower 95% confidence interval":"59.5","geo_precision":"street","fips":26103,"state":"Michigan"},"type":"Feature","geometry":{"type":"Point","coordinates":[-87.394492,46.525887]}},{"properties":{"rate period":"2005 - 2009","county":"Crawford County","geo_score":0.507,"average annual cases":"14","upper 95% confidence interval":"86.4","interval range":"66.8 - 74.1","annual incidence rate":67.5,"id":"afapvtvqga9g","lower 95% confidence interval":"52.3","geo_precision":"street","fips":26039,"state":"Michigan"},"type":"Feature","geometry":{"type":"Point","coordinates":[-87.713383,41.541654]}},{"properties":{"rate period":"2005 - 2009","county":"Oakland County","geo_score":0.52,"average annual cases":"842","upper 95% confidence interval":"69.3","interval range":"66.8 - 74.1","annual incidence rate":67.2,"id":"afapvtxl7l0o","lower 95% confidence interval":"65.2","geo_precision":"street","fips":26125,"state":"Michigan"},"type":"Feature","geometry":{"type":"Point","coordinates":[-79.955227,40.431725]}},{"properties":{"rate period":"2005 - 2009","county":"Monroe County","geo_score":0.473,"average annual cases":"108","upper 95% confidence interval":"72.7","interval range":"58.6 - 66.7","annual incidence rate":66.7,"id":"afapvtqstdb7","lower 95% confidence interval":"61.1","geo_precision":"street","fips":26115,"state":"Michigan"},"type":"Feature","geometry":{"type":"Point","coordinates":[-83.736418,33.842354]}},{"properties":{"rate period":"2005 - 2009","county":"Lapeer County","geo_score":0.374,"average annual cases":"64","upper 95% confidence interval":"74.4","interval range":"58.6 - 66.7","annual incidence rate":66.4,"id":"afapvtnc74y6","lower 95% confidence interval":"59.2","geo_precision":"street","fips":26087,"state":"Michigan"},"type":"Feature","geometry":{"type":"Point","coordinates":[-83.322833,43.03552]}},{"properties":{"rate period":"2005 - 2009","county":"Barry County","geo_score":0.44,"average annual cases":"43","upper 95% confidence interval":"76","interval range":"58.6 - 66.7","annual incidence rate":66.2,"id":"afapvtm9z05q","lower 95% confidence interval":"57.5","geo_precision":"street","fips":26015,"state":"Michigan"},"type":"Feature","geometry":{"type":"Point","coordinates":[-74.575197,39.357209]}},{"properties":{"rate period":"2005 - 2009","county":"Kalamazoo County","geo_score":0.545,"average annual cases":"158","upper 95% confidence interval":"70.8","interval range":"58.6 - 66.7","annual incidence rate":66.0,"id":"afapvtlp8qn6","lower 95% confidence interval":"61.5","geo_precision":"street","fips":26077,"state":"Michigan"},"type":"Feature","geometry":{"type":"Point","coordinates":[-85.598596,42.294207]}},{"properties":{"rate period":"2005 - 2009","county":"Allegan County","geo_score":0.487,"average annual cases":"77","upper 95% confidence interval":"72.6","interval range":"58.6 - 66.7","annual incidence rate":65.6,"id":"afapvtzqf3gx","lower 95% confidence interval":"59.1","geo_precision":"street","fips":26005,"state":"Michigan"},"type":"Feature","geometry":{"type":"Point","coordinates":[-85.859948,42.535644]}},{"properties":{"rate period":"2005 - 2009","county":"Emmet County","geo_score":0.429,"average annual cases":"28","upper 95% confidence interval":"75.3","interval range":"58.6 - 66.7","annual incidence rate":63.5,"id":"afapvtxvpvlh","lower 95% confidence interval":"53.3","geo_precision":"street","fips":26047,"state":"Michigan"},"type":"Feature","geometry":{"type":"Point","coordinates":[-82.122772,36.541503]}},{"properties":{"rate period":"2005 - 2009","county":"Hillsdale County","geo_score":0.562,"average annual cases":"35","upper 95% confidence interval":"73.7","interval range":"58.6 - 66.7","annual incidence rate":63.3,"id":"afapvtw3gos3","lower 95% confidence interval":"54.2","geo_precision":"street","fips":26059,"state":"Michigan"},"type":"Feature","geometry":{"type":"Point","coordinates":[-74.0649,41.003667]}},{"properties":{"rate period":"2005 - 2009","county":"Missaukee County","geo_score":0.304,"average annual cases":"13","upper 95% confidence interval":"81.5","interval range":"58.6 - 66.7","annual incidence rate":63.1,"id":"afapvtnc7ibc","lower 95% confidence interval":"48.3","geo_precision":"street","fips":26113,"state":"Michigan"},"type":"Feature","geometry":{"type":"Point","coordinates":[-86.252634,43.23683]}},{"properties":{"rate period":"2005 - 2009","county":"Iron County","geo_score":0.351,"average annual cases":"13","upper 95% confidence interval":"81.8","interval range":"58.6 - 66.7","annual incidence rate":62.5,"id":"afapvtx4t07s","lower 95% confidence interval":"47.5","geo_precision":"street","fips":26071,"state":"Michigan"},"type":"Feature","geometry":{"type":"Point","coordinates":[-73.655842,44.895042]}},{"properties":{"rate period":"2005 - 2009","county":"Gogebic County","geo_score":0.296,"average annual cases":"16","upper 95% confidence interval":"78.2","interval range":"58.6 - 66.7","annual incidence rate":62.0,"id":"afapvtydu0mv","lower 95% confidence interval":"48.9","geo_precision":"street","fips":26053,"state":"Michigan"},"type":"Feature","geometry":{"type":"Point","coordinates":[-122.276482,47.364739]}},{"properties":{"rate period":"2005 - 2009","county":"Charlevoix County","geo_score":0.269,"average annual cases":"22","upper 95% confidence interval":"75","interval range":"58.6 - 66.7","annual incidence rate":61.8,"id":"afapvu0o4924","lower 95% confidence interval":"50.7","geo_precision":"street","fips":26029,"state":"Michigan"},"type":"Feature","geometry":{"type":"Point","coordinates":[-122.276482,47.364739]}},{"properties":{"rate period":"2005 - 2009","county":"Oscoda County","geo_score":0.473,"average annual cases":"9","upper 95% confidence interval":"84","interval range":"58.6 - 66.7","annual incidence rate":61.1,"id":"afapvu0w7tx3","lower 95% confidence interval":"44.2","geo_precision":"street","fips":26135,"state":"Michigan"},"type":"Feature","geometry":{"type":"Point","coordinates":[-83.335591,44.451679]}},{"properties":{"rate period":"2005 - 2009","county":"Huron County","geo_score":0.452,"average annual cases":"32","upper 95% confidence interval":"71.2","interval range":"58.6 - 66.7","annual incidence rate":60.6,"id":"afapvtxuscpq","lower 95% confidence interval":"51.4","geo_precision":"street","fips":26063,"state":"Michigan"},"type":"Feature","geometry":{"type":"Point","coordinates":[-82.556242,41.391269]}},{"properties":{"rate period":"2005 - 2009","county":"Kent County","geo_score":0.468,"average annual cases":"329","upper 95% confidence interval":"63.6","interval range":"58.6 - 66.7","annual incidence rate":60.5,"id":"afapvtkze4xa","lower 95% confidence interval":"57.6","geo_precision":"street","fips":26081,"state":"Michigan"},"type":"Feature","geometry":{"type":"Point","coordinates":[-122.276482,47.364739]}},{"properties":{"rate period":"2005 - 2009","county":"Mecosta County","geo_score":0.327,"average annual cases":"30","upper 95% confidence interval":"70.8","interval range":"58.6 - 66.7","annual incidence rate":60.1,"id":"afapvtzjg4fh","lower 95% confidence interval":"50.8","geo_precision":"street","fips":26107,"state":"Michigan"},"type":"Feature","geometry":{"type":"Point","coordinates":[-122.276482,47.364739]}},{"properties":{"rate period":"2005 - 2009","county":"Lenawee County","geo_score":0.327,"average annual cases":"68","upper 95% confidence interval":"66.4","interval range":"58.6 - 66.7","annual incidence rate":59.7,"id":"afapvtvm3d0t","lower 95% confidence interval":"53.4","geo_precision":"street","fips":26091,"state":"Michigan"},"type":"Feature","geometry":{"type":"Point","coordinates":[-122.276482,47.364739]}},{"properties":{"rate period":"2005 - 2009","county":"Alcona County","geo_score":0.473,"average annual cases":"14","upper 95% confidence interval":"78.1","interval range":"58.6 - 66.7","annual incidence rate":59.5,"id":"afapvts6yfaf","lower 95% confidence interval":"45.9","geo_precision":"street","fips":26001,"state":"Michigan"},"type":"Feature","geometry":{"type":"Point","coordinates":[-82.518784,42.627979]}},{"properties":{"rate period":"2005 - 2009","county":"Sanilac County","geo_score":0.286,"average annual cases":"33","upper 95% confidence interval":"68.4","interval range":"42.7 - 58.5","annual incidence rate":58.5,"id":"afapvtlfwxly","lower 95% confidence interval":"49.8","geo_precision":"street","fips":26151,"state":"Michigan"},"type":"Feature","geometry":{"type":"Point","coordinates":[-122.276482,47.364739]}},{"properties":{"rate period":"2005 - 2009","county":"Grand Traverse County","geo_score":0.449,"average annual cases":"58","upper 95% confidence interval":"65.6","interval range":"42.7 - 58.5","annual incidence rate":58.4,"id":"afapvtslj4wt","lower 95% confidence interval":"51.9","geo_precision":"street","fips":26055,"state":"Michigan"},"type":"Feature","geometry":{"type":"Point","coordinates":[-85.834837,44.78969]}},{"properties":{"rate period":"2005 - 2009","county":"Delta County","geo_score":0.429,"average annual cases":"30","upper 95% confidence interval":"67.6","interval range":"42.7 - 58.5","annual incidence rate":57.2,"id":"afapvtznsstf","lower 95% confidence interval":"48.2","geo_precision":"street","fips":26041,"state":"Michigan"},"type":"Feature","geometry":{"type":"Point","coordinates":[-90.503219,35.665887]}},{"properties":{"rate period":"2005 - 2009","county":"Washtenaw County","geo_score":0.304,"average annual cases":"155","upper 95% confidence interval":"58.9","interval range":"42.7 - 58.5","annual incidence rate":54.8,"id":"afapvtyddxil","lower 95% confidence interval":"50.9","geo_precision":"street","fips":26161,"state":"Michigan"},"type":"Feature","geometry":{"type":"Point","coordinates":[-122.276482,47.364739]}},{"properties":{"rate period":"2005 - 2009","county":"Livingston County","geo_score":0.504,"average annual cases":"93","upper 95% confidence interval":"60.1","interval range":"42.7 - 58.5","annual incidence rate":54.7,"id":"afapvtkwzuhm","lower 95% confidence interval":"49.7","geo_precision":"street","fips":26093,"state":"Michigan"},"type":"Feature","geometry":{"type":"Point","coordinates":[-89.76429,38.97123]}},{"properties":{"rate period":"2005 - 2009","county":"Midland County","geo_score":0.5,"average annual cases":"50","upper 95% confidence interval":"61.3","interval range":"42.7 - 58.5","annual incidence rate":54.1,"id":"afapvtrcuhui","lower 95% confidence interval":"47.6","geo_precision":"street","fips":26111,"state":"Michigan"},"type":"Feature","geometry":{"type":"Point","coordinates":[-97.334044,37.590678]}},{"properties":{"rate period":"2005 - 2009","county":"Eaton County","geo_score":0.452,"average annual cases":"62","upper 95% confidence interval":"60.4","interval range":"42.7 - 58.5","annual incidence rate":54.0,"id":"afapvttei06f","lower 95% confidence interval":"48.1","geo_precision":"street","fips":26045,"state":"Michigan"},"type":"Feature","geometry":{"type":"Point","coordinates":[-122.289025,47.364388]}},{"properties":{"rate period":"2005 - 2009","county":"Oceana County","geo_score":0.44,"average annual cases":"18","upper 95% confidence interval":"64.3","interval range":"42.7 - 58.5","annual incidence rate":52.0,"id":"afapvtqlw0zp","lower 95% confidence interval":"41.6","geo_precision":"street","fips":26127,"state":"Michigan"},"type":"Feature","geometry":{"type":"Point","coordinates":[-120.616913,35.100161]}},{"properties":{"rate period":"2005 - 2009","county":"Benzie County","geo_score":0.341,"average annual cases":"12","upper 95% confidence interval":"64.1","interval range":"42.7 - 58.5","annual incidence rate":49.4,"id":"afapvttxh5eb","lower 95% confidence interval":"37.6","geo_precision":"street","fips":26019,"state":"Michigan"},"type":"Feature","geometry":{"type":"Point","coordinates":[-122.276482,47.364739]}},{"properties":{"rate period":"2005 - 2009","county":"Menominee County","geo_score":0.491,"average annual cases":"17","upper 95% confidence interval":"59.5","interval range":"42.7 - 58.5","annual incidence rate":47.8,"id":"afapvtosgw2w","lower 95% confidence interval":"38","geo_precision":"street","fips":26109,"state":"Michigan"},"type":"Feature","geometry":{"type":"Point","coordinates":[-90.645275,42.491769]}},{"properties":{"rate period":"2005 - 2009","county":"Clinton County","geo_score":0.51,"average annual cases":"33","upper 95% confidence interval":"53.5","interval range":"42.7 - 58.5","annual incidence rate":45.8,"id":"afapvtok74bt","lower 95% confidence interval":"39","geo_precision":"street","fips":26037,"state":"Michigan"},"type":"Feature","geometry":{"type":"Point","coordinates":[-73.762142,41.830179]}},{"properties":{"rate period":"2005 - 2009","county":"Dickinson County","geo_score":0.304,"average annual cases":"18","upper 95% confidence interval":"56.1","interval range":"42.7 - 58.5","annual incidence rate":45.3,"id":"afapvtpjd37a","lower 95% confidence interval":"36.3","geo_precision":"street","fips":26043,"state":"Michigan"},"type":"Feature","geometry":{"type":"Point","coordinates":[-122.276482,47.364739]}},{"properties":{"rate period":"2005 - 2009","county":"Leelanau County","geo_score":0.314,"average annual cases":"15","upper 95% confidence interval":"57.1","interval range":"42.7 - 58.5","annual incidence rate":44.8,"id":"afapvtyrzjpl","lower 95% confidence interval":"35","geo_precision":"street","fips":26089,"state":"Michigan"},"type":"Feature","geometry":{"type":"Point","coordinates":[-82.383665,34.773292]}},{"properties":{"rate period":"2005 - 2009","county":"Antrim County","geo_score":0.473,"average annual cases":"17","upper 95% confidence interval":"55.3","interval range":"42.7 - 58.5","annual incidence rate":44.2,"id":"afapvtstdxzk","lower 95% confidence interval":"35","geo_precision":"street","fips":26009,"state":"Michigan"},"type":"Feature","geometry":{"type":"Point","coordinates":[-77.29315,41.752326]}},{"properties":{"rate period":"2005 - 2009","county":"Kalkaska County","geo_score":0.505,"average annual cases":"10","upper 95% confidence interval":"59.1","interval range":"42.7 - 58.5","annual incidence rate":44.2,"id":"afapvtwank82","lower 95% confidence interval":"32.5","geo_precision":"street","fips":26079,"state":"Michigan"},"type":"Feature","geometry":{"type":"Point","coordinates":[-85.178041,44.738257]}},{"properties":{"rate period":"2005 - 2009","county":"Ottawa County","geo_score":0.44,"average annual cases":"101","upper 95% confidence interval":"46.6","interval range":"42.7 - 58.5","annual incidence rate":42.7,"id":"afapvu01iucd","lower 95% confidence interval":"39","geo_precision":"street","fips":26139,"state":"Michigan"},"type":"Feature","geometry":{"type":"Point","coordinates":[-88.856025,41.342877]}},{"properties":{"rate period":"2005 - 2009","county":"Keweenaw County","geo_score":0.352,"average annual cases":"3 or fewer","upper 95% confidence interval":"*","interval range":"*","annual incidence rate":"*","id":"afapvtyaj3wk","lower 95% confidence interval":"*","geo_precision":"street","fips":"26083","state":"Michigan"},"type":"Feature","geometry":{"type":"Point","coordinates":[-122.276482,47.364739]}}],"is_temporal":false,"author":{"url":"http://statecancerprofiles.cancer.gov/map/map.withimage.php?26&001&047&00&0&01&0&1&5&0#map","metadata":"http://statecancerprofiles.cancer.gov/map/scpMapDataTable.php?26&001&047&00&0&01&0&1&5&0","contact_name":"","contact_address":"","source":"National Cancer Institute, State Cancer Profiles","contact_phone":""},"source":"http://statecancerprofiles.cancer.gov/map/map.withimage.php?26&001&047&00&0&01&0&1&5&0#map","pagination":{"sort":null,"start":0,"total":83,"limit":1000000},"state":"complete","tags":"county","published":"2013-06-25T12:30:00Z","id":371811}