{"type":"FeatureCollection","data_type":"Dataset","url_type":null,"permissions":[{"permissions":{"download":true,"view":true},"group_id":"everyone"}],"classification":null,"title":"Graduation Rates by Michigan Counties","count":82,"stream_id":372209,"contributor":{"url":"http://geocommons.com/users/75755","name":"monicara"},"data_attributes":null,"calculation_params":null,"icon_link":null,"link":"http://geocommons.com/overlays/372209.json","extent":[-91.4374,41.8128,-82.5996,47.1399],"geometry_types":["point"],"unique_name":null,"name":"Graduation Rates by Michigan Counties","feature_count":82,"description":"The average graduation rate for each county in Michigan.  From the year 2007, information found in Detroit Free Press.","next_feature":null,"is_raster":false,"short_classification":"Y","stats":{"graduation rate":{"max":98,"variance":61.4394760614273,"mean":85.2317073170732,"stdev":7.83833375542451,"min":62,"median":86}},"features":[{"properties":{"graduation rate":84,"county":"Alcona","zip code":"48750","id":"afbacjrdazc3"},"type":"Feature","geometry":{"type":"Point","coordinates":[-83.444695,44.426682]}},{"properties":{"graduation rate":87,"county":"Alger","zip code":"49884","id":"afbacjsufkkk"},"type":"Feature","geometry":{"type":"Point","coordinates":[-86.277933,46.346631]}},{"properties":{"graduation rate":77,"county":"Allegan","zip code":"49423","id":"afback5xzju7"},"type":"Feature","geometry":{"type":"Point","coordinates":[-86.125875,42.796968]}},{"properties":{"graduation rate":86,"county":"Alpena","zip code":"49707","id":"afback3qm3qu"},"type":"Feature","geometry":{"type":"Point","coordinates":[-83.495091,45.033143]}},{"properties":{"graduation rate":98,"county":"Antrim","zip code":"49646","id":"afbacjrgya5w"},"type":"Feature","geometry":{"type":"Point","coordinates":[-85.051993,44.771675]}},{"properties":{"graduation rate":89,"county":"Arenac","zip code":"48658","id":"afbacjrlr32a"},"type":"Feature","geometry":{"type":"Point","coordinates":[-83.891099,43.929465]}},{"properties":{"graduation rate":72,"county":"Baraga","zip code":"49958","id":"afbacjw8xyqg"},"type":"Feature","geometry":{"type":"Point","coordinates":[-88.753191,46.768267]}},{"properties":{"graduation rate":95,"county":"Barry","zip code":"49333","id":"afbacjzrqqkq"},"type":"Feature","geometry":{"type":"Point","coordinates":[-85.516683,42.6567]}},{"properties":{"graduation rate":88,"county":"Bay","zip code":"48634","id":"afback0equlb"},"type":"Feature","geometry":{"type":"Point","coordinates":[-84.08721,43.753912]}},{"properties":{"graduation rate":85,"county":"Benzie","zip code":"49617","id":"afback3olq9y"},"type":"Feature","geometry":{"type":"Point","coordinates":[-86.002509,44.630634]}},{"properties":{"graduation rate":62,"county":"Berrien","zip code":"49022","id":"afback74t446"},"type":"Feature","geometry":{"type":"Point","coordinates":[-86.455855,42.086985]}},{"properties":{"graduation rate":96,"county":"Branch","zip code":"49036","id":"afbacjx2ycfh"},"type":"Feature","geometry":{"type":"Point","coordinates":[-84.986353,41.824216]}},{"properties":{"graduation rate":82,"county":"Calhoun","zip code":"49068","id":"afback3lswoa"},"type":"Feature","geometry":{"type":"Point","coordinates":[-84.948946,42.265016]}},{"properties":{"graduation rate":70,"county":"Cass","zip code":"49031","id":"afback3t6p2l"},"type":"Feature","geometry":{"type":"Point","coordinates":[-85.983061,41.895325]}},{"properties":{"graduation rate":84,"county":"Charlevoix","zip code":"49720","id":"afbacjy0ugk8"},"type":"Feature","geometry":{"type":"Point","coordinates":[-85.161451,45.352508]}},{"properties":{"graduation rate":95,"county":"Cheboygan","zip code":"49721","id":"afback1urbq6"},"type":"Feature","geometry":{"type":"Point","coordinates":[-84.464478,45.556956]}},{"properties":{"graduation rate":95,"county":"Chippewa","zip code":"49783","id":"afbacjtnfkgo"},"type":"Feature","geometry":{"type":"Point","coordinates":[-84.301425,46.462521]}},{"properties":{"graduation rate":96,"county":"Clare","zip code":"48617","id":"afbacjw7d03w"},"type":"Feature","geometry":{"type":"Point","coordinates":[-84.747796,43.887524]}},{"properties":{"graduation rate":90,"county":"Clinton","zip code":"48879","id":"afbacjxafbdj"},"type":"Feature","geometry":{"type":"Point","coordinates":[-84.581962,42.979673]}},{"properties":{"graduation rate":83,"county":"Crawford","zip code":"49738","id":"afbacjuv81p3"},"type":"Feature","geometry":{"type":"Point","coordinates":[-84.780032,44.657514]}},{"properties":{"graduation rate":97,"county":"Delta","zip code":"49829","id":"afbacjtwzgqn"},"type":"Feature","geometry":{"type":"Point","coordinates":[-87.057049,45.851343]}},{"properties":{"graduation rate":95,"county":"Dickinson","zip code":"54121","id":"afbacjzou0lx"},"type":"Feature","geometry":{"type":"Point","coordinates":[-88.139852,45.881899]}},{"properties":{"graduation rate":85,"county":"Eaton","zip code":"48827","id":"afback0ezzm3"},"type":"Feature","geometry":{"type":"Point","coordinates":[-84.571087,42.466426]}},{"properties":{"graduation rate":93,"county":"Emmet","zip code":"49740","id":"afbacjrxfdb6"},"type":"Feature","geometry":{"type":"Point","coordinates":[-84.986443,45.421954]}},{"properties":{"graduation rate":87,"county":"Genesee","zip code":"48473","id":"afback5icq1d"},"type":"Feature","geometry":{"type":"Point","coordinates":[-83.90996,42.928085]}},{"properties":{"graduation rate":85,"county":"Gladwin","zip code":"48624","id":"afbacjqwnxby"},"type":"Feature","geometry":{"type":"Point","coordinates":[-84.407787,44.088076]}},{"properties":{"graduation rate":73,"county":"Gogebic","zip code":"54847","id":"afbacjtn2ktk"},"type":"Feature","geometry":{"type":"Point","coordinates":[-91.437437,46.599552]}},{"properties":{"graduation rate":94,"county":"Grand Traverse","zip code":"49685","id":"afbacjtkftey"},"type":"Feature","geometry":{"type":"Point","coordinates":[-85.575147,44.816178]}},{"properties":{"graduation rate":92,"county":"Gratiot","zip code":"48801","id":"afback23cc5w"},"type":"Feature","geometry":{"type":"Point","coordinates":[-84.63017,43.298805]}},{"properties":{"graduation rate":73,"county":"Hillsdale","zip code":"49242","id":"afback4ppmx9"},"type":"Feature","geometry":{"type":"Point","coordinates":[-84.691346,41.897825]}},{"properties":{"graduation rate":84,"county":"Houghton","zip code":"49930","id":"afbacjs7zr9v"},"type":"Feature","geometry":{"type":"Point","coordinates":[-88.573178,47.139927]}},{"properties":{"graduation rate":93,"county":"Huron","zip code":"48413","id":"afback1wrb5s"},"type":"Feature","geometry":{"type":"Point","coordinates":[-82.881051,43.805848]}},{"properties":{"graduation rate":75,"county":"Ingham","zip code":"48823","id":"afback0r9kfd"},"type":"Feature","geometry":{"type":"Point","coordinates":[-84.503527,42.737334]}},{"properties":{"graduation rate":80,"county":"Ionia","zip code":"48846","id":"afback6fsc7m"},"type":"Feature","geometry":{"type":"Point","coordinates":[-85.06945,42.968922]}},{"properties":{"graduation rate":77,"county":"Iosco","zip code":"48750","id":"afbacjz5umyt"},"type":"Feature","geometry":{"type":"Point","coordinates":[-83.444695,44.426682]}},{"properties":{"graduation rate":88,"county":"Iron","zip code":"49920","id":"afbacjt8kffa"},"type":"Feature","geometry":{"type":"Point","coordinates":[-88.376197,46.143009]}},{"properties":{"graduation rate":75,"county":"Isabella","zip code":"48858","id":"afback5k1f1x"},"type":"Feature","geometry":{"type":"Point","coordinates":[-84.668344,43.59753]}},{"properties":{"graduation rate":83,"county":"Jackson","zip code":"49203","id":"afbacjsjwgfv"},"type":"Feature","geometry":{"type":"Point","coordinates":[-84.391066,42.193371]}},{"properties":{"graduation rate":85,"county":"Kalamazoo","zip code":"49009","id":"afbacjvqaa10"},"type":"Feature","geometry":{"type":"Point","coordinates":[-85.592635,42.299211]}},{"properties":{"graduation rate":86,"county":"Kalkaska","zip code":"49646","id":"afbacjwcwjco"},"type":"Feature","geometry":{"type":"Point","coordinates":[-85.051993,44.771675]}},{"properties":{"graduation rate":90,"county":"Kent","zip code":"49341","id":"afbacjy03dw2"},"type":"Feature","geometry":{"type":"Point","coordinates":[-85.551631,43.132429]}},{"properties":{"graduation rate":68,"county":"Lake","zip code":"49304","id":"afbacjw0f0r1"},"type":"Feature","geometry":{"type":"Point","coordinates":[-85.837564,44.006677]}},{"properties":{"graduation rate":82,"county":"Lapeer","zip code":"48446","id":"afback3g6x4f"},"type":"Feature","geometry":{"type":"Point","coordinates":[-83.439948,43.036416]}},{"properties":{"graduation rate":95,"county":"Leelanau","zip code":"49653","id":"afbacjst73e5"},"type":"Feature","geometry":{"type":"Point","coordinates":[-85.736199,44.980451]}},{"properties":{"graduation rate":70,"county":"Lenawee","zip code":"49221","id":"afbacjs51jmu"},"type":"Feature","geometry":{"type":"Point","coordinates":[-84.041056,41.812827]}},{"properties":{"graduation rate":80,"county":"Livingston","zip code":"48843","id":"afback2ilzye"},"type":"Feature","geometry":{"type":"Point","coordinates":[-83.861613,42.526978]}},{"properties":{"graduation rate":88,"county":"Luce","zip code":"49868","id":"afbacjrozb09"},"type":"Feature","geometry":{"type":"Point","coordinates":[-85.363433,46.303336]}},{"properties":{"graduation rate":95,"county":"Mackinac","zip code":"49745","id":"afbacju5aphd"},"type":"Feature","geometry":{"type":"Point","coordinates":[-84.42845,46.021715]}},{"properties":{"graduation rate":86,"county":"Macomb","zip code":"48042","id":"afbacjy2h1ot"},"type":"Feature","geometry":{"type":"Point","coordinates":[-82.916262,42.673476]}},{"properties":{"graduation rate":88,"county":"Manistee","zip code":"49660","id":"afback7auf3b"},"type":"Feature","geometry":{"type":"Point","coordinates":[-86.301533,45.980527]}},{"properties":{"graduation rate":94,"county":"Marquette","zip code":"49855","id":"afback3kumss"},"type":"Feature","geometry":{"type":"Point","coordinates":[-87.354307,46.494657]}},{"properties":{"graduation rate":91,"county":"Mason","zip code":"49431","id":"afbacjqz0bpe"},"type":"Feature","geometry":{"type":"Point","coordinates":[-86.466751,43.97806]}},{"properties":{"graduation rate":80,"county":"Mecosta","zip code":"49307","id":"afbacjuu07cl"},"type":"Feature","geometry":{"type":"Point","coordinates":[-85.402822,43.770855]}},{"properties":{"graduation rate":80,"county":"Menominee","zip code":"54104","id":"afback1cejzr"},"type":"Feature","geometry":{"type":"Point","coordinates":[-88.246901,45.420602]}},{"properties":{"graduation rate":91,"county":"Midland","zip code":"48642","id":"afback1pus3x"},"type":"Feature","geometry":{"type":"Point","coordinates":[-84.409165,43.589195]}},{"properties":{"graduation rate":88,"county":"Missaukee","zip code":"49651","id":"afbacjsarbgz"},"type":"Feature","geometry":{"type":"Point","coordinates":[-85.075044,44.451677]}},{"properties":{"graduation rate":84,"county":"Monroe","zip code":"48161","id":"afbacjxgz92k"},"type":"Feature","geometry":{"type":"Point","coordinates":[-83.39271,41.857268]}},{"properties":{"graduation rate":90,"county":"Montcalm","zip code":"48888","id":"afbacjz87lbz"},"type":"Feature","geometry":{"type":"Point","coordinates":[-85.243914,43.31392]}},{"properties":{"graduation rate":89,"county":"Montmorency","zip code":"49709","id":"afbacjwxbgdh"},"type":"Feature","geometry":{"type":"Point","coordinates":[-84.208065,45.171956]}},{"properties":{"graduation rate":84,"county":"Muskegon","zip code":"49442","id":"afbacjurfsws"},"type":"Feature","geometry":{"type":"Point","coordinates":[-86.109778,43.254739]}},{"properties":{"graduation rate":91,"county":"Newaygo","zip code":"49349","id":"afback2kgez8"},"type":"Feature","geometry":{"type":"Point","coordinates":[-85.797989,43.611483]}},{"properties":{"graduation rate":94,"county":"Oakland","zip code":"48371","id":"afbacjqw3190"},"type":"Feature","geometry":{"type":"Point","coordinates":[-83.339754,42.772209]}},{"properties":{"graduation rate":90,"county":"Oceana","zip code":"49420","id":"afbacjsibm6k"},"type":"Feature","geometry":{"type":"Point","coordinates":[-86.237574,43.773897]}},{"properties":{"graduation rate":78,"county":"Ogemaw","zip code":"48661","id":"afback63qd30"},"type":"Feature","geometry":{"type":"Point","coordinates":[-84.067219,44.313074]}},{"properties":{"graduation rate":94,"county":"Ontonagon","zip code":"49953","id":"afbacjw26udg"},"type":"Feature","geometry":{"type":"Point","coordinates":[-89.439869,46.837444]}},{"properties":{"graduation rate":85,"county":"Osceola","zip code":"49631","id":"afbacjr0h882"},"type":"Feature","geometry":{"type":"Point","coordinates":[-85.302063,43.958084]}},{"properties":{"graduation rate":80,"county":"Oscoda","zip code":"48647","id":"afbacjsi7peo"},"type":"Feature","geometry":{"type":"Point","coordinates":[-84.130006,44.710291]}},{"properties":{"graduation rate":85,"county":"Otsego","zip code":"49735","id":"afback4lj88x"},"type":"Feature","geometry":{"type":"Point","coordinates":[-84.69253,44.916958]}},{"properties":{"graduation rate":83,"county":"Ottawa","zip code":"49404","id":"afback5p5u59"},"type":"Feature","geometry":{"type":"Point","coordinates":[-85.959758,43.062122]}},{"properties":{"graduation rate":90,"county":"Presque Isle","zip code":"49779","id":"afbacjzp9uk1"},"type":"Feature","geometry":{"type":"Point","coordinates":[-83.786662,45.408903]}},{"properties":{"graduation rate":85,"county":"Roscommon","zip code":"48629","id":"afbacju16d3s"},"type":"Feature","geometry":{"type":"Point","coordinates":[-84.804753,44.406682]}},{"properties":{"graduation rate":77,"county":"Saginaw","zip code":"48601","id":"afback44pzmt"},"type":"Feature","geometry":{"type":"Point","coordinates":[-83.791912,43.407246]}},{"properties":{"graduation rate":90,"county":"Sanilac","zip code":"48422","id":"afback6hd06s"},"type":"Feature","geometry":{"type":"Point","coordinates":[-82.644104,43.252807]}},{"properties":{"graduation rate":72,"county":"Schoolcraft","zip code":"49854","id":"afbacjxerqu2"},"type":"Feature","geometry":{"type":"Point","coordinates":[-86.330419,45.904974]}},{"properties":{"graduation rate":87,"county":"Shiawassee","zip code":"48429","id":"afback6z6sz4"},"type":"Feature","geometry":{"type":"Point","coordinates":[-84.02596,42.894936]}},{"properties":{"graduation rate":94,"county":"St. Clair","zip code":"48079","id":"afbacjr260qf"},"type":"Feature","geometry":{"type":"Point","coordinates":[-82.59964,42.866419]}},{"properties":{"graduation rate":86,"county":"St. Joseph","zip code":"49032","id":"afbacjynev1d"},"type":"Feature","geometry":{"type":"Point","coordinates":[-85.461654,41.940883]}},{"properties":{"graduation rate":68,"county":"Tuscola","zip code":"48726","id":"afbacjyi2wct"},"type":"Feature","geometry":{"type":"Point","coordinates":[-83.078278,43.661683]}},{"properties":{"graduation rate":84,"county":"Van Buren","zip code":"49079","id":"afbacjyh64e3"},"type":"Feature","geometry":{"type":"Point","coordinates":[-85.956409,42.302815]}},{"properties":{"graduation rate":87,"county":"Washtenaw","zip code":"48105","id":"afbacjrcwy2b"},"type":"Feature","geometry":{"type":"Point","coordinates":[-83.65605,42.31226]}},{"properties":{"graduation rate":87,"county":"Wayne","zip code":"48127","id":"afback06n1kt"},"type":"Feature","geometry":{"type":"Point","coordinates":[-83.273929,42.334386]}},{"properties":{"graduation rate":75,"county":"Wexford","zip code":"49663","id":"afback0mmd50"},"type":"Feature","geometry":{"type":"Point","coordinates":[-85.468268,44.412765]}}],"is_temporal":false,"author":{"url":"http://www.detroitnews.com/article/20080825/SPECIAL01/80825002","metadata":"http://www.detroitnews.com/article/20080825/SPECIAL01/80825002","contact_name":"","contact_address":"","source":"Detroit Free Press","contact_phone":""},"source":"http://www.detroitnews.com/article/20080825/SPECIAL01/80825002","pagination":{"sort":null,"start":0,"total":82,"limit":1000000},"state":"complete","tags":"counties,graduation,michigan,rate","published":"2013-06-26T16:00:00Z","id":372209}