{"type":"FeatureCollection","data_type":"Dataset","url_type":null,"permissions":[{"permissions":{"download":true,"view":true},"group_id":"everyone"}],"classification":null,"title":"Test1","count":23,"stream_id":372471,"contributor":{"url":"http://geocommons.com/users/76290","name":"dfpeace"},"data_attributes":null,"calculation_params":null,"icon_link":null,"link":"http://geocommons.com/overlays/372471.json","extent":[-114.599,32.178,-110.912,35.2187],"geometry_types":["point"],"unique_name":null,"name":"Test1","feature_count":23,"description":"","next_feature":null,"is_raster":false,"short_classification":"Y","stats":{},"features":[{"properties":{"name":"IN-N-OUT Burger - Avondale","city":"Avondale","zip":"85323","sales":"High","geo_score":0.947,"segment":"Active","id":"afbrk7xg2clk","address":"1525 Dysart Road","geo_precision":"range","state":"AZ"},"type":"Feature","geometry":{"type":"Point","coordinates":[-112.341024,33.446062]}},{"properties":{"name":"IN-N-OUT Burger - Casa Grande","city":"Casa Grande","zip":"85294","sales":"Medium","geo_score":0.39,"segment":"Active","id":"afbrk8b3sxil","address":"873 N Promenade Pkwy","geo_precision":"street","state":"AZ"},"type":"Feature","geometry":{"type":"Point","coordinates":[-111.661398,32.761843]}},{"properties":{"name":"IN-N-OUT Burger - Chandler","city":"Chandler","zip":"85224","sales":"Medium","geo_score":0.711,"segment":"Active","id":"afbrk80rhns6","address":"2790 W Chandler","geo_precision":"street","state":"AZ"},"type":"Feature","geometry":{"type":"Point","coordinates":[-111.885203,33.305929]}},{"properties":{"name":"IN-N-OUT Burger - Chandler","city":"Chandler","zip":"85249","sales":"High","geo_score":0.902,"segment":"Active","id":"afbrk80ionvq","address":"2910 E Germann Rd","geo_precision":"range","state":"AZ"},"type":"Feature","geometry":{"type":"Point","coordinates":[-111.790184,33.277428]}},{"properties":{"name":"IN-N-OUT Burger - Chandler","city":"Chandler","zip":"85226","sales":"High","geo_score":1.0,"segment":"Active","id":"afbrk84tmqz9","address":"7050 W Ray Road","geo_precision":"range","state":"AZ"},"type":"Feature","geometry":{"type":"Point","coordinates":[-111.96726,33.319986]}},{"properties":{"name":"IN-N-OUT Burger - Gilbert","city":"Gilbert","zip":"85296","sales":"Low","geo_score":0.537,"segment":"Active","id":"afbrk8a1onfz","address":"2449 S Market St","geo_precision":"street","state":"AZ"},"type":"Feature","geometry":{"type":"Point","coordinates":[-111.88414,33.27715]}},{"properties":{"name":"IN-N-OUT Burger - Kingman","city":"Kingman","zip":"86409","sales":"Low","geo_score":0.669,"segment":"Passive","id":"afbrk8au74ey","address":"1770 E Beverly Ave","geo_precision":"street","state":"AZ"},"type":"Feature","geometry":{"type":"Point","coordinates":[-114.035534,35.218652]}},{"properties":{"name":"IN-N-OUT Burger - Lake Havasu","city":"Lake Havasu","zip":"86403","sales":"High","geo_score":0.915,"segment":"Passive","id":"afbrk81zcm7b","address":"81-101 London Bridge Rd","geo_precision":"range","state":"AZ"},"type":"Feature","geometry":{"type":"Point","coordinates":[-114.348111,34.473629]}},{"properties":{"name":"IN-N-OUT Burger - Marana","city":"Marana","zip":"85743","sales":"High","geo_score":0.708,"segment":"Passive","id":"afbrk82ng0mu","address":"8180 Cortaro Rd","geo_precision":"street","state":"AZ"},"type":"Feature","geometry":{"type":"Point","coordinates":[-111.109385,32.342857]}},{"properties":{"name":"IN-N-OUT Burger - Mesa","city":"Mesa","zip":"85210","sales":"Medium","geo_score":1.0,"segment":"Passive","id":"afbrk85i1waa","address":"1342 S Alma School Rd","geo_precision":"range","state":"AZ"},"type":"Feature","geometry":{"type":"Point","coordinates":[-111.857395,33.388628]}},{"properties":{"name":"IN-N-OUT Burger - Mesa","city":"Mesa","zip":"85204","sales":"Low","geo_score":0.927,"segment":"Passive","id":"afbrk83ast3z","address":"1650 S Stapley","geo_precision":"range","state":"AZ"},"type":"Feature","geometry":{"type":"Point","coordinates":[-111.805617,33.385648]}},{"properties":{"name":"IN-N-OUT Burger - Mesa","city":"Mesa","zip":"85209","sales":"Medium","geo_score":0.472,"segment":"Passive","id":"afbrk83r1yod","address":"1859 S Signal Butte Rd","geo_precision":"street","state":"AZ"},"type":"Feature","geometry":{"type":"Point","coordinates":[-111.91304,33.367815]}},{"properties":{"name":"IN-N-OUT Burger - Peoria","city":"Peoria","zip":"85382","sales":"Low","geo_score":0.813,"segment":"Passive","id":"afbrk87a36zd","address":"8285 W Bell Rd","geo_precision":"street","state":"AZ"},"type":"Feature","geometry":{"type":"Point","coordinates":[-112.236927,33.638163]}},{"properties":{"name":"IN-N-OUT Burger - Phoenix","city":"Phoenix","zip":"85027","sales":"Low","geo_score":0.941,"segment":"Passive","id":"afbrk7z1pc7u","address":"19407 N 27th Avenue","geo_precision":"range","state":"AZ"},"type":"Feature","geometry":{"type":"Point","coordinates":[-112.117121,33.662686]}},{"properties":{"name":"IN-N-OUT Burger - Phoenix","city":"Phoenix","zip":"85050","sales":"Medium","geo_score":1.0,"segment":"Aggressive","id":"afbrk86dsm0o","address":"21001 N Tatum Blvd","geo_precision":"range","state":"AZ"},"type":"Feature","geometry":{"type":"Point","coordinates":[-111.977289,33.678473]}},{"properties":{"name":"IN-N-OUT Burger - Phoenix","city":"Phoenix","zip":"85086","sales":"Medium","geo_score":0.713,"segment":"Aggressive","id":"afbrk87vire8","address":"34850 N Valley Pkwy","geo_precision":"street","state":"AZ"},"type":"Feature","geometry":{"type":"Point","coordinates":[-112.129225,33.798386]}},{"properties":{"name":"IN-N-OUT Burger - Phoenix","city":"Phoenix","zip":"85037","sales":"Medium","geo_score":1.0,"segment":"Aggressive","id":"afbrk8bofvb1","address":"9585 W Camelback Rd","geo_precision":"range","state":"AZ"},"type":"Feature","geometry":{"type":"Point","coordinates":[-112.2647,33.508455]}},{"properties":{"name":"IN-N-OUT Burger - Prescott","city":"Prescott","zip":"86301","sales":"Medium","geo_score":0.902,"segment":"Aggressive","id":"afbrk85yxwob","address":"3040 E Hwy 69","geo_precision":"range","state":"AZ"},"type":"Feature","geometry":{"type":"Point","coordinates":[-112.409011,34.551508]}},{"properties":{"name":"IN-N-OUT Burger - Scottsdale","city":"Scottsdale","zip":"85257","sales":"Low","geo_score":0.746,"segment":"Aggressive","id":"afbrk8cx8du9","address":"7467 E Frank Lloyd Wright","geo_precision":"range","state":"AZ"},"type":"Feature","geometry":{"type":"Point","coordinates":[-111.919825,33.636835]}},{"properties":{"name":"IN-N-OUT Burger - Tempe","city":"Tempe","zip":"85281","sales":"Medium","geo_score":0.452,"segment":"Aggressive","id":"afbrk871c90o","address":"920 E Playa Del Norte","geo_precision":"street","state":"AZ"},"type":"Feature","geometry":{"type":"Point","coordinates":[-111.888438,33.377978]}},{"properties":{"name":"IN-N-OUT Burger - Tucson","city":"Tucson","zip":"85701","sales":"Medium","geo_score":0.805,"segment":"Aggressive","id":"afbrk86nfw8e","address":"1979 E Ajo Way","geo_precision":"range","state":"AZ"},"type":"Feature","geometry":{"type":"Point","coordinates":[-110.942541,32.177966]}},{"properties":{"name":"IN-N-OUT Burger - Tucson","city":"Tucson","zip":"85716","sales":"Low","geo_score":1.0,"segment":"Aggressive","id":"afbrk833hvf5","address":"3711 E Broadway Blvd","geo_precision":"range","state":"AZ"},"type":"Feature","geometry":{"type":"Point","coordinates":[-110.911819,32.221644]}},{"properties":{"name":"IN-N-OUT Burger - Yuma","city":"Yuma","zip":"85365","sales":"Medium","geo_score":0.741,"segment":"Aggressive","id":"afbrk86txnlx","address":"1940 E 16th St","geo_precision":"street","state":"AZ"},"type":"Feature","geometry":{"type":"Point","coordinates":[-114.598961,32.698575]}}],"is_temporal":false,"author":{"url":"","metadata":"","contact_name":"","contact_address":"","source":"","contact_phone":""},"source":"","pagination":{"sort":null,"start":0,"total":23,"limit":1000000},"state":"complete","tags":"","published":"2014-08-16T16:53:46-04:00","id":372471}