{"type":"FeatureCollection","data_type":"Dataset","url_type":null,"permissions":[{"permissions":{"download":true,"view":true},"group_id":"everyone"}],"classification":null,"title":"Hep_Heat_Map","count":60,"stream_id":374741,"contributor":{"url":"http://geocommons.com/users/76867","name":"Stevocheng"},"data_attributes":null,"calculation_params":null,"icon_link":null,"link":"http://geocommons.com/overlays/374741.json","extent":[-122.691,40.6994,-112.089,47.6062],"geometry_types":["point"],"unique_name":null,"name":"Hep_Heat_Map","feature_count":60,"description":"","next_feature":null,"is_raster":false,"short_classification":"Y","stats":{},"features":[{"properties":{"city":"Seattle","geo_score":0.857,"zip code":"98174","id":"afhw62lxe1h9","geo_precision":"zip","state":"WA","gi/hepatologist":"Zia"},"type":"Feature","geometry":{"type":"Point","coordinates":[-121.803388,47.432251]}},{"properties":{"city":"Seattle","geo_score":0.857,"zip code":"98175","id":"afhw62psocgo","geo_precision":"zip","state":"WA","gi/hepatologist":"Surawicz"},"type":"Feature","geometry":{"type":"Point","coordinates":[-122.332071,47.60621]}},{"properties":{"city":"Seattle","geo_score":0.857,"zip code":"98176","id":"afhw62brenuk","geo_precision":"zip","state":"WA","gi/hepatologist":"Scott"},"type":"Feature","geometry":{"type":"Point","coordinates":[-122.332071,47.60621]}},{"properties":{"city":"Seattle","geo_score":0.857,"zip code":"98177","id":"afhw62r68xbk","geo_precision":"zip","state":"WA","gi/hepatologist":"Paski"},"type":"Feature","geometry":{"type":"Point","coordinates":[-121.803388,47.432251]}},{"properties":{"city":"Seattle","geo_score":0.857,"zip code":"98178","id":"afhw62fzgdp6","geo_precision":"zip","state":"WA","gi/hepatologist":"Dominitz"},"type":"Feature","geometry":{"type":"Point","coordinates":[-122.235856,47.492385]}},{"properties":{"city":"Seattle","geo_score":0.857,"zip code":"98179","id":"afhw62e1mf1b","geo_precision":"zip","state":"WA","gi/hepatologist":"Hwang"},"type":"Feature","geometry":{"type":"Point","coordinates":[-122.332071,47.60621]}},{"properties":{"city":"Seattle","geo_score":0.857,"zip code":"98180","id":"afhw62lwjhwt","geo_precision":"zip","state":"WA","gi/hepatologist":"Lai"},"type":"Feature","geometry":{"type":"Point","coordinates":[-122.332071,47.60621]}},{"properties":{"city":"Seattle","geo_score":0.857,"zip code":"98181","id":"afhw62lnv2ud","geo_precision":"zip","state":"WA","gi/hepatologist":"Wohlman"},"type":"Feature","geometry":{"type":"Point","coordinates":[-121.803388,47.432251]}},{"properties":{"city":"Seattle","geo_score":0.857,"zip code":"98182","id":"afhw62pg0u67","geo_precision":"zip","state":"WA","gi/hepatologist":"Kozarek"},"type":"Feature","geometry":{"type":"Point","coordinates":[-122.332071,47.60621]}},{"properties":{"city":"Seattle","geo_score":0.857,"zip code":"98183","id":"afhw62g28n1k","geo_precision":"zip","state":"WA","gi/hepatologist":"Murakami"},"type":"Feature","geometry":{"type":"Point","coordinates":[-122.332071,47.60621]}},{"properties":{"city":"Seattle","geo_score":0.857,"zip code":"98184","id":"afhw62bh8l1x","geo_precision":"zip","state":"WA","gi/hepatologist":"Ness"},"type":"Feature","geometry":{"type":"Point","coordinates":[-121.803388,47.432251]}},{"properties":{"city":"Seattle","geo_score":0.857,"zip code":"98185","id":"afhw62ehwa23","geo_precision":"zip","state":"WA","gi/hepatologist":"Procaccinni"},"type":"Feature","geometry":{"type":"Point","coordinates":[-121.803388,47.432251]}},{"properties":{"city":"Seattle","geo_score":0.857,"zip code":"98186","id":"afhw62km1jva","geo_precision":"zip","state":"WA","gi/hepatologist":"Chiorean"},"type":"Feature","geometry":{"type":"Point","coordinates":[-122.332071,47.60621]}},{"properties":{"city":"Seattle","geo_score":0.857,"zip code":"98187","id":"afhw62g1qkme","geo_precision":"zip","state":"WA","gi/hepatologist":"Saunders"},"type":"Feature","geometry":{"type":"Point","coordinates":[-122.332071,47.60621]}},{"properties":{"city":"Seattle","geo_score":0.857,"zip code":"98188","id":"afhw62lnyyyq","geo_precision":"zip","state":"WA","gi/hepatologist":"Zisman"},"type":"Feature","geometry":{"type":"Point","coordinates":[-121.803388,47.432251]}},{"properties":{"city":"Seattle","geo_score":0.857,"zip code":"98189","id":"afhw62l9lhne","geo_precision":"zip","state":"WA","gi/hepatologist":"Lee"},"type":"Feature","geometry":{"type":"Point","coordinates":[-122.332071,47.60621]}},{"properties":{"city":"Seattle","geo_score":0.857,"zip code":"98190","id":"afhw62fi38xh","geo_precision":"zip","state":"WA","gi/hepatologist":"Heitkemper"},"type":"Feature","geometry":{"type":"Point","coordinates":[-121.803388,47.432251]}},{"properties":{"city":"Seattle","geo_score":0.857,"zip code":"98191","id":"afhw62f9vfp4","geo_precision":"zip","state":"WA","gi/hepatologist":"Cox North"},"type":"Feature","geometry":{"type":"Point","coordinates":[-121.803388,47.432251]}},{"properties":{"city":"Seattle","geo_score":0.857,"zip code":"98192","id":"afhw62n4dfjw","geo_precision":"zip","state":"WA","gi/hepatologist":"Shuhart"},"type":"Feature","geometry":{"type":"Point","coordinates":[-122.332071,47.60621]}},{"properties":{"city":"Seattle","geo_score":0.857,"zip code":"98193","id":"afhw62ibere3","geo_precision":"zip","state":"WA","gi/hepatologist":"Landis"},"type":"Feature","geometry":{"type":"Point","coordinates":[-122.332071,47.60621]}},{"properties":{"city":"Seattle","geo_score":0.857,"zip code":"98194","id":"afhw62iun8dw","geo_precision":"zip","state":"WA","gi/hepatologist":"Inadomi"},"type":"Feature","geometry":{"type":"Point","coordinates":[-122.332071,47.60621]}},{"properties":{"city":"Seattle","geo_score":0.857,"zip code":"98195","id":"afhw62giyzas","geo_precision":"zip","state":"WA","gi/hepatologist":"Bhattacharya"},"type":"Feature","geometry":{"type":"Point","coordinates":[-121.803388,47.432251]}},{"properties":{"city":"Seattle","geo_score":0.857,"zip code":"98195","id":"afhw62dmywx5","geo_precision":"zip","state":"WA","gi/hepatologist":"Yu"},"type":"Feature","geometry":{"type":"Point","coordinates":[-121.803388,47.432251]}},{"properties":{"city":"Seattle","geo_score":0.857,"zip code":"98195","id":"afhw62pvx84m","geo_precision":"zip","state":"WA","gi/hepatologist":"Kowdley"},"type":"Feature","geometry":{"type":"Point","coordinates":[-121.803388,47.432251]}},{"properties":{"city":"Seattle","geo_score":0.857,"zip code":"98195","id":"afhw62pp2wwl","geo_precision":"zip","state":"WA","gi/hepatologist":"Shah"},"type":"Feature","geometry":{"type":"Point","coordinates":[-121.803388,47.432251]}},{"properties":{"city":"Seattle","geo_score":0.857,"zip code":"98195","id":"afhw62jltrnp","geo_precision":"zip","state":"WA","gi/hepatologist":"Kanwar"},"type":"Feature","geometry":{"type":"Point","coordinates":[-121.803388,47.432251]}},{"properties":{"city":"Seattle","geo_score":0.857,"zip code":"98195","id":"afhw62oko098","geo_precision":"zip","state":"WA","gi/hepatologist":"Carithers"},"type":"Feature","geometry":{"type":"Point","coordinates":[-121.803388,47.432251]}},{"properties":{"city":"Seattle","geo_score":0.857,"zip code":"98195","id":"afhw62dytdb5","geo_precision":"zip","state":"WA","gi/hepatologist":"Liao"},"type":"Feature","geometry":{"type":"Point","coordinates":[-121.803388,47.432251]}},{"properties":{"city":"Seattle","geo_score":0.857,"zip code":"98195","id":"afhw62b4xll6","geo_precision":"zip","state":"WA","gi/hepatologist":"Alexander"},"type":"Feature","geometry":{"type":"Point","coordinates":[-121.803388,47.432251]}},{"properties":{"city":"Seattle","geo_score":0.857,"zip code":"98195","id":"afhw62nntavb","geo_precision":"zip","state":"WA","gi/hepatologist":"Morrison"},"type":"Feature","geometry":{"type":"Point","coordinates":[-121.803388,47.432251]}},{"properties":{"city":"Seattle","geo_score":0.857,"zip code":"98195","id":"afhw62pbstiv","geo_precision":"zip","state":"WA","gi/hepatologist":"Ioannou"},"type":"Feature","geometry":{"type":"Point","coordinates":[-121.803388,47.432251]}},{"properties":{"city":"Seattle","geo_score":0.857,"zip code":"98195","id":"afhw62iq59fb","geo_precision":"zip","state":"WA","gi/hepatologist":"Larson"},"type":"Feature","geometry":{"type":"Point","coordinates":[-121.803388,47.432251]}},{"properties":{"city":"Seattle","geo_score":0.857,"zip code":"98195","id":"afhw62qihjmj","geo_precision":"zip","state":"WA","gi/hepatologist":"Aranda Michel"},"type":"Feature","geometry":{"type":"Point","coordinates":[-121.803388,47.432251]}},{"properties":{"city":"Seattle","geo_score":0.857,"zip code":"98195","id":"afhw62jpeiez","geo_precision":"zip","state":"WA","gi/hepatologist":"M.Morrison"},"type":"Feature","geometry":{"type":"Point","coordinates":[-121.803388,47.432251]}},{"properties":{"city":"Seattle","geo_score":0.857,"zip code":"98195","id":"afhw62bq6uvc","geo_precision":"zip","state":"WA","gi/hepatologist":"Patel"},"type":"Feature","geometry":{"type":"Point","coordinates":[-121.803388,47.432251]}},{"properties":{"city":"Portland","geo_score":0.857,"zip code":"97239","id":"afhw62c2xdxn","geo_precision":"zip","state":"OR","gi/hepatologist":"Zaman"},"type":"Feature","geometry":{"type":"Point","coordinates":[-122.691267,45.488178]}},{"properties":{"city":"Portland","geo_score":0.857,"zip code":"97239","id":"afhw62opdpfv","geo_precision":"zip","state":"OR","gi/hepatologist":"Ahn"},"type":"Feature","geometry":{"type":"Point","coordinates":[-122.691267,45.488178]}},{"properties":{"city":"Portland","geo_score":0.857,"zip code":"97239","id":"afhw62g690pg","geo_precision":"zip","state":"OR","gi/hepatologist":"Jou"},"type":"Feature","geometry":{"type":"Point","coordinates":[-122.691267,45.488178]}},{"properties":{"city":"Portland","geo_score":0.857,"zip code":"97239","id":"afhw62e32ayb","geo_precision":"zip","state":"OR","gi/hepatologist":"Chang"},"type":"Feature","geometry":{"type":"Point","coordinates":[-122.691267,45.488178]}},{"properties":{"city":"Portland","geo_score":0.857,"zip code":"97239","id":"afhw62bp926t","geo_precision":"zip","state":"OR","gi/hepatologist":"Sasaki"},"type":"Feature","geometry":{"type":"Point","coordinates":[-122.691267,45.488178]}},{"properties":{"city":"Portland","geo_score":0.857,"zip code":"97239","id":"afhw62p1mv7a","geo_precision":"zip","state":"OR","gi/hepatologist":"Naugler"},"type":"Feature","geometry":{"type":"Point","coordinates":[-122.691267,45.488178]}},{"properties":{"city":"Portland","geo_score":0.857,"zip code":"97239","id":"afhw62b2dupj","geo_precision":"zip","state":"OR","gi/hepatologist":"Ingram"},"type":"Feature","geometry":{"type":"Point","coordinates":[-122.691267,45.488178]}},{"properties":{"city":"Portland","geo_score":0.857,"zip code":"97239","id":"afhw62glr9ab","geo_precision":"zip","state":"OR","gi/hepatologist":"Voukidis"},"type":"Feature","geometry":{"type":"Point","coordinates":[-122.691267,45.488178]}},{"properties":{"city":"Portland","geo_score":0.857,"zip code":"97239","id":"afhw62ce1s5d","geo_precision":"zip","state":"OR","gi/hepatologist":"Vallejos"},"type":"Feature","geometry":{"type":"Point","coordinates":[-122.691267,45.488178]}},{"properties":{"city":"Portland","geo_score":0.857,"zip code":"97239","id":"afhw62h2tr4p","geo_precision":"zip","state":"OR","gi/hepatologist":"Holden"},"type":"Feature","geometry":{"type":"Point","coordinates":[-122.691267,45.488178]}},{"properties":{"city":"Portland","geo_score":0.857,"zip code":"97239","id":"afhw62ii9wf7","geo_precision":"zip","state":"OR","gi/hepatologist":"Benner"},"type":"Feature","geometry":{"type":"Point","coordinates":[-122.691267,45.488178]}},{"properties":{"city":"Portland","geo_score":0.857,"zip code":"97239","id":"afhw62r0822t","geo_precision":"zip","state":"OR","gi/hepatologist":"Flora"},"type":"Feature","geometry":{"type":"Point","coordinates":[-122.691267,45.488178]}},{"properties":{"city":"Portland","geo_score":0.857,"zip code":"97239","id":"afhw62gx1w12","geo_precision":"zip","state":"OR","gi/hepatologist":"Maciolek"},"type":"Feature","geometry":{"type":"Point","coordinates":[-122.691267,45.488178]}},{"properties":{"city":"Salt Lake City","geo_score":0.857,"zip code":"84044","id":"afhw62r5crvt","geo_precision":"zip","state":"UT","gi/hepatologist":"Thomason"},"type":"Feature","geometry":{"type":"Point","coordinates":[-112.088875,40.699401]}},{"properties":{"city":"Salt Lake City","geo_score":0.857,"zip code":"84044","id":"afhw62h6ahdi","geo_precision":"zip","state":"UT","gi/hepatologist":"Box"},"type":"Feature","geometry":{"type":"Point","coordinates":[-112.088875,40.699401]}},{"properties":{"city":"Salt Lake City","geo_score":0.857,"zip code":"84044","id":"afhw62bdw8al","geo_precision":"zip","state":"UT","gi/hepatologist":"Gallegos"},"type":"Feature","geometry":{"type":"Point","coordinates":[-112.088875,40.699401]}},{"properties":{"city":"Salt Lake City","geo_score":0.857,"zip code":"84044","id":"afhw62orr2u8","geo_precision":"zip","state":"UT","gi/hepatologist":"Harmston"},"type":"Feature","geometry":{"type":"Point","coordinates":[-112.088875,40.699401]}},{"properties":{"city":"Salt Lake City","geo_score":0.857,"zip code":"84044","id":"afhw62d3yc3h","geo_precision":"zip","state":"UT","gi/hepatologist":"Jones"},"type":"Feature","geometry":{"type":"Point","coordinates":[-112.088875,40.699401]}},{"properties":{"city":"Salt Lake City","geo_score":0.857,"zip code":"84044","id":"afhw62epjlqw","geo_precision":"zip","state":"UT","gi/hepatologist":"Boschert"},"type":"Feature","geometry":{"type":"Point","coordinates":[-112.088875,40.699401]}},{"properties":{"city":"Salt Lake City","geo_score":0.857,"zip code":"84044","id":"afhw62hay2g8","geo_precision":"zip","state":"UT","gi/hepatologist":"Lynch"},"type":"Feature","geometry":{"type":"Point","coordinates":[-112.088875,40.699401]}},{"properties":{"city":"Salt Lake City","geo_score":0.857,"zip code":"84044","id":"afhw62dvrigh","geo_precision":"zip","state":"UT","gi/hepatologist":"Stevens"},"type":"Feature","geometry":{"type":"Point","coordinates":[-112.088875,40.699401]}},{"properties":{"city":"Twin falls","geo_score":0.857,"zip code":"83301","id":"afhw62d907lz","geo_precision":"zip","state":"ID","gi/hepatologist":"Berk"},"type":"Feature","geometry":{"type":"Point","coordinates":[-114.575039,42.353244]}},{"properties":{"city":"Tacoma","geo_score":0.857,"zip code":"98401","id":"afhw62kmkmlh","geo_precision":"zip","state":"WA","gi/hepatologist":"Oh"},"type":"Feature","geometry":{"type":"Point","coordinates":[-122.444335,47.253671]}},{"properties":{"city":"Tacoma","geo_score":0.857,"zip code":"98401","id":"afhw62drgrdo","geo_precision":"zip","state":"WA","gi/hepatologist":"Hendricx"},"type":"Feature","geometry":{"type":"Point","coordinates":[-122.444335,47.253671]}},{"properties":{"city":"Tacoma","geo_score":0.857,"zip code":"98401","id":"afhw62jsyq9z","geo_precision":"zip","state":"WA","gi/hepatologist":"Morton"},"type":"Feature","geometry":{"type":"Point","coordinates":[-122.444335,47.253671]}}],"is_temporal":false,"author":{"url":"","metadata":null,"contact_name":null,"contact_address":null,"source":null,"contact_phone":null},"source":"","pagination":{"sort":null,"start":0,"total":60,"limit":1000000},"state":"complete","tags":"","published":"2014-08-16T19:55:08-04:00","id":374741}