{"type":"FeatureCollection","data_type":"Dataset","url_type":null,"permissions":[{"permissions":{"download":true,"view":true},"group_id":"everyone"}],"classification":null,"title":"Infrastructure_Australia_Priority_List","count":16,"stream_id":375847,"contributor":{"url":"http://geocommons.com/users/77151","name":"Frau_Hoy"},"data_attributes":null,"calculation_params":null,"icon_link":null,"link":"http://geocommons.com/overlays/375847.json","extent":[0.0,0.0,0.0,0.0],"geometry_types":null,"unique_name":null,"name":"Infrastructure_Australia_Priority_List","feature_count":16,"description":"","next_feature":null,"is_raster":false,"short_classification":"Y","features":[{"properties":{"capital cost estimate by project proponent":"$6.4 billion","rating":"Ready to proceed","postcode":"2322","contribution sought":"$5.12 billion","project":"Pacific Highway Corridor Upgrade","column_9":"","project start":"2012","project completion":"2016","id":"afmevhxg3sk3","state":"NSW"},"type":"Feature","geometry":null},{"properties":{"capital cost estimate by project proponent":"$200 million","rating":"Threshold","postcode":"2259","contribution sought":"$100 million","project":"F3 Widening Tuggerah to Doyalson","column_9":"","project start":"2014/15","project completion":"TBC","id":"afmevhnb5vwq","state":"NSW"},"type":"Feature","geometry":null},{"properties":{"capital cost estimate by project proponent":"$196 million","rating":"Threshold","postcode":"870","contribution sought":"$126.6 million","project":"Tanami Road","column_9":"","project start":"Jul-14","project completion":"Jun-19","id":"afmevhohh174","state":"NT"},"type":"Feature","geometry":null},{"properties":{"capital cost estimate by project proponent":"$116 million","rating":"Threshold","postcode":"4000","contribution sought":"$116 million","project":"Brisbane Transit Ways","column_9":"","project start":"TBC","project completion":"","id":"afmevhkmrc1n","state":"QLD"},"type":"Feature","geometry":null},{"properties":{"capital cost estimate by project proponent":"$1,300 million","rating":"Threshold","postcode":"4014","contribution sought":"$1263 million","project":"Gateway Upgrade North","column_9":"","project start":"2014","project completion":"2017","id":"afmevhu6qleg","state":"QLD"},"type":"Feature","geometry":null},{"properties":{"capital cost estimate by project proponent":"$558 million","rating":"Threshold","postcode":"4305","contribution sought":"$558 million","project":"Ipswich Motorway Rocklea to Darra","column_9":"","project start":"2016","project completion":"2019","id":"afmevhl01nby","state":"QLD"},"type":"Feature","geometry":null},{"properties":{"capital cost estimate by project proponent":"$4445 million","rating":"Ready to proceed","postcode":"4105","contribution sought":"$3334 million","project":"Cross River Rail","column_9":"","project start":"","project completion":"2020 earliest deliver (for core project)","id":"afmevhw6x8a2","state":"QLD"},"type":"Feature","geometry":null},{"properties":{"capital cost estimate by project proponent":"$350 million","rating":"Treshold","postcode":"5000","contribution sought":"$174.3 million","project":"East West Bus Corridor","column_9":"","project start":"2014","project completion":"2018","id":"afmevhidrj8m","state":"SA"},"type":"Feature","geometry":null},{"properties":{"capital cost estimate by project proponent":"$1104 million","rating":"Threshold","postcode":"5550","contribution sought":"$552 million","project":"Northern Connector","column_9":"","project start":"2017/18","project completion":"2020/21","id":"afmevhl6ynhy","state":"SA"},"type":"Feature","geometry":null},{"properties":{"capital cost estimate by project proponent":"$1050 million","rating":"Treshold","postcode":"3088","contribution sought":"Not provided","project":"M80","column_9":"","project start":"2013","project completion":"2017","id":"afmevhp29whe","state":"VIC"},"type":"Feature","geometry":null},{"properties":{"capital cost estimate by project proponent":"$9-$11 billion","rating":"Treshold","postcode":"3051","contribution sought":"Not provided","project":"Melbourne Metro","column_9":"","project start":"Jan-15","project completion":"Jul-22","id":"afmevhosg4ku","state":"VIC"},"type":"Feature","geometry":null},{"properties":{"capital cost estimate by project proponent":"$19.7 million","rating":"Ready to proceed","postcode":"3205","contribution sought":"$19.7 million (Additional funding sought for ongoing maintenance and operating costs of 7.5 per cent per annum of captial cost plus escalation)","project":"National Managed Motorways High St to Warrigal Rd","column_9":"","project start":"2013","project completion":"2015","id":"afmevhueyqxh","state":"VIC"},"type":"Feature","geometry":null},{"properties":{"capital cost estimate by project proponent":"$137.1 million","rating":"Ready to proceed","postcode":"3168","contribution sought":"137.1 million (Additional funding sought for ongoing maintenance and operating costs of 7.5 per cent per annum of captial cost plus escalation)","project":"National Managed Motorways Warrigal Rd to Clyde Rd","column_9":"","project start":"TBC","project completion":"TBC","id":"afmevhsry2x0","state":"VIC"},"type":"Feature","geometry":null},{"properties":{"capital cost estimate by project proponent":"$361 million","rating":"Treshold","postcode":"6501","contribution sought":"$288.9 million","project":"Great Northern Highway Muchea to Wubin Brief","column_9":"","project start":"2014","project completion":"2018","id":"afmevhjdu842","state":"WA"},"type":"Feature","geometry":null},{"properties":{"capital cost estimate by project proponent":"$100 million","rating":"Treshold","postcode":"6160","contribution sought":"$57.2 million","project":"Leach Highway Fremantle Upgrade","column_9":"","project start":"2015","project completion":"2016","id":"afmevhxt8qz1","state":"WA"},"type":"Feature","geometry":null},{"properties":{"capital cost estimate by project proponent":"$179 million","rating":"Treshold","postcode":"6530","contribution sought":"143.2 million","project":"North West Coastal Highway Brief","column_9":"","project start":"2014","project completion":"2016","id":"afmevhwcklw0","state":"WA"},"type":"Feature","geometry":null}],"is_temporal":false,"author":{"url":"","metadata":null,"contact_name":null,"contact_address":null,"source":null,"contact_phone":null},"source":"","pagination":{"sort":null,"start":0,"total":16,"limit":1000000},"state":"parsed","tags":"","published":"2014-08-16T21:19:56-04:00","id":375847}